~Version Information
 VERS.                2.00:   CWLS log ASCII Standard -VERSION 2.00
 WRAP.                  NO:   One line per frame
~Well Information Block
#MNEM.UNIT              Data                Description
#--------- -------------------------------  -------------------------------
 STRT.F                          936.0000:   Starting Depth
 STOP.F                          -23.7500:   Ending Depth
 STEP.F                           -0.5000:   Level Spacing
 NULL.                          -999.2500:   Absent Value
 COMP.     FLUOR DANIEL (NPSOR), INC.    :   Company
 WELL.     34-1 X 14                     :   Well
 FLD .     N.P.R. NO.3                   :   Field
 LOC .     2516' FNL & 1946' FWL         :   Location
 PROV.                                   :   Province
 SRVC.                                   :   Service Company
 LIC .                                   :   License Number
 DATE.     10-DEC-94                     :   Log Date
 UWI .                                   :   Unique Well ID
~Curve Information Block
#MNEM.UNIT       API Codes    Curve Description
#---------    -------------   -------------------------------
 DEPT.F        0   0  0  0:   Depth
 CILD.MMHO     0   0  0  0:   Conductivity of Deep Induction
 GR  .API      0   0  0  0:   Gamma ray counts
 TEN .LBF      0   0  0  0:   Differential Tension
 RILM.OHMM     0   0  0  0:   Resistivity from CILM
 RILD.OHMM     0   0  0  0:   Resistivity from CILD
~Parameter Information Block
#MNEM.UNIT              Value             Description
#---------    -------------------------   -------------------------------
 APIN.        4902522678              :   API Serial Number
 COUN.        NATRONA                 :   County
 STAT.        WYOMING                 :   State Or Province
 SECT.        14                      :   Section
 TOWN.        38N                     :   Township
 RANG.        78W                     :   Range
 PDAT.        GROUND LEVEL            :   Permanent Datum
 EPD .FT      5260'                   :   Elevation Of Perm. Datum
 LMF .        K.B.                    :   Log Measured From
 FAPD.FT      10'                     :   Feet Above Perm. Datum
 DMF .        KELLY BUSHING           :   Drilling Measured From
 EKB .FT      5270'                   :   Elevation Of Kelly Bushing
 EDF .FT      5269'                   :   Elevation Of Derrick Floor
 EGL .FT      5260'                   :   Elevation Of Ground Level
 OS1 .        NONE                    :   Other Services Line 1
 SON .        92572                   :   Service Order Number
 DD  .FT      920'                    :   Depth Driller
 DL  .FT      916'                    :   Depth Logger
 BLI .FT      910'                    :   Bottom Log Interval
 TLI .FT      SURF                    :   Top Log Interval
 CSIZ.IN      9 5/8                   :   Casing Size
 CBD1.FT      58'                     :   Casing Bottom (Driller) 1
 CBL1.FT      59'                     :   Casing Bottom (Logger) 1
 BS  .IN      12.25                   :   Bit Size
 BHF .        AIR                     :   Borehole Fluid
 FDEN.LB/G    *                       :   Fluid Density
 DFV .S       *                       :   Drilling Fluid Viscosity
 DFPH.        *                       :   Drilling Fluid Ph
 DFL .FT3     *                       :   Drilling Fluid Loss
 MSS .        *                       :   Mud Sample Source
 RMS .MMHO    *                       :   Resistivity Of Mud Sample
 MST .DEGF    *                       :   Mud Sample Temperature
 RMF .MMHO    *                       :   Mud Filtrate Resistivity
 MFST.DEGF    *                       :   Mud Filtrate Sample Temperature
 RMC .MMHO    *                       :   Mud Cake Resistivity
 MCST.DEGF    *                       :   Mud Cake Sample Temperature
 MFSS.        *                       :   Mud Filtrate Sample Source
 MCSS.        *                       :   Mud Cake Sample Source
 RMB .MMHO    *                       :   Mud Resistivity At Bht
 BHT .DEGF    *                       :   Bottom Hole Temperature
 TCS .HOUR    *                       :   Time Circulation Stopped
 MRT .DEGF    94 F                    :   Maximum Recorded Temperature
 LUN .        HL 6274                 :   Logging Unit Number
 LUL .        CASPER                  :   Logging Unit Location
 ENGI.        KRANKER                 :   Engineer'S Name
 WITN.        G. STRONG               :   Witness' Name
#  Curve Data
~A
# ...
   656.0000    175.4912    128.5730     -3.9440      6.3745      5.6983
   655.5000    190.4087    129.7226     -4.2032      6.0564      5.2519
   655.0000    205.8498    131.4691     -2.7901      5.6839      4.8579
   654.5000    217.8927    131.8351     -3.0695      5.3234      4.5894
   654.0000    225.2133    129.3354     -6.4568      4.9960      4.4402
   653.5000    229.6862    126.5390     -9.3330      4.6641      4.3538
   653.0000    233.0204    127.6426     -8.5113      4.3741      4.2915
   652.5000    234.7750    130.5254     -4.2959      4.2378      4.2594
   652.0000    232.4958    134.1942     -1.4738      4.3416      4.3012
   651.5000    224.0373    139.2460     -1.2932      4.6754      4.4635
   651.0000    210.7690    139.8984      0.5658      5.1283      4.7445
   650.5000    196.8571    133.9965      1.9127      5.5540      5.0798
   650.0000    185.1655    130.0140     -0.8275      5.8885      5.4006
   649.5000    176.4022    131.9927     -5.8895      6.1248      5.6689
   649.0000    170.2949    136.6428     -9.6163      6.2934      5.8722
   648.5000    165.8194    140.1258    -10.0022      6.4310      6.0307
   648.0000    161.8313    139.6365     -7.7302      6.5582      6.1793
   647.5000    157.9057    135.3864     -5.8215      6.6780      6.3329
   647.0000    154.0759    131.8557     -5.9060      6.7928      6.4903
   646.5000    150.3672    130.7692     -6.3129      6.9141      6.6504
   646.0000    146.9720    131.2660     -5.7343      7.0477      6.8040
   645.5000    144.2481    129.9407     -4.9514      7.1754      6.9325
   645.0000    142.8654    126.7813     -4.8913      7.2662      6.9996
   644.5000    143.3264    125.1080     -5.3149      7.3104      6.9771
   644.0000    145.5504    124.5017     -4.8379      7.3085      6.8705
   643.5000    149.1295    124.2715     -5.4912      7.2433      6.7056
   643.0000    153.9156    127.0516     -7.1321      7.0945      6.4971
   642.5000    159.9586    132.6497     -7.0351      6.8776      6.2516
   642.0000    167.2516    136.0974     -3.8162      6.6267      5.9790
   641.5000    175.4656    134.6608     -1.0593      6.3546      5.6991
   641.0000    184.8841    131.0098     -2.5013      6.0451      5.4088
   640.5000    195.6903    129.2789     -7.1644      5.7024      5.1101
   640.0000    206.8354    127.8547     -9.6490      5.3838      4.8348
   639.5000    217.0247    125.1881     -9.1747      5.1345      4.6078
   639.0000    225.7341    123.8605     -7.8309      4.9252      4.4300
   638.5000    232.0555    126.7388     -6.5239      4.7218      4.3093
   638.0000    234.3615    131.6185     -3.9601      4.5695      4.2669
   637.5000    232.2464    136.1435     -0.0457      4.5177      4.3058
   637.0000    227.0318    138.0698      1.9047      4.5345      4.4047
   636.5000    220.8612    137.0615      0.1714      4.5691      4.5277
   636.0000    215.2698    133.5741     -1.9859      4.6625      4.6453
   635.5000    209.5261    131.2668     -1.2593      4.8908      4.7727
   635.0000    201.8762    132.5974     -0.2815      5.2107      4.9535
   634.5000    193.6511    134.2477     -1.3338      5.4752      5.1639
   634.0000    188.8986    132.3958     -2.9268      5.5924      5.2938
   633.5000    190.6925    129.4940     -3.3986      5.5773      5.2440
   633.0000    200.6589    129.2829     -3.2443      5.4370      4.9836
   632.5000    219.4955    129.3094     -1.8681      5.1609      4.5559
   632.0000    245.2960    126.6574      0.5045      4.7823      4.0767
   631.5000    278.2961    123.9664      0.6188      4.3499      3.5933
   631.0000    318.6245    122.7631     -2.3156      3.8603      3.1385
   630.5000    365.8325    120.5641     -5.2460      3.3327      2.7335
   630.0000    414.1775    115.1230     -7.6357      2.8701      2.4144
   629.5000    455.3928    108.4692     -9.0039      2.5487      2.1959
   629.0000    483.4209    105.2510     -7.8858      2.3436      2.0686
   628.5000    493.3757    107.6956     -5.9344      2.2116      2.0269
   628.0000    489.3535    112.7491     -3.8900      2.1326      2.0435
   627.5000    474.7754    117.8229     -0.7646      2.1316      2.1063
   627.0000    448.8140    121.3308      0.3337      2.2455      2.2281
   626.5000    413.0378    121.7960     -3.4831      2.4990      2.4211
   626.0000    368.3137    118.8737     -7.5908      2.8740      2.7151
   625.5000    320.3262    116.8295     -5.9420      3.3694      3.1218
   625.0000    275.5544    119.6485     -1.1807      3.9397      3.6290
   624.5000    239.1366    125.1967      0.4560      4.5144      4.1817
   624.0000    212.3475    128.4477     -2.0069      5.0366      4.7093
   623.5000    192.1906    126.6188     -5.1752      5.4797      5.2032
   623.0000    177.0561    121.6221     -6.2089      5.8661      5.6479
   622.5000    165.4978    118.0502     -4.6076      6.2062      6.0424
   622.0000    156.6815    118.3556     -0.4968      6.5140      6.3824
   621.5000    149.9958    120.1431      3.5740      6.7931      6.6669
   621.0000    144.7096    120.5046      5.1249      7.0383      6.9104
   620.5000    140.6943    119.8659      3.5770      7.2474      7.1076
   620.0000    138.3358    120.4526      0.6695      7.4122      7.2288
   619.5000    137.5339    123.6158     -2.5898      7.5311      7.2709
   619.0000    137.5544    124.0358     -4.6775      7.6223      7.2699
   618.5000    137.6318    121.6376     -4.9706      7.7072      7.2658
   618.0000    137.4142    119.8438     -4.2011      7.7882      7.2773
   617.5000    136.9097    121.0403     -2.6389      7.8599      7.3041
   617.0000    135.9392    122.4124     -1.0245      7.9170      7.3562
   616.5000    134.4743    120.4386     -0.8574      7.9652      7.4364
   616.0000    132.9884    115.3769     -0.9257      8.0021      7.5195
   615.5000    131.8544    113.4570     -1.1373      8.0343      7.5841
   615.0000    131.0282    117.1585     -2.1716      8.0674      7.6319
   614.5000    130.5678    121.9260     -2.9924      8.0844      7.6589
   614.0000    130.6336    123.3519     -3.1177      8.0757      7.6550
   613.5000    131.2218    121.2385     -3.3294      8.0605      7.6207
   613.0000    132.2096    118.3788     -1.5451      8.0465      7.5637
   612.5000    133.2694    118.0982      1.8800      8.0185      7.5036
   612.0000    134.1682    121.4397      2.5922      7.9683      7.4533
   611.5000    135.1086    123.2525     -0.0583      7.9030      7.4015
   611.0000    136.2241    121.1780     -3.0463      7.8383      7.3408
   610.5000    137.1779    118.4485     -5.9750      7.7818      7.2898
   610.0000    137.7049    117.1202     -7.6262      7.7307      7.2619
   609.5000    138.0540    116.8179     -6.9275      7.6795      7.2435
   609.0000    138.7605    117.2549     -4.2993      7.6281      7.2067
   608.5000    140.1877    117.2873     -1.3935      7.5744      7.1333
   608.0000    142.2700    116.0075     -1.4509      7.5042      7.0289
   607.5000    144.6445    117.3042     -6.9503      7.4018      6.9135
   607.0000    147.0939    120.5280    -13.7421      7.2749      6.7984
   606.5000    149.5824    121.6938    -12.8640      7.1492      6.6853
   606.0000    152.0629    120.7491     -7.5134      7.0420      6.5762
   605.5000    154.4259    120.6804     -5.3936      6.9417      6.4756
   605.0000    156.8947    123.1149     -7.3978      6.8260      6.3737
   604.5000    160.6309    125.8174     -8.9115      6.6879      6.2255
   604.0000    167.3462    125.4658     -8.7309      6.5134      5.9756
   603.5000    178.4281    117.9049     -7.1214      6.2672      5.6045
   603.0000    194.0976    108.8071     -5.8270      5.9235      5.1520
   602.5000    211.4230    106.1747     -5.2411      5.5277      4.7299
   602.0000    225.1786    110.3597     -2.5349      5.1687      4.4409
   601.5000    232.6501    114.4608      2.2491      4.8719      4.2983
   601.0000    235.5599    115.8612      3.5618      4.5840      4.2452
   600.5000    236.7677    117.2664     -0.6051      4.3057      4.2235
