~Version Information
 VERS.                2.00:   CWLS log ASCII Standard -VERSION 2.00
 WRAP.                  NO:   One line per frame
~Well Information Block
#MNEM.UNIT              Data                Description
#--------- -------------------------------  -------------------------------
 STRT.F                          936.0000:   Starting Depth
 STOP.F                          -23.7500:   Ending Depth
 STEP.F                           -0.5000:   Level Spacing
 NULL.                          -999.2500:   Absent Value
 COMP.     FLUOR DANIEL (NPSOR), INC.    :   Company
 WELL.     34-1 X 14                     :   Well
 FLD .     N.P.R. NO.3                   :   Field
 LOC .     2516' FNL & 1946' FWL         :   Location
 PROV.                                   :   Province
 SRVC.                                   :   Service Company
 LIC .                                   :   License Number
 DATE.     10-DEC-94                     :   Log Date
 UWI .                                   :   Unique Well ID
~Curve Information Block
#MNEM.UNIT       API Codes    Curve Description
#---------    -------------   -------------------------------
 DEPT.F        0   0  0  0:   Depth
 CILD.MMHO     0   0  0  0:   Conductivity of Deep Induction
 GR  .API      0   0  0  0:   Gamma ray counts
 TEN .LBF      0   0  0  0:   Differential Tension
 RILM.OHMM     0   0  0  0:   Resistivity from CILM
 RILD.OHMM     0   0  0  0:   Resistivity from CILD
~Parameter Information Block
#MNEM.UNIT              Value             Description
#---------    -------------------------   -------------------------------
 APIN.        4902522678              :   API Serial Number
 COUN.        NATRONA                 :   County
 STAT.        WYOMING                 :   State Or Province
 SECT.        14                      :   Section
 TOWN.        38N                     :   Township
 RANG.        78W                     :   Range
 PDAT.        GROUND LEVEL            :   Permanent Datum
 EPD .FT      5260'                   :   Elevation Of Perm. Datum
 LMF .        K.B.                    :   Log Measured From
 FAPD.FT      10'                     :   Feet Above Perm. Datum
 DMF .        KELLY BUSHING           :   Drilling Measured From
 EKB .FT      5270'                   :   Elevation Of Kelly Bushing
 EDF .FT      5269'                   :   Elevation Of Derrick Floor
 EGL .FT      5260'                   :   Elevation Of Ground Level
 OS1 .        NONE                    :   Other Services Line 1
 SON .        92572                   :   Service Order Number
 DD  .FT      920'                    :   Depth Driller
 DL  .FT      916'                    :   Depth Logger
 BLI .FT      910'                    :   Bottom Log Interval
 TLI .FT      SURF                    :   Top Log Interval
 CSIZ.IN      9 5/8                   :   Casing Size
 CBD1.FT      58'                     :   Casing Bottom (Driller) 1
 CBL1.FT      59'                     :   Casing Bottom (Logger) 1
 BS  .IN      12.25                   :   Bit Size
 BHF .        AIR                     :   Borehole Fluid
 FDEN.LB/G    *                       :   Fluid Density
 DFV .S       *                       :   Drilling Fluid Viscosity
 DFPH.        *                       :   Drilling Fluid Ph
 DFL .FT3     *                       :   Drilling Fluid Loss
 MSS .        *                       :   Mud Sample Source
 RMS .MMHO    *                       :   Resistivity Of Mud Sample
 MST .DEGF    *                       :   Mud Sample Temperature
 RMF .MMHO    *                       :   Mud Filtrate Resistivity
 MFST.DEGF    *                       :   Mud Filtrate Sample Temperature
 RMC .MMHO    *                       :   Mud Cake Resistivity
 MCST.DEGF    *                       :   Mud Cake Sample Temperature
 MFSS.        *                       :   Mud Filtrate Sample Source
 MCSS.        *                       :   Mud Cake Sample Source
 RMB .MMHO    *                       :   Mud Resistivity At Bht
 BHT .DEGF    *                       :   Bottom Hole Temperature
 TCS .HOUR    *                       :   Time Circulation Stopped
 MRT .DEGF    94 F                    :   Maximum Recorded Temperature
 LUN .        HL 6274                 :   Logging Unit Number
 LUL .        CASPER                  :   Logging Unit Location
 ENGI.        KRANKER                 :   Engineer'S Name
 WITN.        G. STRONG               :   Witness' Name
#  Curve Data
~A
# ...
   432.0000    111.7515    120.5013    -11.2859      9.6436      8.9484
   431.5000    113.6095    122.4039    -11.5034      9.5430      8.8021
   431.0000    115.4694    124.8255    -12.0307      9.4272      8.6603
   430.5000    117.3553    124.4669    -12.1790      9.3034      8.5211
   430.0000    119.1494    125.0647    -14.2533      9.1870      8.3928
   429.5000    120.6406    128.0058    -16.6762      9.0586      8.2891
   429.0000    121.8159    128.1460    -15.1185      8.8999      8.2091
   428.5000    122.6380    126.8042    -13.1955      8.7379      8.1541
   428.0000    123.1369    127.7761    -15.8042      8.6097      8.1210
   427.5000    123.5254    127.9141    -19.6899      8.5425      8.0955
   427.0000    123.9504    125.7779    -20.0010      8.5206      8.0677
   426.5000    124.4906    126.1367    -18.9527      8.5017      8.0327
   426.0000    125.3871    126.6246    -19.0835      8.4775      7.9753
   425.5000    126.6369    123.9689    -18.5519      8.4622      7.8966
   425.0000    127.8431    121.5603    -15.3735      8.4447      7.8221
   424.5000    128.7763    122.9964    -12.3272      8.3961      7.7654
   424.0000    129.7038    125.6955    -12.0664      8.3093      7.7099
   423.5000    131.0719    126.5021    -11.7858      8.1951      7.6294
   423.0000    132.8909    126.0275     -9.9415      8.0664      7.5250
   422.5000    134.9952    125.1851     -7.8910      7.9346      7.4077
   422.0000    137.2777    124.0864     -7.2184      7.8207      7.2845
   421.5000    139.4872    122.3148     -9.5813      7.7462      7.1691
   421.0000    141.1098    122.5073    -12.6773      7.7101      7.0867
   420.5000    141.8592    124.3827    -11.8852      7.6866      7.0492
   420.0000    141.6140    126.1137     -8.6776      7.6528      7.0614
   419.5000    140.2708    127.7409     -8.3366      7.6261      7.1291
   419.0000    138.2814    127.0800    -10.1202      7.6385      7.2316
   418.5000    136.8248    122.0580    -10.5567      7.6835      7.3086
   418.0000    136.6508    115.0361     -9.8808      7.7394      7.3179
   417.5000    137.2729    111.0863     -9.6917      7.8480      7.2848
   417.0000    137.6648    112.2531    -11.1051      8.0734      7.2640
   416.5000    137.2362    116.7193    -14.0385      8.3219      7.2867
   416.0000    136.7343    118.9761    -16.3596      8.3405      7.3135
   415.5000    137.7569    117.2536    -15.8881      8.0661      7.2592
   415.0000    140.5640    115.6709    -15.9420      7.7277      7.1142
   414.5000    143.6532    116.3790    -18.9771      7.5075      6.9612
   414.0000    145.7503    118.2416    -21.2219      7.4044      6.8610
   413.5000    146.7735    118.2033    -18.3595      7.3479      6.8132
   413.0000    147.2274    116.0170    -13.1138      7.2961      6.7922
   412.5000    147.5117    116.7202    -10.6247      7.2610      6.7791
   412.0000    147.5943    121.8807    -10.5917      7.2621      6.7753
   411.5000    147.1974    125.0527    -10.9831      7.2894      6.7936
   411.0000    146.2215    123.9652     -9.9772      7.3085      6.8389
   410.5000    144.7513    123.1346     -9.1384      7.3003      6.9084
   410.0000    143.0977    125.0975    -10.1214      7.2986      6.9882
   409.5000    141.3851    129.3012    -11.5302      7.3533      7.0729
   409.0000    139.5013    131.1181    -10.5622      7.4759      7.1684
   408.5000    137.4545    127.8771     -8.9819      7.6380      7.2751
   408.0000    135.5070    123.0726    -11.0267      7.8144      7.3797
   407.5000    133.8084    120.4459    -14.8803      7.9897      7.4734
   407.0000    132.2882    119.9117    -15.5492      8.1282      7.5593
   406.5000    130.9792    122.2144    -13.0503      8.1807      7.6348
   406.0000    130.3089    126.5152    -11.9115      8.1324      7.6741
   405.5000    130.5678    128.5797    -12.5672      8.0345      7.6589
   405.0000    131.3640    127.4523    -12.5145      7.9481      7.6124
   404.5000    132.2718    124.4355    -13.3148      7.9006      7.5602
   404.0000    133.2386    120.6232    -14.6330      7.8747      7.5053
   403.5000    134.2407    117.3508    -13.2095      7.8420      7.4493
   403.0000    135.3434    116.5063    -10.2608      7.7871      7.3886
   402.5000    136.7007    120.2238    -10.4722      7.7141      7.3153
   402.0000    138.1924    126.3901    -12.8472      7.6415      7.2363
   401.5000    139.5320    129.3337    -15.1231      7.5915      7.1668
   401.0000    140.6569    125.5781    -17.5314      7.5644      7.1095
   400.5000    141.7590    120.9056    -19.2171      7.5364      7.0542
   400.0000    143.1357    119.4629    -18.0545      7.4897      6.9864
   399.5000    144.8333    121.5891    -13.6521      7.4331      6.9045
   399.0000    146.6574    125.7662    -11.2185      7.3779      6.8186
   398.5000    148.5020    127.8753    -12.5657      7.3022      6.7339
   398.0000    150.2460    126.0332    -14.6882      7.1830      6.6558
   397.5000    151.6798    122.8305    -17.0437      7.0496      6.5928
   397.0000    152.5815    119.0328    -19.6637      6.9546      6.5539
   396.5000    152.7005    114.4615    -20.4527      6.9220      6.5488
   396.0000    151.7244    113.4954    -19.0723      6.9462      6.5909
   395.5000    149.6363    116.5735    -17.5433      7.0171      6.6829
   395.0000    146.8276    118.1021    -15.5931      7.1278      6.8107
   394.5000    143.7305    117.0729    -14.7641      7.2743      6.9575
   394.0000    140.5952    118.4324    -13.3163      7.4452      7.1126
   393.5000    137.7231    123.8871    -10.5707      7.6193      7.2609
   393.0000    135.3055    128.6721     -8.1307      7.7870      7.3907
   392.5000    133.3298    128.7804     -9.4114      7.9412      7.5002
   392.0000    131.7358    124.0139    -12.6981      8.0570      7.5909
   391.5000    130.6563    117.5863    -12.9994      8.1130      7.6537
   391.0000    130.4570    113.5260    -11.1535      8.1061      7.6654
   390.5000    131.7133    112.3485    -11.4073      8.0265      7.5922
   390.0000    134.4385    111.2391    -13.7912      7.8955      7.4383
   389.5000    137.7951    110.8441    -15.6126      7.7750      7.2572
   389.0000    140.8620    116.0659    -15.0087      7.7020      7.0991
   388.5000    143.4373    125.8134    -12.2000      7.6158      6.9717
   388.0000    146.0521    130.7783     -9.4071      7.4262      6.8469
   387.5000    149.2480    127.6217     -9.8957      7.1554      6.7003
   387.0000    152.6873    124.1504    -14.0172      6.9139      6.5493
   386.5000    155.2856    126.1943    -17.1761      6.7677      6.4397
   386.0000    156.2382    132.2425    -16.4855      6.7225      6.4005
   385.5000    155.6219    135.6913    -12.9445      6.7552      6.4258
   385.0000    154.0334    133.1373    -10.1037      6.8304      6.4921
   384.5000    152.0894    127.0007    -10.1342      6.9215      6.5751
   384.0000    150.3380    122.5024    -13.6555      7.0190      6.6517
   383.5000    149.1970    120.2371    -17.8245      7.1163      6.7025
   383.0000    148.4553    119.0397    -20.7318      7.2121      6.7360
   382.5000    147.3406    117.3962    -19.8622      7.3022      6.7870
   382.0000    145.3195    114.9247    -15.0780      7.3853      6.8814
   381.5000    142.3259    114.3358    -10.8260      7.4726      7.0261
   381.0000    138.8098    116.6487     -9.0350      7.5661      7.2041
   380.5000    136.1349    117.2644     -8.2420      7.6327      7.3457
   380.0000    135.8112    112.7245     -8.9618      7.6458      7.3632
   379.5000    137.7742    106.7071    -10.6759      7.6525      7.2583
   379.0000    140.5746    105.7433    -11.5635      7.7298      7.1137
   378.5000    143.1284    109.0861    -11.3137      7.8438      6.9867
   378.0000    145.5662    111.2241    -10.7073      7.8138      6.8697
   377.5000    148.8272    113.8739    -10.4340      7.5299      6.7192
   377.0000    153.3935    119.0447    -11.4662      7.1229      6.5192
   376.5000    158.3503    123.3690    -13.5231      6.7819      6.3151
