~Version Information
 VERS.                2.00:   CWLS log ASCII Standard -VERSION 2.00
 WRAP.                  NO:   One line per frame
~Well Information Block
#MNEM.UNIT              Data                Description
#--------- -------------------------------  -------------------------------
 STRT.F                          936.0000:   Starting Depth
 STOP.F                          -23.7500:   Ending Depth
 STEP.F                           -0.5000:   Level Spacing
 NULL.                          -999.2500:   Absent Value
 COMP.     FLUOR DANIEL (NPSOR), INC.    :   Company
 WELL.     34-1 X 14                     :   Well
 FLD .     N.P.R. NO.3                   :   Field
 LOC .     2516' FNL & 1946' FWL         :   Location
 PROV.                                   :   Province
 SRVC.                                   :   Service Company
 LIC .                                   :   License Number
 DATE.     10-DEC-94                     :   Log Date
 UWI .                                   :   Unique Well ID
~Curve Information Block
#MNEM.UNIT       API Codes    Curve Description
#---------    -------------   -------------------------------
 DEPT.F        0   0  0  0:   Depth
 CILD.MMHO     0   0  0  0:   Conductivity of Deep Induction
 GR  .API      0   0  0  0:   Gamma ray counts
 TEN .LBF      0   0  0  0:   Differential Tension
 RILM.OHMM     0   0  0  0:   Resistivity from CILM
 RILD.OHMM     0   0  0  0:   Resistivity from CILD
~Parameter Information Block
#MNEM.UNIT              Value             Description
#---------    -------------------------   -------------------------------
 APIN.        4902522678              :   API Serial Number
 COUN.        NATRONA                 :   County
 STAT.        WYOMING                 :   State Or Province
 SECT.        14                      :   Section
 TOWN.        38N                     :   Township
 RANG.        78W                     :   Range
 PDAT.        GROUND LEVEL            :   Permanent Datum
 EPD .FT      5260'                   :   Elevation Of Perm. Datum
 LMF .        K.B.                    :   Log Measured From
 FAPD.FT      10'                     :   Feet Above Perm. Datum
 DMF .        KELLY BUSHING           :   Drilling Measured From
 EKB .FT      5270'                   :   Elevation Of Kelly Bushing
 EDF .FT      5269'                   :   Elevation Of Derrick Floor
 EGL .FT      5260'                   :   Elevation Of Ground Level
 OS1 .        NONE                    :   Other Services Line 1
 SON .        92572                   :   Service Order Number
 DD  .FT      920'                    :   Depth Driller
 DL  .FT      916'                    :   Depth Logger
 BLI .FT      910'                    :   Bottom Log Interval
 TLI .FT      SURF                    :   Top Log Interval
 CSIZ.IN      9 5/8                   :   Casing Size
 CBD1.FT      58'                     :   Casing Bottom (Driller) 1
 CBL1.FT      59'                     :   Casing Bottom (Logger) 1
 BS  .IN      12.25                   :   Bit Size
 BHF .        AIR                     :   Borehole Fluid
 FDEN.LB/G    *                       :   Fluid Density
 DFV .S       *                       :   Drilling Fluid Viscosity
 DFPH.        *                       :   Drilling Fluid Ph
 DFL .FT3     *                       :   Drilling Fluid Loss
 MSS .        *                       :   Mud Sample Source
 RMS .MMHO    *                       :   Resistivity Of Mud Sample
 MST .DEGF    *                       :   Mud Sample Temperature
 RMF .MMHO    *                       :   Mud Filtrate Resistivity
 MFST.DEGF    *                       :   Mud Filtrate Sample Temperature
 RMC .MMHO    *                       :   Mud Cake Resistivity
 MCST.DEGF    *                       :   Mud Cake Sample Temperature
 MFSS.        *                       :   Mud Filtrate Sample Source
 MCSS.        *                       :   Mud Cake Sample Source
 RMB .MMHO    *                       :   Mud Resistivity At Bht
 BHT .DEGF    *                       :   Bottom Hole Temperature
 TCS .HOUR    *                       :   Time Circulation Stopped
 MRT .DEGF    94 F                    :   Maximum Recorded Temperature
 LUN .        HL 6274                 :   Logging Unit Number
 LUL .        CASPER                  :   Logging Unit Location
 ENGI.        KRANKER                 :   Engineer'S Name
 WITN.        G. STRONG               :   Witness' Name
#  Curve Data
~A
# ...
   544.0000    106.9369    105.0055     -9.8070      9.8375      9.3513
   543.5000    106.3512     98.5891    -11.5769     10.0306      9.4028
   543.0000    105.6369     96.7075    -11.8868     10.2827      9.4664
   542.5000    104.6702    102.9339    -11.1682     10.5345      9.5538
   542.0000    103.9251    111.4017     -9.4248     10.6014      9.6223
   541.5000    104.0468    115.1821    -10.1467     10.4194      9.6111
   541.0000    105.0817    113.8449    -13.3096     10.1567      9.5164
   540.5000    106.3495    110.9697    -14.8410      9.9856      9.4030
   540.0000    107.0723    108.0941    -15.4385      9.9673      9.3395
   539.5000    106.9603    107.3147    -17.2740     10.0607      9.3493
   539.0000    106.1852    108.1934    -20.1474     10.1746      9.4175
   538.5000    105.1979    108.9296    -21.5342     10.2522      9.5059
   538.0000    104.3527    108.6476    -20.1312     10.2999      9.5829
   537.5000    103.8620    108.6368    -16.6676     10.3407      9.6282
   537.0000    103.7492    111.1971    -13.2940     10.3768      9.6386
   536.5000    103.7891    115.8093    -11.7276     10.3944      9.6349
   536.0000    103.7054    118.5294    -11.6217     10.3986      9.6427
   535.5000    103.4604    117.3658    -10.7250     10.4239      9.6655
   535.0000    103.0685    116.4339     -7.0659     10.4718      9.7023
   534.5000    102.4392    117.3552     -2.9551     10.5086      9.7619
   534.0000    101.6606    115.2077     -1.2197     10.5174      9.8366
   533.5000    100.9651    110.0798     -0.9424     10.5426      9.9044
   533.0000    100.3170    108.9580     -1.4902     10.6278      9.9684
   532.5000     99.3808    113.1304     -2.6172     10.7681     10.0623
   532.0000     98.1137    115.9307     -3.5490     10.9190     10.1923
   531.5000     96.8570    115.3148     -5.1938     11.0534     10.3245
   531.0000     95.8905    113.5264     -9.3626     11.1540     10.4286
   530.5000     95.2591    110.1175    -12.2796     11.2046     10.4977
   530.0000     94.9324    104.7115    -11.0267     11.2185     10.5338
   529.5000     94.7815    102.3104     -9.1161     11.2431     10.5506
   529.0000     94.4704    107.0773     -8.2652     11.2868     10.5853
   528.5000     93.7385    114.0563     -7.7830     11.3233     10.6680
   528.0000     92.5466    116.2405     -8.2277     11.3597     10.8054
   527.5000     91.1363    116.5704     -7.3770     11.4234     10.9726
   527.0000     90.1113    119.2355     -4.3337     11.4783     11.0974
   526.5000     90.2940    119.0843     -3.1388     11.4696     11.0749
   526.0000     91.8698    112.4625     -5.7166     11.4081     10.8850
   525.5000     94.0200    106.2952    -11.1014     11.3738     10.6360
   525.0000     95.8110    105.7570    -14.9355     11.3851     10.4372
   524.5000     97.1126    108.2523    -13.3648     11.3061     10.2973
   524.0000     98.5586    109.4826     -9.0978     10.9871     10.1462
   523.5000    100.9227    110.4767     -7.5710     10.4908      9.9086
   523.0000    104.3241    112.7883     -8.1029     10.0165      9.5855
   522.5000    108.0336    116.5841     -8.2624      9.6703      9.2564
   522.0000    111.5034    118.0446     -7.9141      9.4507      8.9683
   521.5000    114.6496    117.7059     -8.5934      9.2884      8.7222
   521.0000    117.4908    119.0678    -11.2859      9.1302      8.5113
   520.5000    120.1565    122.0817    -12.7219      8.9551      8.3225
   520.0000    122.8129    122.6625    -10.4816      8.7685      8.1425
   519.5000    125.2802    120.5289     -8.9908      8.5839      7.9821
   519.0000    127.1847    118.4329    -10.8781      8.4047      7.8626
   518.5000    128.6562    118.2548    -10.0732      8.2199      7.7727
   518.0000    130.2326    121.0014     -4.6113      8.0459      7.6786
   517.5000    131.9480    125.9996     -0.4508      7.9407      7.5787
   517.0000    133.2234    129.0675     -1.0605      7.9371      7.5062
   516.5000    133.7234    126.8466     -5.1270      7.9900      7.4781
   516.0000    133.6664    124.3880     -8.4378      8.0322      7.4813
   515.5000    133.4063    127.8526     -7.3914      8.0496      7.4959
   515.0000    133.2031    131.3476     -5.4622      8.0604      7.5073
   514.5000    132.9831    128.0515     -8.4153      8.0750      7.5198
   514.0000    132.4859    122.0568    -13.1214      8.0982      7.5480
   513.5000    131.6953    119.6934    -13.8019      8.1273      7.5933
   513.0000    130.9156    121.3896    -10.1766      8.1585      7.6385
   512.5000    130.2365    124.8093     -6.2665      8.2049      7.6783
   512.0000    129.6193    125.7313     -6.6996      8.2732      7.7149
   511.5000    129.2772    123.1342    -12.1274      8.3341      7.7353
   511.0000    129.3292    120.6378    -18.6413      8.3523      7.7322
   510.5000    129.5858    120.8272    -17.9560      8.3344      7.7169
   510.0000    130.0797    124.1599     -9.8658      8.2971      7.6876
   509.5000    131.0195    127.7179     -4.7327      8.2425      7.6325
   509.0000    132.3171    127.8747     -7.2932      8.1672      7.5576
   508.5000    133.8310    125.2923    -12.3714      8.0839      7.4721
   508.0000    135.5717    125.1068    -15.1134      8.0006      7.3762
   507.5000    137.4212    127.7540    -15.2018      7.9161      7.2769
   507.0000    139.1731    129.1856    -13.7451      7.8318      7.1853
   506.5000    140.6785    126.4301    -13.7595      7.7555      7.1084
   506.0000    141.9098    123.8256    -15.0179      7.6878      7.0467
   505.5000    142.9543    126.3137    -15.5861      7.6240      6.9952
   505.0000    143.8546    129.9716    -15.6172      7.5661      6.9515
   504.5000    144.4762    130.1087    -14.5037      7.5239      6.9216
   504.0000    144.6184    129.2824    -12.0588      7.5008      6.9148
   503.5000    144.2325    129.0649    -11.8001      7.4933      6.9332
   503.0000    143.5213    129.9801    -13.3511      7.4966      6.9676
   502.5000    142.6450    131.9633    -12.6697      7.5176      7.0104
   502.0000    141.5123    131.0659     -8.7501      7.5714      7.0665
   501.5000    139.9818    127.7480     -4.5375      7.6598      7.1438
   501.0000    138.0832    126.8904     -2.3735      7.7609      7.2420
   500.5000    135.9687    127.5758     -2.9030      7.8614      7.3546
   500.0000    133.9585    126.6274     -3.0933      7.9600      7.4650
   499.5000    132.2970    125.2714     -3.5895      8.0594      7.5588
   499.0000    130.8752    123.5552     -6.3681      8.1638      7.6409
   498.5000    129.6272    121.5482     -8.3491      8.2751      7.7144
   498.0000    128.5834    121.5490     -9.0719      8.3782      7.7771
   497.5000    127.7159    123.5573    -11.9764      8.4470      7.8299
   497.0000    127.1078    124.3150    -14.4344      8.4688      7.8673
   496.5000    126.8421    124.2364    -13.6018      8.4564      7.8838
   496.0000    126.4802    125.3016    -13.2278      8.4423      7.9064
   495.5000    125.8495    127.9114    -13.7732      8.4435      7.9460
   495.0000    125.5205    129.7865    -13.0372      8.4440      7.9668
   494.5000    125.8700    129.3231    -11.8932      8.4188      7.9447
   494.0000    126.5702    126.2948    -13.4529      8.3709      7.9008
   493.5000    127.4156    122.2057    -15.4852      8.3234      7.8483
   493.0000    128.4809    120.2793    -15.7865      8.2848      7.7833
   492.5000    129.6576    123.1595    -12.5889      8.2338      7.7126
   492.0000    130.8187    126.8460    -10.0104      8.1562      7.6442
   491.5000    132.0893    129.2427    -11.1496      8.0670      7.5706
   491.0000    133.5401    131.4514    -13.1635      7.9821      7.4884
   490.5000    134.9207    132.7817    -12.6331      7.9119      7.4118
   490.0000    135.8942    133.0103    -11.3179      7.8785      7.3587
   489.5000    136.3635    133.2601    -11.2545      7.8841      7.3333
   489.0000    136.5341    132.0948    -12.4894      7.8961      7.3242
   488.5000    136.4403    130.9039    -13.9943      7.9035      7.3292
