~Version Information
 VERS.                2.00:   CWLS log ASCII Standard -VERSION 2.00
 WRAP.                  NO:   One line per frame
~Well Information Block
#MNEM.UNIT              Data                Description
#--------- -------------------------------  -------------------------------
 STRT.F                          936.0000:   Starting Depth
 STOP.F                          -23.7500:   Ending Depth
 STEP.F                           -0.5000:   Level Spacing
 NULL.                          -999.2500:   Absent Value
 COMP.     FLUOR DANIEL (NPSOR), INC.    :   Company
 WELL.     34-1 X 14                     :   Well
 FLD .     N.P.R. NO.3                   :   Field
 LOC .     2516' FNL & 1946' FWL         :   Location
 PROV.                                   :   Province
 SRVC.                                   :   Service Company
 LIC .                                   :   License Number
 DATE.     10-DEC-94                     :   Log Date
 UWI .                                   :   Unique Well ID
~Curve Information Block
#MNEM.UNIT       API Codes    Curve Description
#---------    -------------   -------------------------------
 DEPT.F        0   0  0  0:   Depth
 CILD.MMHO     0   0  0  0:   Conductivity of Deep Induction
 GR  .API      0   0  0  0:   Gamma ray counts
 TEN .LBF      0   0  0  0:   Differential Tension
 RILM.OHMM     0   0  0  0:   Resistivity from CILM
 RILD.OHMM     0   0  0  0:   Resistivity from CILD
~Parameter Information Block
#MNEM.UNIT              Value             Description
#---------    -------------------------   -------------------------------
 APIN.        4902522678              :   API Serial Number
 COUN.        NATRONA                 :   County
 STAT.        WYOMING                 :   State Or Province
 SECT.        14                      :   Section
 TOWN.        38N                     :   Township
 RANG.        78W                     :   Range
 PDAT.        GROUND LEVEL            :   Permanent Datum
 EPD .FT      5260'                   :   Elevation Of Perm. Datum
 LMF .        K.B.                    :   Log Measured From
 FAPD.FT      10'                     :   Feet Above Perm. Datum
 DMF .        KELLY BUSHING           :   Drilling Measured From
 EKB .FT      5270'                   :   Elevation Of Kelly Bushing
 EDF .FT      5269'                   :   Elevation Of Derrick Floor
 EGL .FT      5260'                   :   Elevation Of Ground Level
 OS1 .        NONE                    :   Other Services Line 1
 SON .        92572                   :   Service Order Number
 DD  .FT      920'                    :   Depth Driller
 DL  .FT      916'                    :   Depth Logger
 BLI .FT      910'                    :   Bottom Log Interval
 TLI .FT      SURF                    :   Top Log Interval
 CSIZ.IN      9 5/8                   :   Casing Size
 CBD1.FT      58'                     :   Casing Bottom (Driller) 1
 CBL1.FT      59'                     :   Casing Bottom (Logger) 1
 BS  .IN      12.25                   :   Bit Size
 BHF .        AIR                     :   Borehole Fluid
 FDEN.LB/G    *                       :   Fluid Density
 DFV .S       *                       :   Drilling Fluid Viscosity
 DFPH.        *                       :   Drilling Fluid Ph
 DFL .FT3     *                       :   Drilling Fluid Loss
 MSS .        *                       :   Mud Sample Source
 RMS .MMHO    *                       :   Resistivity Of Mud Sample
 MST .DEGF    *                       :   Mud Sample Temperature
 RMF .MMHO    *                       :   Mud Filtrate Resistivity
 MFST.DEGF    *                       :   Mud Filtrate Sample Temperature
 RMC .MMHO    *                       :   Mud Cake Resistivity
 MCST.DEGF    *                       :   Mud Cake Sample Temperature
 MFSS.        *                       :   Mud Filtrate Sample Source
 MCSS.        *                       :   Mud Cake Sample Source
 RMB .MMHO    *                       :   Mud Resistivity At Bht
 BHT .DEGF    *                       :   Bottom Hole Temperature
 TCS .HOUR    *                       :   Time Circulation Stopped
 MRT .DEGF    94 F                    :   Maximum Recorded Temperature
 LUN .        HL 6274                 :   Logging Unit Number
 LUL .        CASPER                  :   Logging Unit Location
 ENGI.        KRANKER                 :   Engineer'S Name
 WITN.        G. STRONG               :   Witness' Name
#  Curve Data
~A
# ...
   152.0000    184.9442    120.1281    -11.0956      5.7481      5.4070
   151.5000    183.7080    121.9890    -11.8471      5.7800      5.4434
   151.0000    183.6449    121.9560    -12.3354      5.7704      5.4453
   150.5000    184.0583    120.7463    -13.2577      5.7490      5.4331
   150.0000    184.4363    118.8104    -12.7633      5.7243      5.4219
   149.5000    184.6886    116.9580    -12.5221      5.6935      5.4145
   149.0000    185.0686    116.3883    -14.2804      5.6621      5.4034
   148.5000    185.6667    117.2167    -15.3427      5.6445      5.3860
   148.0000    185.8535    116.6759    -13.2452      5.6527      5.3806
   147.5000    184.9658    115.7096    -10.8333      5.6875      5.4064
   147.0000    183.1627    116.6416    -10.7134      5.7369      5.4596
   146.5000    180.9177    117.3108    -12.3836      5.7851      5.5274
   146.0000    178.5606    114.9770    -13.4630      5.8318      5.6003
   145.5000    176.4867    112.9079    -13.9104      5.8903      5.6661
   145.0000    175.0497    113.4980    -15.0206      5.9623      5.7127
   144.5000    174.3244    113.2443    -14.0513      6.0353      5.7364
   144.0000    174.1859    112.0847    -10.2291      6.1030      5.7410
   143.5000    174.2540    113.0012     -8.8575      6.1548      5.7388
   143.0000    174.2070    115.2319    -12.3061      6.1648      5.7403
   142.5000    174.3133    118.3155    -15.0283      6.1165      5.7368
   142.0000    175.0272    121.2052    -14.2935      6.0267      5.7134
   141.5000    176.4108    122.7375    -13.5542      5.9310      5.6686
   141.0000    178.1854    122.8058    -13.9778      5.8609      5.6121
   140.5000    179.8427    122.7307    -13.6619      5.8320      5.5604
   140.0000    180.5797    120.7950    -13.1897      5.8384      5.5377
   139.5000    180.0643    118.3348    -14.5738      5.8610      5.5536
   139.0000    178.4748    118.9443    -15.8078      5.8849      5.6030
   138.5000    175.9453    122.5982    -14.3420      5.9128      5.6836
   138.0000    172.3979    125.3163    -11.1148      5.9657      5.8005
   137.5000    167.8666    124.0833     -9.2882      6.0718      5.9571
   137.0000    162.6382    120.0410     -8.0432      6.2481      6.1486
   136.5000    157.5655    116.3017     -6.4019      6.4782      6.3466
   136.0000    153.6572    114.7949     -6.2799      6.7161      6.5080
   135.5000    151.4429    115.0061     -9.0954      6.9202      6.6031
   135.0000    150.7299    113.5654    -10.8357      7.0771      6.6344
   134.5000    150.7870    110.1574     -9.1796      7.1721      6.6319
   134.0000    151.0302    109.6194     -8.2801      7.1640      6.6212
   133.5000    151.5066    114.9493    -11.5540      7.0365      6.6004
   133.0000    152.4330    120.7516    -16.3181      6.8441      6.5603
   132.5000    153.8304    121.3703    -18.5336      6.6723      6.5007
   132.0000    155.1910    118.7769    -17.0690      6.5937      6.4437
   131.5000    155.2998    116.3712    -13.8848      6.6488      6.4392
   131.0000    153.2912    116.1990    -11.6361      6.8315      6.5235
   130.5000    149.7072    117.7317    -11.7422      7.0809      6.6797
   130.0000    145.8088    120.4222    -12.1969      7.3005      6.8583
   129.5000    142.6677    119.6949    -12.4004      7.4225      7.0093
   129.0000    140.6443    115.8512    -12.0030      7.4784      7.1101
   128.5000    139.0624    114.2099    -10.8748      7.5476      7.1910
   128.0000    137.3475    116.2709    -11.2490      7.6492      7.2808
   127.5000    135.8775    118.0626    -14.3804      7.7352      7.3596
   127.0000    135.1198    116.4590    -16.3794      7.7678      7.4008
   126.5000    135.0690    114.2498    -14.4207      7.7562      7.4036
   126.0000    135.5804    114.0182    -13.2687      7.7270      7.3757
   125.5000    136.4682    116.0208    -16.2913      7.6777      7.3277
   125.0000    137.6397    118.8674    -18.5123      7.5942      7.2653
   124.5000    139.1543    119.9444    -15.6618      7.4912      7.1863
   124.0000    141.1375    118.3002    -10.7110      7.3889      7.0853
   123.5000    143.7785    116.0856     -8.3610      7.2802      6.9551
   123.0000    147.0038    116.8048     -7.7934      7.1595      6.8025
   122.5000    150.3079    118.5905     -8.0743      7.0448      6.6530
   122.0000    153.2478    120.1495     -8.5525      6.9447      6.5254
   121.5000    155.6962    121.4742    -10.4972      6.8366      6.4228
   121.0000    158.0394    122.4219    -14.5171      6.6874      6.3275
   120.5000    160.9214    120.0778    -18.9167      6.5067      6.2142
   120.0000    164.1505    113.5419    -19.3129      6.3447      6.0920
   119.5000    166.5532    107.5480    -15.7462      6.2486      6.0041
   119.0000    167.1211    107.5311    -11.0163      6.2322      5.9837
   118.5000    165.6029    112.2351     -6.9025      6.2712      6.0385
   118.0000    162.7349    114.4696     -3.6874      6.3261      6.1450
   117.5000    159.6915    113.0425     -3.2833      6.3896      6.2621
   117.0000    156.9899    110.4893     -6.8408      6.5023      6.3698
   116.5000    154.5161    107.9156    -12.6929      6.6819      6.4718
   116.0000    152.6187    106.0388    -18.5303      6.8708      6.5523
   115.5000    151.8454    105.6543    -20.1767      6.9840      6.5856
   115.0000    152.5028    105.2623    -15.3891      6.9962      6.5573
   114.5000    154.5093    105.9648     -9.3489      6.9309      6.4721
   114.0000    157.3685    109.8875     -7.8516      6.7980      6.3545
   113.5000    160.6612    112.3111     -9.4071      6.6026      6.2243
   113.0000    164.3100    109.2094    -10.3663      6.3873      6.0861
   112.5000    168.1637    106.3679    -10.6140      6.2018      5.9466
   112.0000    171.9063    109.0917    -10.6540      6.0612      5.8171
   111.5000    175.1696    113.0199     -9.6740      5.9626      5.7088
   111.0000    177.5636    112.7669     -8.5867      5.9060      5.6318
   110.5000    178.9694    108.9679    -10.3005      5.8821      5.5875
   110.0000    179.7551    105.3131    -12.7127      5.8675      5.5631
   109.5000    180.5526    104.2385    -12.2372      5.8413      5.5386
   109.0000    181.8245    106.8712    -10.4188      5.8012      5.4998
   108.5000    183.6495    110.3981     -9.4611      5.7562      5.4452
   108.0000    185.9288    112.6194     -9.4199      5.7064      5.3784
   107.5000    188.6476    112.5998     -9.3037      5.6454      5.3009
   107.0000    191.3425    111.7799     -7.1852      5.5797      5.2262
   106.5000    193.1447    111.6405     -4.1230      5.5239      5.1775
   106.0000    193.6869    111.5430     -3.6957      5.4803      5.1630
   105.5000    193.3979    111.9429     -4.9020      5.4362      5.1707
   105.0000    192.9276    113.7556     -5.9335      5.3871      5.1833
   104.5000    192.5869    115.4000     -6.9589      5.3585      5.1925
   104.0000    191.9709    113.8927     -5.7325      5.3881      5.2091
   103.5000    190.3507    109.4502     -2.5010      5.4826      5.2535
   103.0000    187.5251    104.4863     -4.0101      5.6081      5.3326
   102.5000    184.0548    102.8351    -11.5747      5.7210      5.4332
   102.0000    180.9574    103.8285    -15.1664      5.7990      5.5262
   101.5000    179.0175    101.7722    -11.3661      5.8409      5.5860
   101.0000    178.1920     95.2789     -7.4728      5.8603      5.6119
   100.5000    177.9180     92.4501     -8.7050      5.8764      5.6206
   100.0000    177.7557     97.2071    -11.8221      5.9031      5.6257
    99.5000    177.5928    102.9107    -12.3324      5.9304      5.6309
    99.0000    177.4529    102.5851    -10.3111      5.9335      5.6353
    98.5000    177.2757     99.1196     -9.2513      5.9139      5.6409
    98.0000    176.9712     97.6999    -10.6866      5.8970      5.6506
    97.5000    176.6104     98.3617    -13.1696      5.8968      5.6622
    97.0000    176.4243     98.7383    -13.4786      5.9064      5.6682
    96.5000    176.5822     99.8196    -13.2346      5.9187      5.6631
