~Version Information
 VERS.                2.00:   CWLS log ASCII Standard -VERSION 2.00
 WRAP.                  NO:   One line per frame
~Well Information Block
#MNEM.UNIT              Data                Description
#--------- -------------------------------  -------------------------------
 STRT.F                          936.0000:   Starting Depth
 STOP.F                          -23.7500:   Ending Depth
 STEP.F                           -0.5000:   Level Spacing
 NULL.                          -999.2500:   Absent Value
 COMP.     FLUOR DANIEL (NPSOR), INC.    :   Company
 WELL.     34-1 X 14                     :   Well
 FLD .     N.P.R. NO.3                   :   Field
 LOC .     2516' FNL & 1946' FWL         :   Location
 PROV.                                   :   Province
 SRVC.                                   :   Service Company
 LIC .                                   :   License Number
 DATE.     10-DEC-94                     :   Log Date
 UWI .                                   :   Unique Well ID
~Curve Information Block
#MNEM.UNIT       API Codes    Curve Description
#---------    -------------   -------------------------------
 DEPT.F        0   0  0  0:   Depth
 CILD.MMHO     0   0  0  0:   Conductivity of Deep Induction
 GR  .API      0   0  0  0:   Gamma ray counts
 TEN .LBF      0   0  0  0:   Differential Tension
 RILM.OHMM     0   0  0  0:   Resistivity from CILM
 RILD.OHMM     0   0  0  0:   Resistivity from CILD
~Parameter Information Block
#MNEM.UNIT              Value             Description
#---------    -------------------------   -------------------------------
 APIN.        4902522678              :   API Serial Number
 COUN.        NATRONA                 :   County
 STAT.        WYOMING                 :   State Or Province
 SECT.        14                      :   Section
 TOWN.        38N                     :   Township
 RANG.        78W                     :   Range
 PDAT.        GROUND LEVEL            :   Permanent Datum
 EPD .FT      5260'                   :   Elevation Of Perm. Datum
 LMF .        K.B.                    :   Log Measured From
 FAPD.FT      10'                     :   Feet Above Perm. Datum
 DMF .        KELLY BUSHING           :   Drilling Measured From
 EKB .FT      5270'                   :   Elevation Of Kelly Bushing
 EDF .FT      5269'                   :   Elevation Of Derrick Floor
 EGL .FT      5260'                   :   Elevation Of Ground Level
 OS1 .        NONE                    :   Other Services Line 1
 SON .        92572                   :   Service Order Number
 DD  .FT      920'                    :   Depth Driller
 DL  .FT      916'                    :   Depth Logger
 BLI .FT      910'                    :   Bottom Log Interval
 TLI .FT      SURF                    :   Top Log Interval
 CSIZ.IN      9 5/8                   :   Casing Size
 CBD1.FT      58'                     :   Casing Bottom (Driller) 1
 CBL1.FT      59'                     :   Casing Bottom (Logger) 1
 BS  .IN      12.25                   :   Bit Size
 BHF .        AIR                     :   Borehole Fluid
 FDEN.LB/G    *                       :   Fluid Density
 DFV .S       *                       :   Drilling Fluid Viscosity
 DFPH.        *                       :   Drilling Fluid Ph
 DFL .FT3     *                       :   Drilling Fluid Loss
 MSS .        *                       :   Mud Sample Source
 RMS .MMHO    *                       :   Resistivity Of Mud Sample
 MST .DEGF    *                       :   Mud Sample Temperature
 RMF .MMHO    *                       :   Mud Filtrate Resistivity
 MFST.DEGF    *                       :   Mud Filtrate Sample Temperature
 RMC .MMHO    *                       :   Mud Cake Resistivity
 MCST.DEGF    *                       :   Mud Cake Sample Temperature
 MFSS.        *                       :   Mud Filtrate Sample Source
 MCSS.        *                       :   Mud Cake Sample Source
 RMB .MMHO    *                       :   Mud Resistivity At Bht
 BHT .DEGF    *                       :   Bottom Hole Temperature
 TCS .HOUR    *                       :   Time Circulation Stopped
 MRT .DEGF    94 F                    :   Maximum Recorded Temperature
 LUN .        HL 6274                 :   Logging Unit Number
 LUL .        CASPER                  :   Logging Unit Location
 ENGI.        KRANKER                 :   Engineer'S Name
 WITN.        G. STRONG               :   Witness' Name
#  Curve Data
~A
# ...
   824.0000     88.7955     88.0902     95.1533     11.8554     11.2618
   823.5000     88.1230     89.1463     94.1086     11.8839     11.3478
   823.0000     87.4054     91.7578     93.7326     11.9236     11.4409
   822.5000     86.6205     93.7182     92.8664     12.0148     11.5446
   822.0000     85.6727     93.1615     92.4077     12.1349     11.6723
   821.5000     84.8218     91.2945     94.9157     12.2356     11.7894
   821.0000     84.2827     89.6986     97.5957     12.3228     11.8648
   820.5000     83.9333     88.7924     97.3081     12.4284     11.9142
   820.0000     83.5813     90.4487     93.9641     12.5281     11.9644
   819.5000     83.0206     93.5501     89.7585     12.6030     12.0452
   819.0000     82.3187     95.6596     86.2644     12.6574     12.1479
   818.5000     81.8576     98.0385     84.0183     12.6850     12.2163
   818.0000     81.7009     98.5218     81.9019     12.6846     12.2398
   817.5000     81.5490     94.4690     81.9794     12.6889     12.2626
   817.0000     81.3325     90.6994     84.8928     12.7102     12.2952
   816.5000     81.1407     90.9703     87.4584     12.7283     12.3243
   816.0000     80.9884     92.1093     85.9173     12.7432     12.3474
   815.5000     80.8883     92.1411     81.7729     12.7448     12.3627
   815.0000     80.8247     92.4661     78.9422     12.6941     12.3725
   814.5000     80.8087     92.7449     78.2282     12.6112     12.3749
   814.0000     80.9637     92.6405     79.1182     12.5558     12.3512
   813.5000     81.3129     91.8604     83.0920     12.5265     12.2982
   813.0000     81.7652     90.9228     87.9589     12.4795     12.2301
   812.5000     82.3830     89.3867     88.2359     12.4044     12.1384
   812.0000     83.3021     87.4000     84.1690     12.3073     12.0045
   811.5000     84.2218     85.7589     78.4890     12.2071     11.8734
   811.0000     84.7058     87.5995     74.8543     12.1286     11.8056
   810.5000     84.7494     92.4552     75.5753     12.0805     11.7995
   810.0000     84.6656     96.1904     78.1264     12.0567     11.8112
   809.5000     84.5920     96.3493     79.5324     12.0499     11.8214
   809.0000     84.4382     95.0955     83.1030     12.0652     11.8430
   808.5000     84.0693     95.1043     87.7363     12.1342     11.8949
   808.0000     83.3766     96.5704     86.4016     12.3012     11.9938
   807.5000     82.2351     97.6155     81.1794     12.5477     12.1603
   807.0000     80.6225     96.0789     79.1161     12.7962     12.4035
   806.5000     78.9050     92.7917     80.4138     13.0081     12.6735
   806.0000     77.4418     89.5419     81.1687     13.2274     12.9129
   805.5000     76.0486     87.8749     81.2312     13.5010     13.1495
   805.0000     74.5221     87.0540     79.5541     13.8223     13.4188
   804.5000     73.0811     86.0725     76.1170     14.1351     13.6834
   804.0000     71.8027     85.7738     73.5767     14.3970     13.9271
   803.5000     70.3618     86.0457     71.8062     14.6428     14.2122
   803.0000     68.7975     85.0204     71.4170     14.9380     14.5354
   802.5000     67.4744     83.9915     74.3971     15.2483     14.8204
   802.0000     66.4238     85.2360     77.1543     15.4772     15.0549
   801.5000     65.4558     85.7705     73.9320     15.6284     15.2775
   801.0000     64.6018     83.1304     68.2630     15.7948     15.4795
   800.5000     63.8161     81.2216     66.1856     16.0624     15.6700
   800.0000     62.9147     83.7323     66.0465     16.4081     15.8945
   799.5000     61.8802     87.6100     65.9428     16.7346     16.1602
   799.0000     61.0180     88.1186     67.0753     16.9722     16.3886
   798.5000     60.6359     85.7134     69.8380     17.1086     16.4919
   798.0000     60.7007     83.5766     70.6511     17.1391     16.4743
   797.5000     60.8341     82.3001     68.8461     17.1315     16.4382
   797.0000     60.7950     81.6676     66.3652     17.1663     16.4487
   796.5000     60.5423     81.8022     64.3080     17.2004     16.5174
   796.0000     60.1598     82.5255     63.9112     17.1391     16.6224
   795.5000     59.8923     85.6994     63.1316     16.9912     16.6966
   795.0000     59.9340     89.8605     59.5909     16.8530     16.6850
   794.5000     60.0808     90.3210     56.6537     16.7728     16.6443
   794.0000     59.8687     86.8813     59.1233     16.7581     16.7032
   793.5000     58.9863     84.7368     63.7023     16.8373     16.9531
   793.0000     57.4838     83.9697     66.8221     17.0435     17.3962
   792.5000     55.6731     82.1107     70.0957     17.3686     17.9620
   792.0000     53.8232     79.4481     70.6298     17.7631     18.5793
   791.5000     52.1076     77.2490     64.1021     18.1979     19.1911
   791.0000     50.7327     76.4868     55.6356     18.7106     19.7112
   790.5000     49.8911     77.1958     53.1368     19.3446     20.0437
   790.0000     49.6990     77.5604     54.4404     19.9926     20.1211
   789.5000     50.3412     77.5729     56.6830     20.3703     19.8644
   789.0000     52.1328     78.5690     59.6595     20.1973     19.1818
   788.5000     55.3200     78.9988     60.3897     19.4241     18.0767
   788.0000     59.7554     80.5118     57.3806     18.2559     16.7349
   787.5000     64.9233     86.2671     54.8558     16.9633     15.4028
   787.0000     70.2539     93.3607     54.1256     15.6888     14.2341
   786.5000     75.5224     97.8951     53.5528     14.4592     13.2411
   786.0000     80.7377     99.7953     52.3920     13.3260     12.3858
   785.5000     85.8118    100.2312     50.7602     12.3800     11.6534
   785.0000     90.3855    100.6080     50.3997     11.6851     11.0637
   784.5000     94.0357    101.7886     51.6862     11.2313     10.6343
   784.0000     96.5207    101.9685     51.8082     10.9638     10.3605
   783.5000     97.9445    101.1173     49.8147     10.8193     10.2099
   783.0000     98.6382    101.0581     48.6201     10.7453     10.1381
   782.5000     98.9486    101.5420     49.3182     10.6923     10.1063
   782.0000     98.9874    101.2838     49.7397     10.6500     10.1023
   781.5000     98.7846     99.3678     49.1007     10.6378     10.1230
   781.0000     98.3985     95.6824     48.6835     10.6818     10.1628
   780.5000     97.8453     91.3848     46.7059     10.7754     10.2202
   780.0000     97.1140     89.3784     41.4162     10.8781     10.2972
   779.5000     96.3225     89.5816     34.0987     10.9529     10.3818
   779.0000     95.5175     89.2977     30.1880     10.9938     10.4693
   778.5000     94.5363     87.4124     33.8657     11.0300     10.5779
   778.0000     93.4010     87.2359     43.1746     11.0958     10.7065
   777.5000     92.4375     90.5011     48.8778     11.1717     10.8181
   777.0000     91.9010     94.4954     46.7876     11.2158     10.8813
   776.5000     91.7380     96.7822     41.9119     11.2363     10.9006
   776.0000     91.8926     98.7219     38.8994     11.2562     10.8823
   775.5000     92.3712    100.5576     36.6717     11.2629     10.8259
   775.0000     92.9595    101.0909     35.6786     11.2353     10.7574
   774.5000     93.3569    100.4476     38.7381     11.1756     10.7116
   774.0000     93.6548    100.8918     43.2328     11.1134     10.6775
   773.5000     93.9506    101.8134     43.5018     11.0830     10.6439
   773.0000     94.1187    100.2142     37.9923     11.0854     10.6249
   772.5000     94.1954     96.1129     31.0890     11.0995     10.6162
   772.0000     94.3617     93.1218     28.8225     11.1155     10.5975
   771.5000     94.5690     91.5500     30.8471     11.1325     10.5743
   771.0000     94.6955     89.9104     33.5235     11.1529     10.5602
   770.5000     94.6826     90.3799     33.3700     11.1756     10.5616
   770.0000     94.5137     92.7431     31.3955     11.1989     10.5805
   769.5000     94.1692     93.8321     32.0598     11.2243     10.6192
   769.0000     93.6579     92.8929     37.3204     11.2604     10.6772
   768.5000     93.1014     93.0884     41.8286     11.3118     10.7410
