~Version Information
 VERS.                2.00:   CWLS log ASCII Standard -VERSION 2.00
 WRAP.                  NO:   One line per frame
~Well Information Block
#MNEM.UNIT              Data                Description
#--------- -------------------------------  -------------------------------
 STRT.F                          936.0000:   Starting Depth
 STOP.F                          -23.7500:   Ending Depth
 STEP.F                           -0.5000:   Level Spacing
 NULL.                          -999.2500:   Absent Value
 COMP.     FLUOR DANIEL (NPSOR), INC.    :   Company
 WELL.     34-1 X 14                     :   Well
 FLD .     N.P.R. NO.3                   :   Field
 LOC .     2516' FNL & 1946' FWL         :   Location
 PROV.                                   :   Province
 SRVC.                                   :   Service Company
 LIC .                                   :   License Number
 DATE.     10-DEC-94                     :   Log Date
 UWI .                                   :   Unique Well ID
~Curve Information Block
#MNEM.UNIT       API Codes    Curve Description
#---------    -------------   -------------------------------
 DEPT.F        0   0  0  0:   Depth
 CILD.MMHO     0   0  0  0:   Conductivity of Deep Induction
 GR  .API      0   0  0  0:   Gamma ray counts
 TEN .LBF      0   0  0  0:   Differential Tension
 RILM.OHMM     0   0  0  0:   Resistivity from CILM
 RILD.OHMM     0   0  0  0:   Resistivity from CILD
~Parameter Information Block
#MNEM.UNIT              Value             Description
#---------    -------------------------   -------------------------------
 APIN.        4902522678              :   API Serial Number
 COUN.        NATRONA                 :   County
 STAT.        WYOMING                 :   State Or Province
 SECT.        14                      :   Section
 TOWN.        38N                     :   Township
 RANG.        78W                     :   Range
 PDAT.        GROUND LEVEL            :   Permanent Datum
 EPD .FT      5260'                   :   Elevation Of Perm. Datum
 LMF .        K.B.                    :   Log Measured From
 FAPD.FT      10'                     :   Feet Above Perm. Datum
 DMF .        KELLY BUSHING           :   Drilling Measured From
 EKB .FT      5270'                   :   Elevation Of Kelly Bushing
 EDF .FT      5269'                   :   Elevation Of Derrick Floor
 EGL .FT      5260'                   :   Elevation Of Ground Level
 OS1 .        NONE                    :   Other Services Line 1
 SON .        92572                   :   Service Order Number
 DD  .FT      920'                    :   Depth Driller
 DL  .FT      916'                    :   Depth Logger
 BLI .FT      910'                    :   Bottom Log Interval
 TLI .FT      SURF                    :   Top Log Interval
 CSIZ.IN      9 5/8                   :   Casing Size
 CBD1.FT      58'                     :   Casing Bottom (Driller) 1
 CBL1.FT      59'                     :   Casing Bottom (Logger) 1
 BS  .IN      12.25                   :   Bit Size
 BHF .        AIR                     :   Borehole Fluid
 FDEN.LB/G    *                       :   Fluid Density
 DFV .S       *                       :   Drilling Fluid Viscosity
 DFPH.        *                       :   Drilling Fluid Ph
 DFL .FT3     *                       :   Drilling Fluid Loss
 MSS .        *                       :   Mud Sample Source
 RMS .MMHO    *                       :   Resistivity Of Mud Sample
 MST .DEGF    *                       :   Mud Sample Temperature
 RMF .MMHO    *                       :   Mud Filtrate Resistivity
 MFST.DEGF    *                       :   Mud Filtrate Sample Temperature
 RMC .MMHO    *                       :   Mud Cake Resistivity
 MCST.DEGF    *                       :   Mud Cake Sample Temperature
 MFSS.        *                       :   Mud Filtrate Sample Source
 MCSS.        *                       :   Mud Cake Sample Source
 RMB .MMHO    *                       :   Mud Resistivity At Bht
 BHT .DEGF    *                       :   Bottom Hole Temperature
 TCS .HOUR    *                       :   Time Circulation Stopped
 MRT .DEGF    94 F                    :   Maximum Recorded Temperature
 LUN .        HL 6274                 :   Logging Unit Number
 LUL .        CASPER                  :   Logging Unit Location
 ENGI.        KRANKER                 :   Engineer'S Name
 WITN.        G. STRONG               :   Witness' Name
#  Curve Data
~A
# ...
    96.0000    177.1714    100.9763    -14.2999      5.9338      5.6443
    95.5000    178.3036    100.7318    -15.3381      5.9459      5.6084
    95.0000    180.1425    101.1034    -14.3414      5.9370      5.5512
    94.5000    182.6055    103.2852    -13.5786      5.8887      5.4763
    94.0000    185.2453    104.7323    -13.5136      5.8006      5.3982
    93.5000    187.5843    105.6974    -14.4326      5.6902      5.3309
    93.0000    189.4107    108.6278    -14.7519      5.5818      5.2795
    92.5000    190.8879    110.0362    -13.1617      5.4895      5.2387
    92.0000    192.1817    106.0648    -11.4765      5.4233      5.2034
    91.5000    192.9880    101.7836    -12.9509      5.4013      5.1817
    91.0000    192.7837    101.9333    -15.5492      5.4335      5.1872
    90.5000    191.5435    103.4561    -16.0149      5.4982      5.2207
    90.0000    189.7639    103.0780    -13.3791      5.5600      5.2697
    89.5000    188.0443    102.4988    -11.1636      5.6022      5.3179
    89.0000    186.7460    102.3974    -10.7351      5.6312      5.3549
    88.5000    185.8395    102.2195     -9.8396      5.6541      5.3810
    88.0000    185.0825    100.9622     -9.3528      5.6747      5.4030
    87.5000    184.4838    101.3707    -12.2454      5.7029      5.4205
    87.0000    184.4293    105.3124    -16.2355      5.7344      5.4221
    86.5000    185.3237    108.3873    -18.2808      5.7337      5.3960
    86.0000    187.0830    106.7808    -18.8908      5.6903      5.3452
    85.5000    189.0361    104.1358    -17.3691      5.6479      5.2900
    85.0000    190.4119    104.9820    -14.2002      5.6308      5.2518
    84.5000    190.9488    108.1214    -12.1905      5.6028      5.2370
    84.0000    191.2981    110.4751    -12.3851      5.5263      5.2274
    83.5000    192.1889    111.1700    -11.4964      5.4315      5.2032
    83.0000    193.1562    112.0335     -9.7005      5.3844      5.1772
    82.5000    193.0706    112.3994     -8.8874      5.4113      5.1795
    82.0000    191.5766    110.7994     -8.3137      5.4864      5.2198
    81.5000    189.1084    109.0155     -7.2383      5.5724      5.2880
    81.0000    186.2390    110.0447     -7.8724      5.6505      5.3694
    80.5000    183.2406    112.8048     -9.1820      5.7255      5.4573
    80.0000    180.0152    114.9992     -8.0865      5.8090      5.5551
    79.5000    176.5197    114.9845     -4.7504      5.9001      5.6651
    79.0000    172.9734    112.2909     -1.2944      5.9948      5.7812
    78.5000    169.5264    108.6017     -1.4469      6.1015      5.8988
    78.0000    166.5353    107.2492     -7.5918      6.2218      6.0047
    77.5000    164.5501    107.0695    -15.5367      6.3364      6.0772
    77.0000    163.7121    106.2408    -18.1472      6.4228      6.1083
    76.5000    163.7235    105.0230    -15.3250      6.4701      6.1079
    76.0000    164.4090    104.9593    -12.1149      6.4703      6.0824
    75.5000    165.9028    105.2634    -11.4625      6.4106      6.0276
    75.0000    168.2986    106.5944    -10.9062      6.2910      5.9418
    74.5000    171.1617    109.2905     -9.9094      6.1451      5.8424
    74.0000    173.7710    110.9380     -8.9935      6.0172      5.7547
    73.5000    175.7947    110.6531     -9.2205      5.9275      5.6885
    73.0000    177.1652    110.1713    -10.2215      5.8698      5.6445
    72.5000    177.8484    110.3014     -9.6343      5.8356      5.6228
    72.0000    178.0533    110.7348     -7.0550      5.8251      5.6163
    71.5000    178.0627    112.3287     -6.7237      5.8374      5.6160
    71.0000    178.0807    113.0847    -10.9519      5.8479      5.6154
    70.5000    178.5922    112.3631    -16.4706      5.8388      5.5993
    70.0000    181.9348    111.6717    -18.3055      5.8218      5.4965
    69.5000    189.7194    111.7707    -14.9953      5.8101      5.2709
    69.0000    196.3591    111.9700    -10.4386      5.7954      5.0927
    68.5000    196.5630    112.6714     -8.8746      5.7727      5.0874
    68.0000    192.4511    112.4894    -10.6271      5.7419      5.1961
    67.5000    184.9624    110.8764    -12.6121      5.6920      5.4065
    67.0000    178.5215    109.4085    -12.9817      5.6276      5.6016
    66.5000    187.0110    109.1567    -11.6025      5.6927      5.3473
    66.0000    206.5097    108.5203    -10.0351      6.0070      4.8424
    65.5000    217.8886    106.8810     -7.6628      6.0362      4.5895
    65.0000    217.0139    105.3549     -7.0925      5.5391      4.6080
    64.5000    214.2589    104.1197     -8.3793      5.2896      4.6672
    64.0000    215.3350    104.3344     -7.6735      5.6120      4.6439
    63.5000    209.3037    106.1092     -5.9728      6.1758      4.7777
    63.0000    154.0689    108.2234     -7.0309      6.4255      6.4906
    62.5000     71.1900    109.9254     -8.7931      5.9664     14.0469
    62.0000     42.7229    111.4374     -8.6547      5.2518     23.4067
    61.5000     85.2654    112.4711     -8.7770      4.8440     11.7281
    61.0000    179.3260    113.5774     -7.7558      4.0616      5.5764
    60.5000    340.5562    115.0473     -2.1021      2.9269      2.9364
    60.0000    402.8650    114.1145      4.2188      2.5824      2.4822
    59.5000    232.5310    110.0259      3.1378      3.4964      4.3005
    59.0000     51.2630    103.4131     -4.7074      8.6435     19.5072
    58.5000     37.1122     91.6987     -8.8541  10000.0000     26.9453
    58.0000    111.5855     76.6868     -7.9764  10000.0000      8.9617
    57.5000    153.8541     67.8347     -7.8318  10000.0000      6.4997
    57.0000    110.6479     68.2163     -7.8486  10000.0000      9.0377
    56.5000     33.9718     70.8762     -5.7904  10000.0000     29.4362
    56.0000     14.9777     72.0333     -5.7611  10000.0000     66.7657
    55.5000     43.3080     72.8680     -8.2329  10000.0000     23.0904
    55.0000     56.4227     72.1873     -9.1302  10000.0000     17.7234
    54.5000     46.4968     69.8935    -10.0757  10000.0000     21.5069
    54.0000     29.9283     69.3482    -11.5790  10000.0000     33.4132
    53.5000     18.3698     71.8516    -11.4405  10000.0000     54.4371
    53.0000     18.8104     74.2580     -9.7936  10000.0000     53.1620
    52.5000     23.7949     74.9544     -8.5138  10000.0000     42.0259
    52.0000     23.9900     75.3804     -9.7701  10000.0000     41.6840
    51.5000     19.6672     74.3645    -13.4414  10000.0000     50.8461
    51.0000     15.4789     71.4349    -17.1569  10000.0000     64.6040
    50.5000     13.2066     69.6351    -18.9945  10000.0000     75.7197
    50.0000     11.8567     70.6780    -19.5313  10000.0000     84.3407
    49.5000      9.3096     72.9434    -20.0297  10000.0000    107.4156
    49.0000      6.2417     74.6106    -22.3095  10000.0000    160.2122
    48.5000      4.9897     74.8112    -24.5064  10000.0000    200.4117
    48.0000      4.8425     72.8516    -21.4369  10000.0000    206.5054
    47.5000      3.3279     70.8332    -13.3877  10000.0000    300.4856
    47.0000      1.2957     70.3769     -5.7489  10000.0000    771.7979
    46.5000      1.0539     72.3497     -3.3684  10000.0000    948.8345
    46.0000      3.6135     74.6594     -4.7119  10000.0000    276.7415
    45.5000      7.7447     73.6393     -6.1040  10000.0000    129.1211
    45.0000     10.7935     70.7189     -5.2402  10000.0000     92.6481
    44.5000     10.7870     70.8402     -1.3347  10000.0000     92.7038
    44.0000      8.3806     72.8578      2.0993  10000.0000    119.3237
    43.5000      5.7742     73.3080     -0.7860  10000.0000    173.1852
    43.0000      4.9504     72.8018     -7.2389  10000.0000    202.0034
    42.5000      6.6354     73.1492    -10.2260  10000.0000    150.7068
    42.0000      8.8474     74.1870    -10.6628  10000.0000    113.0269
    41.5000      8.6230     75.0469    -10.8690  10000.0000    115.9693
    41.0000      6.3150     73.2001    -10.6149  10000.0000    158.3532
    40.5000      5.1262     68.7422    -10.1187  10000.0000    195.0748
