~Version Information
 VERS.                2.00:   CWLS log ASCII Standard -VERSION 2.00
 WRAP.                  NO:   One line per frame
~Well Information Block
#MNEM.UNIT              Data                Description
#--------- -------------------------------  -------------------------------
 STRT.F                          936.0000:   Starting Depth
 STOP.F                          -23.7500:   Ending Depth
 STEP.F                           -0.5000:   Level Spacing
 NULL.                          -999.2500:   Absent Value
 COMP.     FLUOR DANIEL (NPSOR), INC.    :   Company
 WELL.     34-1 X 14                     :   Well
 FLD .     N.P.R. NO.3                   :   Field
 LOC .     2516' FNL & 1946' FWL         :   Location
 PROV.                                   :   Province
 SRVC.                                   :   Service Company
 LIC .                                   :   License Number
 DATE.     10-DEC-94                     :   Log Date
 UWI .                                   :   Unique Well ID
~Curve Information Block
#MNEM.UNIT       API Codes    Curve Description
#---------    -------------   -------------------------------
 DEPT.F        0   0  0  0:   Depth
 CILD.MMHO     0   0  0  0:   Conductivity of Deep Induction
 GR  .API      0   0  0  0:   Gamma ray counts
 TEN .LBF      0   0  0  0:   Differential Tension
 RILM.OHMM     0   0  0  0:   Resistivity from CILM
 RILD.OHMM     0   0  0  0:   Resistivity from CILD
~Parameter Information Block
#MNEM.UNIT              Value             Description
#---------    -------------------------   -------------------------------
 APIN.        4902522678              :   API Serial Number
 COUN.        NATRONA                 :   County
 STAT.        WYOMING                 :   State Or Province
 SECT.        14                      :   Section
 TOWN.        38N                     :   Township
 RANG.        78W                     :   Range
 PDAT.        GROUND LEVEL            :   Permanent Datum
 EPD .FT      5260'                   :   Elevation Of Perm. Datum
 LMF .        K.B.                    :   Log Measured From
 FAPD.FT      10'                     :   Feet Above Perm. Datum
 DMF .        KELLY BUSHING           :   Drilling Measured From
 EKB .FT      5270'                   :   Elevation Of Kelly Bushing
 EDF .FT      5269'                   :   Elevation Of Derrick Floor
 EGL .FT      5260'                   :   Elevation Of Ground Level
 OS1 .        NONE                    :   Other Services Line 1
 SON .        92572                   :   Service Order Number
 DD  .FT      920'                    :   Depth Driller
 DL  .FT      916'                    :   Depth Logger
 BLI .FT      910'                    :   Bottom Log Interval
 TLI .FT      SURF                    :   Top Log Interval
 CSIZ.IN      9 5/8                   :   Casing Size
 CBD1.FT      58'                     :   Casing Bottom (Driller) 1
 CBL1.FT      59'                     :   Casing Bottom (Logger) 1
 BS  .IN      12.25                   :   Bit Size
 BHF .        AIR                     :   Borehole Fluid
 FDEN.LB/G    *                       :   Fluid Density
 DFV .S       *                       :   Drilling Fluid Viscosity
 DFPH.        *                       :   Drilling Fluid Ph
 DFL .FT3     *                       :   Drilling Fluid Loss
 MSS .        *                       :   Mud Sample Source
 RMS .MMHO    *                       :   Resistivity Of Mud Sample
 MST .DEGF    *                       :   Mud Sample Temperature
 RMF .MMHO    *                       :   Mud Filtrate Resistivity
 MFST.DEGF    *                       :   Mud Filtrate Sample Temperature
 RMC .MMHO    *                       :   Mud Cake Resistivity
 MCST.DEGF    *                       :   Mud Cake Sample Temperature
 MFSS.        *                       :   Mud Filtrate Sample Source
 MCSS.        *                       :   Mud Cake Sample Source
 RMB .MMHO    *                       :   Mud Resistivity At Bht
 BHT .DEGF    *                       :   Bottom Hole Temperature
 TCS .HOUR    *                       :   Time Circulation Stopped
 MRT .DEGF    94 F                    :   Maximum Recorded Temperature
 LUN .        HL 6274                 :   Logging Unit Number
 LUL .        CASPER                  :   Logging Unit Location
 ENGI.        KRANKER                 :   Engineer'S Name
 WITN.        G. STRONG               :   Witness' Name
#  Curve Data
~A
# ...
   320.0000     56.7340    100.6822     -8.7922     16.9035     17.6261
   319.5000     56.6317    102.7575     -7.8852     16.8626     17.6579
   319.0000     56.3751    101.5751     -6.3592     16.8869     17.7383
   318.5000     56.1465     98.1176     -8.9331     16.9613     17.8105
   318.0000     56.1100     95.1716    -12.5617     17.0321     17.8221
   317.5000     56.3463     94.5055    -11.6986     17.0637     17.7474
   317.0000     56.8716     96.8492     -9.2500     17.0285     17.5835
   316.5000     57.6042     99.4016     -8.6080     16.8937     17.3598
   316.0000     58.4155     98.5981     -7.0275     16.6373     17.1187
   315.5000     59.4188     97.1643     -3.0100     16.2773     16.8297
   315.0000     60.7106     97.3590     -1.0208     15.8657     16.4716
   314.5000     62.1581     97.7322     -3.7722     15.4721     16.0880
   314.0000     63.5578     97.9624     -7.8742     15.1678     15.7337
   313.5000     64.8545     99.4448     -9.0741     14.9562     15.4191
   313.0000     66.0163    101.6134     -8.6257     14.7835     15.1478
   312.5000     67.0215    102.9426    -11.3085     14.5959     14.9206
   312.0000     67.8983    103.4352    -13.7534     14.4143     14.7279
   311.5000     68.7260    102.2230    -12.3220     14.2958     14.5505
   311.0000     69.5130    100.3351    -11.4427     14.2120     14.3858
   310.5000     70.3451     99.1606    -13.2638     14.0919     14.2156
   310.0000     71.4107     99.0938    -12.4419     13.9139     14.0035
   309.5000     72.7484     99.1374     -9.8061     13.7055     13.7460
   309.0000     74.2757     99.3739    -11.0718     13.4787     13.4633
   308.5000     75.8143    100.2025    -16.0518     13.2645     13.1901
   308.0000     77.1342    100.1743    -20.9617     13.1074     12.9644
   307.5000     78.0691     99.5638    -25.2287     13.0098     12.8092
   307.0000     78.7413     99.7737    -25.4898     12.8900     12.6998
   306.5000     79.3432    101.6624    -18.8847     12.7112     12.6035
   306.0000     79.9594    101.9771    -10.0665     12.5632     12.5063
   305.5000     80.5820     99.2389     -9.6383     12.5143     12.4097
   305.0000     81.0444     97.6193    -15.3357     12.5390     12.3389
   304.5000     81.1289     98.1246    -17.0336     12.5696     12.3261
   304.0000     80.8830     96.8071    -14.1901     12.5530     12.3635
   303.5000     80.6447     93.8544    -13.9894     12.4844     12.4001
   303.0000     80.6087     94.9832    -15.5953     12.4106     12.4056
   302.5000     80.8069     98.6133    -16.2876     12.3479     12.3752
   302.0000     81.5295    100.0258    -16.6152     12.2508     12.2655
   301.5000     83.2447     99.4169    -13.5338     12.0653     12.0128
   301.0000     86.1255     99.2166     -7.7192     11.7752     11.6110
   300.5000     89.8736     99.0975     -7.0199     11.4248     11.1267
   300.0000     93.7531     99.8822    -11.4512     11.0932     10.6663
   299.5000     97.1347    100.8777    -12.3891     10.8069     10.2950
   299.0000    100.2185     99.8635    -10.8775     10.5227      9.9782
   298.5000    104.0565     96.5864    -12.8378     10.1773      9.6102
   298.0000    110.0629     93.0021    -16.5807      9.7186      9.0857
   297.5000    120.3758     90.4587    -16.0653      9.1248      8.3073
   297.0000    136.1941     91.3947    -12.1881      8.4141      7.3425
   296.5000    156.0254     95.2969    -10.8342      7.6393      6.4092
   296.0000    176.2954     97.8641    -13.0845      6.8742      5.6723
   295.5000    191.9098     98.4519    -15.1866      6.1889      5.2108
   295.0000    199.7746    101.1736    -15.1847      5.6210      5.0056
   294.5000    201.1328    106.0799    -15.2253      5.1874      4.9718
   294.0000    198.8456    107.3187    -15.6297      4.9085      5.0290
   293.5000    193.1945    103.5966    -16.6045      4.8475      5.1761
   293.0000    182.7150     99.7746    -15.7109      5.1093      5.4730
   292.5000    166.2997     98.5526    -13.4392      5.7855      6.0132
   292.0000    145.4990     98.5365    -14.0068      6.8747      6.8729
   291.5000    125.1390     97.3540    -18.0115      8.1305      7.9911
   291.0000    110.4138     95.8531    -19.3757      9.1828      9.0568
   290.5000    102.5082     95.9344    -17.6744      9.8384      9.7553
   290.0000    100.2114     96.1429    -15.6349     10.0452      9.9789
   289.5000    103.3803     95.1440    -13.7457      9.8269      9.6730
   289.0000    113.5983     96.5516    -11.4442      9.2235      8.8029
   288.5000    133.9045    101.4449     -9.6346      8.2484      7.4680
   288.0000    167.3899    105.4098    -10.6469      7.0016      5.9741
   287.5000    213.7989    105.9153    -14.7702      5.7534      4.6773
   287.0000    269.0303    106.7736    -16.4245      4.6997      3.7171
   286.5000    329.1516    112.0050    -13.2519      3.8509      3.0381
   286.0000    387.4448    118.9105    -10.0632      3.1679      2.5810
   285.5000    440.8142    123.9038     -9.8134      2.6353      2.2685
   285.0000    487.5229    127.4376    -12.1500      2.2569      2.0512
   284.5000    516.9827    132.0251    -14.4753      2.0479      1.9343
   284.0000    520.5576    135.6523    -13.9184      1.9815      1.9210
   283.5000    498.2151    132.2778    -11.6635      2.0229      2.0072
   283.0000    457.7200    120.7645    -10.2727      2.1616      2.1847
   282.5000    409.7991    109.8582     -8.5861      2.4282      2.4402
   282.0000    356.4912    106.1186     -8.1292      2.8631      2.8051
   281.5000    300.3870    105.2715     -9.7871      3.5336      3.3290
   281.0000    246.5807    104.0109    -10.9873      4.4443      4.0555
   280.5000    204.3206    103.7517    -13.1766      5.4287      4.8943
   280.0000    174.3846    105.3485    -17.5793      6.2178      5.7344
   279.5000    156.4368    106.0371    -20.3706      6.6906      6.3924
   279.0000    146.7782    105.8920    -19.8430      6.9311      6.8130
   278.5000    141.2859    109.1826    -18.8899      7.1006      7.0778
   278.0000    137.3482    115.2558    -18.4299      7.2562      7.2808
   277.5000    134.2989    117.1168    -18.5236      7.3574      7.4461
   277.0000    132.7458    114.6264    -19.2458      7.3888      7.5332
   276.5000    132.9629    112.9635    -19.0726      7.3904      7.5209
   276.0000    134.3376    113.1943    -16.6685      7.4035      7.4439
   275.5000    136.2522    112.4015    -14.0480      7.4395      7.3393
   275.0000    138.7368    110.8107    -13.5316      7.4697      7.2079
   274.5000    141.9966    108.7263    -14.8437      7.4512      7.0424
   274.0000    145.8542    106.4980    -15.8374      7.3705      6.8562
   273.5000    149.9124    107.7094    -15.5724      7.2485      6.6706
   273.0000    153.6616    113.6026    -17.2166      7.1175      6.5078
   272.5000    156.6540    119.4442    -21.3912      6.9970      6.3835
   272.0000    158.7759    120.8389    -21.3344      6.8772      6.2982
   271.5000    160.3428    119.0029    -14.5021      6.7438      6.2366
   271.0000    161.8052    117.9356     -6.8485      6.6166      6.1803
   270.5000    163.2487    117.9854     -3.5328      6.5344      6.1256
   270.0000    164.0936    116.9517     -4.5381      6.5097      6.0941
   269.5000    163.8214    115.5690     -7.4505      6.5255      6.1042
   269.0000    162.7263    116.2371     -9.2863      6.5676      6.1453
   268.5000    161.3700    117.5872     -8.2207      6.6280      6.1969
   268.0000    159.9678    117.5566     -5.4223      6.6899      6.2513
   267.5000    158.6760    116.1883     -3.5816      6.7408      6.3021
   267.0000    157.5781    114.8026     -4.0995      6.7854      6.3461
   266.5000    156.6597    115.2946     -4.6107      6.8267      6.3833
   266.0000    155.9324    117.5870     -5.8816      6.8570      6.4130
   265.5000    155.4019    120.3791     -8.8932      6.8756      6.4349
   265.0000    154.8929    120.1587    -11.5385      6.8934      6.4561
   264.5000    154.1905    115.6001    -12.6627      6.9134      6.4855
