~Version Information
 VERS.                2.00:   CWLS log ASCII Standard -VERSION 2.00
 WRAP.                  NO:   One line per frame
~Well Information Block
#MNEM.UNIT              Data                Description
#--------- -------------------------------  -------------------------------
 STRT.F                          936.0000:   Starting Depth
 STOP.F                          -23.7500:   Ending Depth
 STEP.F                           -0.5000:   Level Spacing
 NULL.                          -999.2500:   Absent Value
 COMP.     FLUOR DANIEL (NPSOR), INC.    :   Company
 WELL.     34-1 X 14                     :   Well
 FLD .     N.P.R. NO.3                   :   Field
 LOC .     2516' FNL & 1946' FWL         :   Location
 PROV.                                   :   Province
 SRVC.                                   :   Service Company
 LIC .                                   :   License Number
 DATE.     10-DEC-94                     :   Log Date
 UWI .                                   :   Unique Well ID
~Curve Information Block
#MNEM.UNIT       API Codes    Curve Description
#---------    -------------   -------------------------------
 DEPT.F        0   0  0  0:   Depth
 CILD.MMHO     0   0  0  0:   Conductivity of Deep Induction
 GR  .API      0   0  0  0:   Gamma ray counts
 TEN .LBF      0   0  0  0:   Differential Tension
 RILM.OHMM     0   0  0  0:   Resistivity from CILM
 RILD.OHMM     0   0  0  0:   Resistivity from CILD
~Parameter Information Block
#MNEM.UNIT              Value             Description
#---------    -------------------------   -------------------------------
 APIN.        4902522678              :   API Serial Number
 COUN.        NATRONA                 :   County
 STAT.        WYOMING                 :   State Or Province
 SECT.        14                      :   Section
 TOWN.        38N                     :   Township
 RANG.        78W                     :   Range
 PDAT.        GROUND LEVEL            :   Permanent Datum
 EPD .FT      5260'                   :   Elevation Of Perm. Datum
 LMF .        K.B.                    :   Log Measured From
 FAPD.FT      10'                     :   Feet Above Perm. Datum
 DMF .        KELLY BUSHING           :   Drilling Measured From
 EKB .FT      5270'                   :   Elevation Of Kelly Bushing
 EDF .FT      5269'                   :   Elevation Of Derrick Floor
 EGL .FT      5260'                   :   Elevation Of Ground Level
 OS1 .        NONE                    :   Other Services Line 1
 SON .        92572                   :   Service Order Number
 DD  .FT      920'                    :   Depth Driller
 DL  .FT      916'                    :   Depth Logger
 BLI .FT      910'                    :   Bottom Log Interval
 TLI .FT      SURF                    :   Top Log Interval
 CSIZ.IN      9 5/8                   :   Casing Size
 CBD1.FT      58'                     :   Casing Bottom (Driller) 1
 CBL1.FT      59'                     :   Casing Bottom (Logger) 1
 BS  .IN      12.25                   :   Bit Size
 BHF .        AIR                     :   Borehole Fluid
 FDEN.LB/G    *                       :   Fluid Density
 DFV .S       *                       :   Drilling Fluid Viscosity
 DFPH.        *                       :   Drilling Fluid Ph
 DFL .FT3     *                       :   Drilling Fluid Loss
 MSS .        *                       :   Mud Sample Source
 RMS .MMHO    *                       :   Resistivity Of Mud Sample
 MST .DEGF    *                       :   Mud Sample Temperature
 RMF .MMHO    *                       :   Mud Filtrate Resistivity
 MFST.DEGF    *                       :   Mud Filtrate Sample Temperature
 RMC .MMHO    *                       :   Mud Cake Resistivity
 MCST.DEGF    *                       :   Mud Cake Sample Temperature
 MFSS.        *                       :   Mud Filtrate Sample Source
 MCSS.        *                       :   Mud Cake Sample Source
 RMB .MMHO    *                       :   Mud Resistivity At Bht
 BHT .DEGF    *                       :   Bottom Hole Temperature
 TCS .HOUR    *                       :   Time Circulation Stopped
 MRT .DEGF    94 F                    :   Maximum Recorded Temperature
 LUN .        HL 6274                 :   Logging Unit Number
 LUL .        CASPER                  :   Logging Unit Location
 ENGI.        KRANKER                 :   Engineer'S Name
 WITN.        G. STRONG               :   Witness' Name
#  Curve Data
~A
   936.0000      0.0000      0.0000   -250.0000      0.2000      0.2000
   935.5000      0.0000      0.0000   -250.0000      0.2000      0.2000
   935.0000      0.0000      0.0000   -250.0000      0.2000      0.2000
   934.5000      0.0000      0.0000   -250.0000      0.2000      0.2000
   934.0000      0.0000      0.0000   -250.0000      0.2000      0.2000
   933.5000      0.0000      0.0000   -250.0000      0.2000      0.2000
   933.0000      0.0000      0.0000   -250.0000      0.2000      0.2000
   932.5000      0.0000      0.0000   -250.0000      0.2000      0.2000
   932.0000      0.0000      0.0000   -250.0000      0.2000      0.2000
   931.5000      0.0000      0.0000   -250.0000      0.2000      0.2000
   931.0000      0.0000      0.0000   -250.0000      0.2000      0.2000
   930.5000      0.0000      0.0000   -250.0000      0.2000      0.2000
   930.0000      0.0000      0.0000   -250.0000      0.2000      0.2000
   929.5000      0.0000      0.0000   -250.0000      0.2000      0.2000
   929.0000      0.0000      0.0000   -250.0000      0.2000      0.2000
   928.5000      0.0000      0.0000   -250.0000      0.2000      0.2000
   928.0000      0.0000      0.0000   -250.0000      0.2000      0.2000
   927.5000      0.0000      0.0000   -250.0000      0.2000      0.2000
   927.0000      0.0000      0.0000   -250.0000      0.2000      0.2000
   926.5000      0.0000      0.0000   -250.0000      0.2000      0.2000
   926.0000      0.0000      0.0000   -159.0608      0.2000      0.2000
   925.5000      0.0000      0.0000   -157.5108      0.2000      0.2000
   925.0000      0.0000      0.0000   -156.9627      0.2000      0.2000
   924.5000      0.0000      0.0000   -154.6371      0.2000      0.2000
   924.0000      0.0000      0.0000   -147.8771      0.2000      0.2000
   923.5000      0.0000      0.0000   -140.3003      0.2000      0.2000
   923.0000      0.0000      0.0000   -136.6793      0.2000      0.2000
   922.5000      0.0000      0.0000   -135.9003      0.2000      0.2000
   922.0000      0.0000      0.0000   -133.3975      0.2000      0.2000
   921.5000      0.0000      0.0000   -127.6583      0.2000      0.2000
   921.0000      0.0000      0.0000   -121.3439      0.2000      0.2000
   920.5000      0.0000      0.0000   -117.3503      0.2000      0.2000
   920.0000      0.0000      0.0000   -113.1797      9.2112      0.2000
   919.5000      0.0000      0.0000   -107.9508      9.2082      0.2000
   919.0000      0.0000      0.0000   -104.5576      9.2097      0.2000
   918.5000      0.0000      0.0000   -101.5159      9.2144      0.2000
   918.0000      0.0000      0.0000    -89.4760      9.2218      0.2000
   917.5000      0.0000      0.0000    -31.5263      9.2235      0.2000
   917.0000      0.0000      0.0000    101.8926      9.2143      0.2000
   916.5000      0.0000      0.0000    257.4597      9.2039      0.2000
   916.0000      0.0000      0.0000    348.8621      9.2025      0.2000
   915.5000      0.0000      0.0000    370.6182      9.2093      0.2000
   915.0000      0.0000      0.0000    370.6729      9.2144      0.2000
   914.5000      0.0000      0.0000    368.9167      9.2150      0.2000
   914.0000      0.0000      0.0000    364.0278      9.2132      0.2000
   913.5000      0.0000      0.0000    358.8508      9.2123      0.2000
   913.0000      0.0000      0.0000    359.3040      9.2115      0.2000
   912.5000      0.0000      0.0000    362.6707      9.2111      0.2000
   912.0000      0.0000      0.0000    362.4751      9.2127      0.2000
   911.5000      0.0000      0.0000    358.1523      9.2107      0.2000
   911.0000      0.0000      0.0000    353.0354      9.1784      0.2000
   910.5000      0.0000      0.0000    347.2981      9.0805      0.2000
   910.0000    142.7228      0.0000    341.5959      8.9287      7.0066
   909.5000    142.7484      0.0000    339.9424      8.7409      7.0053
   909.0000    142.6763      0.0000    342.2795      8.4970      7.0089
   908.5000    142.7323      0.0000    343.4160      8.1879      7.0061
   908.0000    143.0477      0.0000    337.8535      7.8635      6.9907
   907.5000    143.8684      0.0000    328.8181      7.5854      6.9508
   907.0000    145.3012      0.0000    322.1858      7.3675      6.8823
   906.5000    146.8367      0.0000    320.7627      7.1743      6.8103
   906.0000    147.9521      0.0000    320.4460      6.9978      6.7589
   905.5000    148.5029      0.0000    318.0925      6.8994      6.7339
   905.0000    148.2472      0.0000    316.9626      6.9276      6.7455
   904.5000    146.7602      0.0000    317.2461      7.0623      6.8138
   904.0000    144.2587      0.0000    314.1782      7.2318      6.9320
   903.5000    141.5102      0.0000    306.0686      7.3734      7.0666
   903.0000    139.2531      0.0000    299.0195      7.4643      7.1812
   902.5000    137.6187    115.9099    294.6558      7.5192      7.2665
   902.0000    136.4869    118.8038    293.3833      7.5784      7.3267
   901.5000    135.7020    120.8319    297.3640      7.6657      7.3691
   901.0000    134.9443    117.8449    303.5833      7.7604      7.4105
   900.5000    133.8229    115.3444    303.1719      7.8323      7.4726
   900.0000    132.4774    118.1430    297.0803      7.8951      7.5485
   899.5000    131.1731    121.1177    293.2141      7.9704      7.6235
   899.0000    129.7693    121.2204    290.4634      8.0568      7.7060
   898.5000    127.9861    121.9005    286.5125      8.1454      7.8134
   898.0000    125.8843    122.1465    284.2336      8.2456      7.9438
   897.5000    123.7386    119.5764    282.9189      8.3802      8.0816
   897.0000    121.9241    118.1152    278.2517      8.5356      8.2018
   896.5000    120.6265    118.1412    272.8855      8.6664      8.2901
   896.0000    119.7932    116.4322    269.5327      8.7511      8.3477
   895.5000    119.3099    115.1060    268.7375      8.8048      8.3815
   895.0000    119.1824    116.2447    271.4451      8.8373      8.3905
   894.5000    119.2740    117.6883    272.6516      8.8426      8.3841
   894.0000    119.3609    119.4196    269.5417      8.8275      8.3779
   893.5000    119.3509    121.7043    267.0786      8.8187      8.3787
   893.0000    119.0896    121.8667    267.6230      8.8384      8.3970
   892.5000    118.4210    118.3928    267.5244      8.8920      8.4445
   892.0000    117.3538    115.8142    266.4360      8.9853      8.5212
   891.5000    115.9859    117.3729    265.9255      9.1194      8.6217
   891.0000    114.4217    120.0781    264.0613      9.2786      8.7396
   890.5000    112.8102    119.7367    259.1729      9.4400      8.8645
   890.0000    111.2470    118.4108    252.8126      9.5831      8.9890
   889.5000    109.7590    118.1150    248.4609      9.7027      9.1109
   889.0000    108.3031    118.0646    247.7878      9.8153      9.2333
   888.5000    106.7943    119.1247    248.4185      9.9277      9.3638
   888.0000    105.2359    120.4695    248.3935     10.0241      9.5025
   887.5000    103.7113    119.4746    246.7050     10.1217      9.6421
   887.0000    102.2206    115.7356    244.5679     10.2665      9.7828
   886.5000    100.6646    112.3358    244.4282     10.4670      9.9340
   886.0000     99.0265    111.0609    244.6868     10.6863     10.0983
   885.5000     97.3348    111.5235    241.3129     10.8893     10.2738
   885.0000     95.8171    112.0462    235.1248     11.0613     10.4365
   884.5000     94.6513    111.5446    230.3430     11.1996     10.5651
   884.0000     93.7963    111.4627    228.1860     11.2999     10.6614
   883.5000     93.2104    112.9139    228.7911     11.3575     10.7284
   883.0000     92.9441    114.1117    229.9282     11.3819     10.7592
   882.5000     92.8067    114.0299    228.5483     11.4063     10.7751
   882.0000     92.3522    112.9660    226.9523     11.4515     10.8281
   881.5000     91.4696    111.1533    226.2987     11.4852     10.9326
   881.0000     90.5331    109.5253    223.7172     11.4873     11.0457
   880.5000     89.7916    109.2937    219.6219     11.5051     11.1369
