~Version Information
 VERS.                2.00:   CWLS log ASCII Standard -VERSION 2.00
 WRAP.                  NO:   One line per frame
~Well Information Block
#MNEM.UNIT              Data                Description
#--------- -------------------------------  -------------------------------
 STRT.F                          936.0000:   Starting Depth
 STOP.F                          -23.7500:   Ending Depth
 STEP.F                           -0.5000:   Level Spacing
 NULL.                          -999.2500:   Absent Value
 COMP.     FLUOR DANIEL (NPSOR), INC.    :   Company
 WELL.     34-1 X 14                     :   Well
 FLD .     N.P.R. NO.3                   :   Field
 LOC .     2516' FNL & 1946' FWL         :   Location
 PROV.                                   :   Province
 SRVC.                                   :   Service Company
 LIC .                                   :   License Number
 DATE.     10-DEC-94                     :   Log Date
 UWI .                                   :   Unique Well ID
~Curve Information Block
#MNEM.UNIT       API Codes    Curve Description
#---------    -------------   -------------------------------
 DEPT.F        0   0  0  0:   Depth
 CILD.MMHO     0   0  0  0:   Conductivity of Deep Induction
 GR  .API      0   0  0  0:   Gamma ray counts
 TEN .LBF      0   0  0  0:   Differential Tension
 RILM.OHMM     0   0  0  0:   Resistivity from CILM
 RILD.OHMM     0   0  0  0:   Resistivity from CILD
~Parameter Information Block
#MNEM.UNIT              Value             Description
#---------    -------------------------   -------------------------------
 APIN.        4902522678              :   API Serial Number
 COUN.        NATRONA                 :   County
 STAT.        WYOMING                 :   State Or Province
 SECT.        14                      :   Section
 TOWN.        38N                     :   Township
 RANG.        78W                     :   Range
 PDAT.        GROUND LEVEL            :   Permanent Datum
 EPD .FT      5260'                   :   Elevation Of Perm. Datum
 LMF .        K.B.                    :   Log Measured From
 FAPD.FT      10'                     :   Feet Above Perm. Datum
 DMF .        KELLY BUSHING           :   Drilling Measured From
 EKB .FT      5270'                   :   Elevation Of Kelly Bushing
 EDF .FT      5269'                   :   Elevation Of Derrick Floor
 EGL .FT      5260'                   :   Elevation Of Ground Level
 OS1 .        NONE                    :   Other Services Line 1
 SON .        92572                   :   Service Order Number
 DD  .FT      920'                    :   Depth Driller
 DL  .FT      916'                    :   Depth Logger
 BLI .FT      910'                    :   Bottom Log Interval
 TLI .FT      SURF                    :   Top Log Interval
 CSIZ.IN      9 5/8                   :   Casing Size
 CBD1.FT      58'                     :   Casing Bottom (Driller) 1
 CBL1.FT      59'                     :   Casing Bottom (Logger) 1
 BS  .IN      12.25                   :   Bit Size
 BHF .        AIR                     :   Borehole Fluid
 FDEN.LB/G    *                       :   Fluid Density
 DFV .S       *                       :   Drilling Fluid Viscosity
 DFPH.        *                       :   Drilling Fluid Ph
 DFL .FT3     *                       :   Drilling Fluid Loss
 MSS .        *                       :   Mud Sample Source
 RMS .MMHO    *                       :   Resistivity Of Mud Sample
 MST .DEGF    *                       :   Mud Sample Temperature
 RMF .MMHO    *                       :   Mud Filtrate Resistivity
 MFST.DEGF    *                       :   Mud Filtrate Sample Temperature
 RMC .MMHO    *                       :   Mud Cake Resistivity
 MCST.DEGF    *                       :   Mud Cake Sample Temperature
 MFSS.        *                       :   Mud Filtrate Sample Source
 MCSS.        *                       :   Mud Cake Sample Source
 RMB .MMHO    *                       :   Mud Resistivity At Bht
 BHT .DEGF    *                       :   Bottom Hole Temperature
 TCS .HOUR    *                       :   Time Circulation Stopped
 MRT .DEGF    94 F                    :   Maximum Recorded Temperature
 LUN .        HL 6274                 :   Logging Unit Number
 LUL .        CASPER                  :   Logging Unit Location
 ENGI.        KRANKER                 :   Engineer'S Name
 WITN.        G. STRONG               :   Witness' Name
#  Curve Data
~A
# ...
    40.0000      6.4451     66.3732     -9.0283  10000.0000    155.1575
    39.5000      7.9065     68.0102     -5.9643  10000.0000    126.4782
    39.0000      7.0755     71.0533     -3.0512  10000.0000    141.3333
    38.5000      7.2914     72.0295     -2.9182  10000.0000    137.1470
    38.0000     17.0893     71.4994     -4.3032  10000.0000     58.5161
    37.5000     36.6734     70.9900     -6.0259  10000.0000     27.2677
    37.0000     50.9669     70.8338     -8.8508  10000.0000     19.6206
    36.5000     44.8667     70.2763    -10.7598  10000.0000     22.2883
    36.0000     25.5548     69.7791     -8.7416  10000.0000     39.1315
    35.5000      9.8686     70.5588     -5.6785  10000.0000    101.3318
    35.0000      4.4327     71.6481     -5.3964  10000.0000    225.5944
    34.5000      4.1709     71.4672     -4.5253  10000.0000    239.7552
    34.0000      4.5232     70.8340     -1.3502  10000.0000    221.0821
    33.5000      4.5841     71.6886      0.1391  10000.0000    218.1467
    33.0000      4.4754     72.7411     -1.0519  10000.0000    223.4442
    32.5000      4.4472     73.2432     -1.6232  10000.0000    224.8599
    32.0000      4.5846     74.0647     -2.3384  10000.0000    218.1234
    31.5000      4.5355     75.1546     -5.6828  10000.0000    220.4825
    31.0000      4.1287     75.7849     -9.9512  10000.0000    242.2086
    30.5000      3.7058     75.9474    -10.5350  10000.0000    269.8506
    30.0000      3.5797     73.7532     -5.5101  10000.0000    279.3562
    29.5000      3.7795     69.1059      0.6719  10000.0000    264.5879
    29.0000      4.1861     66.0394      1.0208  10000.0000    238.8840
    28.5000      4.5213     68.1777     -3.9025    876.2646    221.1775
    28.0000      4.6104     72.2892     -7.5195    631.2478    216.8986
    27.5000      4.5764     73.3920     -7.2498   1894.9470    218.5134
    27.0000      4.5469     72.0660     -6.1311  10000.0000    219.9288
    26.5000      4.5206     69.7386     -5.5946  10000.0000    221.2090
    26.0000      4.3434     66.4896     -4.1825  10000.0000    230.2360
    25.5000      3.5000     64.1422      1.0425  10000.0000    285.7112
    25.0000      2.6094     65.0105      7.4957  10000.0000    383.2244
    24.5000      2.8451     68.4314      9.5187  10000.0000    351.4841
    24.0000      3.8740     72.6002      7.4091  10000.0000    258.1294
    23.5000      4.4645     76.1957      5.7935  10000.0000    223.9888
    23.0000      4.5386     76.8935      4.8931  10000.0000    220.3307
    22.5000      4.5406     70.8601      3.8613  10000.0000    220.2346
    22.0000      4.5107     55.4017      2.5214  10000.0000    221.6948
    21.5000      4.5052     45.3107     -1.5592  10000.0000    221.9651
    21.0000      4.5292     53.3527     -7.8803  10000.0000    220.7892
    20.5000      4.5187     66.8341    -11.6327  10000.0000    221.3045
    20.0000      4.4598     70.0593    -12.2909  10000.0000    224.2269
    19.5000      4.4221     67.0110    -10.9468  10000.0000    226.1355
    19.0000      4.4794     64.1240     -6.0988  10000.0000    223.2449
    18.5000      4.6244     61.7856     -0.2034  10000.0000    216.2453
    18.0000      4.7094     62.0485     -0.3633  10000.0000    212.3405
    17.5000      4.6385     64.4069     -4.3801  10000.0000    215.5879
    17.0000      4.5098     66.1332     -2.6465  10000.0000    221.7397
    16.5000      4.4419     64.7100      6.5962  10000.0000    225.1290
    16.0000      4.4230     62.1259     12.7414  10000.0000    226.0929
    15.5000      4.4366     62.0628     11.1054  10000.0000    225.3971
    15.0000      4.4696     63.5851      8.7300  10000.0000    223.7345
    14.5000      4.4889     62.2952      8.6757  10000.0000    222.7694
    14.0000      4.4812     59.3618      6.4508  10000.0000    223.1544
    13.5000      4.4715     56.5458      0.9827  10000.0000    223.6377
    13.0000      4.4616     52.4971     -2.9100  10000.0000    224.1341
    12.5000      4.4489     46.5030     -3.9470  10000.0000    224.7739
    12.0000      4.4499     38.9720     -3.1955  10000.0000    224.7222
    11.5000      4.4899     29.5705     -1.4207  10000.0000    222.7226
    11.0000      4.5494     20.5638     -0.4874  10000.0000    219.8103
    10.5000      4.5995     18.1635     -2.1393  10000.0000    217.4156
    10.0000      4.6435     22.6402     -3.1079  10000.0000    215.3549
     9.5000      4.6639     27.0857     -0.3044  10000.0000    214.4136
     9.0000      4.6467     26.3917      1.7522  10000.0000    215.2071
     8.5000      4.6215     23.6524     -0.4599  10000.0000    216.3802
     8.0000      4.6013     23.0498     -3.2056  10000.0000    217.3277
     7.5000      4.5670     24.4750     -3.3007  10000.0000    218.9608
     7.0000      4.5618     24.0788     -2.4613  10000.0000    219.2100
     6.5000      4.6054     19.8305     -3.4932  10000.0000    217.1352
     6.0000      4.6281     16.2382     -6.1653  10000.0000    216.0722
     5.5000      4.5941     19.1177     -8.1941  10000.0000    217.6689
     5.0000      4.6339     26.2984     -9.6011  10000.0000    215.8008
     4.5000      4.8050     31.4128    -12.2820  10000.0000    208.1153
     4.0000      4.8434     33.2138    -14.7178  10000.0000    206.4664
     3.5000      4.6009     33.1602    -13.5951  10000.0000    217.3475
     3.0000      4.4140     29.3478     -8.9234  10000.0000    226.5500
     2.5000      4.5130     22.5270     -3.8546  10000.0000    221.5836
     2.0000      4.5502     18.8009     -2.9597  10000.0000    219.7726
     1.5000      4.2630     20.8764     -6.5700  10000.0000    234.5787
     1.0000      3.8476     23.6958    -10.7595  10000.0000    259.9041
     0.5000      3.5538     23.4758    -13.7918  10000.0000    281.3926
     0.0000      3.5695     22.4563   -250.0000  10000.0000    280.1492
    -0.5000      4.0422     22.5317   -250.0000  10000.0000    247.3908
    -1.0000      4.7523     22.3692   -250.0000  10000.0000    210.4265
    -1.5000      5.2479     22.0097   -250.0000  10000.0000    190.5511
    -2.0000      5.3682     22.9250   -250.0000  10000.0000    186.2829
    -2.5000      0.0000     24.5806   -250.0000  10000.0000      0.2000
    -3.0000      0.0000     26.4436   -250.0000  10000.0000      0.2000
    -3.5000      0.0000     28.9722   -250.0000  10000.0000      0.2000
    -4.0000      0.0000     30.7271   -250.0000  10000.0000      0.2000
    -4.5000      0.0000     30.4439   -250.0000  10000.0000      0.2000
    -5.0000      0.0000     30.0188   -250.0000  10000.0000      0.2000
    -5.5000      0.0000     31.2845   -250.0000  10000.0000      0.2000
    -6.0000      0.0000     32.4234   -250.0000      0.2000      0.2000
    -6.5000      0.0000     32.6717   -250.0000      0.2000      0.2000
    -7.0000      0.0000     32.4219   -250.0000      0.2000      0.2000
    -7.5000      0.0000     32.2948   -250.0000      0.2000      0.2000
    -8.0000      0.0000     33.4204   -250.0000      0.2000      0.2000
    -8.5000      0.0000     36.1149   -250.0000      0.2000      0.2000
    -9.0000      0.0000     38.9856   -250.0000      0.2000      0.2000
    -9.5000      0.0000     40.8006   -250.0000      0.2000      0.2000
   -10.0000      0.0000     41.0714   -250.0000      0.2000      0.2000
   -10.5000      0.0000     39.5130   -250.0000      0.2000      0.2000
   -11.0000      0.0000     37.7504   -250.0000      0.2000      0.2000
   -11.5000      0.0000     37.6074   -250.0000      0.2000      0.2000
   -12.0000      0.0000     38.9451   -250.0000      0.2000      0.2000
   -12.5000      0.0000     40.0903   -250.0000      0.2000      0.2000
   -13.0000      0.0000     41.3963   -250.0000      0.2000      0.2000
   -13.5000      0.0000     44.5189   -250.0000      0.2000      0.2000
   -14.0000      0.0000     46.9613   -250.0000      0.2000      0.2000
   -14.5000      0.0000     46.2958   -250.0000      0.2000      0.2000
   -15.0000      0.0000     44.1712   -250.0000      0.2000      0.2000
   -15.5000      0.0000     42.6068   -250.0000      0.2000      0.2000
