~Version Information
 VERS.                2.00:   CWLS log ASCII Standard -VERSION 2.00
 WRAP.                  NO:   One line per frame
~Well Information Block
#MNEM.UNIT              Data                Description
#--------- -------------------------------  -------------------------------
 STRT.F                          936.0000:   Starting Depth
 STOP.F                          -23.7500:   Ending Depth
 STEP.F                           -0.5000:   Level Spacing
 NULL.                          -999.2500:   Absent Value
 COMP.     FLUOR DANIEL (NPSOR), INC.    :   Company
 WELL.     34-1 X 14                     :   Well
 FLD .     N.P.R. NO.3                   :   Field
 LOC .     2516' FNL & 1946' FWL         :   Location
 PROV.                                   :   Province
 SRVC.                                   :   Service Company
 LIC .                                   :   License Number
 DATE.     10-DEC-94                     :   Log Date
 UWI .                                   :   Unique Well ID
~Curve Information Block
#MNEM.UNIT       API Codes    Curve Description
#---------    -------------   -------------------------------
 DEPT.F        0   0  0  0:   Depth
 CILD.MMHO     0   0  0  0:   Conductivity of Deep Induction
 GR  .API      0   0  0  0:   Gamma ray counts
 TEN .LBF      0   0  0  0:   Differential Tension
 RILM.OHMM     0   0  0  0:   Resistivity from CILM
 RILD.OHMM     0   0  0  0:   Resistivity from CILD
~Parameter Information Block
#MNEM.UNIT              Value             Description
#---------    -------------------------   -------------------------------
 APIN.        4902522678              :   API Serial Number
 COUN.        NATRONA                 :   County
 STAT.        WYOMING                 :   State Or Province
 SECT.        14                      :   Section
 TOWN.        38N                     :   Township
 RANG.        78W                     :   Range
 PDAT.        GROUND LEVEL            :   Permanent Datum
 EPD .FT      5260'                   :   Elevation Of Perm. Datum
 LMF .        K.B.                    :   Log Measured From
 FAPD.FT      10'                     :   Feet Above Perm. Datum
 DMF .        KELLY BUSHING           :   Drilling Measured From
 EKB .FT      5270'                   :   Elevation Of Kelly Bushing
 EDF .FT      5269'                   :   Elevation Of Derrick Floor
 EGL .FT      5260'                   :   Elevation Of Ground Level
 OS1 .        NONE                    :   Other Services Line 1
 SON .        92572                   :   Service Order Number
 DD  .FT      920'                    :   Depth Driller
 DL  .FT      916'                    :   Depth Logger
 BLI .FT      910'                    :   Bottom Log Interval
 TLI .FT      SURF                    :   Top Log Interval
 CSIZ.IN      9 5/8                   :   Casing Size
 CBD1.FT      58'                     :   Casing Bottom (Driller) 1
 CBL1.FT      59'                     :   Casing Bottom (Logger) 1
 BS  .IN      12.25                   :   Bit Size
 BHF .        AIR                     :   Borehole Fluid
 FDEN.LB/G    *                       :   Fluid Density
 DFV .S       *                       :   Drilling Fluid Viscosity
 DFPH.        *                       :   Drilling Fluid Ph
 DFL .FT3     *                       :   Drilling Fluid Loss
 MSS .        *                       :   Mud Sample Source
 RMS .MMHO    *                       :   Resistivity Of Mud Sample
 MST .DEGF    *                       :   Mud Sample Temperature
 RMF .MMHO    *                       :   Mud Filtrate Resistivity
 MFST.DEGF    *                       :   Mud Filtrate Sample Temperature
 RMC .MMHO    *                       :   Mud Cake Resistivity
 MCST.DEGF    *                       :   Mud Cake Sample Temperature
 MFSS.        *                       :   Mud Filtrate Sample Source
 MCSS.        *                       :   Mud Cake Sample Source
 RMB .MMHO    *                       :   Mud Resistivity At Bht
 BHT .DEGF    *                       :   Bottom Hole Temperature
 TCS .HOUR    *                       :   Time Circulation Stopped
 MRT .DEGF    94 F                    :   Maximum Recorded Temperature
 LUN .        HL 6274                 :   Logging Unit Number
 LUL .        CASPER                  :   Logging Unit Location
 ENGI.        KRANKER                 :   Engineer'S Name
 WITN.        G. STRONG               :   Witness' Name
#  Curve Data
~A
# ...
   768.0000     92.6723     95.5959     44.9244     11.3714     10.7907
   767.5000     92.3440     95.6766     48.1363     11.4349     10.8291
   767.0000     92.0074     90.9905     48.9842     11.5097     10.8687
   766.5000     91.6472     86.7722     45.2858     11.5847     10.9114
   766.0000     91.2691     88.5687     40.2810     11.6621     10.9566
   765.5000     90.8484     93.1642     36.3020     11.7446     11.0073
   765.0000     90.5001     96.0182     34.7441     11.8053     11.0497
   764.5000     90.3514     96.2066     36.4313     11.8048     11.0679
   764.0000     90.3175     94.7923     37.5824     11.7544     11.0721
   763.5000     90.1584     93.3598     36.9111     11.7237     11.0916
   763.0000     89.5474     93.7877     35.5355     11.7596     11.1673
   762.5000     88.1816     95.5319     34.8026     11.8620     11.3402
   762.0000     86.0387     95.1261     34.6520     12.0329     11.6227
   761.5000     83.3260     92.6163     34.8011     12.2916     12.0011
   761.0000     80.4134     90.9706     34.4909     12.6532     12.4357
   760.5000     77.7185     91.3545     33.9505     13.1350     12.8670
   760.0000     75.5810     91.8228     34.3567     13.7086     13.2308
   759.5000     74.0179     92.4206     35.5008     14.2705     13.5102
   759.0000     72.8480     92.6087     36.0531     14.6901     13.7272
   758.5000     72.1135     91.4543     35.0052     14.8286     13.8670
   758.0000     72.1611     90.1778     33.7123     14.6083     13.8579
   757.5000     73.1177     91.3114     34.9280     14.1082     13.6766
   757.0000     74.6585     93.6211     36.6994     13.5256     13.3943
   756.5000     76.3883     94.5210     35.9595     13.0709     13.0910
   756.0000     77.9530     93.8896     32.4187     12.8428     12.8282
   755.5000     79.0315     93.7592     29.4758     12.7824     12.6532
   755.0000     79.5935     94.0207     29.8317     12.7872     12.5638
   754.5000     79.9055     91.7335     33.4743     12.8119     12.5148
   754.0000     80.2329     87.4489     36.6357     12.8500     12.4637
   753.5000     80.7523     86.3313     36.3835     12.8852     12.3835
   753.0000     81.3118     88.3256     33.4408     12.9193     12.2983
   752.5000     81.5708     88.4269     30.3716     12.9385     12.2593
   752.0000     81.3612     87.4573     30.5683     12.9109     12.2909
   751.5000     80.8666     87.7394     33.3182     12.8404     12.3661
   751.0000     80.3830     87.0391     32.6130     12.7786     12.4404
   750.5000     80.0271     86.7678     29.8159     12.7702     12.4958
   750.0000     79.5639     89.2870     32.0195     12.8380     12.5685
   749.5000     78.7877     92.8385     37.0130     12.9798     12.6923
   749.0000     77.9171     96.5885     36.4725     13.1533     12.8342
   748.5000     77.1971     98.0005     29.3508     13.3209     12.9539
   748.0000     76.5300     94.1037     24.9725     13.4890     13.0668
   747.5000     75.7532     90.1695     26.8101     13.6724     13.2008
   747.0000     74.9260     91.3917     30.0129     13.8543     13.3465
   746.5000     74.2152     92.6390     31.5641     13.9926     13.4743
   746.0000     73.6615     89.9188     31.2723     14.0774     13.5756
   745.5000     73.2486     86.8275     28.1469     14.1703     13.6521
   745.0000     72.8548     87.6016     25.7816     14.3223     13.7259
   744.5000     72.3366     91.1619     26.9108     14.4906     13.8243
   744.0000     71.7629     93.8003     27.5235     14.5932     13.9348
   743.5000     71.4323     93.4341     24.0627     14.6063     13.9993
   743.0000     71.4433     92.0256     19.6402     14.5686     13.9971
   742.5000     71.7161     92.0310     18.4333     14.5287     13.9439
   742.0000     72.1276     92.4082     21.8112     14.4885     13.8643
   741.5000     72.5956     90.8917     27.3243     14.4227     13.7749
   741.0000     73.1125     89.3444     29.6765     14.3360     13.6776
   740.5000     73.7423     91.0479     27.5409     14.2319     13.5607
   740.0000     74.4608     93.2279     25.7127     14.0894     13.4299
   739.5000     75.1839     92.4916     24.3924     13.9153     13.3007
   739.0000     75.8260     90.0503     21.6050     13.7591     13.1881
   738.5000     76.3331     89.3242     21.5797     13.6481     13.1005
   738.0000     76.6803     90.7859     25.3894     13.5820     13.0412
   737.5000     76.8710     92.7204     26.8244     13.5396     13.0088
   737.0000     76.9100     94.3788     24.5979     13.5113     13.0022
   736.5000     76.8152     95.5657     21.9167     13.4955     13.0183
   736.0000     76.6513     93.0654     19.3614     13.5040     13.0461
   735.5000     76.5028     86.8318     17.0065     13.5537     13.0714
   735.0000     76.3329     81.8081     17.9804     13.6192     13.1005
   734.5000     76.1063     83.0558     20.9172     13.6561     13.1395
   734.0000     75.9403     88.4984     22.0054     13.6542     13.1682
   733.5000     75.8135     91.5911     21.6361     13.6410     13.1903
   733.0000     75.8050     91.0342     20.5613     13.6173     13.1917
   732.5000     76.0949     90.0784     18.3912     13.5768     13.1415
   732.0000     76.5968     89.6377     17.6485     13.5298     13.0554
   731.5000     76.9442     89.7679     17.7171     13.4906     12.9964
   731.0000     77.0144     90.8274     16.7335     13.4609     12.9846
   730.5000     76.8934     91.1859     16.7424     13.4393     13.0050
   730.0000     76.7201     90.9801     18.1936     13.4345     13.0344
   729.5000     76.5629     92.9778     17.7733     13.4804     13.0611
   729.0000     76.3582     94.9398     16.0796     13.6315     13.0962
   728.5000     76.0247     93.2881     17.2779     13.8838     13.1536
   728.0000     75.5961     89.8438     19.9931     14.1306     13.2282
   727.5000     75.1355     87.8023     20.9395     14.2549     13.3093
   727.0000     74.6042     85.9548     18.6819     14.2752     13.4041
   726.5000     73.8807     83.5963     16.1998     14.2945     13.5353
   726.0000     72.9547     82.8387     15.6703     14.3512     13.7071
   725.5000     72.0168     82.9384     15.2961     14.4279     13.8856
   725.0000     71.1857     80.1446     14.0041     14.5694     14.0478
   724.5000     70.4091     75.6908     14.1648     14.8420     14.2027
   724.0000     69.5606     74.8296     15.4739     15.2335     14.3760
   723.5000     68.5174     79.7012     15.3808     15.6250     14.5948
   723.0000     67.3288     84.5500     14.4241     15.8937     14.8525
   722.5000     66.3355     83.8625     14.1294     15.9942     15.0749
   722.0000     65.7687     78.5190     14.2984     15.9499     15.2048
   721.5000     65.4986     72.9084     15.0582     15.8414     15.2675
   721.0000     65.2574     70.3662     14.6888     15.7921     15.3239
   720.5000     64.7253     71.8187     11.2917     15.9088     15.4499
   720.0000     63.6438     74.1842      7.4576     16.1975     15.7124
   719.5000     61.9467     74.2048      7.8431     16.6041     16.1429
   719.0000     59.7112     74.1031      9.3083     17.0964     16.7473
   718.5000     57.1747     76.8527      8.2844     17.6768     17.4903
   718.0000     54.8373     79.8720     10.3825     18.2710     18.2358
   717.5000     53.3114     79.2458     17.6851     18.7455     18.7577
   717.0000     53.0112     73.5633     22.8695     19.0551     18.8639
   716.5000     54.1228     66.9490     19.6249     19.2315     18.4765
   716.0000     56.7623     66.2749     13.1730     19.1549     17.6173
   715.5000     60.8775     71.8824      9.9756     18.5372     16.4264
   715.0000     66.2981     78.3699      6.9686     17.2434     15.0834
   714.5000     72.8175     85.8260      1.4277     15.5551     13.7330
   714.0000     79.8339     98.3160      0.2263     13.9059     12.5260
   713.5000     86.3169    112.5371      6.5151     12.5222     11.5852
   713.0000     91.5927    121.7767     13.4337     11.4374     10.9179
   712.5000     95.8233    124.5488     14.6537     10.6429     10.4359
