~Version Information
 VERS.                2.00:   CWLS log ASCII Standard -VERSION 2.00
 WRAP.                  NO:   One line per frame
~Well Information Block
#MNEM.UNIT              Data                Description
#--------- -------------------------------  -------------------------------
 STRT.F                          936.0000:   Starting Depth
 STOP.F                          -23.7500:   Ending Depth
 STEP.F                           -0.5000:   Level Spacing
 NULL.                          -999.2500:   Absent Value
 COMP.     FLUOR DANIEL (NPSOR), INC.    :   Company
 WELL.     34-1 X 14                     :   Well
 FLD .     N.P.R. NO.3                   :   Field
 LOC .     2516' FNL & 1946' FWL         :   Location
 PROV.                                   :   Province
 SRVC.                                   :   Service Company
 LIC .                                   :   License Number
 DATE.     10-DEC-94                     :   Log Date
 UWI .                                   :   Unique Well ID
~Curve Information Block
#MNEM.UNIT       API Codes    Curve Description
#---------    -------------   -------------------------------
 DEPT.F        0   0  0  0:   Depth
 CILD.MMHO     0   0  0  0:   Conductivity of Deep Induction
 GR  .API      0   0  0  0:   Gamma ray counts
 TEN .LBF      0   0  0  0:   Differential Tension
 RILM.OHMM     0   0  0  0:   Resistivity from CILM
 RILD.OHMM     0   0  0  0:   Resistivity from CILD
~Parameter Information Block
#MNEM.UNIT              Value             Description
#---------    -------------------------   -------------------------------
 APIN.        4902522678              :   API Serial Number
 COUN.        NATRONA                 :   County
 STAT.        WYOMING                 :   State Or Province
 SECT.        14                      :   Section
 TOWN.        38N                     :   Township
 RANG.        78W                     :   Range
 PDAT.        GROUND LEVEL            :   Permanent Datum
 EPD .FT      5260'                   :   Elevation Of Perm. Datum
 LMF .        K.B.                    :   Log Measured From
 FAPD.FT      10'                     :   Feet Above Perm. Datum
 DMF .        KELLY BUSHING           :   Drilling Measured From
 EKB .FT      5270'                   :   Elevation Of Kelly Bushing
 EDF .FT      5269'                   :   Elevation Of Derrick Floor
 EGL .FT      5260'                   :   Elevation Of Ground Level
 OS1 .        NONE                    :   Other Services Line 1
 SON .        92572                   :   Service Order Number
 DD  .FT      920'                    :   Depth Driller
 DL  .FT      916'                    :   Depth Logger
 BLI .FT      910'                    :   Bottom Log Interval
 TLI .FT      SURF                    :   Top Log Interval
 CSIZ.IN      9 5/8                   :   Casing Size
 CBD1.FT      58'                     :   Casing Bottom (Driller) 1
 CBL1.FT      59'                     :   Casing Bottom (Logger) 1
 BS  .IN      12.25                   :   Bit Size
 BHF .        AIR                     :   Borehole Fluid
 FDEN.LB/G    *                       :   Fluid Density
 DFV .S       *                       :   Drilling Fluid Viscosity
 DFPH.        *                       :   Drilling Fluid Ph
 DFL .FT3     *                       :   Drilling Fluid Loss
 MSS .        *                       :   Mud Sample Source
 RMS .MMHO    *                       :   Resistivity Of Mud Sample
 MST .DEGF    *                       :   Mud Sample Temperature
 RMF .MMHO    *                       :   Mud Filtrate Resistivity
 MFST.DEGF    *                       :   Mud Filtrate Sample Temperature
 RMC .MMHO    *                       :   Mud Cake Resistivity
 MCST.DEGF    *                       :   Mud Cake Sample Temperature
 MFSS.        *                       :   Mud Filtrate Sample Source
 MCSS.        *                       :   Mud Cake Sample Source
 RMB .MMHO    *                       :   Mud Resistivity At Bht
 BHT .DEGF    *                       :   Bottom Hole Temperature
 TCS .HOUR    *                       :   Time Circulation Stopped
 MRT .DEGF    94 F                    :   Maximum Recorded Temperature
 LUN .        HL 6274                 :   Logging Unit Number
 LUL .        CASPER                  :   Logging Unit Location
 ENGI.        KRANKER                 :   Engineer'S Name
 WITN.        G. STRONG               :   Witness' Name
#  Curve Data
~A
# ...
   600.0000    237.0441    120.0599     -5.8999      4.1515      4.2186
   599.5000    234.1070    122.5731     -7.3264      4.2447      4.2716
   599.0000    224.8842    121.6597     -8.4336      4.6121      4.4467
   598.5000    209.9714    119.8683    -12.6410      5.1550      4.7626
   598.0000    193.8348    120.0588    -15.4364      5.6905      5.1590
   597.5000    180.4118    120.3632    -12.6551      6.1012      5.5429
   597.0000    170.9784    119.9501     -7.5741      6.3567      5.8487
   596.5000    165.1038    121.0051     -4.0961      6.5001      6.0568
   596.0000    161.3517    122.9217     -4.5951      6.5958      6.1976
   595.5000    158.2953    123.2306     -8.0813      6.6872      6.3173
   595.0000    155.4999    120.8476     -9.2915      6.7829      6.4309
   594.5000    153.0105    118.5238     -6.9686      6.8764      6.5355
   594.0000    150.5934    118.8505     -5.2210      6.9746      6.6404
   593.5000    148.1287    119.7579     -6.0805      7.0841      6.7509
   593.0000    146.0039    119.4664     -7.1858      7.1874      6.8491
   592.5000    144.7121    121.8745     -7.8821      7.2555      6.9103
   592.0000    144.4491    128.2276     -9.1174      7.2800      6.9229
   591.5000    145.0933    131.2855     -8.7910      7.2803      6.8921
   591.0000    146.2879    127.5807     -5.8368      7.2792      6.8358
   590.5000    147.4333    121.2677     -2.9533      7.2792      6.7827
   590.0000    148.1052    117.5994     -3.0399      7.2802      6.7520
   589.5000    148.5316    116.6749     -5.9414      7.2762      6.7326
   589.0000    149.6280    115.2731     -9.4547      7.2366      6.6832
   588.5000    152.5140    112.2344    -11.3664      7.1343      6.5568
   588.0000    157.7011    109.9909    -10.8958      6.9720      6.3411
   587.5000    164.3941    109.0874     -7.4423      6.7805      6.0829
   587.0000    170.6373    109.0048     -4.0358      6.5946      5.8604
   586.5000    175.1348    110.9329     -5.3171      6.4114      5.7099
   586.0000    177.8485    115.2060     -8.6065      6.1977      5.6228
   585.5000    179.2606    120.2839     -9.1781      5.9650      5.5785
   585.0000    179.7057    123.6741     -8.4366      5.7936      5.5647
   584.5000    178.8560    122.5728     -7.5198      5.7678      5.5911
   584.0000    175.7534    120.9857     -5.8984      5.9099      5.6898
   583.5000    170.2166    123.7036     -4.6192      6.1871      5.8749
   583.0000    163.4055    125.5378     -4.8294      6.5367      6.1197
   582.5000    156.7190    122.4556     -6.6932      6.8854      6.3808
   582.0000    151.1338    118.2863     -6.0158      7.1652      6.6167
   581.5000    147.1121    116.6779     -1.4750      7.3529      6.7975
   581.0000    144.4176    115.1127      1.1779      7.4621      6.9244
   580.5000    142.4956    113.1989      0.4843      7.5210      7.0178
   580.0000    140.9767    114.1201     -0.3328      7.5611      7.0934
   579.5000    139.5370    118.5719     -1.3576      7.5967      7.1666
   579.0000    138.0501    122.8475     -3.3080      7.6279      7.2437
   578.5000    136.7384    125.2148     -3.9568      7.6599      7.3132
   578.0000    135.6334    125.9680     -4.3902      7.7068      7.3728
   577.5000    134.6393    125.0905     -6.2799      7.7699      7.4273
   577.0000    133.8766    122.6060     -8.7300      7.8359      7.4696
   576.5000    133.4538    121.2411     -8.2655      7.8972      7.4932
   576.0000    133.1482    122.1544     -4.1794      7.9478      7.5104
   575.5000    132.7335    122.2135     -1.7690      7.9778      7.5339
   575.0000    132.2257    119.7374     -4.2002      7.9940      7.5628
   574.5000    131.8649    117.9391    -10.2687      8.0112      7.5835
   574.0000    131.8219    117.7514    -13.8058      8.0337      7.5860
   573.5000    132.0692    117.2940    -12.2851      8.0625      7.5718
   573.0000    132.4045    118.1103    -10.4868      8.0898      7.5526
   572.5000    132.7001    121.0146    -11.6842      8.0982      7.5358
   572.0000    132.9308    123.5780    -12.6828      8.0786      7.5227
   571.5000    133.1473    125.7672    -11.2676      8.0321      7.5105
   571.0000    133.4056    126.2886     -9.2839      7.9715      7.4959
   570.5000    133.6368    123.4262     -7.8156      7.9233      7.4830
   570.0000    133.5938    119.0970     -7.5548      7.9136      7.4854
   569.5000    133.0537    116.8765     -7.6857      7.9501      7.5158
   569.0000    131.9473    115.6714     -7.3718      8.0267      7.5788
   568.5000    130.5080    113.9380     -5.8456      8.1312      7.6624
   568.0000    129.1245    113.3538     -3.3394      8.2429      7.7445
   567.5000    128.1314    115.6089     -1.6601      8.3305      7.8045
   567.0000    127.7487    117.6771     -2.8286      8.3771      7.8279
   566.5000    128.0911    116.2287     -5.5501      8.3845      7.8069
   566.0000    129.0129    114.5056     -8.2384      8.3625      7.7512
   565.5000    130.2418    115.3214     -9.2808      8.3074      7.6780
   565.0000    131.5434    118.9256     -9.0442      8.2083      7.6021
   564.5000    132.8799    124.3459    -10.4081      8.0735      7.5256
   564.0000    134.3546    127.2955    -11.0944      7.9331      7.4430
   563.5000    136.0096    126.0218     -8.7745      7.8120      7.3524
   563.0000    137.6560    123.6269     -6.1390      7.7277      7.2645
   562.5000    138.9088    121.3549     -5.9390      7.6915      7.1990
   562.0000    139.5153    118.9267     -6.5157      7.6931      7.1677
   561.5000    139.6544    117.1266     -7.7199      7.7000      7.1605
   561.0000    139.8808    114.3105     -8.8517      7.6825      7.1489
   560.5000    140.7975    111.1514     -9.2095      7.6294      7.1024
   560.0000    142.6951    109.7629    -10.3203      7.5524      7.0079
   559.5000    145.0310    110.0321    -11.1615      7.4750      6.8951
   559.0000    146.7020    110.5340    -10.1644      7.4137      6.8165
   558.5000    147.0316    111.6354     -9.8064      7.3690      6.8013
   558.0000    146.1422    114.3802    -10.7882      7.3262      6.8427
   557.5000    144.5409    117.7968    -10.3752      7.2779      6.9185
   557.0000    142.6463    117.2612     -7.8589      7.2637      7.0103
   556.5000    140.3580    113.5419     -6.4794      7.3441      7.1246
   556.0000    137.2299    111.7468     -7.9422      7.5410      7.2870
   555.5000    133.4008    112.5005     -9.5633      7.8231      7.4962
   555.0000    129.5461    113.5174    -11.0688      8.1368      7.7193
   554.5000    126.2974    114.7058    -13.4895      8.4107      7.9178
   554.0000    123.9361    114.9801    -16.3483      8.5890      8.0687
   553.5000    122.4706    113.8335    -16.5185      8.6733      8.1652
   553.0000    121.7874    112.3344    -12.2034      8.6916      8.2110
   552.5000    121.7540    110.1377     -7.3526      8.6732      8.2133
   552.0000    121.9408    109.8149     -7.3368      8.6544      8.2007
   551.5000    121.9503    112.4611     -9.9589      8.6555      8.2001
   551.0000    121.8042    114.1179    -10.3145      8.6680      8.2099
   550.5000    121.5076    110.9731     -8.4302      8.6885      8.2299
   550.0000    121.1127    106.4700     -5.6550      8.7173      8.2568
   549.5000    120.8277    105.1157     -3.6069      8.7481      8.2762
   549.0000    120.6584    107.5091     -4.4374      8.7856      8.2879
   548.5000    120.4220    110.5038     -8.4671      8.8377      8.3041
   548.0000    120.1540    110.3957    -13.2407      8.8966      8.3227
   547.5000    119.7908    107.7200    -15.1802      8.9493      8.3479
   547.0000    119.1106    104.6518    -14.5573      8.9940      8.3956
   546.5000    117.9992    103.1643    -15.2219      9.0450      8.4746
   546.0000    116.2629    103.6558    -15.4873      9.1307      8.6012
   545.5000    113.6608    106.3283    -12.0621      9.2743      8.7981
   545.0000    110.6003    108.8773     -7.6576      9.4617      9.0416
   544.5000    108.1685    108.9421     -7.4271      9.6573      9.2448
