~Version Information
 VERS.                2.00:   CWLS log ASCII Standard -VERSION 2.00
 WRAP.                  NO:   One line per frame
~Well Information Block
#MNEM.UNIT              Data                Description
#--------- -------------------------------  -------------------------------
 STRT.F                          936.0000:   Starting Depth
 STOP.F                          -23.7500:   Ending Depth
 STEP.F                           -0.5000:   Level Spacing
 NULL.                          -999.2500:   Absent Value
 COMP.     FLUOR DANIEL (NPSOR), INC.    :   Company
 WELL.     34-1 X 14                     :   Well
 FLD .     N.P.R. NO.3                   :   Field
 LOC .     2516' FNL & 1946' FWL         :   Location
 PROV.                                   :   Province
 SRVC.                                   :   Service Company
 LIC .                                   :   License Number
 DATE.     10-DEC-94                     :   Log Date
 UWI .                                   :   Unique Well ID
~Curve Information Block
#MNEM.UNIT       API Codes    Curve Description
#---------    -------------   -------------------------------
 DEPT.F        0   0  0  0:   Depth
 CILD.MMHO     0   0  0  0:   Conductivity of Deep Induction
 GR  .API      0   0  0  0:   Gamma ray counts
 TEN .LBF      0   0  0  0:   Differential Tension
 RILM.OHMM     0   0  0  0:   Resistivity from CILM
 RILD.OHMM     0   0  0  0:   Resistivity from CILD
~Parameter Information Block
#MNEM.UNIT              Value             Description
#---------    -------------------------   -------------------------------
 APIN.        4902522678              :   API Serial Number
 COUN.        NATRONA                 :   County
 STAT.        WYOMING                 :   State Or Province
 SECT.        14                      :   Section
 TOWN.        38N                     :   Township
 RANG.        78W                     :   Range
 PDAT.        GROUND LEVEL            :   Permanent Datum
 EPD .FT      5260'                   :   Elevation Of Perm. Datum
 LMF .        K.B.                    :   Log Measured From
 FAPD.FT      10'                     :   Feet Above Perm. Datum
 DMF .        KELLY BUSHING           :   Drilling Measured From
 EKB .FT      5270'                   :   Elevation Of Kelly Bushing
 EDF .FT      5269'                   :   Elevation Of Derrick Floor
 EGL .FT      5260'                   :   Elevation Of Ground Level
 OS1 .        NONE                    :   Other Services Line 1
 SON .        92572                   :   Service Order Number
 DD  .FT      920'                    :   Depth Driller
 DL  .FT      916'                    :   Depth Logger
 BLI .FT      910'                    :   Bottom Log Interval
 TLI .FT      SURF                    :   Top Log Interval
 CSIZ.IN      9 5/8                   :   Casing Size
 CBD1.FT      58'                     :   Casing Bottom (Driller) 1
 CBL1.FT      59'                     :   Casing Bottom (Logger) 1
 BS  .IN      12.25                   :   Bit Size
 BHF .        AIR                     :   Borehole Fluid
 FDEN.LB/G    *                       :   Fluid Density
 DFV .S       *                       :   Drilling Fluid Viscosity
 DFPH.        *                       :   Drilling Fluid Ph
 DFL .FT3     *                       :   Drilling Fluid Loss
 MSS .        *                       :   Mud Sample Source
 RMS .MMHO    *                       :   Resistivity Of Mud Sample
 MST .DEGF    *                       :   Mud Sample Temperature
 RMF .MMHO    *                       :   Mud Filtrate Resistivity
 MFST.DEGF    *                       :   Mud Filtrate Sample Temperature
 RMC .MMHO    *                       :   Mud Cake Resistivity
 MCST.DEGF    *                       :   Mud Cake Sample Temperature
 MFSS.        *                       :   Mud Filtrate Sample Source
 MCSS.        *                       :   Mud Cake Sample Source
 RMB .MMHO    *                       :   Mud Resistivity At Bht
 BHT .DEGF    *                       :   Bottom Hole Temperature
 TCS .HOUR    *                       :   Time Circulation Stopped
 MRT .DEGF    94 F                    :   Maximum Recorded Temperature
 LUN .        HL 6274                 :   Logging Unit Number
 LUL .        CASPER                  :   Logging Unit Location
 ENGI.        KRANKER                 :   Engineer'S Name
 WITN.        G. STRONG               :   Witness' Name
#  Curve Data
~A
# ...
   376.0000    162.3352    123.9745    -17.1633      6.5770      6.1601
   375.5000    164.5559    122.5451    -18.3802      6.4918      6.0770
   375.0000    164.9080    121.9362    -14.7504      6.4907      6.0640
   374.5000    163.7664    122.3634    -12.1893      6.5369      6.1063
   374.0000    162.1180    119.9135    -13.0589      6.5911      6.1683
   373.5000    160.9614    112.8275    -11.7166      6.6196      6.2127
   373.0000    160.4984    104.7855     -7.1208      6.6393      6.2306
   372.5000    160.2226    100.3017     -5.3878      6.6986      6.2413
   372.0000    159.5519    100.8503     -7.3956      6.7912      6.2676
   371.5000    158.3514    103.8274    -10.4813      6.8383      6.3151
   371.0000    156.9825    107.7122    -12.9039      6.8003      6.3701
   370.5000    155.7115    113.0416    -13.6070      6.7430      6.4221
   370.0000    154.1158    116.7521    -12.5425      6.7456      6.4886
   369.5000    151.6467    118.9334    -11.0059      6.8334      6.5943
   369.0000    148.4885    122.9076    -11.2185      6.9834      6.7345
   368.5000    145.2617    127.0206    -13.9968      7.1597      6.8841
   368.0000    142.7004    126.9215    -16.0293      7.3285      7.0077
   367.5000    141.1501    124.9859    -14.9877      7.4776      7.0847
   367.0000    140.4505    124.6650    -13.9894      7.5909      7.1199
   366.5000    140.2559    125.1034    -16.4395      7.6436      7.1298
   366.0000    140.4593    124.3745    -18.0063      7.6220      7.1195
   365.5000    141.0802    122.4149    -15.7639      7.5372      7.0882
   365.0000    142.0002    119.7579    -11.9441      7.4235      7.0422
   364.5000    142.9298    119.3047    -11.3509      7.3248      6.9964
   364.0000    143.6308    122.2731    -15.2628      7.2635      6.9623
   363.5000    144.0512    122.6285    -17.7815      7.2340      6.9420
   363.0000    144.3539    119.0311    -15.8557      7.2276      6.9274
   362.5000    144.7746    117.2096    -14.1419      7.2424      6.9073
   362.0000    145.3376    117.7914    -16.8634      7.2708      6.8805
   361.5000    145.8598    118.3274    -20.1001      7.2911      6.8559
   361.0000    146.2762    118.9577    -21.3097      7.2825      6.8364
   360.5000    146.7034    119.3655    -20.2322      7.2437      6.8165
   360.0000    147.2226    117.6262    -17.8196      7.1891      6.7924
   359.5000    147.9309    113.2570    -15.9286      7.1276      6.7599
   359.0000    148.8687    109.7161    -17.3463      7.0691      6.7173
   358.5000    149.8192    111.4588    -20.4881      7.0311      6.6747
   358.0000    150.3197    117.3624    -22.0323      7.0271      6.6525
   357.5000    150.1188    121.6880    -21.5303      7.0517      6.6614
   357.0000    149.3567    122.6755    -20.0233      7.0786      6.6954
   356.5000    148.3904    120.8046    -18.3442      7.0795      6.7390
   356.0000    147.4550    118.6244    -16.1610      7.0662      6.7817
   355.5000    146.4648    119.8482    -14.4555      7.0845      6.8276
   355.0000    145.1194    123.2700    -13.1479      7.1585      6.8909
   354.5000    143.2571    123.9263    -12.8985      7.2679      6.9805
   354.0000    141.1357    119.5887    -13.6051      7.3830      7.0854
   353.5000    139.1993    114.4145    -13.1845      7.4894      7.1839
   353.0000    137.5704    112.0686    -10.8055      7.5841      7.2690
   352.5000    136.1574    114.3950     -9.0350      7.6691      7.3444
   352.0000    134.9978    118.2594     -8.3579      7.7472      7.4075
   351.5000    134.1687    120.6118     -8.0169      7.8016      7.4533
   351.0000    133.7805    122.0789     -8.3314      7.8114      7.4749
   350.5000    133.9847    122.8016     -7.8647      7.7785      7.4635
   350.0000    134.8443    121.2674     -8.0081      7.7183      7.4160
   349.5000    136.2628    120.1123    -10.9708      7.6518      7.3388
   349.0000    138.0817    121.7809    -12.3229      7.5937      7.2421
   348.5000    140.0058    122.9099     -8.5769      7.5328      7.1426
   348.0000    141.6822    121.7616     -6.6502      7.4533      7.0580
   347.5000    142.9559    121.3880     -8.9884      7.3638      6.9952
   347.0000    144.1835    121.3376    -10.7753      7.2672      6.9356
   346.5000    145.9294    120.3313     -9.8561      7.1650      6.8526
   346.0000    148.2330    118.7929     -9.7597      7.0815      6.7461
   345.5000    150.5232    117.8084    -11.5464      7.0391      6.6435
   345.0000    152.2791    118.6368    -12.1771      7.0193      6.5669
   344.5000    153.5443    121.8075     -9.4364      6.9717      6.5128
   344.0000    154.7600    125.1183     -6.6453      6.8689      6.4616
   343.5000    156.2833    126.0272     -7.2160      6.7343      6.3986
   343.0000    158.0058    125.4852    -10.3633      6.6139      6.3289
   342.5000    159.5005    123.4037    -12.8073      6.5411      6.2696
   342.0000    160.1691    121.0114    -13.4914      6.5210      6.2434
   341.5000    159.7304    120.4328    -14.1706      6.5351      6.2605
   341.0000    158.6076    120.4570    -15.8832      6.5652      6.3049
   340.5000    157.2630    119.7494    -17.2099      6.6089      6.3588
   340.0000    155.6852    119.4626    -16.6866      6.6716      6.4232
   339.5000    153.6776    119.4651    -14.0815      6.7495      6.5071
   339.0000    151.3938    119.3226    -10.0504      6.8285      6.6053
   338.5000    149.4535    120.3238     -8.7846      6.8978      6.6910
   338.0000    148.5648    120.2159    -11.8087      6.9515      6.7311
   337.5000    148.9561    117.9125    -15.7337      6.9859      6.7134
   337.0000    150.4007    116.9843    -16.6149      6.9936      6.6489
   336.5000    152.3347    118.7762    -15.6858      6.9645      6.5645
   336.0000    154.1906    120.6821    -15.0618      6.8891      6.4855
   335.5000    155.6714    121.0644    -14.1776      6.7837      6.4238
   335.0000    156.6346    120.6560    -13.0674      6.6798      6.3843
   334.5000    156.8609    120.5731    -13.8034      6.6054      6.3751
   334.0000    156.1405    123.3846    -15.8911      6.5757      6.4045
   333.5000    154.5919    127.7263    -16.7771      6.6061      6.4686
   333.0000    152.9601    125.8051    -15.6889      6.6954      6.5377
   332.5000    151.8216    114.4862    -14.9462      6.8197      6.5867
   332.0000    150.6002    100.6075    -15.2893      6.9649      6.6401
   331.5000    148.1132     95.1389    -14.8382      7.1664      6.7516
   331.0000    143.2842    102.3759    -13.4383      7.4562      6.9791
   330.5000    135.7282    115.6528    -12.8140      7.7652      7.3677
   330.0000    126.8738    122.5547    -13.3376      7.9687      7.8818
   329.5000    118.8967    119.3779    -12.6874      8.1066      8.4107
   329.0000    111.9688    112.8707    -11.0422      8.4176      8.9311
   328.5000    104.4632    109.1486     -8.3960      9.1382      9.5727
   328.0000     95.6183    108.9862     -5.6337     10.3449     10.4582
   327.5000     86.0123    109.8324     -4.5762     11.8452     11.6262
   327.0000     77.0273    109.6736     -8.2472     13.2747     12.9824
   326.5000     70.1994    107.0814    -14.5232     14.3028     14.2451
   326.0000     65.8049    104.3876    -18.1384     14.8770     15.1964
   325.5000     63.2323    103.6971    -18.6779     15.1495     15.8147
   325.0000     61.7551    102.4821    -17.1294     15.3393     16.1930
   324.5000     60.7338    100.9579    -14.2725     15.5690     16.4653
   324.0000     59.7859    102.4912    -11.0989     15.8328     16.7264
   323.5000     58.8229    104.2785    -10.3090     16.1201     17.0002
   323.0000     57.8755    100.1606    -12.2207     16.4282     17.2785
   322.5000     57.0787     92.1474    -15.0496     16.6972     17.5197
   322.0000     56.5786     89.2727    -14.2828     16.8539     17.6745
   321.5000     56.4198     93.0186     -9.1427     16.9166     17.7243
   321.0000     56.5169     97.2461     -5.4205     16.9505     17.6938
   320.5000     56.6740     98.4842     -6.4245     16.9529     17.6448
