~Version Information
 VERS.                2.00:   CWLS log ASCII Standard -VERSION 2.00
 WRAP.                  NO:   One line per frame
~Well Information Block
#MNEM.UNIT              Data                Description
#--------- -------------------------------  -------------------------------
 STRT.F                          936.0000:   Starting Depth
 STOP.F                          -23.7500:   Ending Depth
 STEP.F                           -0.5000:   Level Spacing
 NULL.                          -999.2500:   Absent Value
 COMP.     FLUOR DANIEL (NPSOR), INC.    :   Company
 WELL.     34-1 X 14                     :   Well
 FLD .     N.P.R. NO.3                   :   Field
 LOC .     2516' FNL & 1946' FWL         :   Location
 PROV.                                   :   Province
 SRVC.                                   :   Service Company
 LIC .                                   :   License Number
 DATE.     10-DEC-94                     :   Log Date
 UWI .                                   :   Unique Well ID
~Curve Information Block
#MNEM.UNIT       API Codes    Curve Description
#---------    -------------   -------------------------------
 DEPT.F        0   0  0  0:   Depth
 CILD.MMHO     0   0  0  0:   Conductivity of Deep Induction
 GR  .API      0   0  0  0:   Gamma ray counts
 TEN .LBF      0   0  0  0:   Differential Tension
 RILM.OHMM     0   0  0  0:   Resistivity from CILM
 RILD.OHMM     0   0  0  0:   Resistivity from CILD
~Parameter Information Block
#MNEM.UNIT              Value             Description
#---------    -------------------------   -------------------------------
 APIN.        4902522678              :   API Serial Number
 COUN.        NATRONA                 :   County
 STAT.        WYOMING                 :   State Or Province
 SECT.        14                      :   Section
 TOWN.        38N                     :   Township
 RANG.        78W                     :   Range
 PDAT.        GROUND LEVEL            :   Permanent Datum
 EPD .FT      5260'                   :   Elevation Of Perm. Datum
 LMF .        K.B.                    :   Log Measured From
 FAPD.FT      10'                     :   Feet Above Perm. Datum
 DMF .        KELLY BUSHING           :   Drilling Measured From
 EKB .FT      5270'                   :   Elevation Of Kelly Bushing
 EDF .FT      5269'                   :   Elevation Of Derrick Floor
 EGL .FT      5260'                   :   Elevation Of Ground Level
 OS1 .        NONE                    :   Other Services Line 1
 SON .        92572                   :   Service Order Number
 DD  .FT      920'                    :   Depth Driller
 DL  .FT      916'                    :   Depth Logger
 BLI .FT      910'                    :   Bottom Log Interval
 TLI .FT      SURF                    :   Top Log Interval
 CSIZ.IN      9 5/8                   :   Casing Size
 CBD1.FT      58'                     :   Casing Bottom (Driller) 1
 CBL1.FT      59'                     :   Casing Bottom (Logger) 1
 BS  .IN      12.25                   :   Bit Size
 BHF .        AIR                     :   Borehole Fluid
 FDEN.LB/G    *                       :   Fluid Density
 DFV .S       *                       :   Drilling Fluid Viscosity
 DFPH.        *                       :   Drilling Fluid Ph
 DFL .FT3     *                       :   Drilling Fluid Loss
 MSS .        *                       :   Mud Sample Source
 RMS .MMHO    *                       :   Resistivity Of Mud Sample
 MST .DEGF    *                       :   Mud Sample Temperature
 RMF .MMHO    *                       :   Mud Filtrate Resistivity
 MFST.DEGF    *                       :   Mud Filtrate Sample Temperature
 RMC .MMHO    *                       :   Mud Cake Resistivity
 MCST.DEGF    *                       :   Mud Cake Sample Temperature
 MFSS.        *                       :   Mud Filtrate Sample Source
 MCSS.        *                       :   Mud Cake Sample Source
 RMB .MMHO    *                       :   Mud Resistivity At Bht
 BHT .DEGF    *                       :   Bottom Hole Temperature
 TCS .HOUR    *                       :   Time Circulation Stopped
 MRT .DEGF    94 F                    :   Maximum Recorded Temperature
 LUN .        HL 6274                 :   Logging Unit Number
 LUL .        CASPER                  :   Logging Unit Location
 ENGI.        KRANKER                 :   Engineer'S Name
 WITN.        G. STRONG               :   Witness' Name
#  Curve Data
~A
# ...
   264.0000    153.3314    112.6632    -15.2588      6.9281      6.5218
   263.5000    152.6042    114.1795    -17.0327      6.9357      6.5529
   263.0000    152.1494    114.6246    -14.2597      6.9484      6.5725
   262.5000    151.7308    112.3021    -11.2923      6.9790      6.5906
   262.0000    151.1113    110.4657    -11.4564      7.0261      6.6176
   261.5000    150.1767    109.0395    -13.3681      7.0744      6.6588
   261.0000    149.0153    109.0085    -17.4091      7.1054      6.7107
   260.5000    148.1470    110.9035    -20.1572      7.1074      6.7501
   260.0000    148.3199    113.8626    -17.4323      7.0703      6.7422
   259.5000    150.0495    116.0384    -12.7456      6.9873      6.6645
   259.0000    153.3820    116.4455    -12.4907      6.8618      6.5197
   258.5000    157.8253    115.3681    -15.6788      6.6968      6.3361
   258.0000    162.7391    114.4491    -18.8380      6.4796      6.1448
   257.5000    167.8705    112.4695    -19.4422      6.2132      5.9570
   257.0000    173.2638    108.9045    -17.6299      5.9497      5.7715
   256.5000    178.4961    107.0189    -15.7185      5.7461      5.6024
   256.0000    182.9726    108.0538    -15.6730      5.6154      5.4653
   255.5000    187.6359    109.3862    -16.6191      5.5218      5.3295
   255.0000    195.6622    109.3681    -16.0531      5.4042      5.1108
   254.5000    211.3666    109.6829    -15.0417      5.1885      4.7311
   254.0000    237.9855    110.3895    -15.6032      4.8184      4.2019
   253.5000    276.2253    111.7512    -16.4709      4.3320      3.6202
   253.0000    318.6799    115.8896    -16.7274      3.8432      3.1379
   252.5000    355.9341    123.5382    -16.6841      3.4149      2.8095
   252.0000    384.0342    129.9016    -16.2403      3.0389      2.6039
   251.5000    404.6943    129.2838    -14.6690      2.7022      2.4710
   251.0000    421.3823    125.0552    -11.4744      2.4354      2.3731
   250.5000    432.9893    123.1737     -9.7499      2.2918      2.3095
   250.0000    432.8064    122.8512    -11.7611      2.3096      2.3105
   249.5000    415.9756    121.3288    -14.0608      2.4779      2.4040
   249.0000    385.7227    119.1160    -14.0889      2.7412      2.5925
   248.5000    350.4714    116.6293    -13.8964      3.0499      2.8533
   248.0000    317.8860    113.2106    -14.6034      3.3448      3.1458
   247.5000    292.1719    110.7893    -16.1013      3.5872      3.4226
   247.0000    273.9963    109.4276    -17.0038      3.7785      3.6497
   246.5000    261.2820    109.9982    -15.4821      3.9445      3.8273
   246.0000    251.4545    111.8456    -13.5145      4.0972      3.9769
   245.5000    244.3054    113.0663    -13.6887      4.2205      4.0932
   245.0000    240.9603    112.5395    -15.4739      4.2877      4.1501
   244.5000    244.0791    111.6425    -16.8113      4.2714      4.0970
   244.0000    256.5750    111.1026    -16.7299      4.1492      3.8975
   243.5000    278.7456    110.1518    -15.7154      3.9354      3.5875
   243.0000    305.3760    110.6957    -15.8948      3.6890      3.2747
   242.5000    330.5068    114.0790    -16.2443      3.4506      3.0257
   242.0000    351.4512    116.7716    -16.1793      3.2041      2.8453
   241.5000    369.4487    114.8676    -17.5476      2.9358      2.7067
   241.0000    386.2839    110.0897    -19.1930      2.6973      2.5888
   240.5000    399.4097    106.5170    -17.2270      2.5642      2.5037
   240.0000    402.0142    105.8858    -11.5613      2.5667      2.4875
   239.5000    390.7207    107.8866     -8.9078      2.6802      2.5594
   239.0000    370.4082    110.2126    -13.0305      2.8505      2.6997
   238.5000    349.3911    110.8881    -17.2749      3.0276      2.8621
   238.0000    333.1040    108.3735    -13.4490      3.1901      3.0021
   237.5000    321.9795    102.8969     -7.4121      3.3442      3.1058
   237.0000    312.2246    100.1774     -7.4633      3.5006      3.2028
   236.5000    300.5247    102.8632    -14.1178      3.6441      3.3275
   236.0000    287.9597    106.4293    -21.9441      3.7266      3.4727
   235.5000    277.9333    109.5618    -23.6772      3.7183      3.5980
   235.0000    271.9277    113.4306    -17.2389      3.6742      3.6774
   234.5000    267.3513    114.1154    -11.4454      3.7052      3.7404
   234.0000    259.1436    110.2041    -11.5894      3.8773      3.8589
   233.5000    245.4406    108.1461    -11.8364      4.1596      4.0743
   233.0000    229.9726    112.1432     -9.5401      4.4497      4.3483
   232.5000    216.6055    117.8371     -9.0634      4.6686      4.6167
   232.0000    207.5022    119.1331    -12.7188      4.8291      4.8192
   231.5000    202.3496    116.2301    -14.2828      4.9816      4.9419
   231.0000    199.7489    113.9449    -10.5057      5.1279      5.0063
   230.5000    198.6753    113.2744     -7.3850      5.2331      5.0333
   230.0000    198.9061    112.1577     -7.2239      5.2719      5.0275
   229.5000    200.6334    111.0633     -7.5039      5.2527      4.9842
   229.0000    203.5841    110.3958     -9.8915      5.1930      4.9120
   228.5000    207.3470    111.8167    -13.8134      5.0952      4.8228
   228.0000    212.7165    113.7957    -13.5487      4.9541      4.7011
   227.5000    221.5289    111.9981     -9.8701      4.7744      4.5141
   227.0000    235.4219    107.7249     -8.3787      4.5644      4.2477
   226.5000    255.5666    107.1836    -10.0058      4.3165      3.9129
   226.0000    280.9846    109.6393    -13.3380      4.0475      3.5589
   225.5000    304.1890    111.7453    -16.0714      3.8066      3.2874
   225.0000    319.2466    115.5332    -16.1372      3.6128      3.1324
   224.5000    325.5466    120.1241    -13.5594      3.4269      3.0718
   224.0000    326.4753    121.1485    -12.4031      3.2269      3.0630
   223.5000    324.9338    118.3895    -15.0484      3.0801      3.0775
   223.0000    319.2246    115.6998    -17.4585      3.0844      3.1326
   222.5000    304.2791    113.8221    -16.6936      3.2862      3.2865
   222.0000    279.1653    112.8970    -14.5680      3.6708      3.5821
   221.5000    249.7607    114.5002    -11.8206      4.1812      4.0038
   221.0000    224.5480    118.0013     -8.2606      4.7329      4.4534
   220.5000    204.9306    118.1526     -5.5699      5.2046      4.8797
   220.0000    192.4092    113.6941     -4.7025      5.5037      5.1973
   219.5000    186.0784    108.8300     -6.8524      5.6416      5.3741
   219.0000    183.0977    108.0175    -11.8340      5.6903      5.4616
   218.5000    181.0164    110.6574    -15.2402      5.7100      5.5244
   218.0000    179.5578    113.2021    -14.7278      5.7037      5.5692
   217.5000    180.7177    113.1886    -11.4970      5.6400      5.5335
   217.0000    187.4376    111.1272     -7.7662      5.5034      5.3351
   216.5000    202.2018    107.3181     -4.4564      5.2876      4.9456
   216.0000    225.9949    102.4499     -4.9593      4.9707      4.4249
   215.5000    256.4426     98.1621     -9.3309      4.5644      3.8995
   215.0000    288.0693     96.6979    -14.2520      4.1542      3.4714
   214.5000    313.1152     98.5494    -15.7020      3.7713      3.1937
   214.0000    331.1707    102.8765    -14.8270      3.3956      3.0196
   213.5000    345.0256    107.3350    -17.1989      3.0465      2.8983
   213.0000    356.1423    110.4521    -21.2143      2.8046      2.8079
   212.5000    361.3801    111.3255    -20.1367      2.7362      2.7672
   212.0000    354.8398    111.4618    -15.2061      2.8512      2.8182
   211.5000    335.1165    111.3441    -14.3567      3.1151      2.9840
   211.0000    307.5469    110.3918    -16.8497      3.4694      3.2515
   210.5000    278.8367    109.3711    -18.4580      3.8474      3.5863
   210.0000    253.6706    108.2087    -17.8126      4.1875      3.9421
   209.5000    235.5934    105.9014    -16.8525      4.4592      4.2446
   209.0000    223.1923    105.1272    -17.5116      4.6688      4.4804
   208.5000    214.8395    107.0524    -17.6604      4.8292      4.6546
