~Version Information
 VERS.                2.00:   CWLS log ASCII Standard -VERSION 2.00
 WRAP.                  NO:   One line per frame
~Well Information Block
#MNEM.UNIT              Data                Description
#--------- -------------------------------  -------------------------------
 STRT.F                          936.0000:   Starting Depth
 STOP.F                          -23.7500:   Ending Depth
 STEP.F                           -0.5000:   Level Spacing
 NULL.                          -999.2500:   Absent Value
 COMP.     FLUOR DANIEL (NPSOR), INC.    :   Company
 WELL.     34-1 X 14                     :   Well
 FLD .     N.P.R. NO.3                   :   Field
 LOC .     2516' FNL & 1946' FWL         :   Location
 PROV.                                   :   Province
 SRVC.                                   :   Service Company
 LIC .                                   :   License Number
 DATE.     10-DEC-94                     :   Log Date
 UWI .                                   :   Unique Well ID
~Curve Information Block
#MNEM.UNIT       API Codes    Curve Description
#---------    -------------   -------------------------------
 DEPT.F        0   0  0  0:   Depth
 CILD.MMHO     0   0  0  0:   Conductivity of Deep Induction
 GR  .API      0   0  0  0:   Gamma ray counts
 TEN .LBF      0   0  0  0:   Differential Tension
 RILM.OHMM     0   0  0  0:   Resistivity from CILM
 RILD.OHMM     0   0  0  0:   Resistivity from CILD
~Parameter Information Block
#MNEM.UNIT              Value             Description
#---------    -------------------------   -------------------------------
 APIN.        4902522678              :   API Serial Number
 COUN.        NATRONA                 :   County
 STAT.        WYOMING                 :   State Or Province
 SECT.        14                      :   Section
 TOWN.        38N                     :   Township
 RANG.        78W                     :   Range
 PDAT.        GROUND LEVEL            :   Permanent Datum
 EPD .FT      5260'                   :   Elevation Of Perm. Datum
 LMF .        K.B.                    :   Log Measured From
 FAPD.FT      10'                     :   Feet Above Perm. Datum
 DMF .        KELLY BUSHING           :   Drilling Measured From
 EKB .FT      5270'                   :   Elevation Of Kelly Bushing
 EDF .FT      5269'                   :   Elevation Of Derrick Floor
 EGL .FT      5260'                   :   Elevation Of Ground Level
 OS1 .        NONE                    :   Other Services Line 1
 SON .        92572                   :   Service Order Number
 DD  .FT      920'                    :   Depth Driller
 DL  .FT      916'                    :   Depth Logger
 BLI .FT      910'                    :   Bottom Log Interval
 TLI .FT      SURF                    :   Top Log Interval
 CSIZ.IN      9 5/8                   :   Casing Size
 CBD1.FT      58'                     :   Casing Bottom (Driller) 1
 CBL1.FT      59'                     :   Casing Bottom (Logger) 1
 BS  .IN      12.25                   :   Bit Size
 BHF .        AIR                     :   Borehole Fluid
 FDEN.LB/G    *                       :   Fluid Density
 DFV .S       *                       :   Drilling Fluid Viscosity
 DFPH.        *                       :   Drilling Fluid Ph
 DFL .FT3     *                       :   Drilling Fluid Loss
 MSS .        *                       :   Mud Sample Source
 RMS .MMHO    *                       :   Resistivity Of Mud Sample
 MST .DEGF    *                       :   Mud Sample Temperature
 RMF .MMHO    *                       :   Mud Filtrate Resistivity
 MFST.DEGF    *                       :   Mud Filtrate Sample Temperature
 RMC .MMHO    *                       :   Mud Cake Resistivity
 MCST.DEGF    *                       :   Mud Cake Sample Temperature
 MFSS.        *                       :   Mud Filtrate Sample Source
 MCSS.        *                       :   Mud Cake Sample Source
 RMB .MMHO    *                       :   Mud Resistivity At Bht
 BHT .DEGF    *                       :   Bottom Hole Temperature
 TCS .HOUR    *                       :   Time Circulation Stopped
 MRT .DEGF    94 F                    :   Maximum Recorded Temperature
 LUN .        HL 6274                 :   Logging Unit Number
 LUL .        CASPER                  :   Logging Unit Location
 ENGI.        KRANKER                 :   Engineer'S Name
 WITN.        G. STRONG               :   Witness' Name
#  Curve Data
~A
# ...
   880.0000     89.1277    108.9190    217.0956     11.5721     11.2199
   879.5000     88.6568    108.4966    214.6187     11.6715     11.2794
   879.0000     88.5976    109.6156    213.2188     11.7831     11.2870
   878.5000     88.7838    111.9716    214.7813     11.8873     11.2633
   878.0000     88.8838    112.5286    216.5024     11.9511     11.2506
   877.5000     88.8168    109.1562    215.7018     11.9562     11.2591
   877.0000     88.7323    104.1574    214.2119     11.9085     11.2699
   876.5000     88.9119    102.2969    212.8683     11.8187     11.2471
   876.0000     89.4409    103.6427    212.0173     11.7133     11.1806
   875.5000     90.1522    104.4183    211.2518     11.6401     11.0924
   875.0000     90.8243    106.0157    209.5844     11.6243     11.0103
   874.5000     91.3770    109.3529    208.0929     11.6291     10.9437
   874.0000     91.8968    112.9095    207.2822     11.6066     10.8818
   873.5000     92.6634    115.3213    205.1222     11.5434     10.7917
   873.0000     93.8856    117.5846    201.6294     11.4387     10.6513
   872.5000     95.4161    117.6849    198.1182     11.2910     10.4804
   872.0000     96.8511    113.2803    194.1468     11.1149     10.3251
   871.5000     97.8869    107.5432    191.2990     10.9288     10.2159
   871.0000     98.6379    105.8142    190.1519     10.7368     10.1381
   870.5000     99.4400    108.5611    189.5950     10.5362     10.0563
   870.0000    100.4943    112.9757    186.6569     10.3343      9.9508
   869.5000    101.8202    115.7292    183.7030     10.1517      9.8212
   869.0000    103.5272    114.3113    182.4439      9.9925      9.6593
   868.5000    105.6804    112.1616    180.2779      9.8345      9.4625
   868.0000    108.0821    113.5390    179.0533      9.6504      9.2522
   867.5000    110.4533    115.8505    180.6319      9.4362      9.0536
   867.0000    112.6878    114.9380    180.1747      9.2283      8.8741
   866.5000    114.6719    110.9830    175.4607      9.0852      8.7205
   866.0000    116.1146    107.3720    173.4611      9.0323      8.6122
   865.5000    117.1576    108.5439    174.5270      9.0197      8.5355
   865.0000    119.2055    113.1226    173.6785      8.9477      8.3889
   864.5000    124.5505    115.3752    170.8430      8.7394      8.0289
   864.0000    135.3521    114.5996    169.8170      8.3461      7.3881
   863.5000    152.4890    112.6355    171.5008      7.7249      6.5579
   863.0000    173.5832    110.6928    171.3782      6.9682      5.7609
   862.5000    192.4058    114.9867    168.1498      6.2908      5.1973
   862.0000    204.2496    128.9394    167.5304      5.7666      4.8960
   861.5000    209.9130    142.0880    171.6927      5.2852      4.7639
   861.0000    213.0287    143.7827    173.5971      4.7999      4.6942
   860.5000    215.7038    134.3961    169.7895      4.4731      4.6360
   860.0000    215.6149    120.8420    164.2065      4.4888      4.6379
   859.5000    207.6573    110.7781    159.2597      4.9052      4.8156
   859.0000    190.7185    107.5300    156.6458      5.6345      5.2433
   858.5000    170.1007    108.7314    155.1352      6.5037      5.8789
   858.0000    151.9502    111.4548    151.6807      7.3100      6.5811
   857.5000    138.8198    115.0971    148.4127      7.9110      7.2036
   857.0000    130.4733    116.7928    149.2005      8.2802      7.6644
   856.5000    125.4384    115.1805    153.1377      8.5046      7.9720
   856.0000    121.9799    111.3440    155.1358      8.6863      8.1981
   855.5000    119.1112    107.9836    154.2070      8.8685      8.3955
   855.0000    116.3804    106.2629    153.2591      9.0593      8.5925
   854.5000    113.5760    107.3697    154.3946      9.2545      8.8047
   854.0000    110.8148    110.3345    155.7427      9.4375      9.0241
   853.5000    108.3878    112.1434    153.4397      9.5902      9.2261
   853.0000    106.5860    110.9538    150.0338      9.7022      9.3821
   852.5000    105.5606    108.7127    149.9346      9.7936      9.4732
   852.0000    105.1182    105.8812    149.7263      9.8977      9.5131
   851.5000    104.8596    101.4056    144.7560     10.0082      9.5366
   851.0000    104.4806     98.1977    138.9150     10.1019      9.5712
   850.5000    103.8156     99.0286    137.5107     10.1986      9.6325
   850.0000    102.9023    100.2789    140.7791     10.3099      9.7180
   849.5000    101.8030    100.8565    145.7043     10.4143      9.8229
   849.0000    100.5227    103.9715    146.6202     10.4972      9.9480
   848.5000     99.4050    107.1755    142.8309     10.5670     10.0599
   848.0000     98.7199    106.1703    139.6201     10.6385     10.1297
   847.5000     98.1222    104.6965    139.2389     10.7096     10.1914
   847.0000     97.2598    105.0475    139.1135     10.7647     10.2817
   846.5000     96.4788    104.1442    138.9250     10.8135     10.3650
   846.0000     96.0708    101.4876    138.6832     10.8751     10.4090
   845.5000     95.8543     99.7558    137.0090     10.9338     10.4325
   845.0000     95.6172     98.9114    136.2050     10.9679     10.4584
   844.5000     95.5254     97.4019    139.5890     10.9741     10.4684
   844.0000     95.6387     96.4893    142.4253     10.9559     10.4560
   843.5000     95.7823     97.4194    138.9696     10.9286     10.4403
   843.0000     95.9666     98.8716    131.0624     10.9052     10.4203
   842.5000     96.4279     99.6400    123.9318     10.8726     10.3704
   842.0000     96.9922     99.6853    120.4280     10.8257     10.3101
   841.5000     97.1962     99.2014    121.1423     10.7909     10.2885
   841.0000     96.9403     98.6540    124.9533     10.7930     10.3156
   840.5000     96.4302     98.9394    129.2099     10.8340     10.3702
   840.0000     95.6343     98.2270    130.7703     10.9038     10.4565
   839.5000     94.6109     95.6892    129.3941     10.9789     10.5696
   839.0000     93.7786     93.2900    126.1477     11.0387     10.6634
   838.5000     93.3059     93.9245    121.9350     11.0868     10.7174
   838.0000     92.9035     97.8626    117.6574     11.1288     10.7639
   837.5000     92.4408    101.8793    115.0835     11.1638     10.8177
   837.0000     92.0594    102.2828    115.6325     11.2016     10.8625
   836.5000     91.8214     99.8012    117.7452     11.2516     10.8907
   836.0000     91.6408     97.1744    117.2298     11.3042     10.9122
   835.5000     91.3671     94.2977    113.3673     11.3507     10.9449
   835.0000     91.0182     91.4588    110.7796     11.3911     10.9868
   834.5000     90.8886     90.1955    111.9542     11.4218     11.0025
   834.0000     91.0797     90.4761    112.8851     11.4337     10.9794
   833.5000     91.4106     92.0572    111.2112     11.4246     10.9397
   833.0000     91.8055     92.6901    109.4858     11.3999     10.8926
   832.5000     92.2499     92.1313    109.0149     11.3661     10.8401
   832.0000     92.5898     93.2425    108.2241     11.3327     10.8003
   831.5000     92.7481     96.2900    105.7666     11.3107     10.7819
   831.0000     92.8362     97.0942    102.4498     11.3035     10.7717
   830.5000     92.8885     95.3207    100.8867     11.3018     10.7656
   830.0000     92.9368     93.4660    102.1564     11.2967     10.7600
   829.5000     92.9962     91.1489    103.1181     11.3012     10.7531
   829.0000     92.9675     88.1376    103.4600     11.3380     10.7565
   828.5000     92.7723     87.3861    104.4576     11.4071     10.7791
   828.0000     92.4490     89.4503    105.7023     11.4746     10.8168
   827.5000     92.0733     90.1217    106.5551     11.5147     10.8609
   827.0000     91.6291     89.3450    105.7536     11.5436     10.9136
   826.5000     91.1449     90.9255    101.4085     11.5688     10.9715
   826.0000     90.6666     93.0334     96.8055     11.5918     11.0294
   825.5000     90.1560     92.1488     95.5345     11.6436     11.0919
   825.0000     89.6555     89.6008     96.1494     11.7297     11.1538
   824.5000     89.2605     88.0391     96.0933     11.8083     11.2032
