~Version Information
 VERS.                2.00:   CWLS log ASCII Standard -VERSION 2.00
 WRAP.                  NO:   One line per frame
~Well Information Block
#MNEM.UNIT              Data                Description
#--------- -------------------------------  -------------------------------
 STRT.F                          936.0000:   Starting Depth
 STOP.F                          -23.7500:   Ending Depth
 STEP.F                           -0.5000:   Level Spacing
 NULL.                          -999.2500:   Absent Value
 COMP.     FLUOR DANIEL (NPSOR), INC.    :   Company
 WELL.     34-1 X 14                     :   Well
 FLD .     N.P.R. NO.3                   :   Field
 LOC .     2516' FNL & 1946' FWL         :   Location
 PROV.                                   :   Province
 SRVC.                                   :   Service Company
 LIC .                                   :   License Number
 DATE.     10-DEC-94                     :   Log Date
 UWI .                                   :   Unique Well ID
~Curve Information Block
#MNEM.UNIT       API Codes    Curve Description
#---------    -------------   -------------------------------
 DEPT.F        0   0  0  0:   Depth
 CILD.MMHO     0   0  0  0:   Conductivity of Deep Induction
 GR  .API      0   0  0  0:   Gamma ray counts
 TEN .LBF      0   0  0  0:   Differential Tension
 RILM.OHMM     0   0  0  0:   Resistivity from CILM
 RILD.OHMM     0   0  0  0:   Resistivity from CILD
~Parameter Information Block
#MNEM.UNIT              Value             Description
#---------    -------------------------   -------------------------------
 APIN.        4902522678              :   API Serial Number
 COUN.        NATRONA                 :   County
 STAT.        WYOMING                 :   State Or Province
 SECT.        14                      :   Section
 TOWN.        38N                     :   Township
 RANG.        78W                     :   Range
 PDAT.        GROUND LEVEL            :   Permanent Datum
 EPD .FT      5260'                   :   Elevation Of Perm. Datum
 LMF .        K.B.                    :   Log Measured From
 FAPD.FT      10'                     :   Feet Above Perm. Datum
 DMF .        KELLY BUSHING           :   Drilling Measured From
 EKB .FT      5270'                   :   Elevation Of Kelly Bushing
 EDF .FT      5269'                   :   Elevation Of Derrick Floor
 EGL .FT      5260'                   :   Elevation Of Ground Level
 OS1 .        NONE                    :   Other Services Line 1
 SON .        92572                   :   Service Order Number
 DD  .FT      920'                    :   Depth Driller
 DL  .FT      916'                    :   Depth Logger
 BLI .FT      910'                    :   Bottom Log Interval
 TLI .FT      SURF                    :   Top Log Interval
 CSIZ.IN      9 5/8                   :   Casing Size
 CBD1.FT      58'                     :   Casing Bottom (Driller) 1
 CBL1.FT      59'                     :   Casing Bottom (Logger) 1
 BS  .IN      12.25                   :   Bit Size
 BHF .        AIR                     :   Borehole Fluid
 FDEN.LB/G    *                       :   Fluid Density
 DFV .S       *                       :   Drilling Fluid Viscosity
 DFPH.        *                       :   Drilling Fluid Ph
 DFL .FT3     *                       :   Drilling Fluid Loss
 MSS .        *                       :   Mud Sample Source
 RMS .MMHO    *                       :   Resistivity Of Mud Sample
 MST .DEGF    *                       :   Mud Sample Temperature
 RMF .MMHO    *                       :   Mud Filtrate Resistivity
 MFST.DEGF    *                       :   Mud Filtrate Sample Temperature
 RMC .MMHO    *                       :   Mud Cake Resistivity
 MCST.DEGF    *                       :   Mud Cake Sample Temperature
 MFSS.        *                       :   Mud Filtrate Sample Source
 MCSS.        *                       :   Mud Cake Sample Source
 RMB .MMHO    *                       :   Mud Resistivity At Bht
 BHT .DEGF    *                       :   Bottom Hole Temperature
 TCS .HOUR    *                       :   Time Circulation Stopped
 MRT .DEGF    94 F                    :   Maximum Recorded Temperature
 LUN .        HL 6274                 :   Logging Unit Number
 LUL .        CASPER                  :   Logging Unit Location
 ENGI.        KRANKER                 :   Engineer'S Name
 WITN.        G. STRONG               :   Witness' Name
#  Curve Data
~A
# ...
   208.0000    209.6929    108.2735    -15.4702      4.9462      4.7689
   207.5000    207.1319    109.1759    -13.8156      5.0194      4.8278
   207.0000    206.0886    111.7066    -13.9989      5.0510      4.8523
   206.5000    205.3937    112.7429    -16.0024      5.0633      4.8687
   206.0000    204.2540    110.9557    -18.2366      5.0771      4.8959
   205.5000    203.0948    109.9515    -17.0397      5.0814      4.9238
   205.0000    203.6564    109.2104    -14.2508      5.0467      4.9102
   204.5000    208.1823    107.7342    -15.6642      4.9621      4.8035
   204.0000    218.6282    108.0401    -19.6832      4.8420      4.5740
   203.5000    235.8624    110.2946    -21.5656      4.6790      4.2398
   203.0000    258.9731    110.6044    -20.6040      4.4476      3.8614
   202.5000    284.2175    108.2733    -17.9328      4.1582      3.5184
   202.0000    305.1248    107.5204    -14.9389      3.8546      3.2773
   201.5000    318.5500    111.2456    -12.5398      3.5643      3.1392
   201.0000    325.3110    115.8909    -11.4195      3.3033      3.0740
   200.5000    328.0142    115.7261    -11.9563      3.1085      3.0486
   200.0000    326.6902    111.9351    -13.3535      3.0341      3.0610
   199.5000    318.3291    109.6619    -13.4410      3.1287      3.1414
   199.0000    300.6589    109.3059    -10.3334      3.4172      3.3260
   198.5000    274.8555    109.6316     -5.8835      3.8774      3.6383
   198.0000    246.1032    109.5514     -3.9677      4.4115      4.0633
   197.5000    222.1911    109.6405     -7.3115      4.8778      4.5006
   197.0000    205.2816    110.7803    -12.0484      5.1892      4.8714
   196.5000    195.4457    113.1056    -13.5374      5.3678      5.1165
   196.0000    190.5074    114.7312    -13.6472      5.4697      5.2491
   195.5000    187.9786    114.3101    -15.4940      5.5342      5.3198
   195.0000    186.2355    112.8604    -18.1628      5.5783      5.3695
   194.5000    184.8204    111.9162    -18.3759      5.6112      5.4107
   194.0000    183.7932    111.3827    -16.5270      5.6358      5.4409
   193.5000    183.4721    110.8229    -15.3360      5.6354      5.4504
   193.0000    185.0963    111.4662    -15.8609      5.5856      5.4026
   192.5000    190.4448    112.7304    -14.5250      5.4777      5.2509
   192.0000    200.6423    111.4720    -10.2276      5.3209      4.9840
   191.5000    215.5695    109.1477     -7.4932      5.1124      4.6389
   191.0000    232.5030    109.2433     -8.6898      4.8608      4.3010
   190.5000    246.0302    111.5578    -10.6967      4.6239      4.0645
   190.0000    252.9479    114.5016    -10.0696      4.4368      3.9534
   189.5000    254.7963    118.3419     -9.0789      4.2461      3.9247
   189.0000    255.2482    121.1923     -9.7923      4.0180      3.9178
   188.5000    255.8264    121.4781     -9.1796      3.8525      3.9089
   188.0000    254.1782    119.7994     -7.5268      3.8910      3.9342
   187.5000    245.9814    117.5505     -8.0511      4.1801      4.0653
   187.0000    230.7920    114.8139     -9.9579      4.6315      4.3329
   186.5000    213.0715    112.2588     -9.3315      5.0793      4.6933
   186.0000    197.8935    110.3402     -7.2273      5.4177      5.0532
   185.5000    186.7161    108.3260     -7.2419      5.6629      5.3557
   185.0000    178.9507    108.1660     -8.8105      5.8516      5.5881
   184.5000    173.0803    112.6282    -10.0717      6.0257      5.7777
   184.0000    167.4642    119.1661     -9.6859      6.2084      5.9714
   183.5000    161.9579    121.4927     -8.9545      6.3909      6.1744
   183.0000    157.4702    119.9905    -12.0905      6.5494      6.3504
   182.5000    154.3142    118.8452    -18.4430      6.6736      6.4803
   182.0000    152.1307    118.8963    -18.9188      6.7834      6.5733
   181.5000    150.4516    117.5878    -11.3323      6.8879      6.6467
   181.0000    149.3590    116.3096     -7.5158      6.9521      6.6953
   180.5000    149.4530    116.5316    -12.4977      6.9406      6.6911
   180.0000    150.7175    115.9485    -18.5318      6.8665      6.6349
   179.5000    152.5946    114.3171    -19.0939      6.7555      6.5533
   179.0000    155.0784    113.9795    -15.1463      6.6151      6.4483
   178.5000    158.5834    113.8367    -10.4359      6.4504      6.3058
   178.0000    163.5312    110.5613     -8.9094      6.2732      6.1150
   177.5000    169.8157    106.0466    -10.1373      6.1011      5.8887
   177.0000    176.3486    105.7885    -10.3346      5.9419      5.6706
   176.5000    182.2254    110.6527     -9.1924      5.7773      5.4877
   176.0000    188.2380    114.3078     -8.2899      5.5784      5.3124
   175.5000    196.3542    114.7902     -8.0886      5.3381      5.0928
   175.0000    208.8156    114.1900    -10.1849      5.0720      4.7889
   174.5000    226.9956    114.4141    -13.2068      4.7856      4.4054
   174.0000    250.2685    115.4527    -12.8722      4.4861      3.9957
   173.5000    279.6450    117.6163     -8.4610      4.1631      3.5760
   173.0000    313.7283    120.0880     -5.9143      3.7890      3.1875
   172.5000    351.6367    121.8835     -8.7477      3.3723      2.8438
   172.0000    388.6633    121.0969    -13.2705      2.9849      2.5729
   171.5000    417.4058    118.0670    -15.3137      2.6994      2.3958
   171.0000    431.3296    116.6428    -15.8173      2.5286      2.3184
   170.5000    429.8594    117.9689    -15.0087      2.4329      2.3263
   170.0000    418.8096    119.0657    -12.4605      2.3900      2.3877
   169.5000    402.9399    117.0981    -10.0034      2.4260      2.4818
   169.0000    381.4019    112.9047     -9.4931      2.5974      2.6219
   168.5000    351.4463    108.3673     -9.8686      2.9446      2.8454
   168.0000    314.4053    105.6236     -8.5653      3.4525      3.1806
   167.5000    277.4412    106.0720     -7.1974      3.9826      3.6044
   167.0000    248.9736    109.1370     -8.1298      4.3558      4.0165
   166.5000    232.9526    112.2676    -10.3111      4.5319      4.2927
   166.0000    224.8156    115.8343    -10.0351      4.5924      4.4481
   165.5000    220.5344    119.3053     -7.8461      4.6217      4.5344
   165.0000    217.0281    118.9831     -6.6411      4.6722      4.6077
   164.5000    212.8596    115.2883     -8.3814      4.7602      4.6979
   164.0000    208.0591    114.5034    -11.0242      4.8740      4.8063
   163.5000    203.3598    115.7013    -12.0423      4.9909      4.9174
   163.0000    199.6749    114.3882    -11.9203      5.0890      5.0081
   162.5000    197.8013    112.5565    -12.2701      5.1596      5.0556
   162.0000    197.9043    112.2057    -12.4022      5.2033      5.0529
   161.5000    199.4640    111.2835    -13.4770      5.2281      5.0134
   161.0000    201.7552    112.1827    -15.9231      5.2355      4.9565
   160.5000    204.1896    115.8260    -16.6789      5.2134      4.8974
   160.0000    206.3785    116.7463    -14.8498      5.1634      4.8455
   159.5000    208.1452    115.1823    -13.1623      5.1092      4.8043
   159.0000    209.5010    117.7607    -11.8236      5.0684      4.7732
   158.5000    210.6274    122.4269    -10.5777      5.0353      4.7477
   158.0000    211.7397    122.5654     -9.8732      5.0041      4.7228
   157.5000    212.7485    120.4437    -10.1739      4.9850      4.7004
   157.0000    213.2052    120.6921    -11.6964      4.9876      4.6903
   156.5000    212.7912    120.7949    -13.2931      5.0003      4.6994
   156.0000    211.4347    118.9615    -12.7676      5.0111      4.7296
   155.5000    209.0416    116.9071    -11.1477      5.0314      4.7837
   155.0000    205.7101    116.0206    -10.3544      5.0768      4.8612
   154.5000    202.0653    117.1061    -10.7863      5.1483      4.9489
   154.0000    198.5228    119.6560    -10.9974      5.2427      5.0372
   153.5000    194.8920    120.9392     -9.5831      5.3635      5.1310
   153.0000    191.0757    119.7513     -7.9205      5.5088      5.2335
   152.5000    187.5446    118.7181     -8.9048      5.6513      5.3321
