~Version Information
 VERS.                2.00:   CWLS log ASCII Standard -VERSION 2.00
 WRAP.                  NO:   One line per frame
~Well Information Block
#MNEM.UNIT              Data                Description
#--------- -------------------------------  -------------------------------
 STRT.F                          936.0000:   Starting Depth
 STOP.F                          -23.7500:   Ending Depth
 STEP.F                           -0.5000:   Level Spacing
 NULL.                          -999.2500:   Absent Value
 COMP.     FLUOR DANIEL (NPSOR), INC.    :   Company
 WELL.     34-1 X 14                     :   Well
 FLD .     N.P.R. NO.3                   :   Field
 LOC .     2516' FNL & 1946' FWL         :   Location
 PROV.                                   :   Province
 SRVC.                                   :   Service Company
 LIC .                                   :   License Number
 DATE.     10-DEC-94                     :   Log Date
 UWI .                                   :   Unique Well ID
~Curve Information Block
#MNEM.UNIT       API Codes    Curve Description
#---------    -------------   -------------------------------
 DEPT.F        0   0  0  0:   Depth
 CILD.MMHO     0   0  0  0:   Conductivity of Deep Induction
 GR  .API      0   0  0  0:   Gamma ray counts
 TEN .LBF      0   0  0  0:   Differential Tension
 RILM.OHMM     0   0  0  0:   Resistivity from CILM
 RILD.OHMM     0   0  0  0:   Resistivity from CILD
~Parameter Information Block
#MNEM.UNIT              Value             Description
#---------    -------------------------   -------------------------------
 APIN.        4902522678              :   API Serial Number
 COUN.        NATRONA                 :   County
 STAT.        WYOMING                 :   State Or Province
 SECT.        14                      :   Section
 TOWN.        38N                     :   Township
 RANG.        78W                     :   Range
 PDAT.        GROUND LEVEL            :   Permanent Datum
 EPD .FT      5260'                   :   Elevation Of Perm. Datum
 LMF .        K.B.                    :   Log Measured From
 FAPD.FT      10'                     :   Feet Above Perm. Datum
 DMF .        KELLY BUSHING           :   Drilling Measured From
 EKB .FT      5270'                   :   Elevation Of Kelly Bushing
 EDF .FT      5269'                   :   Elevation Of Derrick Floor
 EGL .FT      5260'                   :   Elevation Of Ground Level
 OS1 .        NONE                    :   Other Services Line 1
 SON .        92572                   :   Service Order Number
 DD  .FT      920'                    :   Depth Driller
 DL  .FT      916'                    :   Depth Logger
 BLI .FT      910'                    :   Bottom Log Interval
 TLI .FT      SURF                    :   Top Log Interval
 CSIZ.IN      9 5/8                   :   Casing Size
 CBD1.FT      58'                     :   Casing Bottom (Driller) 1
 CBL1.FT      59'                     :   Casing Bottom (Logger) 1
 BS  .IN      12.25                   :   Bit Size
 BHF .        AIR                     :   Borehole Fluid
 FDEN.LB/G    *                       :   Fluid Density
 DFV .S       *                       :   Drilling Fluid Viscosity
 DFPH.        *                       :   Drilling Fluid Ph
 DFL .FT3     *                       :   Drilling Fluid Loss
 MSS .        *                       :   Mud Sample Source
 RMS .MMHO    *                       :   Resistivity Of Mud Sample
 MST .DEGF    *                       :   Mud Sample Temperature
 RMF .MMHO    *                       :   Mud Filtrate Resistivity
 MFST.DEGF    *                       :   Mud Filtrate Sample Temperature
 RMC .MMHO    *                       :   Mud Cake Resistivity
 MCST.DEGF    *                       :   Mud Cake Sample Temperature
 MFSS.        *                       :   Mud Filtrate Sample Source
 MCSS.        *                       :   Mud Cake Sample Source
 RMB .MMHO    *                       :   Mud Resistivity At Bht
 BHT .DEGF    *                       :   Bottom Hole Temperature
 TCS .HOUR    *                       :   Time Circulation Stopped
 MRT .DEGF    94 F                    :   Maximum Recorded Temperature
 LUN .        HL 6274                 :   Logging Unit Number
 LUL .        CASPER                  :   Logging Unit Location
 ENGI.        KRANKER                 :   Engineer'S Name
 WITN.        G. STRONG               :   Witness' Name
#  Curve Data
~A
# ...
   712.0000     99.4207    125.6774     11.0157     10.1241     10.0583
   711.5000    102.6771    127.0082      7.7900      9.8273      9.7393
   711.0000    105.4140    127.1746     11.1993      9.6822      9.4864
   710.5000    107.3563    125.8334     18.3271      9.6155      9.3148
   710.0000    108.2449    123.6955     21.9749      9.5977      9.2383
   709.5000    108.1644    121.5669     19.5231      9.6491      9.2452
   709.0000    107.3228    121.2259     14.8660      9.7705      9.3177
   708.5000    106.3517    120.6105     11.7425      9.8819      9.4028
   708.0000    107.1273    118.6614     11.8303      9.8456      9.3347
   707.5000    112.2810    119.5724     13.6872      9.5775      8.9062
   707.0000    123.9507    123.0063     15.0551      9.0784      8.0677
   706.5000    142.7820    122.7743     16.5807      8.3436      7.0037
   706.0000    165.7570    120.6051     18.4440      7.4467      6.0329
   705.5000    185.6979    123.9528     19.7344      6.6097      5.3851
   705.0000    196.7467    134.1170     19.9388      5.9629      5.0827
   704.5000    200.2594    143.2234     16.3639      5.4154      4.9935
   704.0000    201.1895    142.7911      9.1049      4.8908      4.9704
   703.5000    202.1282    135.3322      5.2405      4.5275      4.9474
   703.0000    200.6854    128.7147      9.2714      4.5526      4.9829
   702.5000    191.5850    122.8854     14.6906      5.0861      5.2196
   702.0000    173.3747    115.9477     13.8186      6.0893      5.7679
   701.5000    151.9148    111.1824      6.0536      7.3338      6.5826
   701.0000    134.6918    110.5508      0.2894      8.3654      7.4244
   700.5000    124.9042    111.9165      0.9562      8.8663      8.0061
   700.0000    122.0818    116.5501      3.1317      8.8977      8.1912
   699.5000    123.6750    122.1949      2.0542      8.7086      8.0857
   699.0000    126.7121    125.1039      0.0686      8.4668      7.8919
   698.5000    129.3118    127.7473     -0.2891      8.2285      7.7332
   698.0000    131.1020    131.4666      0.2428      8.0187      7.6277
   697.5000    132.2991    132.4176      1.3008      7.8622      7.5586
   697.0000    133.0036    130.2803      3.5636      7.7786      7.5186
   696.5000    133.2280    128.7700      6.4379      7.7710      7.5059
   696.0000    133.2122    129.0939      8.4848      7.8215      7.5068
   695.5000    133.3783    130.6916      9.1476      7.8940      7.4975
   695.0000    134.0490    131.3283      7.8300      7.9508      7.4600
   694.5000    135.0238    130.4981      7.4624      7.9717      7.4061
   694.0000    135.7464    128.8605     11.2655      7.9591      7.3667
   693.5000    135.8878    127.1674     13.4490      7.9266      7.3590
   693.0000    135.6822    126.8139      8.6028      7.8887      7.3702
   692.5000    135.6805    128.5312      1.5387      7.8501      7.3703
   692.0000    136.2394    131.4548     -2.0038      7.8191      7.3400
   691.5000    137.3147    133.2786     -0.6515      7.7892      7.2825
   691.0000    138.9187    133.0672      3.1555      7.7288      7.1985
   690.5000    141.3559    131.4986      3.6752      7.6195      7.0743
   690.0000    144.9857    130.9570      0.6320      7.4852      6.8972
   689.5000    149.9104    131.2003     -1.5604      7.3310      6.6706
   689.0000    155.7929    130.4419     -1.2862      7.1293      6.4188
   688.5000    162.2030    128.7331     -0.2504      6.8762      6.1651
   688.0000    169.5786    128.0804      2.2061      6.5881      5.8970
   687.5000    179.3344    129.6365      5.2658      6.2540      5.5762
   687.0000    192.7549    131.2334      4.9623      5.8587      5.1879
   686.5000    208.6195    131.6254      0.3828      5.4472      4.7934
   686.0000    222.2046    132.8719     -2.0996      5.1172      4.5004
   685.5000    228.6164    136.4491      0.5527      4.9153      4.3741
   685.0000    227.8266    139.9067      4.9645      4.7781      4.3893
   684.5000    224.0765    141.0293      8.8718      4.6146      4.4628
   684.0000    220.8780    139.8384      9.7631      4.4668      4.5274
   683.5000    217.8103    137.0016      5.9673      4.4919      4.5912
   683.0000    211.4873    134.5224      3.9299      4.7927      4.7284
   682.5000    200.0244    134.3081      7.1824      5.3169      4.9994
   682.0000    186.1476    134.0655     10.3541      5.8887      5.3721
   681.5000    174.2860    132.1577      8.3570      6.3341      5.7377
   681.0000    166.8694    132.3632      3.4053      6.5671      5.9927
   680.5000    164.6796    134.8842     -2.1140      6.5956      6.0724
   680.0000    167.6583    136.0809     -6.2366      6.4853      5.9645
   679.5000    175.0182    135.5840     -4.9938      6.2840      5.7137
   679.0000    186.0412    136.3692      1.0239      5.9964      5.3752
   678.5000    199.2496    137.2330      4.0062      5.6540      5.0188
   678.0000    211.1113    136.0569      3.2842      5.3364      4.7368
   677.5000    218.2730    132.6885      4.9096      5.0958      4.5814
   677.0000    220.6281    131.2606      7.3609      4.9021      4.5325
   676.5000    220.9567    134.7095      5.0746      4.7148      4.5258
   676.0000    221.7755    139.7202     -0.5713      4.5810      4.5091
   675.5000    222.4872    141.6777     -3.6807      4.6057      4.4946
   675.0000    220.2810    141.0361      0.8500      4.8419      4.5397
   674.5000    213.9962    139.9571      8.8529      5.2157      4.6730
   674.0000    205.2040    137.9344      9.6517      5.5698      4.8732
   673.5000    195.8752    136.7292      3.2769      5.7940      5.1053
   673.0000    187.5840    138.1707     -3.0427      5.8820      5.3309
   672.5000    181.6330    138.7609     -7.4536      5.8702      5.5056
   672.0000    178.0723    137.7074     -8.9554      5.8211      5.6157
   671.5000    175.4153    138.4999     -5.1420      5.8479      5.7008
   671.0000    171.7003    141.5553     -0.5993      6.0453      5.8241
   670.5000    165.9752    142.0435     -0.2095      6.3847      6.0250
   670.0000    159.2188    138.5442     -0.7463      6.7261      6.2807
   669.5000    153.4281    136.0772      1.3283      6.9540      6.5177
   669.0000    149.6257    137.4893      4.3627      7.0575      6.6833
   668.5000    147.9681    138.3278      3.0634      7.0885      6.7582
   668.0000    148.0369    134.3593     -1.7699      7.1033      6.7551
   667.5000    148.9034    130.6836     -3.8034      7.1302      6.7158
   667.0000    149.6201    131.9388     -1.8212      7.1591      6.6836
   666.5000    149.8731    135.6342     -0.3578      7.1723      6.6723
   666.0000    149.9375    137.1270     -0.8720      7.1622      6.6694
   665.5000    150.1200    135.6092     -1.1929      7.1388      6.6613
   665.0000    150.3574    133.8242      0.2519      7.1221      6.6508
   664.5000    150.3828    132.2123      2.1332      7.1235      6.6497
   664.0000    150.0972    130.1190      2.2448      7.1423      6.6623
   663.5000    149.5844    129.1599     -2.2649      7.1692      6.6852
   663.0000    148.8869    130.9943     -8.3689      7.1958      6.7165
   662.5000    147.9622    133.6124     -8.9203      7.2185      6.7585
   662.0000    146.8885    134.6373     -2.6871      7.2407      6.8079
   661.5000    146.0251    134.4002      3.1061      7.2666      6.8481
   661.0000    145.6873    132.6844      5.0474      7.2905      6.8640
   660.5000    145.9399    130.3061      3.5532      7.2989      6.8521
   660.0000    146.6393    129.3738     -0.0458      7.2794      6.8195
   659.5000    147.5122    130.5961     -1.9374      7.2298      6.7791
   659.0000    148.3765    131.5506     -0.8153      7.1715      6.7396
   658.5000    149.2132    132.6215      0.6603      7.1257      6.7018
   658.0000    150.2427    133.8467      1.5994      7.0727      6.6559
   657.5000    152.2119    134.1813      1.6189      6.9734      6.5698
   657.0000    156.3821    132.2001      0.4020      6.8168      6.3946
   656.5000    163.9483    129.4362     -1.8151      6.6189      6.0995
