~Version Information
 VERS.                2.00:   CWLS log ASCII Standard -VERSION 2.00
 WRAP.                  NO:   One line per frame
~Well Information Block
#MNEM.UNIT              Data                Description
#--------- -------------------------------  -------------------------------
 STRT.F                          591.0000:   Starting Depth
 STOP.F                            7.2500:   Ending Depth
 STEP.F                           -0.5000:   Level Spacing
 NULL.                          -999.2500:   Absent Value
 COMP.     FLUOR DANIEL (NPSOR), INC.    :   Company
 WELL.     53-1 X 3                      :   Well
 FLD .     NPR #3                        :   Field
 LOC .     3-38N-78W                     :   Location
 CNTY.     NATRONA                       :   County
 STAT.     WYIOMING                      :   State
 SRVC.     ATLAS WIRELINE SERVICES       :   Service Company
 LIC .                                   :   License Number
 DATE.     13-SEPT-1994                  :   Log Date
 API .     4902522654                    :   API Number
~Curve Information Block
#MNEM.UNIT       API Codes    Curve Description
#---------    -------------   -------------------------------
 DEPT.F        0   0  0  0:   Depth
 CILD.MMHO     0   0  0  0:   Conductivity of Deep Induction
 SP  .MV       0   0  0  0:   Spontaneous Potential
 GR  .API      0   0  0  0:   Gamma ray counts
 TEN .LBF      0   0  0  0:   Differential Tension
 RFOC.OHMM     0   0  0  0:   Resistivity from CFOC
 RILM.OHMM     0   0  0  0:   Resistivity from CILM
 RILD.OHMM     0   0  0  0:   Resistivity from CILD
#  Curve Data
~A
# ...
   423.0000     71.3331     46.7732     65.9265     20.6970     11.4063     13.7141     14.0187
   422.5000     76.4507     46.8638     70.1405     14.6857     11.0759     12.4339     13.0803
   422.0000     80.9381     47.0239     70.7648      4.0123     10.9995     11.5973     12.3551
   421.5000     84.1919     47.1029     70.3369     -1.4164     11.0263     11.1426     11.8776
   421.0000     85.8733     47.1371     71.8323      5.2033     11.0648     10.9498     11.6451
   420.5000     86.1720     47.2344     72.0401     19.5279     11.0410     10.9221     11.6047
   420.0000     85.5665     47.4331     69.0257     29.1052     11.0112     10.9894     11.6868
   419.5000     84.5538     47.7398     67.2578     27.2634     11.0593     11.0920     11.8268
   419.0000     83.4087     48.1480     69.0670     19.4248     11.1791     11.2074     11.9892
   418.5000     82.1899     48.5643     70.7433     14.1520     11.3168     11.3440     12.1669
   418.0000     80.8486     48.9993     70.4884     17.0425     11.4161     11.5025     12.3688
   417.5000     79.3088     49.5376     69.2281     21.8380     11.4626     11.6731     12.6089
   417.0000     77.5847     50.1397     66.9030     19.1894     11.5191     11.8528     12.8891
   416.5000     75.8256     50.7367     64.5237      9.5306     11.6718     12.0340     13.1882
   416.0000     74.1388     51.3498     64.1242      1.6458     11.9259     12.2171     13.4882
   415.5000     72.5877     52.0260     64.9696     -1.6080     12.1906     12.4289     13.7764
   415.0000     71.2152     52.6510     65.1658     -2.5135     12.3451     12.6850     14.0420
   414.5000     70.1045     53.0620     63.7254     -3.4444     12.3322     12.9465     14.2644
   414.0000     69.3391     53.2599     62.8070     -4.1434     12.2354     13.1317     14.4219
   413.5000     68.9950     53.3905     64.4606     -6.4544     12.2301     13.1918     14.4938
   413.0000     69.1722     53.4518     66.1055     -7.3883     12.3754     13.1803     14.4567
   412.5000     69.7352     53.3580     65.7574     -1.0568     12.5157     13.1892     14.3400
   412.0000     70.3407     53.1865     66.0277     10.9367     12.4733     13.2209     14.2165
   411.5000     70.9288     53.0724     67.7857     15.3571     12.3068     13.1875     14.0986
   411.0000     71.7640     53.0825     69.0456     10.5503     12.1741     13.0420     13.9346
   410.5000     72.7991     53.1163     69.0194     11.3506     12.0897     12.8461     13.7364
   410.0000     73.6854     52.9354     68.2697     24.1307     11.9847     12.6931     13.5712
   409.5000     74.2596     52.4294     67.0852     33.7150     11.8829     12.6016     13.4663
   409.0000     74.5949     51.8217     67.0111     27.3558     11.8533     12.5341     13.4057
   408.5000     74.6982     51.4133     67.3505     10.8211     11.8865     12.4796     13.3872
   408.0000     74.4857     51.3232     67.6956     -0.5530     11.9235     12.4681     13.4254
   407.5000     74.0138     51.4944     66.8548      0.3657     11.9750     12.5034     13.5110
   407.0000     73.5480     51.7278     64.4148      3.2644     12.1185     12.5624     13.5966
   406.5000     73.1757     51.7724     60.4132     -0.2385     12.3637     12.6534     13.6657
   406.0000     72.7503     51.5947     57.2097     -4.0477     12.5692     12.8091     13.7456
   405.5000     72.1267     51.3839     57.0975      3.0613     12.5663     12.9993     13.8645
   405.0000     71.3889     51.3372     59.6754     17.0593     12.3823     13.1149     14.0078
   404.5000     70.7480     51.5078     62.6604     26.9565     12.2224     13.0968     14.1347
   404.0000     70.3387     51.8006     63.2022     30.6815     12.2158     13.0106     14.2169
   403.5000     70.0224     52.0468     61.5691     32.9534     12.3475     12.9538     14.2812
   403.0000     69.5251     52.0941     60.7101     35.1156     12.5735     12.9862     14.3833
   402.5000     68.7464     52.0117     63.0029     35.8216     12.8346     13.1404     14.5462
   402.0000     67.7390     52.0214     66.0716     33.6558     13.0322     13.3860     14.7625
   401.5000     66.6494     52.2056     66.7172     25.5706     13.1423     13.6297     15.0039
   401.0000     65.6734     52.3426     66.7472     14.4677     13.2205     13.8317     15.2269
   400.5000     64.9879     52.2287     67.2070     11.0132     13.2792     14.0117     15.3875
   400.0000     64.6992     51.9291     65.6081     19.1641     13.3224     14.1438     15.4561
   399.5000     64.7691     51.6966     62.3967     26.8004     13.3847     14.1989     15.4394
   399.0000     64.9683     51.6256     61.1274     22.9442     13.4414     14.2209     15.3921
   398.5000     64.9977     51.6316     62.3697     14.1895     13.4496     14.2506     15.3851
   398.0000     64.6297     51.6688     64.0158     10.6460     13.4287     14.2728     15.4728
   397.5000     63.5574     51.8197     65.9007     11.7526     13.3766     14.2899     15.7338
   397.0000     61.5939     52.3273     67.6479     14.2011     13.2743     14.3411     16.2354
   396.5000     59.0092     53.4105     68.0174     20.0004     13.2231     14.4691     16.9465
   396.0000     56.2461     54.9777     66.0423     26.0766     13.5065     14.7102     17.7790
   395.5000     53.6194     56.5353     63.1696     26.8302     14.4613     15.1728     18.6500
   395.0000     51.2640     57.6148     61.1828     23.5234     16.2657     16.0684     19.5069
   394.5000     49.2906     58.1577     60.1605     20.2282     18.6606     17.5543     20.2878
   394.0000     47.8567     58.4742     59.0189     16.7872     20.8322     19.4177     20.8957
   393.5000     47.1772     58.8141     57.2694     13.9534     21.5873     20.9865     21.1967
   393.0000     47.2815     59.2249     57.0653     13.2620     20.1734     21.6307     21.1499
   392.5000     48.0771     59.6757     60.9877     14.7150     17.7049     21.2158     20.7999
   392.0000     49.4974     60.0930     65.9587     17.2752     15.8456     20.0399     20.2031
   391.5000     51.3951     60.3238     67.0287     19.0317     15.0274     18.5986     19.4571
   391.0000     53.3548     60.2564     65.6476     19.9443     14.8787     17.3877     18.7424
   390.5000     54.8465     59.9897     65.3854     19.3309     14.9933     16.6661     18.2327
   390.0000     55.5712     59.7776     65.9609     16.0049     15.2087     16.4067     17.9949
   389.5000     55.7053     59.7651     66.4743     16.0244     15.4701     16.4099     17.9516
   389.0000     55.6195     59.8487     67.2238     21.9393     15.6984     16.4913     17.9793
   388.5000     55.4839     59.8460     66.0505     26.8186     15.8288     16.5658     18.0232
   388.0000     55.3174     59.5989     63.6221     28.7383     15.8411     16.6055     18.0775
   387.5000     55.2328     58.9846     62.7639     30.1782     15.6751     16.6045     18.1052
   387.0000     55.2360     58.0125     63.7576     26.9431     15.2850     16.5451     18.1041
   386.5000     55.2262     57.0081     63.7599     16.0424     14.8520     16.3806     18.1074
   386.0000     55.3288     56.3482     63.1646      6.6264     14.6199     16.1031     18.0738
   385.5000     55.5839     56.1180     63.6947      5.0560     14.6219     15.8132     17.9908
   385.0000     55.7035     56.1384     63.7283      7.5143     14.7378     15.6405     17.9522
   384.5000     55.4943     56.1862     62.1541      6.4276     14.9141     15.6320     18.0199
   384.0000     55.0812     56.1375     60.9625      1.1593     15.1701     15.7458     18.1550
   383.5000     54.6394     56.0397     61.1295     -2.0301     15.3926     15.8989     18.3018
   383.0000     54.2921     56.0011     60.3784      1.0635     15.4111     15.9924     18.4189
   382.5000     54.1511     55.9825     58.6410     10.1846     15.2799     15.9793     18.4669
   382.0000     54.1492     55.6159     59.0502     17.8068     15.1587     15.8841     18.4675
   381.5000     54.1261     54.4190     61.8965     17.1294     15.0426     15.8113     18.4754
