~Version Information
 VERS.                2.00:   CWLS log ASCII Standard -VERSION 2.00
 WRAP.                  NO:   One line per frame
~Well Information Block
#MNEM.UNIT              Data                Description
#--------- -------------------------------  -------------------------------
 STRT.F                          591.0000:   Starting Depth
 STOP.F                            7.2500:   Ending Depth
 STEP.F                           -0.5000:   Level Spacing
 NULL.                          -999.2500:   Absent Value
 COMP.     FLUOR DANIEL (NPSOR), INC.    :   Company
 WELL.     53-1 X 3                      :   Well
 FLD .     NPR #3                        :   Field
 LOC .     3-38N-78W                     :   Location
 CNTY.     NATRONA                       :   County
 STAT.     WYIOMING                      :   State
 SRVC.     ATLAS WIRELINE SERVICES       :   Service Company
 LIC .                                   :   License Number
 DATE.     13-SEPT-1994                  :   Log Date
 API .     4902522654                    :   API Number
~Curve Information Block
#MNEM.UNIT       API Codes    Curve Description
#---------    -------------   -------------------------------
 DEPT.F        0   0  0  0:   Depth
 CILD.MMHO     0   0  0  0:   Conductivity of Deep Induction
 SP  .MV       0   0  0  0:   Spontaneous Potential
 GR  .API      0   0  0  0:   Gamma ray counts
 TEN .LBF      0   0  0  0:   Differential Tension
 RFOC.OHMM     0   0  0  0:   Resistivity from CFOC
 RILM.OHMM     0   0  0  0:   Resistivity from CILM
 RILD.OHMM     0   0  0  0:   Resistivity from CILD
#  Curve Data
~A
# ...
    45.0000    174.3933     97.2041     53.8974    -18.2759      0.3305  10000.0000      5.7342
    44.5000    173.8129     97.6271     54.7568    -22.4626      0.3325  10000.0000      5.7533
    44.0000    174.8739     98.0431     55.6913    -21.9932      0.3335  10000.0000      5.7184
    43.5000    175.8949     98.1097     55.7297    -17.6601      0.3328  10000.0000      5.6852
    43.0000    176.2453     97.7966     55.7316    -14.8047      0.3312  10000.0000      5.6739
    42.5000    176.2178     97.4096     54.9459    -13.5780      0.3304  10000.0000      5.6748
    42.0000    176.4250     97.0675     53.3523    -10.7717      0.3307  10000.0000      5.6681
    41.5000    176.7174     96.7469     52.0967     -7.6982      0.3311  10000.0000      5.6588
    41.0000    176.6202     96.5401     51.8998     -4.4478      0.3312  10000.0000      5.6619
    40.5000    176.5052     96.6371     52.6353     -0.2294      0.3312  10000.0000      5.6656
    40.0000    176.9279     97.3237     53.7109      1.6989      0.3316  10000.0000      5.6520
    39.5000    178.1296     98.8898     53.6800     -1.1145      0.3325  10000.0000      5.6139
    39.0000    179.8361    101.1531     52.1575     -5.7239      0.3337  10000.0000      5.5606
    38.5000    180.8132    103.2603     50.6073     -7.7382      0.3356  10000.0000      5.5306
    38.0000    180.5354    104.4416     50.7335     -8.9496      0.3389  10000.0000      5.5391
    37.5000    180.4833    104.7289     52.8718    -10.8607      0.3429  10000.0000      5.5407
    37.0000    181.3058    104.7984     54.5910    -13.3273      0.3462  10000.0000      5.5155
    36.5000    181.6091    105.1721     54.2968    -14.6186      0.3494  10000.0000      5.5063
    36.0000    180.9453    105.6620     53.3138    -12.6621      0.3539  10000.0000      5.5265
    35.5000    180.2052    105.7168     53.7946     -9.0021      0.3596  10000.0000      5.5492
    35.0000    179.7032    105.1078     54.9346     -7.7525      0.3653  10000.0000      5.5647
    34.5000    178.9344    104.0225     54.4807     -8.9850      0.3694  10000.0000      5.5886
    34.0000    177.7355    102.8758     52.0834    -10.7351      0.3711  10000.0000      5.6263
    33.5000    176.5794    102.1986     50.4005    -10.6488      0.3749  10000.0000      5.6632
    33.0000    176.2991    102.0882     50.6567     -4.1080      0.3845  10000.0000      5.6722
    32.5000    177.0927    102.0277     52.1415      8.8663      0.3940  10000.0000      5.6468
    32.0000    178.3439    101.5756     54.3686     18.4440      0.3954  10000.0000      5.6071
    31.5000    179.3529    100.6145     56.2497     17.7199      0.3950  10000.0000      5.5756
    31.0000    179.8893     99.2239     55.9219     13.9717      0.4015  10000.0000      5.5590
    30.5000    179.8347     97.7040     53.8138     16.6271      0.4134  10000.0000      5.5607
    30.0000    179.2775     96.1995     53.2534     22.4059      0.4254  10000.0000      5.5779
    29.5000    178.4634     94.6797     54.4096     23.8562      0.4390  10000.0000      5.6034
    29.0000    177.8337     93.4195     54.3218     23.3490      0.4558  10000.0000      5.6232
    28.5000    177.6606     92.5851     52.7921     23.4258      0.4737  10000.0000      5.6287
    28.0000    177.6556     91.9209     52.8394     24.7029      0.4926  10000.0000      5.6289
    27.5000    177.1710     91.2688     55.5095     28.6978      0.5401  10000.0000      5.6443
    27.0000    175.7892     90.5746     58.2925     37.9350      0.7317  10000.0000      5.6886
    26.5000    173.5822     89.7392     58.5359     43.9700      1.4949  10000.0000      5.7610
    26.0000    170.9307     88.9259     56.6326     40.8261      6.2037  10000.0000      5.8503
    25.5000    168.3708     88.3571     54.9586     37.8212    140.3220  10000.0000      5.9393
    25.0000    166.6719     87.9634     54.7273     42.4941   4007.7559  10000.0000      5.9998
    24.5000    166.8719     87.4689     55.0127     48.4120   1852.6926  10000.0000      5.9926
    24.0000    167.8438     86.5385     54.3642     48.4319   1579.3499  10000.0000      5.9579
    23.5000    167.0117     85.3154     53.1753     48.3626   1510.1045  10000.0000      5.9876
    23.0000    164.5094     84.3591     52.8729     53.3713   1470.9094  10000.0000      6.0787
    22.5000    162.9169     83.7326     53.9489     59.0593   1394.5684  10000.0000      6.1381
    22.0000    162.8433     82.5835     54.9593     64.0668   1297.2185  10000.0000      6.1409
    21.5000    162.6944     80.2495     54.9507     71.7000   1231.5847  10000.0000      6.1465
    21.0000    162.0865     77.9032     53.5470     79.3088   1191.9646  10000.0000      6.1695
    20.5000    162.3544     77.7038     50.2066     77.2028   1107.5305  10000.0000      6.1594
    20.0000    163.9513     79.1029     46.2513     69.2472   1002.5999  10000.0000      6.0994
    19.5000    165.8286     79.0409     44.1293     66.0432    937.8127    822.5120      6.0303
    19.0000    167.2365     76.7606     44.4862     69.9276    924.1511    218.6531      5.9796
    18.5000    164.6675     73.6405     45.5145     77.6231    945.9370    215.5900      6.0728
    18.0000    139.7201     69.7803     46.7148     85.3192    998.9910    214.3975      7.1572
    17.5000     83.9917     65.9754     48.0182     86.4843   1045.4082    213.2396     11.9059
    17.0000     28.6030     64.1216     48.9243     81.7397   1026.8552    212.3417     34.9613
    16.5000      2.9942     63.4978     49.0285     81.5622   1011.1770    211.5944    333.9827
    16.0000     -0.6457     61.8903     49.4785     89.0517   1087.5359    211.1689  10000.0000
    15.5000     -0.6394     59.2375     51.7731     97.0266   1175.3987    211.1170  10000.0000
    15.0000     -0.6403     56.6649     53.7973     97.8638   1131.6482    210.7561  10000.0000
    14.5000     -0.6311     54.6015     54.0158     94.7854   1057.6460    210.1433  10000.0000
    14.0000     -0.6293     53.1159     53.3563     94.4902   1052.0271    209.5173  10000.0000
    13.5000     -0.6288     51.7601     53.0440     99.0362   1085.8093    208.9274  10000.0000
    13.0000     -0.6121     49.4708     51.9510    102.7420   1090.3218    208.2545  10000.0000
    12.5000     -0.5996     45.4861     50.3431    103.6475   1066.6902    207.8507  10000.0000
    12.0000     -0.6023     40.5107     48.7718    103.8778   1034.6428    207.4783  10000.0000
    11.5000     -0.6014     36.9457     45.3228    108.2774   1020.2795    206.6801  10000.0000
    11.0000     -0.5950     39.5421     36.8434    114.9215   1034.8494    206.4834  10000.0000
    10.5000     -0.5944     50.8156     25.4096    120.8017   1071.6113    208.3964  10000.0000
    10.0000     -0.5867     62.8037     16.4311    124.3470   1095.0752    212.4631  10000.0000
     9.5000     -0.5700     65.9854     12.4286    124.8743   1082.3096    217.0228  10000.0000
     9.0000     -0.5652     63.1611     11.9911    123.1635   1063.5083    219.0982  10000.0000
     8.5000     -0.5743     62.7355     12.8444    123.0047   1058.8167    217.8420  10000.0000
     8.0000     -0.5756     65.8946     13.4313    124.6702   1061.3269    215.4126  10000.0000
     7.5000     -0.5599     70.3799     13.4497    125.9854   1070.3281    214.2698  10000.0000
