~Version Information
 VERS.                2.00:   CWLS log ASCII Standard -VERSION 2.00
 WRAP.                  NO:   One line per frame
~Well Information Block
#MNEM.UNIT              Data                Description
#--------- -------------------------------  -------------------------------
 STRT.F                          591.0000:   Starting Depth
 STOP.F                            7.2500:   Ending Depth
 STEP.F                           -0.5000:   Level Spacing
 NULL.                          -999.2500:   Absent Value
 COMP.     FLUOR DANIEL (NPSOR), INC.    :   Company
 WELL.     53-1 X 3                      :   Well
 FLD .     NPR #3                        :   Field
 LOC .     3-38N-78W                     :   Location
 CNTY.     NATRONA                       :   County
 STAT.     WYIOMING                      :   State
 SRVC.     ATLAS WIRELINE SERVICES       :   Service Company
 LIC .                                   :   License Number
 DATE.     13-SEPT-1994                  :   Log Date
 API .     4902522654                    :   API Number
~Curve Information Block
#MNEM.UNIT       API Codes    Curve Description
#---------    -------------   -------------------------------
 DEPT.F        0   0  0  0:   Depth
 CILD.MMHO     0   0  0  0:   Conductivity of Deep Induction
 SP  .MV       0   0  0  0:   Spontaneous Potential
 GR  .API      0   0  0  0:   Gamma ray counts
 TEN .LBF      0   0  0  0:   Differential Tension
 RFOC.OHMM     0   0  0  0:   Resistivity from CFOC
 RILM.OHMM     0   0  0  0:   Resistivity from CILM
 RILD.OHMM     0   0  0  0:   Resistivity from CILD
#  Curve Data
~A
# ...
   297.0000    130.8464     37.8705     93.7150    -28.1115      7.4396      7.4175      7.6425
   296.5000    130.0009     37.9203     93.0860    -28.2808      7.4533      7.4434      7.6923
   296.0000    130.8928     37.9032     97.2343    -27.5281      7.3850      7.4271      7.6398
   295.5000    131.5694     37.8026    100.3483    -30.9325      7.3232      7.4019      7.6006
   295.0000    131.4606     37.6476     98.7167    -35.0942      7.3175      7.3715      7.6068
   294.5000    131.2033     37.4902     95.8288    -34.1075      7.3420      7.3505      7.6218
   294.0000    131.0424     37.3977     95.5554    -30.1380      7.3885      7.3572      7.6311
   293.5000    130.5684     37.4139     97.0005    -26.4819      7.4615      7.3899      7.6588
   293.0000    129.5127     37.5155     98.3915    -23.8687      7.5182      7.4357      7.7212
   292.5000    128.3039     37.6100     99.7196    -20.1788      7.5442      7.4865      7.7940
   292.0000    127.4594     37.5970     99.1854    -19.3385      7.5875      7.5317      7.8456
   291.5000    127.1730     37.4335     98.1050    -22.9208      7.6433      7.5608      7.8633
   291.0000    127.3822     37.2167     98.4043    -27.9035      7.6551      7.5766      7.8504
   290.5000    127.9488     37.0924     98.6325    -29.5813      7.6045      7.5732      7.8156
   290.0000    128.7685     37.1318     96.5727    -28.7234      7.5282      7.5394      7.7659
   289.5000    129.8035     37.2539     93.3140    -29.9867      7.4851      7.4924      7.7040
   289.0000    130.8542     37.3086     91.4805    -34.0118      7.4963      7.4608      7.6421
   288.5000    131.6034     37.2038     91.1590    -36.6485      7.4474      7.4507      7.5986
   288.0000    131.9428     36.9707     90.6992    -33.3335      7.2437      7.4375      7.5790
   287.5000    132.2943     36.6725     89.5889    -27.2755      7.0361      7.3733      7.5589
   287.0000    133.9602     36.4137     90.2643    -25.4465      7.0185      7.2313      7.4649
   286.5000    138.5443     36.3199     91.8617    -30.4765      7.1478      7.0420      7.2179
   286.0000    146.5923     36.3680     92.4015    -33.7190      7.2431      6.8386      6.8216
   285.5000    157.5631     36.4164     92.3209    -29.4993      7.2325      6.5996      6.3467
   285.0000    169.7415     36.3581     93.0361    -23.3471      7.1290      6.3094      5.8913
   284.5000    179.9418     36.1279     95.1067    -22.0030      6.6775      6.0077      5.5574
   284.0000    186.4590     35.8170     96.7743    -22.7048      5.7021      5.7245      5.3631
   283.5000    190.3795     35.6133     97.3062    -22.7030      4.8273      5.4178      5.2527
   283.0000    193.2688     35.4938     97.1786    -22.0835      4.5968      5.0707      5.1741
   282.5000    195.4213     35.3341     97.5928    -23.1248      5.0177      4.7848      5.1171
   282.0000    195.4620     35.2041     97.5867    -23.7607      5.7203      4.7214      5.1161
   281.5000    190.9577     35.1842     96.9668    -24.8853      6.1910      4.9320      5.2368
   281.0000    181.5707     35.2278     95.8879    -27.8675      6.3703      5.3235      5.5075
   280.5000    170.2035     35.3919     94.8368    -31.1509      6.4867      5.7509      5.8753
   280.0000    159.7115     35.7328     94.7909    -27.7422      6.6296      6.1149      6.2613
   279.5000    151.2689     36.0946     95.2281    -23.4280      6.7609      6.3954      6.6107
   279.0000    145.0255     36.2936     93.8562    -25.1497      6.8529      6.6137      6.8953
   278.5000    140.5866     36.3073     90.4905    -29.7116      6.9394      6.7915      7.1131
   278.0000    137.0159     36.2178     87.9172    -31.3653      7.0490      6.9348      7.2984
   277.5000    133.8418     36.1164     87.3562    -31.5474      7.1707      7.0548      7.4715
   277.0000    130.9643     36.0572     87.4230    -32.5078      7.2853      7.1799      7.6357
   276.5000    128.2229     35.9768     88.8616    -35.0299      7.3882      7.3218      7.7989
   276.0000    125.7542     35.8000     92.0900    -34.4653      7.4810      7.4530      7.9520
   275.5000    124.2029     35.5816     94.2337    -30.7830      7.5492      7.5377      8.0513
   275.0000    124.4238     35.4677     92.9251    -30.0544      7.5636      7.5717      8.0370
   274.5000    126.8205     35.5488     91.3127    -32.2028      7.5146      7.5634      7.8852
   274.0000    130.9977     35.7076     91.4591    -32.3910      7.4196      7.4828      7.6337
   273.5000    136.6392     35.7209     91.0558    -30.1172      7.2954      7.2901      7.3185
   273.0000    143.6619     35.4740     91.5440    -29.3642      7.1308      7.0102      6.9608
   272.5000    151.6855     35.0358     95.1969    -31.4705      6.8054      6.7122      6.5926
   272.0000    160.5198     34.5768     98.3703    -32.9601      6.3103      6.4127      6.2298
   271.5000    170.8951     34.3030     96.6350    -31.3900      5.9427      6.0588      5.8515
   271.0000    182.7707     34.3497     92.0339    -29.6933      5.9282      5.6562      5.4713
   270.5000    195.2141     34.6308     87.1272    -31.3214      5.9257      5.3013      5.1226
   270.0000    207.8656     34.9493     83.6156    -29.9351      5.4722      5.0412      4.8108
   269.5000    221.2845     35.1226     82.3480    -26.7866      5.0049      4.7825      4.5191
   269.0000    234.1573     35.1638     83.4764    -28.1317      5.0475      4.4770      4.2706
   268.5000    242.3140     35.2109     85.2824    -33.7891      5.3048      4.2310      4.1269
   268.0000    242.5495     35.3696     86.4373    -36.2300      4.9365      4.1501      4.1229
   267.5000    236.0475     35.5744     88.1654    -33.8635      4.2737      4.1705      4.2364
   267.0000    226.8008     35.5886     91.2740    -27.8706      4.1870      4.1564      4.4092
   266.5000    217.8636     35.3122     92.5743    -22.7460      4.9169      4.1360      4.5900
   266.0000    208.9801     34.9036     89.9179    -21.4104      6.1511      4.2946      4.7851
   265.5000    197.1944     34.5863     86.9578    -19.7411      6.9089      4.7482      5.0711
   265.0000    181.7851     34.4311     86.1923    -16.7930      6.9299      5.3975      5.5010
   264.5000    166.1934     34.4379     86.7475    -17.4311      6.7832      5.9768      6.0171
   264.0000    154.2862     34.4588     87.7342    -21.4336      6.6709      6.3031      6.4815
   263.5000    147.2707     34.3733     89.0006    -22.1149      6.5637      6.4163      6.7902
   263.0000    144.4884     34.2511     90.2953    -22.1308      6.4633      6.4363      6.9210
   262.5000    143.8890     34.1648     91.5407    -25.7624      6.4354      6.4268      6.9498
   262.0000    144.1239     34.0367     93.3322    -28.3497      6.4978      6.3919      6.9385
   261.5000    146.1445     33.7710     93.5397    -26.3270      6.5858      6.3331      6.8425
   261.0000    151.4529     33.4358     90.3399    -23.5631      6.6365      6.2554      6.6027
   260.5000    161.3136     33.2140     86.3987    -25.1411      6.6796      6.1116      6.1991
   260.0000    176.7532     33.2157     85.8314    -25.4962      6.8044      5.8332      5.6576
   259.5000    195.5258     33.3908     86.4723    -23.2889      6.8545      5.4547      5.1144
   259.0000    215.4193     33.6320     85.5916    -24.5854      6.0384      5.0592      4.6421
   258.5000    239.7854     33.8888     83.5311    -31.6523      4.6871      4.5989      4.1704
   258.0000    274.5002     34.0730     81.9728    -34.2722      4.0351      4.0156      3.6430
   257.5000    316.0657     34.1682     80.6570    -28.1176      4.2514      3.4336      3.1639
   257.0000    354.8538     34.3773     76.3384    -20.1910      4.5912      3.0357      2.8181
   256.5000    381.4429     34.8404     70.3233    -16.8162      4.0336      2.8429      2.6216
   256.0000    391.0879     35.3025     68.8703    -18.7121      3.3169      2.7377      2.5570
   255.5000    388.3000     35.4591     71.6741    -23.1126      3.0640      2.6155      2.5753
