~Version Information
 VERS.                2.00:   CWLS log ASCII Standard -VERSION 2.00
 WRAP.                  NO:   One line per frame
~Well Information Block
#MNEM.UNIT              Data                Description
#--------- -------------------------------  -------------------------------
 STRT.F                          591.0000:   Starting Depth
 STOP.F                            7.2500:   Ending Depth
 STEP.F                           -0.5000:   Level Spacing
 NULL.                          -999.2500:   Absent Value
 COMP.     FLUOR DANIEL (NPSOR), INC.    :   Company
 WELL.     53-1 X 3                      :   Well
 FLD .     NPR #3                        :   Field
 LOC .     3-38N-78W                     :   Location
 CNTY.     NATRONA                       :   County
 STAT.     WYIOMING                      :   State
 SRVC.     ATLAS WIRELINE SERVICES       :   Service Company
 LIC .                                   :   License Number
 DATE.     13-SEPT-1994                  :   Log Date
 API .     4902522654                    :   API Number
~Curve Information Block
#MNEM.UNIT       API Codes    Curve Description
#---------    -------------   -------------------------------
 DEPT.F        0   0  0  0:   Depth
 CILD.MMHO     0   0  0  0:   Conductivity of Deep Induction
 SP  .MV       0   0  0  0:   Spontaneous Potential
 GR  .API      0   0  0  0:   Gamma ray counts
 TEN .LBF      0   0  0  0:   Differential Tension
 RFOC.OHMM     0   0  0  0:   Resistivity from CFOC
 RILM.OHMM     0   0  0  0:   Resistivity from CILM
 RILD.OHMM     0   0  0  0:   Resistivity from CILD
#  Curve Data
~A
# ...
   213.0000    126.4787     36.6210     70.9096    -21.1313      7.6097      7.6805      7.9065
   212.5000    123.2484     36.6587     74.4698    -25.6926      7.6646      7.8176      8.1137
   212.0000    121.3889     36.6284     76.2227    -25.2607      7.8114      7.8892      8.2380
   211.5000    120.1798     36.6353     76.1836    -21.7553      7.8980      7.9615      8.3209
   211.0000    119.1422     36.7528     76.7034    -19.6411      7.8889      8.0427      8.3933
   210.5000    118.0666     36.9598     76.4647    -18.1795      7.8845      8.1065      8.4698
   210.0000    116.9926     37.1971     74.8363    -18.5196      7.9410      8.1531      8.5475
   209.5000    116.0775     37.4668     74.9656    -24.4198      8.0425      8.2043      8.6149
   209.0000    115.3245     37.7428     75.7080    -31.4510      8.1628      8.2655      8.6712
   208.5000    114.6696     37.9076     74.0210    -30.8120      8.2501      8.3267      8.7207
   208.0000    114.2068     37.9186     72.5016    -25.8960      8.2495      8.3842      8.7560
   207.5000    113.9304     37.8468     73.2842    -24.9661      8.1955      8.4403      8.7773
   207.0000    113.7831     37.7823     73.6260    -25.3022      8.1687      8.4832      8.7887
   206.5000    113.9971     37.7438     73.1873    -20.4594      8.1946      8.4969      8.7722
   206.0000    114.6960     37.7370     73.3840    -15.7218      8.2530      8.4866      8.7187
   205.5000    115.4550     37.7176     73.1838    -19.0155      8.3053      8.4708      8.6614
   205.0000    115.7920     37.6158     72.4384    -23.8357      8.2957      8.4586      8.6362
   204.5000    115.7163     37.4422     72.4306    -20.3649      8.1923      8.4439      8.6418
   204.0000    115.4331     37.1887     73.8858    -16.6942      8.0372      8.4148      8.6630
   203.5000    115.1214     36.8173     75.8950    -21.3302      7.9262      8.3660      8.6865
   203.0000    114.9121     36.5068     77.1332    -26.0400      7.9883      8.3178      8.7023
   202.5000    114.6820     36.5669     77.6808    -24.0865      8.2313      8.3100      8.7198
   202.0000    114.0947     36.9828     79.3408    -21.9579      8.4645      8.3726      8.7647
   201.5000    112.9362     37.4833     81.4699    -22.3693      8.5233      8.4936      8.8546
   201.0000    111.3144     37.8406     81.8035    -18.2289      8.4857      8.6297      8.9836
   200.5000    109.6859     37.9352     78.5350    -12.8957      8.4618      8.7438      9.1169
   200.0000    108.5612     37.8537     74.3907    -16.3148      8.4882      8.8258      9.2114
   199.5000    108.0214     37.8482     73.5273    -26.7595      8.5978      8.8746      9.2574
   199.0000    107.9096     38.0147     75.1304    -32.9305      8.7428      8.8945      9.2670
   198.5000    108.2294     38.2296     75.5272    -30.9105      8.7896      8.9015      9.2396
   198.0000    108.9217     38.4293     74.1508    -26.7235      8.6946      8.8960      9.1809
   197.5000    109.8965     38.5845     72.0222    -26.4148      8.5398      8.8544      9.0995
   197.0000    111.1518     38.6280     71.0506    -30.7980      8.4092      8.7655      8.9967
   196.5000    112.4878     38.5599     73.5025    -35.2385      8.2960      8.6496      8.8898
   196.0000    113.7111     38.4391     76.8658    -32.4862      8.1396      8.5276      8.7942
   195.5000    114.9670     38.3223     76.8305    -25.4370      7.9890      8.4047      8.6981
   195.0000    116.3948     38.2469     73.9236    -23.0025      7.9852      8.2851      8.5914
   194.5000    117.8795     38.2491     71.9421    -28.3357      8.1244      8.1883      8.4832
   194.0000    119.0783     38.3535     71.9931    -32.3132      8.2197      8.1366      8.3978
   193.5000    119.6755     38.5114     73.2689    -30.2737      8.1263      8.1302      8.3559
   193.0000    119.9105     38.5479     73.8116    -26.0659      7.8985      8.1319      8.3396
   192.5000    120.4728     38.3362     73.1005    -23.5725      7.7220      8.0908      8.3006
   192.0000    121.8839     37.9913     72.0451    -22.2189      7.7374      7.9878      8.2045
   191.5000    124.1634     37.7509     70.8806    -21.4558      7.9220      7.8626      8.0539
   191.0000    126.4896     37.7243     68.9182    -22.1906      8.1171      7.7783      7.9058
   190.5000    127.6956     37.8377     66.3688    -22.3760      8.0267      7.7522      7.8311
   190.0000    127.4940     37.9678     65.0720    -20.9404      7.5576      7.7381      7.8435
   189.5000    126.4415     38.0937     66.2214    -21.9023      7.1318      7.6830      7.9088
   189.0000    125.0524     38.2118     68.8478    -26.8574      7.1045      7.5955      7.9966
   188.5000    123.6402     38.2700     70.3066    -30.3606      7.4013      7.5574      8.0880
   188.0000    121.9215     38.3069     69.1050    -26.6991      7.8168      7.6497      8.2020
   187.5000    119.3711     38.4678     67.9118    -18.9902      8.2564      7.8798      8.3772
   187.0000    116.1524     38.8118     68.9827    -14.4817      8.5866      8.1984      8.6094
   186.5000    112.7097     39.2758     70.2450    -14.2639      8.6951      8.5427      8.8724
   186.0000    109.2562     39.7336     70.0589    -13.9248      8.6686      8.8416      9.1528
   185.5000    106.4198     40.0078     69.9048    -14.5509      8.6084      9.0382      9.3967
   185.0000    104.8084     40.0419     69.7486    -18.7041      8.5891      9.1348      9.5412
   184.5000    104.0889     39.9655     67.2518    -24.6711      8.6437      9.1629      9.6072
   184.0000    103.7051     39.9131     62.5641    -28.2445      8.7226      9.1627      9.6427
   183.5000    103.5022     39.8618     60.1011    -27.3109      8.8152      9.1774      9.6616
   183.0000    103.2939     39.7320     62.9939    -25.8609      8.9043      9.2248      9.6811
   182.5000    102.8857     39.5450     67.4916    -26.6597      8.8825      9.2870      9.7195
   182.0000    102.2054     39.2445     68.5664    -27.8212      8.7735      9.3342      9.7842
   181.5000    101.3537     38.5252     68.1557    -27.6077      8.7229      9.3489      9.8664
   181.0000    100.7210     37.2290     69.1288    -27.1731      8.7745      9.3477      9.9284
   180.5000    100.5510     35.7351     68.9838    -29.3941      8.8904      9.3693      9.9452
   180.0000    100.5482     34.5906     65.9832    -31.7615      9.0111      9.4251      9.9455
   179.5000    100.3694     33.9970     64.6290    -29.7967      9.0564      9.4949      9.9632
   179.0000    100.0092     33.8025     68.8669    -26.9196      9.0437      9.5641      9.9991
   178.5000     99.5660     33.7633     73.9240    -28.4550      9.0613      9.6266     10.0436
   178.0000     99.0817     33.7050     73.9193    -31.2744      9.1019      9.6744     10.0927
   177.5000     98.6088     33.5400     70.8452    -30.9975      9.1059      9.7052     10.1411
   177.0000     98.1233     33.3035     69.6432    -29.6018      9.0935      9.7247     10.1913
   176.5000     97.6592     33.0838     70.2145    -28.9698      9.1278      9.7368     10.2397
   176.0000     97.3067     32.8745     71.2489    -28.1976      9.2188      9.7511     10.2768
   175.5000     96.9666     32.6951     72.4502    -27.1856      9.3472      9.7951     10.3128
   175.0000     96.3017     32.6366     73.8620    -26.9989      9.4520      9.8816     10.3840
   174.5000     95.2213     32.6340     75.5476    -26.4722      9.4342      9.9954     10.5019
   174.0000     93.9597     32.5238     75.4468    -27.0096      9.3297     10.1071     10.6429
   173.5000     92.6891     32.2958     73.4393    -32.7683      9.3271     10.2069     10.7888
   173.0000     91.2928     31.9969     72.2544    -38.9021      9.5232     10.3026     10.9538
   172.5000     89.7499     31.6249     72.2773    -36.0586      9.8101     10.4326     11.1421
   172.0000     88.0703     31.2420     70.9244    -29.1437     10.0285     10.6315     11.3546
   171.5000     86.0281     30.9943     68.5080    -26.2257     10.1435     10.9024     11.6241
