~Version Information
 VERS.                2.00:   CWLS log ASCII Standard -VERSION 2.00
 WRAP.                  NO:   One line per frame
~Well Information Block
#MNEM.UNIT              Data                Description
#--------- -------------------------------  -------------------------------
 STRT.F                          591.0000:   Starting Depth
 STOP.F                            7.2500:   Ending Depth
 STEP.F                           -0.5000:   Level Spacing
 NULL.                          -999.2500:   Absent Value
 COMP.     FLUOR DANIEL (NPSOR), INC.    :   Company
 WELL.     53-1 X 3                      :   Well
 FLD .     NPR #3                        :   Field
 LOC .     3-38N-78W                     :   Location
 CNTY.     NATRONA                       :   County
 STAT.     WYIOMING                      :   State
 SRVC.     ATLAS WIRELINE SERVICES       :   Service Company
 LIC .                                   :   License Number
 DATE.     13-SEPT-1994                  :   Log Date
 API .     4902522654                    :   API Number
~Curve Information Block
#MNEM.UNIT       API Codes    Curve Description
#---------    -------------   -------------------------------
 DEPT.F        0   0  0  0:   Depth
 CILD.MMHO     0   0  0  0:   Conductivity of Deep Induction
 SP  .MV       0   0  0  0:   Spontaneous Potential
 GR  .API      0   0  0  0:   Gamma ray counts
 TEN .LBF      0   0  0  0:   Differential Tension
 RFOC.OHMM     0   0  0  0:   Resistivity from CFOC
 RILM.OHMM     0   0  0  0:   Resistivity from CILM
 RILD.OHMM     0   0  0  0:   Resistivity from CILD
#  Curve Data
~A
# ...
   549.0000     99.9334     55.8943     80.8896    176.1021      9.5222      9.6869     10.0067
   548.5000     99.3834     55.9883     84.5807    174.8656      9.5669      9.6487     10.0620
   548.0000     98.8783     56.0200     84.8347    172.8575      9.6865      9.6498     10.1134
   547.5000     98.3698     56.0605     82.0979    169.0877      9.8195      9.7105     10.1657
   547.0000     97.7850     56.2230     80.0974    165.6235      9.8932      9.8154     10.2265
   546.5000     97.1727     56.5499     78.1648    163.7194      9.9161      9.9136     10.2910
   546.0000     96.7815     56.8450     74.9848    161.8787      9.9282      9.9625     10.3326
   545.5000     96.8143     56.8425     73.8290    162.0230      9.9521      9.9520     10.3291
   545.0000     97.2951     56.6021     77.5511    164.9818      9.9795      9.9120     10.2780
   544.5000     98.1635     56.4122     83.1534    164.3459      9.9344      9.8869     10.1871
   544.0000     99.3916     56.4469     86.7900    154.8823      9.8013      9.8666     10.0612
   543.5000    101.2375     56.6851     87.1838    145.3535      9.6667      9.7635      9.8778
   543.0000    104.1188     57.0730     85.1521    143.8956      9.5446      9.5398      9.6044
   542.5000    108.1104     57.5116     83.3732    143.1279      9.3654      9.2506      9.2498
   542.0000    113.0083     57.8557     82.9662    135.0476      9.1294      8.9307      8.8489
   541.5000    118.4312     58.0646     84.2538    127.5677      8.9342      8.5763      8.4437
   541.0000    123.3772     58.3071     87.7587    129.7994      8.7450      8.2323      8.1052
   540.5000    126.8151     58.7804     90.9419    139.7522      8.2623      7.9657      7.8855
   540.0000    128.8666     59.3632     90.4399    150.3247      7.5572      7.7626      7.7600
   539.5000    130.2780     59.8414     88.4100    155.1071      7.2193      7.5493      7.6759
   539.0000    131.4159     60.1480     86.7361    149.4118      7.5231      7.3335      7.6094
   538.5000    132.0821     60.2605     83.5117    137.8737      8.1423      7.2352      7.5710
   538.0000    131.4508     60.2117     81.2493    129.5692      8.5177      7.3422      7.6074
   537.5000    129.0578     60.1646     83.0977    127.2676      8.5547      7.5939      7.7485
   537.0000    125.7651     60.1701     84.5250    130.3055      8.5199      7.8425      7.9513
   536.5000    122.6930     60.1274     81.8216    139.2361      8.5328      8.0024      8.1504
   536.0000    120.3325     60.1146     79.7723    146.6461      8.5875      8.0893      8.3103
   535.5000    118.8788     60.2871     81.2348    142.9940      8.6472      8.1459      8.4119
   535.0000    118.0887     60.5429     82.7045    131.5895      8.7058      8.2031      8.4682
   534.5000    117.1774     60.6025     82.5661    124.9988      8.7699      8.2663      8.5341
   534.0000    115.8230     60.3272     82.8391    126.9837      8.8247      8.3306      8.6339
   533.5000    114.2583     59.8817     84.2982    129.4576      8.8571      8.4029      8.7521
   533.0000    112.5423     59.5120     85.9199    125.1162      8.8786      8.4931      8.8855
   532.5000    110.5674     59.3215     87.1033    115.4693      8.9086      8.5961      9.0443
   532.0000    108.5202     59.3103     87.1248    111.3918      8.9883      8.7099      9.2149
   531.5000    106.7577     59.4601     86.1346    116.7915      9.1732      8.8426      9.3670
   531.0000    105.3476     59.6502     85.1137    120.6559      9.4067      8.9983      9.4924
   530.5000    104.1620     59.6989     84.5353    115.9204      9.5498      9.1705      9.6004
   530.0000    103.1105     59.5583     82.4360    111.2442      9.6118      9.3338      9.6983
   529.5000    102.3047     59.3652     78.5790    112.5700      9.7019      9.4526      9.7747
   529.0000    101.8934     59.2889     77.0813    119.1601      9.7874      9.5145      9.8142
   528.5000    101.8138     59.3637     78.0719    127.1612      9.7544      9.5407      9.8219
   528.0000    101.7988     59.5073     79.0321    130.1194      9.6270      9.5441      9.8233
   527.5000    101.7365     59.6610     79.4672    126.1761      9.5198      9.5219      9.8293
   527.0000    101.6572     59.7824     79.6659    119.0738      9.4815      9.4829      9.8370
   526.5000    101.3733     59.7789     78.9463    111.5171      9.4848      9.4567      9.8645
   526.0000    100.6956     59.5898     78.2716    108.3348      9.5079      9.4721      9.9309
   525.5000     99.7259     59.3031     77.7668    113.8684      9.5973      9.5320     10.0275
   525.0000     98.5912     59.0650     77.3784    120.7025      9.8080      9.6311     10.1429
   524.5000     97.2791     58.9741     77.8237    117.5232     10.0667      9.7821     10.2797
   524.0000     95.8397     58.9639     78.0019    103.5051     10.2119      9.9749     10.4341
   523.5000     94.3506     58.8126     77.3122     92.6276     10.2456     10.1534     10.5988
   523.0000     92.9023     58.3726     77.8678     93.1137     10.3160     10.2915     10.7640
   522.5000     91.5564     57.7534     80.6035    101.5046     10.4300     10.4163     10.9222
   522.0000     90.2488     57.1599     83.0003    111.5525     10.4573     10.5493     11.0805
   521.5000     88.8861     56.7644     83.1629    115.5294     10.4086     10.6771     11.2504
   521.0000     87.5580     56.6447     81.5771    108.9109     10.4586     10.7908     11.4210
   520.5000     86.2903     56.7543     79.4008     98.7468     10.6813     10.9132     11.5888
   520.0000     84.9169     56.9448     76.7459     94.6226     10.9464     11.0694     11.7762
   519.5000     83.4488     57.0457     74.1753     97.0769     11.1153     11.2508     11.9834
   519.0000     82.0876     56.9782     72.7056    102.7499     11.2464     11.4355     12.1821
   518.5000     80.9317     56.8269     71.5598    105.7785     11.4302     11.6159     12.3561
   518.0000     79.9620     56.7204     70.1200    105.8048     11.5731     11.7895     12.5059
   517.5000     79.2727     56.6606     69.5679    110.3917     11.5764     11.9325     12.6147
   517.0000     78.9514     56.5711     70.1969    116.4706     11.5805     12.0166     12.6660
   516.5000     78.8102     56.4098     69.8904    112.6978     11.6856     12.0513     12.6887
   516.0000     78.6154     56.2109     68.8739    100.0473     11.7069     12.0787     12.7201
   515.5000     78.2259     56.0704     68.6225     89.7929     11.5005     12.1167     12.7835
   515.0000     77.7218     56.0238     69.5270     85.3420     11.2651     12.1413     12.8664
   514.5000     77.3249     56.0183     71.0444     88.0184     11.2482     12.1312     12.9324
   514.0000     77.0863     56.0042     71.7998     97.6516     11.4705     12.1197     12.9725
   513.5000     76.8194     55.9841     72.2285    101.7245     11.7838     12.1656     13.0175
   513.0000     76.4445     56.0009     74.3703     93.1900     12.0277     12.2877     13.0814
   512.5000     76.0386     56.0788     77.0490     82.6044     12.1360     12.4458     13.1512
   512.0000     75.6629     56.1016     76.0701     77.3416     12.0892     12.5761     13.2165
   511.5000     75.4531     55.8825     72.7463     73.3290     11.9294     12.6298     13.2533
   511.0000     75.5029     55.4262     70.3736     72.5732     11.8025     12.6022     13.2445
   510.5000     75.8464     54.9263     68.9780     79.8185     11.7925     12.5298     13.1845
   510.0000     76.4241     54.5756     67.4155     91.2880     11.8286     12.4505     13.0849
   509.5000     77.0209     54.4692     66.8908     95.9960     11.8489     12.3798     12.9835
   509.0000     77.4879     54.5835     68.8525     90.7189     11.8416     12.3141     12.9052
   508.5000     77.9623     54.7073     73.3484     86.7313     11.7613     12.2476     12.8267
   508.0000     78.5816     54.5547     76.4286     90.9492     11.6052     12.1785     12.7256
   507.5000     79.4262     54.1211     74.9363     94.5851     11.4869     12.0867     12.5903
