~Version Information
 VERS.                2.00:   CWLS log ASCII Standard -VERSION 2.00
 WRAP.                  NO:   One line per frame
~Well Information Block
#MNEM.UNIT              Data                Description
#--------- -------------------------------  -------------------------------
 STRT.F                          591.0000:   Starting Depth
 STOP.F                            7.2500:   Ending Depth
 STEP.F                           -0.5000:   Level Spacing
 NULL.                          -999.2500:   Absent Value
 COMP.     FLUOR DANIEL (NPSOR), INC.    :   Company
 WELL.     53-1 X 3                      :   Well
 FLD .     NPR #3                        :   Field
 LOC .     3-38N-78W                     :   Location
 CNTY.     NATRONA                       :   County
 STAT.     WYIOMING                      :   State
 SRVC.     ATLAS WIRELINE SERVICES       :   Service Company
 LIC .                                   :   License Number
 DATE.     13-SEPT-1994                  :   Log Date
 API .     4902522654                    :   API Number
~Curve Information Block
#MNEM.UNIT       API Codes    Curve Description
#---------    -------------   -------------------------------
 DEPT.F        0   0  0  0:   Depth
 CILD.MMHO     0   0  0  0:   Conductivity of Deep Induction
 SP  .MV       0   0  0  0:   Spontaneous Potential
 GR  .API      0   0  0  0:   Gamma ray counts
 TEN .LBF      0   0  0  0:   Differential Tension
 RFOC.OHMM     0   0  0  0:   Resistivity from CFOC
 RILM.OHMM     0   0  0  0:   Resistivity from CILM
 RILD.OHMM     0   0  0  0:   Resistivity from CILD
#  Curve Data
~A
   591.0000      0.0000      0.0000      0.0000   -250.0000      0.2000      0.2000      0.2000
   590.5000      0.0000      0.0000      0.0000   -250.0000      0.2000      0.2000      0.2000
   590.0000      0.0000      0.0000      0.0000   -250.0000      0.2000      0.2000      0.2000
   589.5000      0.0000      0.0000      0.0000   -250.0000      0.2000      0.2000      0.2000
   589.0000      0.0000      0.0000      0.0000   -250.0000      0.2000      0.2000      0.2000
   588.5000      0.0000      0.0000      0.0000   -250.0000      0.2000      0.2000      0.2000
   588.0000      0.0000      0.0000      0.0000   -250.0000      0.2000      0.2000      0.2000
   587.5000      0.0000      0.0000      0.0000   -250.0000      0.2000      0.2000      0.2000
   587.0000      0.0000      0.0000      0.0000   -250.0000      0.2000      0.2000      0.2000
   586.5000      0.0000      0.0000      0.0000   -250.0000      0.2000      0.2000      0.2000
   586.0000      0.0000      0.0000      0.0000   -250.0000      0.2000      0.2000      0.2000
   585.5000      0.0000      0.0000      0.0000   -250.0000      0.2000      0.2000      0.2000
   585.0000      0.0000      0.0000      0.0000   -250.0000      0.2000      0.2000      0.2000
   584.5000      0.0000      0.0000      0.0000   -250.0000      0.2000      0.2000      0.2000
   584.0000      0.0000      0.0000      0.0000   -250.0000      0.2000      0.2000      0.2000
   583.5000      0.0000      0.0000      0.0000   -250.0000      0.2000      0.2000      0.2000
   583.0000      0.0000      0.0000      0.0000   -250.0000      0.2000      0.2000      0.2000
   582.5000      0.0000      0.0000      0.0000   -250.0000      0.2000      0.2000      0.2000
   582.0000      0.0000      0.0000      0.0000   -250.0000      0.2000      0.2000      0.2000
   581.5000      0.0000      0.0000      0.0000   -250.0000      0.2000      0.2000      0.2000
   581.0000      0.0000      0.0000      0.0000    -35.1046      8.1202      0.2000      0.2000
   580.5000      0.0000      0.0000      0.0000    -29.0290      8.1142      0.2000      0.2000
   580.0000      0.0000      0.0000      0.0000    -25.5556      8.1123      0.2000      0.2000
   579.5000      0.0000      0.0000      0.0000    -26.2562      8.1179      0.2000      0.2000
   579.0000      0.0000      0.0000      0.0000    -31.8487      8.1257      0.2000      0.2000
   578.5000      0.0000      0.0000      0.0000    -35.8555      8.1305      0.2000      0.2000
   578.0000      0.0000      0.0000      0.0000    -30.8925      8.1259      0.2000      0.2000
   577.5000      0.0000      0.0000      0.0000    -20.6613      8.1132      0.2000      0.2000
   577.0000      0.0000      0.0000      0.0000    -12.4608      8.1058      0.2000      0.2000
   576.5000      0.0000      0.0000      0.0000     -7.0769      8.1118      0.2000      0.2000
   576.0000      0.0000      0.0000      0.0000     -4.9068      8.1230      0.2000      0.2000
   575.5000      0.0000      0.0000      0.0000      4.7797      8.1312      0.2000      0.2000
   575.0000      0.0000      0.0000      0.0000     51.7496      8.1579      8.3003      0.2000
   574.5000      0.0000      0.0000      0.0000    137.6559      8.2240      8.2937      0.2000
   574.0000      0.0000      0.0000      0.0000    213.2327      8.2828      8.2918      0.2000
   573.5000      0.0000      0.0000      0.0000    243.6028      8.3053      8.2982      0.2000
   573.0000      0.0000      0.0000      0.0000    246.5647      8.3527      8.3049      0.2000
   572.5000      0.0000      0.0000      0.0000    248.1745      8.4248      8.3059      0.2000
   572.0000      0.0000      0.0000      0.0000    248.4655      8.4204      8.3053      0.2000
   571.5000      0.0000     56.6723      0.0000    245.6170      8.3553      8.3047      0.2000
   571.0000      0.0000     56.4381      0.0000    241.9921      8.3382      8.3013      0.2000
   570.5000      0.0000     56.2766      0.0000    241.9150      8.3695      8.3000      0.2000
   570.0000      0.0000     56.0466      0.0000    242.4405      8.3639      8.3023      0.2000
   569.5000      0.0000     55.8613      0.0000    241.2245      8.3012      8.3039      0.2000
   569.0000      0.0000     55.6266      0.0000    238.2013      8.2433      8.2915      0.2000
   568.5000      0.0000     55.1289      0.0000    236.1114      8.2317      8.2354      0.2000
   568.0000      0.0000     54.5578      0.0000    231.7194      8.2512      8.1308      0.2000
   567.5000      0.0000     54.2173      0.0000    229.3486      8.2505      8.0209      0.2000
   567.0000      0.0000     54.1475      0.0000    232.2602      8.1472      7.9294      0.2000
   566.5000      0.0000     54.1580      0.0000    232.2563      7.8987      7.8116      0.2000
   566.0000      0.0000     54.1921      0.0000    225.7283      7.5638      7.5858      0.2000
   565.5000      0.0000     54.3629      0.0000    221.5367      7.2337      7.1815      0.2000
   565.0000    162.0506     54.8402      0.0000    219.7095      7.0402      6.5756      6.1709
   564.5000    197.4363     55.5934      0.0000    214.1038      7.1838      5.8262      5.0649
   564.0000    241.2292     56.4532      0.0000    207.8077      7.6196      5.0720      4.1454
   563.5000    287.5398     57.3868      0.0000    205.7279      7.1899      4.4123      3.4778
   563.0000    326.7209     58.5492      0.0000    205.6420      5.3723      3.8738      3.0607
   562.5000    354.2441     59.8464      0.0000    204.0434      3.8405      3.3875      2.8229
   562.0000    371.3413     60.5966      0.0000    203.7409      3.1103      2.9327      2.6929
   561.5000    381.0369     60.1493      0.0000    204.4335      2.9116      2.5723      2.6244
   561.0000    382.7520     58.8258      0.0000    202.8439      3.0791      2.3642      2.6127
   560.5000    372.1506     57.5615      0.0000    198.4955      3.5828      2.3529      2.6871
   560.0000    345.8184     56.7700      0.0000    194.8956      4.3546      2.5577      2.8917
   559.5000    305.0354     56.2744      0.0000    195.0368      5.1766      2.9825      3.2783
   559.0000    256.4585     56.0172      0.0000    200.0607      5.8772      3.6449      3.8993
   558.5000    212.4082     56.0320      0.0000    204.6712      6.3884      4.4992      4.7079
   558.0000    176.9260     56.1521      0.0000    200.2191      6.7031      5.4063      5.6521
   557.5000    152.0059     56.2018     75.5733    188.0700      6.9275      6.1860      6.5787
   557.0000    136.5423     56.1292     78.0827    185.1334      7.1593      6.7548      7.3237
   556.5000    127.1051     55.8958     79.1575    192.9744      7.4183      7.1567      7.8675
   556.0000    120.5199     55.5842     77.9147    193.6606      7.7150      7.4884      8.2974
   555.5000    115.0226     55.4146     77.4668    184.2020      8.0750      7.8040      8.6939
   555.0000    109.9846     55.4668     79.3186    182.2533      8.4886      8.1208      9.0922
   554.5000    105.1757     55.5959     82.2147    186.9338      8.8733      8.4536      9.5079
   554.0000    100.9439     55.7056     84.2767    184.4262      9.1568      8.8032      9.9065
   553.5000     98.0889     55.6857     84.5266    176.3869      9.3381      9.1303     10.1948
   553.0000     96.9978     55.4562     83.1146    171.2419      9.4452      9.3763     10.3095
   552.5000     97.4883     55.1678     80.8940    166.0435      9.5294      9.5220     10.2576
   552.0000     98.8584     55.0736     80.4462    156.2804      9.6312      9.5920     10.1155
   551.5000    100.3381     55.2074     82.9464    146.8678      9.7029      9.6287      9.9663
   551.0000    101.3999     55.3940     85.8946    143.9484      9.6884      9.6620      9.8619
   550.5000    101.7123     55.5023     86.2526    150.4833      9.6280      9.7007      9.8316
   550.0000    101.3290     55.5862     83.0269    163.6459      9.5751      9.7298      9.8688
   549.5000    100.6180     55.7314     79.8851    173.9018      9.5376      9.7256      9.9386
