~Version Information
 VERS.                2.00:   CWLS log ASCII Standard -VERSION 2.00
 WRAP.                  NO:   One line per frame
~Well Information Block
#MNEM.UNIT              Data                Description
#--------- -------------------------------  -------------------------------
 STRT.F                          591.0000:   Starting Depth
 STOP.F                            7.2500:   Ending Depth
 STEP.F                           -0.5000:   Level Spacing
 NULL.                          -999.2500:   Absent Value
 COMP.     FLUOR DANIEL (NPSOR), INC.    :   Company
 WELL.     53-1 X 3                      :   Well
 FLD .     NPR #3                        :   Field
 LOC .     3-38N-78W                     :   Location
 CNTY.     NATRONA                       :   County
 STAT.     WYIOMING                      :   State
 SRVC.     ATLAS WIRELINE SERVICES       :   Service Company
 LIC .                                   :   License Number
 DATE.     13-SEPT-1994                  :   Log Date
 API .     4902522654                    :   API Number
~Curve Information Block
#MNEM.UNIT       API Codes    Curve Description
#---------    -------------   -------------------------------
 DEPT.F        0   0  0  0:   Depth
 CILD.MMHO     0   0  0  0:   Conductivity of Deep Induction
 SP  .MV       0   0  0  0:   Spontaneous Potential
 GR  .API      0   0  0  0:   Gamma ray counts
 TEN .LBF      0   0  0  0:   Differential Tension
 RFOC.OHMM     0   0  0  0:   Resistivity from CFOC
 RILM.OHMM     0   0  0  0:   Resistivity from CILM
 RILD.OHMM     0   0  0  0:   Resistivity from CILD
#  Curve Data
~A
# ...
   255.0000    380.4722     35.3357     74.7442    -29.0470      3.1972      2.5028      2.6283
   254.5000    368.0928     35.0234     77.7332    -32.5902      3.5621      2.4853      2.7167
   254.0000    347.3760     34.5515     79.1563    -30.7955      4.0461      2.6173      2.8787
   253.5000    317.2971     34.0743     78.5716    -25.8606      4.5484      2.9136      3.1516
   253.0000    280.3081     33.7967     79.8116    -22.3605      4.9854      3.3692      3.5675
   252.5000    241.8645     33.7327     81.1954    -21.8395      5.3467      3.9437      4.1345
   252.0000    208.8852     33.7919     79.5062    -26.0906      5.6950      4.5689      4.7873
   251.5000    182.5162     33.9411     76.9098    -31.5980      6.0471      5.1740      5.4790
   251.0000    163.0700     34.1367     77.6721    -32.4117      6.3672      5.7060      6.1323
   250.5000    149.2860     34.2428     80.4234    -32.5670      6.6508      6.1618      6.6985
   250.0000    139.2724     34.1323     80.8438    -35.6649      6.9296      6.5500      7.1802
   249.5000    131.8609     33.9182     77.9763    -33.7552      7.2264      6.8907      7.5837
   249.0000    126.4740     33.8978     75.1265    -27.4158      7.5236      7.1921      7.9068
   248.5000    122.4662     34.2078     75.7028    -24.6739      7.7637      7.4575      8.1655
   248.0000    119.3336     34.6629     79.8340    -26.7183      7.9115      7.6911      8.3799
   247.5000    117.1183     35.0268     82.7161    -25.4156      7.9686      7.8861      8.5384
   247.0000    115.9719     35.3042     81.7041    -20.7619      7.9475      8.0265      8.6228
   246.5000    115.6839     35.5808     80.3941    -18.5940      7.8906      8.1094      8.6442
   246.0000    115.9195     35.7999     80.5041    -22.3434      7.8768      8.1525      8.6267
   245.5000    116.3918     35.9240     80.2589    -26.0964      7.9561      8.1843      8.5917
   245.0000    116.6922     36.0169     79.8529    -27.4119      8.1007      8.2305      8.5696
   244.5000    116.5105     36.1018     79.5851    -26.7888      8.2410      8.3032      8.5829
   244.0000    115.8517     36.1860     78.7340    -22.8308      8.3356      8.3931      8.6317
   243.5000    114.9334     36.3055     78.3300    -17.5784      8.3943      8.4794      8.7007
   243.0000    114.0890     36.4290     78.9907    -16.1244      8.4242      8.5428      8.7651
   242.5000    113.6275     36.5192     79.6591    -17.3728      8.4277      8.5762      8.8007
   242.0000    113.5206     36.6011     79.4318    -16.1967      8.4297      8.5866      8.8090
   241.5000    113.6817     36.6762     78.5791    -15.2223      8.4346      8.5828      8.7965
   241.0000    114.2530     36.6711     78.5918    -16.6622      8.4008      8.5657      8.7525
   240.5000    115.1748     36.5479     79.8296    -18.9246      8.3357      8.5280      8.6825
   240.0000    116.2191     36.4104     80.2389    -22.0512      8.2858      8.4628      8.6044
   239.5000    117.2962     36.3663     77.6765    -25.1110      8.2327      8.3763      8.5254
   239.0000    118.2155     36.3067     74.8085    -24.5909      8.1305      8.2875      8.4591
   238.5000    118.8928     36.0288     76.5917    -22.0847      8.0091      8.1982      8.4109
   238.0000    119.7524     35.5974     80.6725    -21.4610      7.9326      8.0985      8.3506
   237.5000    121.1611     35.2883     80.1676    -23.4374      7.8999      7.9999      8.2535
   237.0000    122.9143     35.2070     76.6742    -24.4262      7.8467      7.9187      8.1357
   236.5000    124.7003     35.2495     75.8274    -23.2239      7.7715      7.8432      8.0192
   236.0000    126.2890     35.3241     77.0873    -21.9155      7.7273      7.7558      7.9183
   235.5000    127.5245     35.4112     76.8360    -24.3323      7.6597      7.6670      7.8416
   235.0000    128.5692     35.4238     76.0892    -30.6174      7.5076      7.5931      7.7779
   234.5000    129.6837     35.3650     76.9345    -36.5701      7.3931      7.5240      7.7111
   234.0000    131.1589     35.3782     77.7337    -36.4069      7.4246      7.4362      7.6243
   233.5000    133.7375     35.5278     76.1618    -26.1260      7.4818      7.3232      7.4773
   233.0000    138.2946     35.7234     74.4890    -13.7186      7.3937      7.1841      7.2309
   232.5000    145.3544     35.8893     76.0969    -12.0344      7.2033      6.9911      6.8797
   232.0000    155.0987     35.9957     78.6081    -18.0731      7.1021      6.7045      6.4475
   231.5000    166.0696     36.0149     77.7355    -20.5137      7.1574      6.3589      6.0216
   231.0000    174.8470     35.9644     73.3806    -17.8696      6.9082      6.0543      5.7193
   230.5000    179.5878     35.9152     70.9766    -15.5282      5.9246      5.8256      5.5683
   230.0000    181.5301     35.9338     73.6052    -15.6081      4.9850      5.5884      5.5087
   229.5000    182.3673     35.9841     77.6638    -18.9466      4.7888      5.2921      5.4834
   229.0000    182.7497     36.0086     79.2440    -23.6332      5.3430      5.0583      5.4720
   228.5000    181.6511     35.9812     77.6188    -28.0987      6.1957      5.0562      5.5051
   228.0000    176.8089     35.9164     75.9296    -31.6026      6.7211      5.3306      5.6558
   227.5000    168.0646     35.7982     76.8405    -30.1566      6.9022      5.7791      5.9501
   227.0000    158.0288     35.5590     79.3861    -24.8630      6.9939      6.2405      6.3280
   226.5000    149.0073     35.1993     80.0376    -19.8076      7.0392      6.6111      6.7111
   226.0000    141.7411     34.8912     78.8004    -16.9662      7.0272      6.8612      7.0551
   225.5000    136.7726     34.8146     76.6222    -15.1399      7.0336      7.0092      7.3114
   225.0000    133.7563     34.9295     74.7893    -18.0237      7.1502      7.1075      7.4763
   224.5000    131.6781     35.1128     74.9750    -23.3865      7.3558      7.2094      7.5943
   224.0000    129.8827     35.3053     76.3027    -25.3815      7.5454      7.3358      7.6993
   223.5000    128.2090     35.4530     76.9207    -22.4532      7.6494      7.4681      7.7998
   223.0000    126.7341     35.4827     76.6855    -20.7732      7.6725      7.5765      7.8905
   222.5000    125.8151     35.4346     76.9005    -21.6443      7.6538      7.6465      7.9482
   222.0000    125.6389     35.4085     76.9920    -22.8835      7.6411      7.6774      7.9593
   221.5000    125.9914     35.4697     76.4413    -22.1406      7.6538      7.6704      7.9370
   221.0000    126.8913     35.6885     76.5079    -18.7508      7.6357      7.6296      7.8808
   220.5000    128.6087     36.0044     80.3912    -14.7309      7.5143      7.5612      7.7755
   220.0000    131.2949     36.1932     85.5915    -15.9060      7.3417      7.4630      7.6164
   219.5000    135.3822     36.1725     85.5084    -20.3740      7.2563      7.3102      7.3865
   219.0000    141.2712     36.0879     81.0969    -20.3475      7.3588      7.0929      7.0786
   218.5000    147.7646     36.1075     78.1715    -17.7269      7.5594      6.8619      6.7675
   218.0000    152.7303     36.2465     77.2879    -19.9086      7.3455      6.6859      6.5475
   217.5000    155.2079     36.4238     76.3418    -23.8684      6.5229      6.5552      6.4430
   217.0000    155.7892     36.5751     75.9966    -22.9802      5.8237      6.3855      6.4189
   216.5000    155.5607     36.6995     75.8393    -19.3361      5.7264      6.1616      6.4284
   216.0000    155.1425     36.6980     74.6807    -18.4684      6.1192      6.0037      6.4457
   215.5000    153.7041     36.4508     72.0422    -19.7411      6.6632      6.0349      6.5060
   215.0000    149.9984     36.1280     70.1067    -23.6592      7.1353      6.2688      6.6667
   214.5000    144.2328     36.0235     70.2856    -26.2623      7.4889      6.6367      6.9332
   214.0000    137.6889     36.1954     70.5811    -22.9991      7.6685      7.0490      7.2627
   213.5000    131.4648     36.4545     69.6081    -18.6300      7.6645      7.4203      7.6066
