~Version Information
 VERS.                2.00:   CWLS log ASCII Standard -VERSION 2.00
 WRAP.                  NO:   One line per frame
~Well Information Block
#MNEM.UNIT              Data                Description
#--------- -------------------------------  -------------------------------
 STRT.F                          591.0000:   Starting Depth
 STOP.F                            7.2500:   Ending Depth
 STEP.F                           -0.5000:   Level Spacing
 NULL.                          -999.2500:   Absent Value
 COMP.     FLUOR DANIEL (NPSOR), INC.    :   Company
 WELL.     53-1 X 3                      :   Well
 FLD .     NPR #3                        :   Field
 LOC .     3-38N-78W                     :   Location
 CNTY.     NATRONA                       :   County
 STAT.     WYIOMING                      :   State
 SRVC.     ATLAS WIRELINE SERVICES       :   Service Company
 LIC .                                   :   License Number
 DATE.     13-SEPT-1994                  :   Log Date
 API .     4902522654                    :   API Number
~Curve Information Block
#MNEM.UNIT       API Codes    Curve Description
#---------    -------------   -------------------------------
 DEPT.F        0   0  0  0:   Depth
 CILD.MMHO     0   0  0  0:   Conductivity of Deep Induction
 SP  .MV       0   0  0  0:   Spontaneous Potential
 GR  .API      0   0  0  0:   Gamma ray counts
 TEN .LBF      0   0  0  0:   Differential Tension
 RFOC.OHMM     0   0  0  0:   Resistivity from CFOC
 RILM.OHMM     0   0  0  0:   Resistivity from CILM
 RILD.OHMM     0   0  0  0:   Resistivity from CILD
#  Curve Data
~A
# ...
   507.0000     80.5174     53.7108     70.4335     92.4903     11.4707     11.9580     12.4197
   506.5000     81.7775     53.5672     67.4317     87.8534     11.4616     11.8224     12.2283
   506.0000     82.9848     53.5883     69.3886     82.2914     11.3181     11.7077     12.0504
   505.5000     83.9714     53.5708     74.6172     78.9032     11.0592     11.5794     11.9088
   505.0000     84.7455     53.4455     76.9189     81.0537     10.8708     11.3901     11.8000
   504.5000     85.6248     53.2869     75.2463     87.0455     10.8386     11.1552     11.6789
   504.0000     87.0733     53.0999     74.3104     94.0238     10.7972     10.9405     11.4846
   503.5000     89.1230     52.8803     74.6353     98.2292     10.5741     10.7854     11.2205
   503.0000     91.3811     52.6783     71.7272     91.3795     10.2400     10.6467     10.9432
   502.5000     93.4871     52.4926     67.0325     74.9159      9.9343     10.4451     10.6967
   502.0000     95.3670     52.2950     67.2155     59.9328      9.7114     10.1757     10.4858
   501.5000     96.9593     52.1502     72.2173     53.3232      9.5873      9.9262     10.3136
   501.0000     97.9476     52.0136     75.6384     53.9033      9.5536      9.7770     10.2095
   500.5000     98.1835     51.6869     75.6371     56.8251      9.5753      9.7103     10.1850
   500.0000     98.6646     51.1669     74.1968     62.0650      9.5841      9.6325     10.1353
   499.5000    101.4141     50.6618     71.7065     70.3568      9.4986      9.4569      9.8606
   499.0000    108.4891     50.2874     70.2479     77.7625      9.3682      9.1339      9.2175
   498.5000    121.4388     50.0310     70.8625     78.8489      9.4170      8.6136      8.2346
   498.0000    139.5004     49.9236     70.8629     75.6510      9.8455      7.9218      7.1684
   497.5000    157.2491     50.0235     70.5535     72.9606      9.8838      7.2396      6.3593
   497.0000    169.1323     50.3168     73.8159     72.8206      7.8196      6.7192      5.9125
   496.5000    174.6099     50.7009     81.5018     72.7879      5.4244      6.2591      5.7271
   496.0000    177.1393     50.9077     87.6591     69.6077      4.4316      5.6717      5.6453
   495.5000    179.4610     50.7197     87.6297     64.5932      4.6950      5.0746      5.5722
   495.0000    181.0694     50.2812     85.4279     60.6602      5.9385      4.7716      5.5227
   494.5000    177.8293     49.9379     83.1526     59.3624      7.4376      4.9488      5.6234
   494.0000    166.5020     49.7594     78.3544     59.0138      8.2609      5.5764      6.0059
   493.5000    149.6011     49.5694     72.7613     59.6360      8.5685      6.5002      6.6844
   493.0000    132.4111     49.2538     71.5294     61.7905      8.7390      7.4667      7.5522
   492.5000    118.4402     48.8503     74.5200     61.3087      8.8657      8.2597      8.4431
   492.0000    109.0722     48.4007     78.0651     56.1804      8.9769      8.7921      9.1682
   491.5000    103.8830     47.9276     77.9278     52.1333      9.0999      9.1111      9.6262
   491.0000    101.1182     47.4979     74.3726     56.3051      9.2463      9.3168      9.8894
   490.5000     99.2151     47.1577     71.9162     65.9178      9.4523      9.4819     10.0791
   490.0000     97.4233     46.8709     71.8287     73.2540      9.7227      9.6532     10.2645
   489.5000     95.4980     46.5732     72.3730     75.9313      9.9563      9.8570     10.4714
   489.0000     93.4658     46.2117     72.6294     72.7599     10.0558     10.0748     10.6991
   488.5000     91.4123     45.7435     71.6549     62.0361     10.0641     10.2676     10.9394
   488.0000     89.5279     45.1467     71.0820     48.3562     10.0970     10.4154     11.1697
   487.5000     88.2338     44.5435     71.6324     44.7188     10.2143     10.5187     11.3335
   487.0000     87.6937     44.1453     71.3356     54.3037     10.3922     10.6119     11.4033
   486.5000     87.4739     44.0149     69.1887     67.7945     10.5816     10.7392     11.4320
   486.0000     87.1393     43.9538     67.3717     72.6702     10.7360     10.8916     11.4759
   485.5000     86.6317     43.7580     66.7092     66.0636     10.8420     11.0344     11.5431
   485.0000     86.0070     43.4038     67.7983     55.1339     10.9109     11.1652     11.6270
   484.5000     85.2582     43.0495     71.1503     45.6923     10.9398     11.3000     11.7291
   484.0000     84.4331     42.8331     72.9530     39.4582     10.9362     11.4232     11.8437
   483.5000     83.6815     42.7414     70.0029     39.5500     10.9468     11.5019     11.9501
   483.0000     83.1198     42.6834     65.3988     45.4261     10.9842     11.5417     12.0308
   482.5000     82.6658     42.5806     64.4443     49.7666     11.0374     11.5728     12.0969
   482.0000     82.0945     42.4185     66.2369     52.3276     11.1197     11.6042     12.1811
   481.5000     81.4299     42.2052     67.9248     61.6329     11.2174     11.6385     12.2805
   481.0000     80.8906     41.9042     67.9907     73.7157     11.3088     11.6954     12.3624
   480.5000     80.5421     41.4949     66.4837     74.2913     11.4121     11.7837     12.4159
   480.0000     80.3918     41.0909     64.7447     60.0725     11.5013     11.8819     12.4391
   479.5000     80.4512     40.8057     64.0135     45.8628     11.5141     11.9542     12.4299
   479.0000     80.6507     40.6098     64.4224     45.9065     11.4581     11.9793     12.3992
   478.5000     80.8657     40.4660     66.5504     57.7752     11.3428     11.9641     12.3662
   478.0000     81.0981     40.2831     68.1709     65.8660     11.1609     11.9152     12.3307
   477.5000     81.3387     39.8966     66.8316     62.7974     11.0170     11.8307     12.2943
   477.0000     81.5120     39.2715     65.6791     52.9526     11.0398     11.7402     12.2681
   476.5000     81.4841     38.5784     66.3904     46.7254     11.1855     11.6977     12.2723
   476.0000     81.1759     37.9920     65.8533     53.7202     11.3316     11.7285     12.3189
   475.5000     80.6646     37.6310     64.0971     65.9501     11.4465     11.8064     12.3970
   475.0000     79.9927     37.5139     64.0262     69.5988     11.5661     11.8989     12.5011
   474.5000     79.1311     37.4740     65.3537     65.6665     11.6769     11.9960     12.6372
   474.0000     78.2877     37.3684     65.8448     61.7292     11.7148     12.1006     12.7734
   473.5000     77.7305     37.2518     65.0014     56.5629     11.6674     12.1993     12.8650
   473.0000     77.3691     37.2038     64.2878     51.7033     11.6171     12.2724     12.9251
   472.5000     77.0388     37.1580     64.4538     48.9909     11.6361     12.3196     12.9805
   472.0000     76.7027     37.0680     65.1638     47.7160     11.7139     12.3621     13.0374
   471.5000     76.3399     36.9776     65.4460     46.1749     11.8057     12.4083     13.0993
   471.0000     75.9051     36.8941     65.4175     45.6484     11.8825     12.4522     13.1743
   470.5000     75.4572     36.7686     64.9110     48.8479     11.9372     12.4937     13.2526
   470.0000     75.1599     36.6105     64.6389     54.1677     11.9862     12.5374     13.3050
   469.5000     75.1139     36.5119     63.7653     55.0900     12.0342     12.5807     13.3131
   469.0000     75.1325     36.4989     62.5310     50.1212     12.0508     12.6149     13.3098
   468.5000     75.0332     36.4833     62.1808     46.5149     12.0198     12.6271     13.3274
   468.0000     74.9626     36.4223     62.1431     51.7076     11.9671     12.5974     13.3400
   467.5000     75.1150     36.3246     60.4095     60.8765     11.9369     12.5292     13.3129
   467.0000     75.4037     36.1816     57.5971     66.1396     11.9504     12.4623     13.2619
   466.5000     75.5542     36.0050     55.8943     63.5638     11.9591     12.4327     13.2355
   466.0000     75.4886     35.8029     56.7644     54.1460     11.9186     12.4325     13.2470
   465.5000     75.3482     35.5673     59.8805     39.9364     11.8849     12.4439     13.2717
