~Version Information
 VERS.                2.00:   CWLS log ASCII Standard -VERSION 2.00
 WRAP.                  NO:   One line per frame
~Well Information Block
#MNEM.UNIT              Data                Description
#--------- -------------------------------  -------------------------------
 STRT.F                          591.0000:   Starting Depth
 STOP.F                            7.2500:   Ending Depth
 STEP.F                           -0.5000:   Level Spacing
 NULL.                          -999.2500:   Absent Value
 COMP.     FLUOR DANIEL (NPSOR), INC.    :   Company
 WELL.     53-1 X 3                      :   Well
 FLD .     NPR #3                        :   Field
 LOC .     3-38N-78W                     :   Location
 CNTY.     NATRONA                       :   County
 STAT.     WYIOMING                      :   State
 SRVC.     ATLAS WIRELINE SERVICES       :   Service Company
 LIC .                                   :   License Number
 DATE.     13-SEPT-1994                  :   Log Date
 API .     4902522654                    :   API Number
~Curve Information Block
#MNEM.UNIT       API Codes    Curve Description
#---------    -------------   -------------------------------
 DEPT.F        0   0  0  0:   Depth
 CILD.MMHO     0   0  0  0:   Conductivity of Deep Induction
 SP  .MV       0   0  0  0:   Spontaneous Potential
 GR  .API      0   0  0  0:   Gamma ray counts
 TEN .LBF      0   0  0  0:   Differential Tension
 RFOC.OHMM     0   0  0  0:   Resistivity from CFOC
 RILM.OHMM     0   0  0  0:   Resistivity from CILM
 RILD.OHMM     0   0  0  0:   Resistivity from CILD
#  Curve Data
~A
# ...
   339.0000     85.1878     45.4063     89.2843     -7.2587      9.5468     11.3417     11.7388
   338.5000     90.4645     45.2592     89.2641     -8.0913      9.5859     10.3640     11.0541
   338.0000     94.4789     44.9812     87.0232     -5.6736      9.7060      9.8008     10.5844
   337.5000     96.7758     44.8112     84.6069     -6.7256      9.7548      9.6394     10.3332
   337.0000     96.8649     44.5833     82.5979    -10.4511      9.7776      9.7337     10.3237
   336.5000     95.5519     44.1767     82.4990    -10.4295      9.7495      9.8727     10.4655
   336.0000     95.7635     43.8624     84.1805     -8.4143      9.6646      9.8691     10.4424
   335.5000    100.6664     43.8903     85.6536     -7.6741      9.5932      9.6312      9.9338
   335.0000    112.4251     44.1172     86.4093     -7.0513      9.5803      9.1411      8.8948
   334.5000    130.6932     44.2185     87.7814     -5.6166      9.7051      8.4247      7.6515
   334.0000    150.8369     44.1837     89.8011     -3.6243      9.8968      7.6378      6.6297
   333.5000    165.2401     44.3102     93.1966     -6.5862      8.6262      7.0071      6.0518
   333.0000    170.7724     44.5735     98.3403    -15.2515      5.9055      6.5617      5.8557
   332.5000    171.2125     44.4947    102.7639    -18.1402      4.2869      6.0527      5.8407
   332.0000    171.2673     43.9807    102.5804    -15.1005      4.1201      5.3767      5.8388
   331.5000    172.3095     43.5042     96.8968    -15.9030      5.2737      4.8610      5.8035
   331.0000    171.2750     43.3339     90.8902    -14.2612      7.5117      4.8557      5.8386
   330.5000    163.0047     43.2141     88.9518     -4.3865      9.0148      5.4768      6.1348
   330.0000    147.5058     42.9310     89.0465      1.9785      9.0510      6.6094      6.7794
   329.5000    130.9996     42.5484     87.9660     -5.4394      8.8543      7.8346      7.6336
   329.0000    119.1102     42.2130     88.4875    -15.2003      8.7304      8.6454      8.3956
   328.5000    113.3195     41.9982     94.9474    -16.7164      8.4553      8.8829      8.8246
   328.0000    112.8098     41.9148    103.2838    -15.2366      8.0105      8.7208      8.8645
   327.5000    115.3937     41.9000    105.6891    -18.2119      7.6248      8.4100      8.6660
   327.0000    118.4164     41.8502    101.9873    -21.9820      7.4761      8.1020      8.4448
   326.5000    120.5325     41.7183     96.6730    -23.1050      7.5829      7.8697      8.2965
   326.0000    121.6479     41.5723     93.0784    -20.0263      7.8315      7.7615      8.2204
   325.5000    121.6769     41.5259     92.4516    -15.1527      8.0530      7.7836      8.2185
   325.0000    120.6283     41.6494     92.6984    -15.5153      8.1372      7.8851      8.2899
   324.5000    119.0377     41.9180     92.7416    -19.7363      8.1098      7.9942      8.4007
   324.0000    117.9027     42.2261     94.6382    -20.1852      8.0770      8.0620      8.4816
   323.5000    117.7470     42.3953     96.7165    -18.0151      8.0808      8.0805      8.4928
   323.0000    118.1034     42.3484     95.2406    -17.6903      8.0555      8.0705      8.4672
   322.5000    118.3691     42.0559     92.2931    -17.9794      7.9813      8.0588      8.4481
   322.0000    118.6906     41.5642     91.7791    -18.2238      7.9336      8.0573      8.4253
   321.5000    119.2977     41.1512     93.9628    -18.7432      7.9480      8.0613      8.3824
   321.0000    119.9896     41.0005     95.4125    -17.0556      7.9624      8.0524      8.3341
   320.5000    120.6125     40.9744     94.3323    -15.2351      7.9283      8.0126      8.2910
   320.0000    121.2234     40.7744     93.6784    -15.7676      7.8759      7.9502      8.2492
   319.5000    122.2506     40.2114     96.0582    -17.5171      7.8342      7.8955      8.1799
   319.0000    124.0455     39.3652     99.3680    -16.7262      7.7713      7.8516      8.0616
   318.5000    126.6832     38.6036     99.7054    -15.3412      7.6749      7.7643      7.8937
   318.0000    131.1533     38.1566     97.8225    -19.6896      7.5796      7.5694      7.6247
   317.5000    139.1965     37.9356     94.6509    -26.0305      7.4944      7.2599      7.1841
   317.0000    150.7001     37.8373     90.9968    -24.2731      7.3854      6.8883      6.6357
   316.5000    164.4354     37.8234     91.2750    -19.1000      7.0479      6.4923      6.0814
   316.0000    179.3704     37.8559     97.2746    -20.4582      6.5186      6.0689      5.5751
   315.5000    191.8448     37.8351    102.6692    -24.3241      6.1152      5.6393      5.2125
   315.0000    197.9921     37.7496    102.7439    -24.3530      5.6127      5.2856      5.0507
   314.5000    198.7715     37.6679    101.7479    -25.0509      4.8250      5.0467      5.0309
   314.0000    197.2573     37.4985    101.2810    -27.7629      4.4166      4.8515      5.0695
   313.5000    194.5871     37.1945    100.8474    -26.2785      4.8575      4.6764      5.1391
   313.0000    190.7671     36.9899    101.2622    -21.1743      6.0570      4.6695      5.2420
   312.5000    184.0381     37.1039    101.9739    -19.6533      7.0839      4.9964      5.4337
   312.0000    172.4961     37.3965    101.4497    -20.0260      7.2611      5.6129      5.7972
   311.5000    158.7834     37.6236    101.2764    -18.1347      7.1142      6.2847      6.2979
   311.0000    147.6923     37.7435    101.6089    -17.7083      6.9864      6.7625      6.7708
   310.5000    140.4395     37.7921    100.2448    -18.2109      6.9389      6.9882      7.1205
   310.0000    137.1806     37.7339     99.1432    -17.0028      6.9405      7.0062      7.2897
   309.5000    138.4092     37.5707    101.4520    -15.5428      6.9380      6.9036      7.2250
   309.0000    143.6007     37.4536    104.6933    -18.4220      6.9169      6.7559      6.9638
   308.5000    152.1639     37.5454    104.8147    -23.3438      6.9106      6.5726      6.5719
   308.0000    163.6894     37.8315    102.8749    -23.0238      6.9902      6.3351      6.1091
   307.5000    175.0560     38.0249    102.9758    -15.7133      7.0415      6.0731      5.7125
   307.0000    182.0357     37.9064    105.4765     -8.1990      6.4081      5.8557      5.4934
   306.5000    184.3429     37.6335    107.7230     -9.1460      5.1838      5.6777      5.4247
   306.0000    184.7270     37.4218    108.6752    -17.8715      4.4392      5.4244      5.4134
   305.5000    185.3467     37.2925    108.5362    -25.3778      4.5704      5.0736      5.3953
   305.0000    186.7585     37.1967    106.7409    -27.6260      5.4685      4.8140      5.3545
   304.5000    187.4758     37.1247    104.0551    -28.7703      6.5272      4.8513      5.3340
   304.0000    185.5290     37.0502    100.8384    -27.9124      6.9428      5.1839      5.3900
   303.5000    182.2498     36.9867     98.1663    -26.5045      6.8278      5.6070      5.4870
   303.0000    181.6789     37.0057     99.0046    -25.8863      6.6694      5.8515      5.5042
   302.5000    184.4259     37.1970    103.8134    -23.0897      6.6927      5.8216      5.4222
   302.0000    186.6933     37.6082    106.6763    -17.4399      6.4832      5.6662      5.3564
   301.5000    186.2672     38.1927    105.1473    -14.0815      5.5161      5.5406      5.3686
   301.0000    184.4147     38.7363    102.7625    -13.1980      4.6271      5.4004      5.4226
   300.5000    182.4794     38.9517    101.6060    -15.2631      4.6098      5.1532      5.4801
   300.0000    180.5330     38.7651    102.2700    -21.1777      5.5668      4.9412      5.5392
   299.5000    177.0343     38.3721    103.3621    -25.4922      6.8890      5.0379      5.6486
   299.0000    168.8671     38.0297    102.3308    -28.0057      7.4006      5.5365      5.9218
   298.5000    156.1383     37.8553    100.6269    -29.6143      7.3141      6.2687      6.4046
   298.0000    143.6516     37.8075    100.4712    -27.4366      7.2794      6.9010      6.9613
   297.5000    135.0972     37.8214     98.0790    -26.1885      7.3518      7.2674      7.4021
