~Version Information
 VERS.                2.00:   CWLS log ASCII Standard -VERSION 2.00
 WRAP.                  NO:   One line per frame
~Well Information Block
#MNEM.UNIT              Data                Description
#--------- -------------------------------  -------------------------------
 STRT.F                          591.0000:   Starting Depth
 STOP.F                            7.2500:   Ending Depth
 STEP.F                           -0.5000:   Level Spacing
 NULL.                          -999.2500:   Absent Value
 COMP.     FLUOR DANIEL (NPSOR), INC.    :   Company
 WELL.     53-1 X 3                      :   Well
 FLD .     NPR #3                        :   Field
 LOC .     3-38N-78W                     :   Location
 CNTY.     NATRONA                       :   County
 STAT.     WYIOMING                      :   State
 SRVC.     ATLAS WIRELINE SERVICES       :   Service Company
 LIC .                                   :   License Number
 DATE.     13-SEPT-1994                  :   Log Date
 API .     4902522654                    :   API Number
~Curve Information Block
#MNEM.UNIT       API Codes    Curve Description
#---------    -------------   -------------------------------
 DEPT.F        0   0  0  0:   Depth
 CILD.MMHO     0   0  0  0:   Conductivity of Deep Induction
 SP  .MV       0   0  0  0:   Spontaneous Potential
 GR  .API      0   0  0  0:   Gamma ray counts
 TEN .LBF      0   0  0  0:   Differential Tension
 RFOC.OHMM     0   0  0  0:   Resistivity from CFOC
 RILM.OHMM     0   0  0  0:   Resistivity from CILM
 RILD.OHMM     0   0  0  0:   Resistivity from CILD
#  Curve Data
~A
# ...
   129.0000    107.6212     18.1003     77.8295    -20.8196      8.6477      8.8678      9.2919
   128.5000    107.1482     18.1260     81.0166    -25.5135      8.7804      8.9030      9.3329
   128.0000    106.8152     18.0449     79.9190    -28.9021      8.8202      8.9495      9.3620
   127.5000    106.5272     18.0052     77.4965    -30.8474      8.7254      8.9862      9.3873
   127.0000    106.4490     18.0289     77.8376    -28.4190      8.6101      8.9974      9.3942
   126.5000    106.8119     18.0491     79.1924    -25.5355      8.6061      8.9831      9.3623
   126.0000    107.6079     17.9758     78.8813    -24.8526      8.7104      8.9531      9.2930
   125.5000    108.7274     17.7977     78.4001    -24.7776      8.7849      8.9199      9.1973
   125.0000    109.9193     17.6231     77.4431    -26.1891      8.7173      8.8814      9.0976
   124.5000    111.0575     17.5315     75.3081    -29.9168      8.5363      8.8180      9.0043
   124.0000    112.3825     17.4646     74.2901    -31.7392      8.3377      8.7219      8.8982
   123.5000    114.0019     17.3176     75.7880    -30.1977      8.1989      8.5960      8.7718
   123.0000    115.6419     17.0689     77.1320    -28.8896      8.1561      8.4476      8.6474
   122.5000    116.9996     16.8178     76.9836    -29.4090      8.1649      8.3006      8.5470
   122.0000    117.9426     16.7425     76.9165    -29.5899      8.1309      8.1983      8.4787
   121.5000    118.4700     16.8875     78.3589    -26.8074      8.0400      8.1514      8.4410
   121.0000    118.6889     17.1126     80.5095    -23.9227      7.9708      8.1296      8.4254
   120.5000    118.5547     17.2318     81.1942    -26.4835      7.9814      8.1187      8.4349
   120.0000    118.1078     17.1840     80.5392    -31.0890      8.0530      8.1298      8.4668
   119.5000    117.5496     17.0609     80.5912    -32.9571      8.1347      8.1645      8.5070
   119.0000    116.9100     16.9678     80.9770    -33.6760      8.2146      8.2115      8.5536
   118.5000    116.0696     16.9413     80.8588    -32.9052      8.2891      8.2655      8.6155
   118.0000    115.0437     16.9571     82.3044    -31.0334      8.3080      8.3280      8.6923
   117.5000    114.0138     16.9972     83.9135    -32.8052      8.2560      8.3952      8.7709
   117.0000    113.1681     17.0542     82.9223    -34.4269      8.2064      8.4512      8.8364
   116.5000    112.6112     17.1458     80.7426    -31.5416      8.2222      8.4870      8.8801
   116.0000    112.3105     17.2074     78.3010    -28.2528      8.3303      8.5134      8.9039
   115.5000    112.2209     17.1393     74.4967    -26.1876      8.4935      8.5362      8.9110
   115.0000    112.2832     17.0102     73.5895    -26.7866      8.5754      8.5554      8.9061
   114.5000    112.3964     16.9658     76.8878    -34.5382      8.4943      8.5716      8.8971
   114.0000    112.3038     17.0210     79.5817    -38.7710      8.3527      8.5793      8.9044
   113.5000    111.9217     17.1076     79.7591    -30.8514      8.2557      8.5682      8.9348
   113.0000    111.4854     17.1284     79.3356    -21.7742      8.2231      8.5451      8.9698
   112.5000    111.1918     16.9365     78.8046    -21.3793      8.2538      8.5276      8.9935
   112.0000    111.0238     16.5179     77.7849    -24.4421      8.3370      8.5325      9.0071
   111.5000    110.7991     16.0540     76.8300    -25.1445      8.4265      8.5705      9.0253
   111.0000    110.3595     15.7479     75.8111    -22.8713      8.4857      8.6359      9.0613
   110.5000    109.7422     15.6469     76.3780    -21.3833      8.5054      8.7038      9.1123
   110.0000    109.2348     15.6470     77.8527    -24.7690      8.5020      8.7487      9.1546
   109.5000    108.9715     15.6258     77.7837    -32.6890      8.5116      8.7657      9.1767
   109.0000    108.9319     15.5832     77.1981    -37.8935      8.5490      8.7659      9.1800
   108.5000    109.0603     15.5813     78.5721    -35.9787      8.5704      8.7647      9.1692
   108.0000    109.0696     15.6414     80.4427    -30.3783      8.5225      8.7724      9.1685
   107.5000    108.6448     15.7542     80.4163    -27.2603      8.3983      8.7897      9.2043
   107.0000    108.0855     15.8315     78.0985    -23.8275      8.2878      8.7977      9.2519
   106.5000    107.8094     15.8173     75.8639    -20.0229      8.3579      8.7820      9.2756
   106.0000    107.7019     15.8106     75.4377    -20.1324      8.6336      8.7745      9.2849
   105.5000    107.5260     15.8696     76.3913    -20.9947      8.8455      8.8251      9.3001
   105.0000    107.3004     15.8747     78.4849    -18.3232      8.7966      8.9291      9.3196
   104.5000    107.1234     15.7690     82.0242    -18.1893      8.6536      9.0088      9.3350
   104.0000    107.1969     15.5829     83.7388    -24.5046      8.5755      9.0060      9.3286
   103.5000    107.7554     15.2657     81.8098    -27.5662      8.5453      8.9371      9.2803
   103.0000    108.7490     14.8625     79.6268    -24.1621      8.5373      8.8447      9.1955
   102.5000    109.8635     14.5554     79.7643    -24.2661      8.5139      8.7539      9.1022
   102.0000    110.8996     14.4579     79.2418    -30.3216      8.4136      8.6803      9.0172
   101.5000    111.8480     14.4535     76.5915    -32.0906      8.2774      8.6110      8.9407
   101.0000    112.7305     14.3591     74.2206    -28.9872      8.2038      8.5221      8.8707
   100.5000    113.5560     14.1421     72.9556    -27.7282      8.1875      8.4271      8.8062
   100.0000    114.3141     13.9853     73.3432    -32.0546      8.1707      8.3560      8.7478
    99.5000    114.7923     14.0231     74.8918    -35.2958      8.1570      8.3141      8.7114
    99.0000    114.7801     14.2365     76.5108    -34.1987      8.1338      8.2992      8.7123
    98.5000    114.4146     14.5374     78.3120    -31.3842      8.0618      8.3140      8.7401
    98.0000    114.0103     14.8104     79.1232    -28.7530      8.0254      8.3590      8.7711
    97.5000    113.6082     14.9232     76.1201    -24.6815      8.1184      8.4340      8.8022
    97.0000    113.1134     14.8339     72.2762    -22.1714      8.2508      8.5326      8.8407
    96.5000    112.5551     14.6763     70.3371    -23.7772      8.3067      8.6135      8.8845
    96.0000    112.1977     14.6252     68.9289    -25.1241      8.2743      8.6102      8.9128
    95.5000    112.4735     14.7192     70.1819    -25.8521      8.1957      8.5046      8.8910
    95.0000    113.7889     14.8443     74.1685    -28.9939      8.1516      8.3573      8.7882
    94.5000    116.1621     14.8916     75.5260    -30.5930      8.2212      8.2290      8.6087
    94.0000    119.3301     14.8112     73.6468    -28.4989      8.2949      8.1173      8.3801
    93.5000    123.1055     14.6238     75.5289    -27.4744      8.1447      7.9809      8.1231
    93.0000    127.3878     14.4643     81.6838    -28.4144      7.7592      7.7864      7.8500
    92.5000    132.0497     14.4828     86.6266    -27.9493      7.3928      7.5265      7.5729
    92.0000    136.7366     14.6523     88.6560    -25.6008      7.2025      7.2290      7.3133
    91.5000    140.6155     14.8275     88.4960    -22.2321      7.1107      6.9607      7.1116
    91.0000    142.7266     14.9810     87.0672    -18.7825      6.9437      6.7814      7.0064
    90.5000    142.7173     15.1439     84.9330    -18.6547      6.7171      6.6969      7.0069
    90.0000    140.8546     15.1833     84.8116    -22.0201      6.6529      6.6750      7.0995
    89.5000    137.6628     14.9083     87.5004    -25.7576      6.9013      6.7119      7.2641
    89.0000    133.7207     14.3886     89.7673    -28.5331      7.3832      6.8537      7.4783
    88.5000    129.3156     13.9112     87.3025    -28.8646      7.8874      7.1394      7.7330
    88.0000    124.5743     13.6276     83.7460    -25.2296      8.2536      7.5362      8.0273
    87.5000    119.7175     13.4421     83.5914    -19.9116      8.4161      7.9516      8.3530
