~Version Information
 VERS.                2.00:   CWLS log ASCII Standard -VERSION 2.00
 WRAP.                  NO:   One line per frame
~Well Information Block
#MNEM.UNIT              Data                Description
#--------- -------------------------------  -------------------------------
 STRT.F                          591.0000:   Starting Depth
 STOP.F                            7.2500:   Ending Depth
 STEP.F                           -0.5000:   Level Spacing
 NULL.                          -999.2500:   Absent Value
 COMP.     FLUOR DANIEL (NPSOR), INC.    :   Company
 WELL.     53-1 X 3                      :   Well
 FLD .     NPR #3                        :   Field
 LOC .     3-38N-78W                     :   Location
 CNTY.     NATRONA                       :   County
 STAT.     WYIOMING                      :   State
 SRVC.     ATLAS WIRELINE SERVICES       :   Service Company
 LIC .                                   :   License Number
 DATE.     13-SEPT-1994                  :   Log Date
 API .     4902522654                    :   API Number
~Curve Information Block
#MNEM.UNIT       API Codes    Curve Description
#---------    -------------   -------------------------------
 DEPT.F        0   0  0  0:   Depth
 CILD.MMHO     0   0  0  0:   Conductivity of Deep Induction
 SP  .MV       0   0  0  0:   Spontaneous Potential
 GR  .API      0   0  0  0:   Gamma ray counts
 TEN .LBF      0   0  0  0:   Differential Tension
 RFOC.OHMM     0   0  0  0:   Resistivity from CFOC
 RILM.OHMM     0   0  0  0:   Resistivity from CILM
 RILD.OHMM     0   0  0  0:   Resistivity from CILD
#  Curve Data
~A
# ...
   381.0000     54.0470     52.7208     64.9190      9.5029     14.8913     15.8679     18.5024
   380.5000     54.0136     51.5270     66.8987      1.1746     14.7746     16.0099     18.5138
   380.0000     53.9973     51.1792     66.9044     -4.5119     14.7503     16.0186     18.5195
   379.5000     53.8885     51.1570     64.3941     -3.6829     14.8008     15.7910     18.5568
   379.0000     53.7584     51.1420     62.1924      2.8353     14.8826     15.5149     18.6017
   378.5000     53.6785     51.1524     62.1204      9.4760     14.9493     15.4126     18.6294
   378.0000     53.4059     51.1504     63.7100     13.7268     14.9663     15.5330     18.7245
   377.5000     52.6681     51.0470     67.5558     14.1364     14.9509     15.7872     18.9868
   377.0000     51.4225     50.8749     70.9714      9.0518     14.9640     16.0185     19.4467
   376.5000     49.9451     50.5791     69.5513      6.7634     15.0747     16.1186     20.0220
   376.0000     48.5327     49.7858     65.9513      9.8414     15.3654     16.2569     20.6047
   375.5000     47.2572     48.5144     65.9628     11.5677     15.9160     16.7153     21.1608
   375.0000     45.9320     47.5043     67.1746     11.7465     16.6555     17.5183     21.7713
   374.5000     44.4660     47.2385     66.3719     14.7715     17.2927     18.3877     22.4891
   374.0000     42.9557     47.4445     66.0763     20.3301     17.5644     19.0557     23.2798
   373.5000     41.6748     47.7751     67.9974     25.2564     17.5260     19.4053     23.9953
   373.0000     40.9253     48.1063     69.2721     24.8923     17.4380     19.4486     24.4348
   372.5000     40.8064     48.3310     68.6795     15.6675     17.4734     19.3255     24.5060
   372.0000     41.0696     48.4217     67.1465      3.7539     17.5832     19.2087     24.3489
   371.5000     41.5122     48.5320     66.7951     -1.3075     17.6318     19.1510     24.0893
   371.0000     42.0720     48.8010     68.2181      4.8214     17.5886     19.1324     23.7688
   370.5000     42.7202     49.2450     67.8237     14.0160     17.5231     19.1212     23.4082
   370.0000     43.2983     49.7189     64.3026     15.7822     17.4699     19.0602     23.0956
   369.5000     43.7868     49.9378     62.6200     10.7540     17.4101     18.9298     22.8379
   369.0000     44.3092     49.7318     65.0565      7.3844     17.2797     18.7676     22.5687
   368.5000     44.8892     49.3156     69.0395      6.2467     17.0653     18.5894     22.2771
   368.0000     45.4126     49.0133     71.7810      4.4021     16.8652     18.4256     22.0203
   367.5000     45.9073     48.8902     71.8820      5.2591     16.8079     18.3408     21.7831
   367.0000     46.5300     48.8014     70.6369     11.8569     16.9174     18.3284     21.4915
   366.5000     47.1854     48.6834     69.9537     13.9971     17.1313     18.3414     21.1930
   366.0000     47.6292     48.6861     68.7776      9.1103     17.3507     18.3803     20.9955
   365.5000     47.7491     48.9009     67.7053     10.2974     17.4524     18.4635     20.9428
   365.0000     47.5664     49.0871     68.1069     16.1830     17.3946     18.5549     21.0232
   364.5000     47.1159     48.9445     67.7205     15.8606     17.2823     18.6112     21.2243
   364.0000     46.5019     48.5778     65.7984     12.2445     17.2007     18.6211     21.5045
   363.5000     46.0832     48.3807     63.9823     10.1071     17.1321     18.5599     21.6999
   363.0000     46.1739     48.5913     62.3585      7.6104     17.4008     18.4278     21.6573
   362.5000     46.6782     49.1297     61.4937      5.3848     18.6462     18.3389     21.4233
   362.0000     47.2178     49.7422     62.1076      2.7825     20.2885     18.4324     21.1785
   361.5000     47.5625     50.2780     63.8079     -1.0343     19.9774     18.6964     21.0250
   361.0000     47.6478     50.7944     66.2251     -1.9050     18.0034     18.9317     20.9874
   360.5000     47.5384     51.2692     68.5780     -1.3588     16.7125     18.8692     21.0356
   360.0000     47.5087     51.6358     67.8514     -2.6477     16.4134     18.4415     21.0488
   359.5000     47.6806     52.0366     64.8272     -2.2109     16.5184     17.8865     20.9729
   359.0000     47.7016     52.6307     63.7639      2.1231     16.9494     17.5066     20.9637
   358.5000     47.1566     53.3107     64.1158      2.8334     17.6316     17.4429     21.2059
   358.0000     46.0302     53.6703     63.7535     -0.4612     18.0420     17.7072     21.7249
   357.5000     44.5963     53.2944     62.0284      0.5136     18.0911     18.2614     22.4234
   357.0000     43.0744     52.3958     60.3758      3.2733     18.5040     18.9471     23.2157
   356.5000     41.6451     51.6726     58.2783      0.4084     19.5142     19.5483     24.0124
   356.0000     40.5387     51.3209     55.5425     -3.3943     20.1806     19.9995     24.6678
   355.5000     39.9372     51.1550     52.8557     -0.9467     20.1012     20.3428     25.0393
   355.0000     39.8230     51.1414     51.8451      4.3792     20.2398     20.5136     25.1111
   354.5000     39.9520     51.1758     52.2897      5.7377     20.5640     20.6059     25.0300
   354.0000     40.1741     50.9974     51.2279      1.7989     20.2480     20.7781     24.8917
   353.5000     40.4338     50.4205     49.2697     -2.8835     19.5281     20.8172     24.7318
   353.0000     40.7788     49.4315     50.0867     -1.7885     18.9134     20.4628     24.5226
   352.5000     41.3940     48.3974     54.0522      4.6220     18.2405     19.9210     24.1581
   352.0000     42.4764     47.9155     56.2127      9.7539     17.7214     19.4692     23.5425
   351.5000     43.7649     48.2726     54.1077      7.6463     17.8507     19.0780     22.8493
   351.0000     44.8194     49.1723     51.1338      0.6411     18.5489     18.7152     22.3118
   350.5000     45.3246     49.8732     49.9529     -2.0472     18.9585     18.5508     22.0631
   350.0000     45.2375     49.8527     50.4116     -2.1225     18.3947     18.6954     22.1055
   349.5000     45.1363     49.3660     52.5630     -6.6536     17.1515     18.8796     22.1551
   349.0000     45.9198     49.0451     54.5427    -10.2724     16.3826     18.6134     21.7771
   348.5000     47.5237     49.2712     53.1453     -8.5586     17.2004     17.8921     21.0421
   348.0000     48.8488     49.9584     49.2742    -10.1495     19.2119     17.3133     20.4713
   347.5000     49.0977     50.5255     47.2898    -13.9205     19.3761     17.4250     20.3676
   347.0000     48.2457     50.5227     48.2437    -14.9898     17.0828     18.0784     20.7272
   346.5000     46.9276     50.1145     48.5701    -15.3488     15.5734     18.4823     21.3094
   346.0000     46.1997     49.7249     46.2527    -15.4425     15.9230     18.1546     21.6452
   345.5000     46.3942     49.6422     43.4972    -12.9393     17.5807     17.6106     21.5544
   345.0000     46.5512     50.0537     44.3076    -12.2018     19.1964     17.4710     21.4817
   344.5000     45.8520     50.6784     47.4670    -16.0262     18.8943     17.9566     21.8093
   344.0000     44.7460     50.9216     48.7086    -15.7084     17.3059     18.9003     22.3483
   343.5000     44.2038     50.5722     45.7494     -7.4640     17.4322     19.6930     22.6225
   343.0000     44.8021     49.6335     41.3345     -1.7397     20.6495     19.9223     22.3204
   342.5000     46.8702     48.1799     40.1847     -5.7581     23.2247     19.8333     21.3355
   342.0000     50.4936     46.8876     44.4662    -11.6605     20.1723     19.2468     19.8045
   341.5000     55.3068     46.3013     51.0670    -12.2808     17.1059     17.6807     18.0810
   341.0000     60.8249     45.9412     57.7803    -10.8354     16.0424     15.7691     16.4406
   340.5000     66.7767     45.3831     67.0464     -9.7631     14.4283     14.4025     14.9753
   340.0000     72.9466     45.0574     77.7435     -7.9452     11.8476     13.4969     13.7087
   339.5000     79.1664     45.2176     85.6516     -6.2610     10.1104     12.5062     12.6316
