~Version Information
 VERS.                2.00:   CWLS log ASCII Standard -VERSION 2.00
 WRAP.                  NO:   One line per frame
~Well Information Block
#MNEM.UNIT              Data                Description
#--------- -------------------------------  -------------------------------
 STRT.F                          591.0000:   Starting Depth
 STOP.F                            7.2500:   Ending Depth
 STEP.F                           -0.5000:   Level Spacing
 NULL.                          -999.2500:   Absent Value
 COMP.     FLUOR DANIEL (NPSOR), INC.    :   Company
 WELL.     53-1 X 3                      :   Well
 FLD .     NPR #3                        :   Field
 LOC .     3-38N-78W                     :   Location
 CNTY.     NATRONA                       :   County
 STAT.     WYIOMING                      :   State
 SRVC.     ATLAS WIRELINE SERVICES       :   Service Company
 LIC .                                   :   License Number
 DATE.     13-SEPT-1994                  :   Log Date
 API .     4902522654                    :   API Number
~Curve Information Block
#MNEM.UNIT       API Codes    Curve Description
#---------    -------------   -------------------------------
 DEPT.F        0   0  0  0:   Depth
 CILD.MMHO     0   0  0  0:   Conductivity of Deep Induction
 SP  .MV       0   0  0  0:   Spontaneous Potential
 GR  .API      0   0  0  0:   Gamma ray counts
 TEN .LBF      0   0  0  0:   Differential Tension
 RFOC.OHMM     0   0  0  0:   Resistivity from CFOC
 RILM.OHMM     0   0  0  0:   Resistivity from CILM
 RILD.OHMM     0   0  0  0:   Resistivity from CILD
#  Curve Data
~A
# ...
    87.0000    115.1522     13.2852     85.2523    -17.3014      8.3888      8.2942      8.6842
    86.5000    111.4581     13.2210     86.4178    -16.6975      8.2935      8.5249      8.9720
    86.0000    109.0463     13.2473     85.8249    -17.7928      8.2582      8.6500      9.1704
    85.5000    107.7149     13.2553     83.9664    -21.5190      8.3064      8.7004      9.2838
    85.0000    106.9209     13.2440     83.5150    -25.5916      8.3932      8.7177      9.3527
    84.5000    106.2900     13.2913     85.6772    -28.4626      8.4970      8.7435      9.4082
    84.0000    105.7192     13.3548     88.7004    -31.3150      8.6094      8.7941      9.4590
    83.5000    105.2074     13.4021     90.5620    -31.3580      8.6919      8.8571      9.5050
    83.0000    104.7842     13.5035     89.9311    -27.7507      8.7104      8.9147      9.5434
    82.5000    104.5434     13.6304     87.8919    -24.1234      8.6646      8.9547      9.5654
    82.0000    104.5027     13.6473     86.9079    -20.7549      8.5513      8.9842      9.5691
    81.5000    104.5313     13.5482     86.7494    -19.0119      8.3883      9.0056      9.5665
    81.0000    104.5197     13.4179     86.8063    -22.3986      8.2819      8.9927      9.5676
    80.5000    104.5700     13.2831     87.4767    -28.3455      8.3438      8.9409      9.5630
    80.0000    104.6992     13.1502     88.2847    -29.7494      8.5175      8.9073      9.5512
    79.5000    104.6367     13.0253     87.3577    -26.5811      8.6238      8.9447      9.5569
    79.0000    104.0159     12.9292     84.5704    -23.7092      8.6170      9.0400      9.6139
    78.5000    102.9825     12.8748     84.0987    -23.7418      8.5904      9.1419      9.7104
    78.0000    102.0388     12.8098     87.1732    -24.8956      8.6055      9.2203      9.8002
    77.5000    101.3404     12.6766     90.2309    -25.6142      8.6858      9.2794      9.8677
    77.0000    100.5983     12.5396     91.8357    -25.6563      8.8025      9.3414      9.9405
    76.5000     99.8408     12.4795     92.9681    -25.1268      8.8437      9.4229     10.0159
    76.0000     99.3438     12.5203     91.1382    -24.2832      8.7823      9.5085     10.0661
    75.5000     99.0780     12.6921     86.1293    -22.7740      8.7547      9.5539     10.0931
    75.0000     98.9464     13.0412     80.9381    -21.7587      8.8379      9.5458     10.1065
    74.5000     98.9536     13.5504     77.8551    -23.4585      8.9356      9.5330     10.1057
    74.0000     98.9125     14.1099     79.1722    -25.1552      8.9333      9.5762     10.1099
    73.5000     98.5893     14.5707     84.1727    -23.2053      8.8547      9.6579     10.1431
    73.0000     97.9422     14.8502     86.5915    -19.7430      8.8007      9.7123     10.2101
    72.5000     96.9883     15.0237     84.0571    -17.3502      8.8459      9.7249     10.3105
    72.0000     95.6398     15.1985     80.5576    -13.1806      8.9839      9.7471     10.4559
    71.5000     93.7385     15.4199     80.0431    -11.2005      9.1064      9.8335     10.6680
    71.0000     91.5051     15.6209     80.6343    -15.0316      9.0947     10.0099     10.9284
    70.5000     89.7449     15.7273     80.2512    -18.7063      9.0876     10.2252     11.1427
    70.0000     89.0481     15.7588     78.0615    -17.3905      9.5937     10.3946     11.2299
    69.5000     89.1438     15.7651     75.3606    -18.3720     10.8218     10.5396     11.2178
    69.0000     89.4575     15.8106     73.2756    -24.4064     11.5730     10.7690     11.1785
    68.5000     89.7916     16.0896     73.8971    -26.5060     10.5883     11.0250     11.1369
    68.0000     90.3917     16.6778     76.8427    -19.9537      9.2991     11.0046     11.0630
    67.5000     91.8238     17.3421     80.7632    -14.0770      8.7590     10.5746     10.8904
    67.0000     94.7228     17.9508     86.5085    -15.3421      8.6948     10.0170     10.5571
    66.5000    100.3004     18.5765     91.7544    -19.0222      8.6498      9.6049      9.9701
    66.0000    106.7042     19.2638     91.1035    -21.9884      8.5740      9.3765      9.3717
    65.5000    106.7462     20.0316     85.8317    -25.6502      8.5701      9.2326      9.3680
    65.0000     99.7905     20.9339     84.1249    -26.4316      8.5555      9.1227     10.0210
    64.5000     93.0451     21.8369     86.6682    -23.7406      8.3998      9.0349     10.7475
    64.0000     90.3740     22.6345     87.8725    -22.2189      8.1898      8.9414     11.0651
    63.5000     98.1340     23.4338     85.3963    -24.7846      8.0473      8.8664     10.1902
    63.0000    122.6911     24.2363     82.6744    -25.4150      7.9028      9.2537      8.1505
    62.5000    147.5445     24.8445     83.8105    -18.5086      7.6809     10.2735      6.7776
    62.0000    154.3289     25.2388     87.6952    -12.4864      7.4516      9.9482      6.4797
    61.5000    148.4286     25.6960     89.9362    -15.1457      7.2581      8.2613      6.7372
    61.0000    143.1022     26.3264     90.4348    -20.5948      7.0692      7.7407      6.9880
    60.5000    139.9420     27.0285     91.0547    -22.5523      6.9136      8.8618      7.1458
    60.0000    122.9832     27.7014     92.2067    -24.6833      6.8566     10.6946      8.1312
    59.5000     76.8535     28.4063     92.5157    -26.6445      6.8908     10.2853     13.0118
    59.0000     63.0950     29.2660     90.3909    -25.0823      6.9459      7.4429     15.8491
    58.5000    142.9226     30.3916     85.5054    -22.1003      6.9350      5.4973      6.9968
    58.0000    273.4436     31.9098     81.8163    -20.8083      6.8007      4.6875      3.6571
    57.5000    407.3228     33.9343     81.5063    -19.0042      6.5460      3.6323      2.4551
    57.0000    506.1387     36.6154     82.5357    -16.8314      6.1991      2.6504      1.9757
    56.5000    361.6890     40.3484     82.2926    -16.0326      5.9145      2.8539      2.7648
    56.0000     20.1836     45.9348     80.6000    -15.4220      4.5669      7.9729     49.5451
    55.5000   -175.9652     54.3669     76.2838    -13.7454      1.7601  10000.0000  10000.0000
    55.0000   -165.9679     66.8933     68.1954    -14.6964      0.6592  10000.0000  10000.0000
    54.5000    -96.6846     83.7783     59.9275    -19.7372      0.3646  10000.0000  10000.0000
    54.0000    -60.4760    100.6182     55.5791    -23.2608      0.2884  10000.0000  10000.0000
    53.5000    -48.2448    110.4653     54.5966    -21.5095      0.2878  10000.0000  10000.0000
    53.0000     -9.2127    110.5126     54.9834    -18.6163      0.3102  10000.0000  10000.0000
    52.5000     81.3947    104.6704     54.3850    -17.3057      0.3281  10000.0000     12.2858
    52.0000    159.9283     98.3413     52.1372    -17.0885      0.3364  10000.0000      6.2528
    51.5000    173.7573     93.9453     50.5330    -18.0511      0.3385  10000.0000      5.7552
    51.0000    158.8575     90.9437     52.4859    -18.8365      0.3369  10000.0000      6.2950
    50.5000    143.6929     88.9644     55.6436    -15.3101      0.3333  10000.0000      6.9593
    50.0000    143.2664     88.5389     56.1041    -10.3060      0.3303  10000.0000      6.9800
    49.5000    167.1140     89.6565     54.2148     -8.1862      0.3304  10000.0000      5.9839
    49.0000    195.3224     91.5349     52.4513     -8.3222      0.3313  10000.0000      5.1197
    48.5000    204.9789     93.3515     50.4265    -10.7107      0.3312  10000.0000      4.8785
    48.0000    200.8830     94.7794     49.2811    -14.7946      0.3301  10000.0000      4.9780
    47.5000    197.0538     95.6444     50.4442    -17.6394      0.3284  10000.0000      5.0748
    47.0000    197.0998     95.9030     52.3621    -15.9939      0.3268  10000.0000      5.0736
    46.5000    197.1021     95.9904     53.8312    -11.8178      0.3262  10000.0000      5.0735
    46.0000    190.7587     96.3618     54.7657    -10.4209      0.3268  10000.0000      5.2422
    45.5000    180.4020     96.8460     54.3770    -13.2809      0.3284  10000.0000      5.5432
