~Version Information
 VERS.                2.00:   CWLS log ASCII Standard -VERSION 2.00
 WRAP.                  NO:   One line per frame
~Well Information Block
#MNEM.UNIT              Data                Description
#--------- -------------------------------  -------------------------------
 STRT.F                          591.0000:   Starting Depth
 STOP.F                            7.2500:   Ending Depth
 STEP.F                           -0.5000:   Level Spacing
 NULL.                          -999.2500:   Absent Value
 COMP.     FLUOR DANIEL (NPSOR), INC.    :   Company
 WELL.     53-1 X 3                      :   Well
 FLD .     NPR #3                        :   Field
 LOC .     3-38N-78W                     :   Location
 CNTY.     NATRONA                       :   County
 STAT.     WYIOMING                      :   State
 SRVC.     ATLAS WIRELINE SERVICES       :   Service Company
 LIC .                                   :   License Number
 DATE.     13-SEPT-1994                  :   Log Date
 API .     4902522654                    :   API Number
~Curve Information Block
#MNEM.UNIT       API Codes    Curve Description
#---------    -------------   -------------------------------
 DEPT.F        0   0  0  0:   Depth
 CILD.MMHO     0   0  0  0:   Conductivity of Deep Induction
 SP  .MV       0   0  0  0:   Spontaneous Potential
 GR  .API      0   0  0  0:   Gamma ray counts
 TEN .LBF      0   0  0  0:   Differential Tension
 RFOC.OHMM     0   0  0  0:   Resistivity from CFOC
 RILM.OHMM     0   0  0  0:   Resistivity from CILM
 RILD.OHMM     0   0  0  0:   Resistivity from CILD
#  Curve Data
~A
# ...
   465.0000     75.2263     35.3409     63.3336     29.2614     11.9222     12.4580     13.2932
   464.5000     75.0898     35.2146     63.8901     29.5908     12.0145     12.4772     13.3174
   464.0000     74.8493     35.2108     62.2963     39.8705     12.1090     12.5022     13.3602
   463.5000     74.4746     35.2381     61.7238     48.7536     12.1544     12.5397     13.4274
   463.0000     74.0182     35.1755     62.9689     45.2294     12.1496     12.5975     13.5102
   462.5000     73.5538     34.9882     64.0708     35.0918     12.1775     12.6685     13.5955
   462.0000     73.0714     34.7563     64.1848     30.7004     12.2837     12.7267     13.6853
   461.5000     72.6449     34.5538     63.7154     33.7787     12.4044     12.7652     13.7656
   461.0000     72.3627     34.3793     62.6217     37.8029     12.4759     12.8027     13.8193
   460.5000     72.1859     34.1960     61.5039     37.7791     12.5313     12.8394     13.8531
   460.0000     72.0420     34.0384     61.4649     34.9649     12.6611     12.8499     13.8808
   459.5000     71.8690     33.9193     62.2701     32.6871     12.8689     12.8366     13.9142
   459.0000     71.3382     33.7664     62.9363     30.3109     12.9890     12.8477     14.0177
   458.5000     70.0480     33.5045     64.0070     26.8909     12.8012     12.9268     14.2759
   458.0000     68.0882     33.1400     65.3413     27.8474     12.4188     13.0839     14.6868
   457.5000     65.9176     32.7144     65.6368     35.8299     12.3607     13.2880     15.1705
   457.0000     63.8201     32.3499     63.7906     49.3459     13.0043     13.5232     15.6691
   456.5000     61.9287     32.0801     61.2944     61.5472     14.1246     13.8602     16.1476
   456.0000     60.1685     31.7890     59.7069     63.4574     15.0604     14.4037     16.6200
   455.5000     58.3037     31.3654     59.7329     57.8051     15.4641     15.1148     17.1516
   455.0000     56.3764     30.8630     60.6207     53.1459     15.4341     15.7983     17.7379
   454.5000     54.7995     30.3889     61.5164     46.6452     15.1807     16.2417     18.2483
   454.0000     53.7920     29.9727     61.9209     38.6322     14.9895     16.3169     18.5901
   453.5000     53.2386     29.5704     61.7384     39.7287     15.0253     16.1015     18.7834
   453.0000     52.8920     29.2335     61.1288     47.8884     15.2121     15.9071     18.9065
   452.5000     52.4985     29.0977     60.8329     52.2514     15.3587     15.9795     19.0482
   452.0000     51.8337     29.1555     60.1349     50.4458     15.4622     16.2550     19.2924
   451.5000     50.8291     29.3391     58.7319     42.8812     15.7603     16.5190     19.6738
   451.0000     49.7136     29.6819     57.9856     32.3410     16.2736     16.7302     20.1152
   450.5000     48.7427     30.1887     58.6710     26.4475     16.6646     17.0145     20.5159
   450.0000     47.9004     30.7021     59.4973     27.2511     16.7901     17.3562     20.8767
   449.5000     47.1600     31.1062     58.8902     29.6326     16.8520     17.6032     21.2044
   449.0000     46.6473     31.5612     57.6990     30.4018     16.8533     17.7698     21.4375
   448.5000     46.3661     32.3264     57.7041     29.0882     16.6761     17.9797     21.5675
   448.0000     46.3040     33.3832     58.6906     26.6158     16.4939     18.1117     21.5964
   447.5000     46.6188     34.5182     58.8575     25.8265     16.5476     17.9544     21.4506
   447.0000     47.3735     35.6637     57.7446     29.7869     16.7994     17.6293     21.1088
   446.5000     48.3055     36.8363     56.1163     36.7400     16.8844     17.4228     20.7016
   446.0000     49.2028     37.9170     55.6875     39.9748     16.4634     17.3563     20.3241
   445.5000     50.1800     38.9186     57.6749     34.9856     15.8109     17.2556     19.9283
   445.0000     51.3266     40.0007     60.1819     25.1872     15.5771     17.0652     19.4831
   444.5000     52.4655     41.1181     60.7096     17.7833     15.8965     16.8736     19.0602
   444.0000     53.3384     42.1064     58.6400     18.3488     16.2079     16.7401     18.7482
   443.5000     53.7875     42.9964     56.0509     27.9731     15.9877     16.6576     18.5917
   443.0000     53.7614     43.8722     55.3933     40.0315     15.5723     16.6151     18.6007
   442.5000     53.3288     44.7633     56.4448     43.4152     15.6584     16.6361     18.7516
   442.0000     52.5922     45.7402     58.3239     33.9831     16.3038     16.7656     19.0142
   441.5000     51.6027     46.8014     60.5641     22.2357     16.8611     17.0215     19.3788
   441.0000     50.4476     47.7850     61.1554     17.0089     17.0200     17.3553     19.8225
   440.5000     49.3547     48.4754     59.0847     14.4323     17.2720     17.7074     20.2615
   440.0000     48.5848     48.8201     57.5786     12.0698     17.9434     18.0530     20.5826
   439.5000     48.0551     49.0622     58.1350     13.2974     18.6126     18.3789     20.8095
   439.0000     47.4305     49.4915     58.1795     19.4413     18.6480     18.7001     21.0835
   438.5000     46.5762     50.0974     57.2000     25.6484     18.0262     19.0098     21.4702
   438.0000     45.6517     50.7011     56.2345     23.1507     17.3543     19.1972     21.9050
   437.5000     44.8334     51.2077     55.5928     11.2643     17.1806     19.1794     22.3048
   437.0000     44.2225     51.6038     55.5229      1.2654     17.6880     19.0902     22.6129
   436.5000     43.9327     51.8948     55.8598     -0.2129     18.6908     19.0873     22.7621
   436.0000     43.8687     52.1471     55.0401      3.7018     19.9070     19.2440     22.7953
   435.5000     43.6359     52.4845     52.6494     10.6857     20.9740     19.6020     22.9169
   435.0000     42.9076     52.9233     49.9488     17.1538     21.0896     20.1682     23.3059
   434.5000     41.7819     53.3331     49.0778     16.2184     20.0176     20.7760     23.9338
   434.0000     40.6976     53.5607     50.1485      7.5323     19.0062     21.1363     24.5715
   433.5000     40.0441     53.6507     51.9069      1.7507     19.1582     21.1074     24.9725
   433.0000     39.8216     53.6925     53.4950      3.9385     20.4290     20.8992     25.1120
   432.5000     39.5871     53.5917     53.7110      8.4253     21.7065     20.8651     25.2607
   432.0000     39.1237     53.2033     51.9019     13.7213     21.9324     21.1689     25.5599
   431.5000     38.5771     52.6639     51.4303     22.3306     21.5627     21.6557     25.9221
   431.0000     38.2149     52.2571     53.3829     29.7305     21.4639     21.9802     26.1678
   430.5000     38.1688     52.0761     54.6937     27.1181     21.5909     21.9550     26.1994
   430.0000     38.3614     52.0570     53.8036     14.0544     21.4010     21.6806     26.0679
   429.5000     38.4904     52.1998     51.8589      0.0512     20.5273     21.3271     25.9805
   429.0000     38.3931     52.5331     50.5305     -3.1711     19.1463     20.9491     26.0464
   428.5000     38.2777     52.9399     50.7321      6.2940     18.1696     20.5612     26.1249
   428.0000     38.3402     53.3528     50.1564     23.3956     18.4102     20.2250     26.0823
   427.5000     38.5319     53.9045     47.9922     37.0294     19.6086     20.0768     25.9525
   427.0000     38.8808     54.4583     47.6057     38.6770     20.1430     20.2240     25.7197
   426.5000     39.6363     53.9630     50.8253     32.5838     19.2546     20.5990     25.2294
   426.0000     41.3759     51.9014     54.6522     23.9004     18.5610     20.8186     24.1687
   425.5000     44.6273     49.4761     56.1782     14.1599     19.0565     20.4890     22.4078
   425.0000     49.3315     47.9630     55.4809      5.9997     19.4465     19.6005     20.2710
   424.5000     54.7800     47.2964     55.8123      3.4709     17.5946     18.3911     18.2548
   424.0000     60.3851     46.9653     58.1983      7.3645     14.5485     16.9487     16.5604
   423.5000     65.9404     46.8183     61.4030     16.1897     12.3922     15.3151     15.1652
