~Version Information
 VERS.                2.00:   CWLS log ASCII Standard -VERSION 2.00
 WRAP.                  NO:   One line per frame
~Well Information Block
#MNEM.UNIT              Data                Description
#--------- -------------------------------  -------------------------------
 STRT.F                          591.0000:   Starting Depth
 STOP.F                            7.2500:   Ending Depth
 STEP.F                           -0.5000:   Level Spacing
 NULL.                          -999.2500:   Absent Value
 COMP.     FLUOR DANIEL (NPSOR), INC.    :   Company
 WELL.     53-1 X 3                      :   Well
 FLD .     NPR #3                        :   Field
 LOC .     3-38N-78W                     :   Location
 CNTY.     NATRONA                       :   County
 STAT.     WYIOMING                      :   State
 SRVC.     ATLAS WIRELINE SERVICES       :   Service Company
 LIC .                                   :   License Number
 DATE.     13-SEPT-1994                  :   Log Date
 API .     4902522654                    :   API Number
~Curve Information Block
#MNEM.UNIT       API Codes    Curve Description
#---------    -------------   -------------------------------
 DEPT.F        0   0  0  0:   Depth
 CILD.MMHO     0   0  0  0:   Conductivity of Deep Induction
 SP  .MV       0   0  0  0:   Spontaneous Potential
 GR  .API      0   0  0  0:   Gamma ray counts
 TEN .LBF      0   0  0  0:   Differential Tension
 RFOC.OHMM     0   0  0  0:   Resistivity from CFOC
 RILM.OHMM     0   0  0  0:   Resistivity from CILM
 RILD.OHMM     0   0  0  0:   Resistivity from CILD
#  Curve Data
~A
# ...
   171.0000     83.7162     30.9797     65.6084    -26.2480     10.1957     11.2039     11.9451
   170.5000     81.9107     31.1088     62.2396    -25.0725     10.3182     11.4532     12.2084
   170.0000     81.1413     31.1142     59.6499    -25.1488     10.8514     11.6011     12.3242
   169.5000     81.0776     30.8214     59.0760    -29.4374     11.7546     11.7255     12.3339
   169.0000     81.2346     30.4240     59.9173    -34.4000     12.0046     11.9232     12.3100
   168.5000     81.4177     30.2154     62.4062    -33.8550     11.2183     12.1167     12.2823
   168.0000     81.6356     30.2799     67.3131    -28.2726     10.5097     12.0969     12.2496
   167.5000     82.1882     30.5522     72.3496    -26.5624     10.3024     11.8259     12.1672
   167.0000     83.2133     30.9530     73.0202    -28.2811     10.2052     11.5068     12.0173
   166.5000     84.1655     31.3563     70.8391    -27.6174     10.0350     11.2985     11.8814
   166.0000     84.5169     31.6844     69.3721    -26.7808      9.9859     11.2026     11.8319
   165.5000     84.3702     31.9601     68.3397    -31.4159     10.1234     11.1881     11.8525
   165.0000     83.9117     32.2847     67.2465    -37.8395     10.3421     11.2547     11.9173
   164.5000     83.1368     32.7371     68.2587    -39.4749     10.5635     11.3846     12.0284
   164.0000     82.0585     33.2467     70.4911    -37.2463     10.7664     11.5441     12.1864
   163.5000     80.7720     33.6424     70.7544    -37.6654     10.8531     11.7187     12.3805
   163.0000     79.5172     33.8405     70.1553    -36.9645     10.7827     11.8913     12.5759
   162.5000     78.4730     33.8272     69.8877    -32.4288     10.7507     12.0227     12.7432
   162.0000     77.5841     33.6358     67.7897    -30.3091     10.8869     12.1064     12.8892
   161.5000     76.8246     33.3738     64.2848    -33.7675     11.0203     12.1946     13.0167
   161.0000     76.3183     33.1031     63.9848    -36.9675     11.0318     12.3017     13.1030
   160.5000     76.1641     32.8118     65.6921    -37.1075     11.1625     12.3751     13.1295
   160.0000     76.4226     32.5328     66.5885    -34.3927     11.4934     12.3951     13.0851
   159.5000     77.0200     32.3399     68.1437    -32.3026     11.5820     12.3889     12.9836
   159.0000     77.8483     32.1968     71.5887    -30.9859     11.1709     12.3452     12.8455
   158.5000     78.9995     31.9538     72.9169    -25.6285     10.7095     12.1970     12.6583
   158.0000     80.7016     31.5150     70.7982    -21.1655     10.5390     11.9168     12.3913
   157.5000     82.9672     30.9879     69.2299    -24.0575     10.4928     11.5738     12.0530
   157.0000     85.4288     30.5038     69.3022    -29.6579     10.2934     11.2587     11.7057
   156.5000     87.7102     30.0651     70.3857    -30.5030      9.9464     10.9883     11.4012
   156.0000     89.7536     29.6763     72.0789    -25.9534      9.6442     10.7366     11.1416
   155.5000     91.6571     29.4238     74.5610    -18.2927      9.5169     10.4922     10.9102
   155.0000     93.3931     29.3306     76.8156    -13.9172      9.5279     10.2713     10.7074
   154.5000     95.0276     29.2898     78.2242    -19.2980      9.5162     10.0944     10.5233
   154.0000     96.6939     29.2010     78.6671    -28.0301      9.3773      9.9556     10.3419
   153.5000     98.4516     29.0141     78.6062    -30.7406      9.2225      9.8222     10.1573
   153.0000    100.3799     28.7294     77.1560    -27.8627      9.2193      9.6756      9.9622
   152.5000    102.6075     28.4342     73.6502    -26.0571      9.3056      9.5252      9.7459
   152.0000    104.8582     28.2465     71.7976    -28.0085      9.1935      9.3764      9.5367
   151.5000    106.9169     28.2067     74.0721    -29.5792      8.7751      9.2175      9.3531
   151.0000    108.7827     28.1722     77.2225    -28.3311      8.3362      9.0356      9.1926
   150.5000    110.5736     27.9393     77.5797    -26.1662      8.1608      8.8299      9.0438
   150.0000    112.2848     27.4619     75.7514    -27.1941      8.2467      8.6264      8.9059
   149.5000    113.7235     26.9064     73.7486    -28.4394      8.3662      8.4814      8.7933
   149.0000    114.6491     26.4105     73.2951    -25.7432      8.3380      8.4285      8.7223
   148.5000    114.9146     25.9841     74.9536    -23.0675      8.2214      8.4383      8.7021
   148.0000    114.6369     25.5672     77.3556    -27.2499      8.1882      8.4526      8.7232
   147.5000    114.2052     25.1948     79.0552    -34.2728      8.2798      8.4507      8.7562
   147.0000    113.7974     24.8792     78.5255    -34.0465      8.3800      8.4597      8.7875
   146.5000    113.1398     24.5132     76.7331    -30.1953      8.3875      8.5047      8.8386
   146.0000    112.0427     24.1540     76.6634    -29.0339      8.3304      8.5726      8.9252
   145.5000    110.8709     24.0199     78.0972    -26.3837      8.3131      8.6305      9.0195
   145.0000    110.1234     24.1514     78.4862    -20.6381      8.4164      8.6672      9.0807
   144.5000    109.8700     24.3341     78.1365    -18.3595      8.6087      8.7012      9.1017
   144.0000    109.7332     24.3396     77.7056    -20.6458      8.7450      8.7517      9.1130
   143.5000    109.4617     24.0794     76.9237    -23.0723      8.7456      8.8085      9.1356
   143.0000    109.1850     23.6625     76.5673    -25.5004      8.6707      8.8436      9.1588
   142.5000    109.0694     23.2757     74.9145    -25.0850      8.5535      8.8411      9.1685
   142.0000    109.3454     23.0532     72.2938    -22.1479      8.3975      8.7999      9.1453
   141.5000    110.2860     22.9446     73.0211    -21.2475      8.3275      8.7201      9.0673
   141.0000    111.7714     22.7518     77.4513    -22.6575      8.4356      8.6176      8.9468
   140.5000    113.3289     22.4463     79.8029    -23.3105      8.5380      8.5280      8.8239
   140.0000    114.7848     22.1406     77.5148    -23.3304      8.4083      8.4652      8.7120
   139.5000    116.2992     21.8591     72.9441    -22.8933      8.1790      8.3910      8.5985
   139.0000    118.0516     21.5714     69.4301    -23.5686      8.0715      8.2754      8.4709
   138.5000    120.0504     21.3111     69.9299    -25.0750      8.0490      8.1396      8.3298
   138.0000    122.0397     21.0777     74.4290    -24.7761      7.9702      8.0184      8.1941
   137.5000    123.7142     20.8254     78.8653    -23.9370      7.8224      7.9171      8.0831
   137.0000    124.9700     20.6214     79.4158    -24.0102      7.6860      7.8282      8.0019
   136.5000    125.8062     20.5645     77.9028    -25.7923      7.6151      7.7478      7.9487
   136.0000    126.1640     20.5347     77.8951    -30.2441      7.6116      7.6821      7.9262
   135.5000    125.9973     20.2687     79.8244    -34.1277      7.6456      7.6472      7.9367
   135.0000    125.3156     19.6910     82.0941    -36.2227      7.6944      7.6547      7.9799
   134.5000    124.2671     18.9841     83.4539    -35.6758      7.7681      7.7022      8.0472
   134.0000    122.9500     18.4026     82.4578    -32.3995      7.8947      7.7795      8.1334
   133.5000    121.3205     18.0957     79.5903    -29.7222      8.0341      7.8803      8.2426
   133.0000    119.4115     17.9856     78.0074    -29.0494      8.1345      8.0043      8.3744
   132.5000    117.4132     17.9190     78.8158    -26.4530      8.2014      8.1429      8.5169
   132.0000    115.4863     17.8573     80.5283    -23.7656      8.2699      8.2775      8.6590
   131.5000    113.7170     17.8072     80.9906    -25.5962      8.3594      8.4010      8.7938
   131.0000    112.1137     17.7326     79.1108    -29.1815      8.4731      8.5225      8.9195
   130.5000    110.6321     17.6526     75.7711    -28.4150      8.5459      8.6447      9.0390
   130.0000    109.3521     17.7005     73.4954    -22.4053      8.5441      8.7553      9.1448
   129.5000    108.3549     17.9061     74.0912    -18.5654      8.5511      8.8300      9.2289
