~Version Information
 VERS.                2.00:   CWLS log ASCII Standard -VERSION 2.00
 WRAP.                  NO:   One line per frame
~Well Information Block
#MNEM.UNIT              Data                Description
#--------- -------------------------------  -------------------------------
 STRT.F                         1214.0000:   Starting Depth
 STOP.F                           -9.7500:   Ending Depth
 STEP.F                           -0.5000:   Level Spacing
 NULL.                          -999.2500:   Absent Value
 COMP.     FLUOR DANIEL (NPSOR), INC.    :   Company
 WELL.     66 X 14                       :   Well
 FLD .     NPR NO.3                      :   Field
 LOC .     SEC.14/TWP.38N/RGE.78W        :   Location
 CNTY.     NATRONA                       :   County
 STAT.     WYOMING                       :   State
 SRVC.     ATLAS WIRELINE SERVICES       :   Service Company
 LIC .                                   :   License Number
 DATE.     27-AUGUST-1994                :   Log Date
 API .     4902522638                    :   API Number
~Curve Information Block
#MNEM.UNIT       API Codes    Curve Description
#---------    -------------   -------------------------------
 DEPT.F        0   0  0  0:   Depth
 GR  .API      0   0  0  0:   Gamma ray counts
 RILM.OHMM     0   0  0  0:   Resistivity from CILM
 RILD.OHMM     0   0  0  0:   Resistivity from CILD
#  Curve Data
~A
# ...
   713.0000    125.8527      6.0027      5.8136
   712.5000    126.5309      6.0617      5.8802
   712.0000    128.2763      6.1235      5.9500
   711.5000    128.0479      6.1883      6.0136
   711.0000    123.5638      6.2511      6.0647
   710.5000    118.6495      6.3137      6.1080
   710.0000    119.3714      6.3743      6.1506
   709.5000    124.3549      6.4210      6.1947
   709.0000    128.6129      6.4478      6.2434
   708.5000    131.0593      6.4559      6.2765
   708.0000    130.9679      6.4425      6.2565
   707.5000    127.6040      6.4061      6.1750
   707.0000    122.9009      6.3626      6.0669
   706.5000    121.1189      6.3230      5.9597
   706.0000    122.2130      6.2578      5.8589
   705.5000    124.0881      6.1264      5.7599
   705.0000    124.8475      5.9404      5.6562
   704.5000    126.5284      5.7598      5.5514
   704.0000    129.4227      5.6336      5.4631
   703.5000    131.1806      5.5738      5.4109
   703.0000    130.6431      5.5721      5.3975
   702.5000    130.2977      5.6117      5.4112
   702.0000    128.8759      5.6705      5.4397
   701.5000    124.7058      5.7252      5.4762
   701.0000    121.0724      5.7618      5.5127
   700.5000    122.2302      5.7796      5.5428
   700.0000    126.3876      5.7868      5.5687
   699.5000    128.8066      5.7925      5.5951
   699.0000    128.8539      5.8081      5.6283
   698.5000    126.4082      5.8463      5.6814
   698.0000    123.7123      5.9143      5.7692
   697.5000    124.0166      6.0119      5.8894
   697.0000    126.4328      6.1300      6.0166
   696.5000    128.2208      6.2549      6.1212
   696.0000    130.0344      6.3761      6.1942
   695.5000    131.5822      6.4872      6.2410
   695.0000    130.5098      6.5671      6.2636
   694.5000    127.4164      6.5847      6.2601
   694.0000    124.5708      6.5313      6.2322
   693.5000    123.1773      6.4349      6.1868
   693.0000    123.2796      6.3377      6.1356
   692.5000    125.6481      6.2666      6.0950
   692.0000    127.3801      6.2285      6.0739
   691.5000    126.0539      6.2170      6.0658
   691.0000    122.5826      6.2245      6.0561
   690.5000    119.2222      6.2474      6.0386
   690.0000    118.0250      6.2784      6.0231
   689.5000    120.3102      6.2962      6.0182
   689.0000    124.5139      6.2865      6.0210
   688.5000    126.8468      6.2545      6.0249
   688.0000    126.2323      6.2147      6.0257
   687.5000    124.4295      6.1786      6.0141
   687.0000    123.8869      6.1531      5.9841
   686.5000    123.9081      6.1444      5.9493
   686.0000    123.3401      6.1550      5.9351
   685.5000    123.1547      6.1735      5.9481
   685.0000    123.5901      6.1747      5.9732
   684.5000    122.6700      6.1502      5.9990
   684.0000    120.8564      6.1276      6.0284
   683.5000    120.3179      6.1442      6.0701
   683.0000    120.6537      6.2103      6.1310
   682.5000    121.4928      6.3070      6.2119
   682.0000    122.3212      6.4093      6.3023
   681.5000    122.0537      6.5057      6.3802
   681.0000    121.3512      6.5988      6.4394
   680.5000    122.2263      6.6871      6.4952
   680.0000    124.0698      6.7593      6.5586
   679.5000    125.3922      6.8020      6.6186
   679.0000    126.9567      6.8005      6.6446
   678.5000    131.2220      6.7554      6.6134
   678.0000    135.3531      6.6898      6.5377
   677.5000    133.8311      6.6271      6.4474
   677.0000    129.4650      6.5665      6.3651
   676.5000    129.0847      6.4977      6.2962
   676.0000    131.3023      6.4164      6.2287
   675.5000    131.2491      6.3236      6.1502
   675.0000    128.6437      6.2235      6.0586
   674.5000    126.1837      6.1275      5.9547
   674.0000    125.9705      6.0532      5.8478
   673.5000    125.5296      6.0085      5.7562
   673.0000    122.7753      5.9751      5.6885
   672.5000    121.1380      5.9246      5.6334
   672.0000    125.0183      5.8436      5.5777
   671.5000    132.6597      5.7486      5.5189
   671.0000    138.5718      5.6730      5.4671
   670.5000    137.9842      5.6408      5.4399
   670.0000    132.9685      5.6481      5.4471
   669.5000    129.7763      5.6755      5.4831
   669.0000    129.3987      5.7143      5.5367
   668.5000    126.8045      5.7710      5.6022
   668.0000    123.0905      5.8507      5.6776
   667.5000    123.0592      5.9414      5.7611
   667.0000    123.6337      6.0254      5.8426
   666.5000    123.7185      6.0919      5.9014
   666.0000    126.5914      6.1365      5.9236
   665.5000    130.3249      6.1539      5.9108
   665.0000    130.0584      6.1425      5.8723
   664.5000    128.0258      6.1066      5.8190
   664.0000    127.3398      6.0498      5.7647
   663.5000    128.1380      5.9746      5.7192
   663.0000    129.0369      5.8918      5.6864
   662.5000    128.5833      5.8255      5.6654
   662.0000    126.9308      5.8018      5.6537
   661.5000    125.2342      5.8281      5.6495
   661.0000    124.2449      5.8847      5.6521
   660.5000    125.4347      5.9397      5.6532
   660.0000    127.3429      5.9703      5.6405
   659.5000    126.9593      5.9666      5.6134
   659.0000    124.9563      5.9335      5.5965
   658.5000    125.9160      5.8976      5.6325
   658.0000    129.9570      5.9002      5.7614
   657.5000    133.1019      5.9779      6.0067
   657.0000    133.6389      6.1578      6.3684
   656.5000    131.4447      6.4719      6.8348
   656.0000    125.7216      6.9819      7.4124
   655.5000    118.0172      7.7890      8.1236
   655.0000    111.7592      8.9686      9.0139
   654.5000    108.1723     10.3962     10.0974
   654.0000    105.9037     11.6599     11.1900
   653.5000    104.6151     12.4322     12.0629
   653.0000    105.5421     12.7285     12.5598
   652.5000    107.8098     12.7832     12.7759
   652.0000    108.1684     12.7646     12.8822
   651.5000    104.8062     12.7665     12.9815
   651.0000    100.5192     12.8471     13.1022
   650.5000     98.3200     13.0014     13.2664
   650.0000     98.8066     13.1873     13.4578
   649.5000    100.8539     13.3981     13.6267
   649.0000    102.4692     13.6231     13.7388
   648.5000    102.2825     13.8190     13.8010
   648.0000    100.8116     13.9499     13.8476
   647.5000     99.1416     14.0003     13.9003
   647.0000     98.3451     13.9790     13.9448
   646.5000     99.5722     13.9247     13.9748
   646.0000     99.6836     13.8708     13.9890
   645.5000     96.4321     13.8198     13.9446
   645.0000     92.6887     13.7767     13.8332
   644.5000     91.5939     13.7621     13.7031
   644.0000     92.1178     13.7500     13.5691
   643.5000     93.3824     13.6394     13.3885
   643.0000     96.1002     13.3878     13.1501
   642.5000     99.8888     13.0712     12.9023
   642.0000    104.2387     12.7707     12.6811
   641.5000    106.4679     12.5171     12.4762
   641.0000    104.7617     12.3239     12.3008
   640.5000    103.9553     12.1803     12.1540
   640.0000    106.5346     12.0485     11.9752
   639.5000    106.6525     11.8945     11.7466
   639.0000    100.5444     11.7216     11.5237
   638.5000     94.7036     11.5628     11.3566
   638.0000     95.3396     11.4398     11.2301
   637.5000     98.8543     11.3486     11.0995
   637.0000    100.0724     11.2664     10.9622
   636.5000    100.1627     11.1677     10.8444
   636.0000    101.3291     11.0549     10.7357
   635.5000    101.8164     10.9495     10.6101
   635.0000    102.5306     10.8493     10.4780
   634.5000    104.7231     10.7422     10.3570
   634.0000    105.3926     10.6284     10.2471
   633.5000    103.8770     10.5202     10.1478
   633.0000    102.8813     10.4324     10.0550
   632.5000    102.4036     10.3643      9.9746
   632.0000    101.2428     10.2956      9.9267
   631.5000    102.0221     10.2162      9.9305
   631.0000    104.3330     10.1430      9.9776
   630.5000    105.1738     10.0953     10.0317
   630.0000    102.8981     10.0616     10.0300
