~Version Information
 VERS.                2.00:   CWLS log ASCII Standard -VERSION 2.00
 WRAP.                  NO:   One line per frame
~Well Information Block
#MNEM.UNIT              Data                Description
#--------- -------------------------------  -------------------------------
 STRT.F                         1214.0000:   Starting Depth
 STOP.F                           -9.7500:   Ending Depth
 STEP.F                           -0.5000:   Level Spacing
 NULL.                          -999.2500:   Absent Value
 COMP.     FLUOR DANIEL (NPSOR), INC.    :   Company
 WELL.     66 X 14                       :   Well
 FLD .     NPR NO.3                      :   Field
 LOC .     SEC.14/TWP.38N/RGE.78W        :   Location
 CNTY.     NATRONA                       :   County
 STAT.     WYOMING                       :   State
 SRVC.     ATLAS WIRELINE SERVICES       :   Service Company
 LIC .                                   :   License Number
 DATE.     27-AUGUST-1994                :   Log Date
 API .     4902522638                    :   API Number
~Curve Information Block
#MNEM.UNIT       API Codes    Curve Description
#---------    -------------   -------------------------------
 DEPT.F        0   0  0  0:   Depth
 GR  .API      0   0  0  0:   Gamma ray counts
 RILM.OHMM     0   0  0  0:   Resistivity from CILM
 RILD.OHMM     0   0  0  0:   Resistivity from CILD
#  Curve Data
~A
# ...
   629.5000     99.7005     10.0062      9.9203
   629.0000     98.4437      9.8855      9.7146
   628.5000     99.8224      9.6826      9.4465
   628.0000    100.2801      9.4339      9.1414
   627.5000     99.3672      9.2002      8.8492
   627.0000    100.9685      8.9996      8.6204
   626.5000    104.1788      8.7926      8.4294
   626.0000    105.1704      8.5162      8.1646
   625.5000    102.5754      8.1307      7.6849
   625.0000     98.8753      7.6295      6.9397
   624.5000     97.1746      7.0233      6.0601
   624.0000    101.3820      6.3665      5.2690
   623.5000    111.3607      5.7503      4.7213
   623.0000    125.0442      5.2258      4.4343
   622.5000    136.1848      4.7566      4.3456
   622.0000    135.8090      4.3262      4.3650
   621.5000    123.9509      4.0301      4.4373
   621.0000    111.6474      4.0171      4.5945
   620.5000    102.3502      4.4173      4.9443
   620.0000     91.1169      5.3013      5.6134
   619.5000     79.8854      6.5847      6.6453
   619.0000     73.3085      8.0466      7.8603
   618.5000     73.2803      9.4119      8.8853
   618.0000     80.2459     10.3434      9.4220
   617.5000     90.8504     10.4139      9.3380
   617.0000     99.2034      9.6088      8.6007
   616.5000    103.7015      8.3794      7.3764
   616.0000    104.2316      7.0775      5.9782
   615.5000    102.5155      5.8253      4.6995
   615.0000    104.4026      4.7351      3.7117
   614.5000    111.8374      3.8642      3.0049
   614.0000    122.8214      3.1801      2.5172
   613.5000    134.1909      2.6142      2.1568
   613.0000    141.7634      2.1585      1.8862
   612.5000    143.9383      1.8676      1.7190
   612.0000    143.7731      1.7257      1.6501
   611.5000    141.7710      1.7001      1.6733
   611.0000    134.8712      1.7508      1.7761
   610.5000    124.8285      1.8733      1.9477
   610.0000    116.0167      2.1039      2.1994
   609.5000    111.9858      2.5241      2.5466
   609.0000    110.8099      3.1657      3.0551
   608.5000    108.8605      4.0421      3.7684
   608.0000    106.9225      4.9811      4.5966
   607.5000    107.4830      5.6813      5.3785
   607.0000    108.5229      6.0610      5.9471
   606.5000    107.4776      6.2297      6.2750
   606.0000    107.1023      6.3271      6.4717
   605.5000    109.9379      6.3969      6.6273
   605.0000    114.6534      6.4239      6.7311
   604.5000    117.3376      6.4165      6.7565
   604.0000    118.2204      6.4232      6.7235
   603.5000    120.2207      6.4655      6.6538
   603.0000    121.6220      6.5062      6.5479
   602.5000    120.8424      6.5030      6.4142
   602.0000    121.2024      6.4487      6.2590
   601.5000    123.0385      6.3537      6.0798
   601.0000    121.3597      6.2304      5.9003
   600.5000    118.0154      6.1029      5.7493
   600.0000    118.8795      5.9919      5.6372
   599.5000    124.2264      5.8945      5.5620
   599.0000    128.5607      5.7960      5.5165
   598.5000    127.7357      5.7104      5.4857
   598.0000    122.4877      5.6696      5.4646
   597.5000    119.0541      5.6745      5.4650
   597.0000    120.3503      5.6993      5.4922
   596.5000    122.9421      5.7360      5.5350
   596.0000    124.4087      5.7899      5.5849
   595.5000    125.9911      5.8509      5.6406
   595.0000    126.8410      5.9040      5.6960
   594.5000    126.2723      5.9464      5.7438
   594.0000    125.6181      5.9784      5.7793
   593.5000    125.2522      5.9978      5.8011
   593.0000    123.9701      6.0116      5.8157
   592.5000    121.1714      6.0307      5.8371
   592.0000    119.9035      6.0551      5.8695
   591.5000    120.9940      6.0714      5.9012
   591.0000    122.2144      6.0717      5.9191
   590.5000    121.7283      6.0678      5.9262
   590.0000    120.3404      6.0811      5.9332
   589.5000    118.2496      6.1188      5.9427
   589.0000    116.4271      6.1655      5.9660
   588.5000    113.3134      6.1948      6.0156
   588.0000    109.4959      6.1871      6.0642
   587.5000    108.3267      6.1368      6.0551
   587.0000    110.5552      6.0487      5.9617
   586.5000    112.9204      5.9285      5.8009
   586.0000    115.3092      5.7717      5.6077
   585.5000    118.9199      5.5672      5.4113
   585.0000    120.0034      5.3285      5.2264
   584.5000    117.2410      5.1070      5.0589
   584.0000    115.7210      4.9475      4.9213
   583.5000    115.6774      4.8487      4.8124
   583.0000    114.0884      4.7679      4.6865
   582.5000    113.4507      4.6436      4.4607
   582.0000    114.3118      4.4183      4.0758
   581.5000    112.9156      4.0667      3.5415
   581.0000    109.5235      3.6381      3.0231
   580.5000    111.1017      3.2222      2.6314
   580.0000    122.0987      2.8599      2.3753
   579.5000    134.2261      2.5354      2.2139
   579.0000    139.8488      2.2315      2.0984
   578.5000    140.3199      2.0095      2.0171
   578.0000    138.4996      1.9124      1.9770
   577.5000    133.1618      1.9504      2.0033
   577.0000    126.6876      2.1087      2.1151
   576.5000    123.0058      2.3550      2.3061
   576.0000    122.3685      2.6330      2.5486
   575.5000    122.8442      2.8879      2.8144
   575.0000    123.0481      3.0996      3.0622
   574.5000    123.1796      3.2753      3.2675
   574.0000    122.0347      3.4354      3.4377
   573.5000    119.3855      3.5830      3.5887
   573.0000    116.3208      3.6981      3.7075
   572.5000    111.9219      3.7538      3.7459
   572.0000    107.5217      3.7249      3.6473
   571.5000    106.9418      3.5960      3.4012
   571.0000    108.9249      3.3858      3.0817
   570.5000    108.9499      3.1478      2.7907
   570.0000    111.7141      2.9131      2.5726
   569.5000    121.2548      2.6689      2.4153
   569.0000    130.2783      2.4129      2.2925
   568.5000    130.8813      2.1977      2.1899
   568.0000    126.4040      2.0913      2.1211
   567.5000    121.8468      2.1084      2.1200
   567.0000    117.8731      2.2265      2.2010
   566.5000    114.4445      2.3987      2.3373
   566.0000    111.9619      2.5710      2.4898
   565.5000    109.3346      2.7165      2.6150
   565.0000    107.5734      2.8442      2.6970
   564.5000    110.0728      2.9630      2.7634
   564.0000    115.9292      3.0668      2.8497
   563.5000    120.8925      3.1278      2.9580
   563.0000    123.0876      3.1211      3.0596
   562.5000    123.1976      3.0760      3.1315
   562.0000    123.2323      3.0778      3.1892
   561.5000    122.2307      3.1983      3.2859
   561.0000    119.0103      3.4376      3.4679
   560.5000    114.7221      3.7223      3.7338
   560.0000    113.3689      3.9671      4.0295
   559.5000    117.5475      4.1506      4.2678
   559.0000    123.3631      4.3089      4.4289
   558.5000    122.0124      4.4640      4.5212
   558.0000    115.0118      4.5904      4.5656
   557.5000    112.5005      4.6536      4.5659
   557.0000    115.4243      4.6556      4.5219
   556.5000    115.8924      4.6157      4.4498
   556.0000    113.8368      4.5369      4.3696
   555.5000    115.0708      4.4117      4.2698
   555.0000    117.5547      4.2415      4.1070
   554.5000    114.9404      4.0319      3.8344
   554.0000    109.1773      3.7775      3.4627
   553.5000    105.1745      3.4925      3.0806
   553.0000    105.1920      3.2265      2.7840
   552.5000    112.3263      3.0121      2.6114
   552.0000    125.3755      2.8233      2.5389
   551.5000    135.7018      2.6271      2.5215
   551.0000    137.9274      2.4593      2.5286
   550.5000    132.7980      2.4071      2.5676
   550.0000    124.7968      2.5404      2.6830
   549.5000    120.0889      2.8570      2.9230
   549.0000    120.1953      3.3273      3.2990
   548.5000    119.9341      3.8728      3.7711
   548.0000    116.1066      4.3828      4.2392
   547.5000    112.0555      4.7466      4.6045
   547.0000    109.7850      4.9304      4.8217
   546.5000    110.1148      4.9966      4.9180
