~Version Information
 VERS.                2.00:   CWLS log ASCII Standard -VERSION 2.00
 WRAP.                  NO:   One line per frame
~Well Information Block
#MNEM.UNIT              Data                Description
#--------- -------------------------------  -------------------------------
 STRT.F                         1214.0000:   Starting Depth
 STOP.F                           -9.7500:   Ending Depth
 STEP.F                           -0.5000:   Level Spacing
 NULL.                          -999.2500:   Absent Value
 COMP.     FLUOR DANIEL (NPSOR), INC.    :   Company
 WELL.     66 X 14                       :   Well
 FLD .     NPR NO.3                      :   Field
 LOC .     SEC.14/TWP.38N/RGE.78W        :   Location
 CNTY.     NATRONA                       :   County
 STAT.     WYOMING                       :   State
 SRVC.     ATLAS WIRELINE SERVICES       :   Service Company
 LIC .                                   :   License Number
 DATE.     27-AUGUST-1994                :   Log Date
 API .     4902522638                    :   API Number
~Curve Information Block
#MNEM.UNIT       API Codes    Curve Description
#---------    -------------   -------------------------------
 DEPT.F        0   0  0  0:   Depth
 GR  .API      0   0  0  0:   Gamma ray counts
 RILM.OHMM     0   0  0  0:   Resistivity from CILM
 RILD.OHMM     0   0  0  0:   Resistivity from CILD
#  Curve Data
~A
# ...
  1047.0000     83.4018     12.1641     12.1181
  1046.5000     87.4286     12.0712     12.2527
  1046.0000     83.4850     11.9497     12.2954
  1045.5000     74.0374     11.8123     12.1684
  1045.0000     68.1124     11.7325     11.9023
  1044.5000     71.8927     11.7509     11.5486
  1044.0000     85.7585     11.7297     11.1283
  1043.5000    102.4576     11.4503     10.6587
  1043.0000    113.6801     10.8643     10.1640
  1042.5000    117.2916     10.1185      9.6440
  1042.0000    119.0084      9.3658      9.1434
  1041.5000    121.7034      8.7511      8.7270
  1041.0000    124.9421      8.3370      8.4311
  1040.5000    128.3864      8.1187      8.2523
  1040.0000    130.2618      8.0494      8.1547
  1039.5000    129.3123      8.0668      8.1060
  1039.0000    127.9510      8.1035      8.0868
  1038.5000    127.9767      8.1182      8.0925
  1038.0000    128.1921      8.1244      8.1179
  1037.5000    127.3374      8.1709      8.1577
  1037.0000    125.4900      8.2770      8.2282
  1036.5000    124.0092      8.3866      8.3200
  1036.0000    124.0277      8.3874      8.2840
  1035.5000    124.1954      8.1915      7.9180
  1035.0000    123.5780      7.7672      7.1944
  1034.5000    122.8319      7.1231      6.2769
  1034.0000    122.6148      6.3788      5.4181
  1033.5000    126.0023      5.7269      4.8431
  1033.0000    136.6039      5.2383      4.5737
  1032.5000    148.3769      4.7978      4.4987
  1032.0000    151.6810      4.3279      4.4848
  1031.5000    146.8066      3.9755      4.4633
  1031.0000    140.4833      3.9468      4.4818
  1030.5000    135.3211      4.3607      4.6742
  1030.0000    130.6380      5.2163      5.1460
  1029.5000    127.6598      6.2845      5.8633
  1029.0000    125.7466      7.1928      6.6211
  1028.5000    123.7740      7.6583      7.1619
  1028.0000    123.8913      7.7182      7.3503
  1027.5000    128.6290      7.5793      7.2630
  1027.0000    133.8294      7.3826      7.0987
  1026.5000    135.7821      7.1750      6.9710
  1026.0000    136.3521      6.9820      6.8788
  1025.5000    135.7674      6.8276      6.8100
  1025.0000    133.8253      6.7287      6.7712
  1024.5000    133.5905      6.6986      6.7605
  1024.0000    137.3143      6.7354      6.7627
  1023.5000    141.9181      6.8066      6.7596
  1023.0000    143.7354      6.8674      6.7423
  1022.5000    141.9485      6.8927      6.7238
  1022.0000    138.1372      6.8884      6.7179
  1021.5000    134.9271      6.8706      6.7270
  1021.0000    133.8146      6.8528      6.7455
  1020.5000    134.0009      6.8436      6.7543
  1020.0000    131.8590      6.8413      6.7330
  1019.5000    129.7303      6.8276      6.6825
  1019.0000    131.7244      6.7762      6.6028
  1018.5000    134.7059      6.6818      6.4812
  1018.0000    134.9005      6.5640      6.3128
  1017.5000    134.0991      6.4241      6.1001
  1017.0000    134.6393      6.2364      5.8551
  1016.5000    137.2259      5.9992      5.5955
  1016.0000    141.1554      5.7327      5.3208
  1015.5000    145.4514      5.4325      5.0107
  1015.0000    147.8136      5.0789      4.6588
  1014.5000    145.2420      4.6998      4.3143
  1014.0000    140.7114      4.4020      4.0658
  1013.5000    141.5019      4.2360      3.9627
  1013.0000    147.2392      4.1380      3.9821
  1012.5000    149.2272      4.0204      4.0438
  1012.0000    144.4229      3.9148      4.0971
  1011.5000    137.8722      3.9502      4.1596
  1011.0000    135.2904      4.2098      4.2942
  1010.5000    135.4169      4.6576      4.5498
  1010.0000    135.7879      5.1472      4.8998
  1009.5000    137.4062      5.5238      5.2493
  1009.0000    140.4223      5.7258      5.4997
  1008.5000    143.0302      5.7517      5.5781
  1008.0000    143.4963      5.6541      5.4563
  1007.5000    143.2955      5.4787      5.1724
  1007.0000    142.9968      5.2274      4.7994
  1006.5000    141.1489      4.9199      4.4369
  1006.0000    140.7927      4.6254      4.1844
  1005.5000    144.8198      4.3933      4.0700
  1005.0000    148.9854      4.1763      4.0446
  1004.5000    149.8409      3.9397      4.0402
  1004.0000    149.1119      3.7702      4.0226
  1003.5000    147.3135      3.8017      4.0227
  1003.0000    143.8359      4.0860      4.1138
  1002.5000    142.8897      4.5401      4.3308
  1002.0000    145.4050      4.9805      4.6309
  1001.5000    149.5516      5.2615      4.9369
  1001.0000    154.7601      5.3888      5.1837
  1000.5000    157.9951      5.4192      5.3338
  1000.0000    154.0962      5.4250      5.4079
   999.5000    146.5641      5.4780      5.4629
   999.0000    144.3783      5.6185      5.5471
   998.5000    147.8381      5.8192      5.6841
   998.0000    149.4755      6.0018      5.8523
   997.5000    144.7640      6.1152      5.9982
   997.0000    137.8655      6.1680      6.0949
   996.5000    136.9714      6.1922      6.1388
   996.0000    142.7323      6.2127      6.1305
   995.5000    147.7368      6.2341      6.0971
   995.0000    147.8546      6.2443      6.0709
   994.5000    146.1902      6.2359      6.0551
   994.0000    145.4039      6.2118      6.0467
   993.5000    145.7169      6.1829      6.0430
   993.0000    145.5899      6.1706      6.0384
   992.5000    143.3816      6.1862      6.0384
   992.0000    140.8351      6.2102      6.0555
   991.5000    140.7531      6.2232      6.0810
   991.0000    141.3666      6.2350      6.1050
   990.5000    142.7522      6.2545      6.1342
   990.0000    144.4394      6.2746      6.1695
   989.5000    144.3330      6.2947      6.1964
   989.0000    141.8734      6.3189      6.2062
   988.5000    141.0633      6.3306      6.1948
   988.0000    143.6344      6.3087      6.1549
   987.5000    146.5740      6.2543      6.0914
   987.0000    145.8902      6.1941      6.0283
   986.5000    142.1081      6.1505      5.9851
   986.0000    141.4383      6.1129      5.9531
   985.5000    144.2142      6.0469      5.8887
   985.0000    144.7998      5.9321      5.7425
   984.5000    141.0150      5.7753      5.4940
   984.0000    137.1245      5.5687      5.1532
   983.5000    135.2791      5.2909      4.7667
   983.0000    135.5211      4.9660      4.4245
   982.5000    139.3340      4.6522      4.1921
   982.0000    145.7867      4.3769      4.0633
   981.5000    150.7137      4.1060      3.9918
   981.0000    150.4479      3.8600      3.9411
   980.5000    145.4409      3.7382      3.9156
   980.0000    141.9344      3.8211      3.9574
   979.5000    143.3687      4.0991      4.1061
   979.0000    144.6046      4.4768      4.3560
   978.5000    144.1703      4.8393      4.6547
   978.0000    145.1701      5.1210      4.9403
   977.5000    145.0484      5.3141      5.1754
   977.0000    142.8035      5.4477      5.3514
   976.5000    141.7361      5.5557      5.4895
   976.0000    143.7724      5.6583      5.6177
   975.5000    146.4717      5.7611      5.7534
   975.0000    145.2614      5.8674      5.8979
   974.5000    141.3363      5.9816      6.0348
   974.0000    140.0627      6.0996      6.1483
   973.5000    140.3781      6.2013      6.2418
   973.0000    138.2801      6.2662      6.3016
   972.5000    136.1194      6.2942      6.2923
   972.0000    135.8110      6.2916      6.2015
   971.5000    135.2230      6.2476      6.0522
   971.0000    131.3565      6.1367      5.8624
   970.5000    127.3994      5.9548      5.6332
   970.0000    129.7154      5.7287      5.3681
   969.5000    136.0301      5.4812      5.0824
   969.0000    140.1039      5.2015      4.7875
   968.5000    142.0777      4.8865      4.4991
   968.0000    141.5694      4.5838      4.2491
   967.5000    135.8605      4.3464      4.0573
   967.0000    129.6048      4.1570      3.9090
   966.5000    128.5616      3.9812      3.8063
   966.0000    132.6313      3.8443      3.7664
   965.5000    139.4561      3.8006      3.7950
   965.0000    145.0012      3.8446      3.8849
   964.5000    143.8451      3.9203      4.0116
   964.0000    138.9024      4.0174      4.1310
