~Version Information
 VERS.                2.00:   CWLS log ASCII Standard -VERSION 2.00
 WRAP.                  NO:   One line per frame
~Well Information Block
#MNEM.UNIT              Data                Description
#--------- -------------------------------  -------------------------------
 STRT.F                         1214.0000:   Starting Depth
 STOP.F                           -9.7500:   Ending Depth
 STEP.F                           -0.5000:   Level Spacing
 NULL.                          -999.2500:   Absent Value
 COMP.     FLUOR DANIEL (NPSOR), INC.    :   Company
 WELL.     66 X 14                       :   Well
 FLD .     NPR NO.3                      :   Field
 LOC .     SEC.14/TWP.38N/RGE.78W        :   Location
 CNTY.     NATRONA                       :   County
 STAT.     WYOMING                       :   State
 SRVC.     ATLAS WIRELINE SERVICES       :   Service Company
 LIC .                                   :   License Number
 DATE.     27-AUGUST-1994                :   Log Date
 API .     4902522638                    :   API Number
~Curve Information Block
#MNEM.UNIT       API Codes    Curve Description
#---------    -------------   -------------------------------
 DEPT.F        0   0  0  0:   Depth
 GR  .API      0   0  0  0:   Gamma ray counts
 RILM.OHMM     0   0  0  0:   Resistivity from CILM
 RILD.OHMM     0   0  0  0:   Resistivity from CILD
#  Curve Data
~A
# ...
   796.5000    125.9197      7.2868      7.1245
   796.0000    128.0859      7.2287      7.1016
   795.5000    130.7672      7.1745      7.0574
   795.0000    131.9803      7.1427      7.0034
   794.5000    130.8548      7.1397      6.9689
   794.0000    130.3985      7.1644      6.9683
   793.5000    131.7584      7.1973      6.9948
   793.0000    131.7461      7.2050      7.0254
   792.5000    129.1190      7.1799      7.0416
   792.0000    125.6370      7.1544      7.0403
   791.5000    121.8014      7.1608      7.0233
   791.0000    120.5968      7.2076      7.0033
   790.5000    124.0419      7.2764      7.0083
   790.0000    127.3830      7.3369      7.0483
   789.5000    127.9941      7.3654      7.0968
   789.0000    127.9082      7.3569      7.1096
   788.5000    125.6331      7.3236      7.0599
   788.0000    122.0939      7.2963      6.9606
   787.5000    122.3731      7.2922      6.8440
   787.0000    126.1517      7.2712      6.7314
   786.5000    129.5674      7.1607      6.6262
   786.0000    134.1884      6.9538      6.5239
   785.5000    139.0158      6.7305      6.4268
   785.0000    141.3983      6.5701      6.3532
   784.5000    142.7063      6.4976      6.3308
   784.0000    141.9232      6.5085      6.3704
   783.5000    140.1963      6.5951      6.4652
   783.0000    139.5693      6.7407      6.5971
   782.5000    139.1742      6.9260      6.7498
   782.0000    138.0650      7.1394      6.9197
   781.5000    137.7521      7.3628      7.1004
   781.0000    138.6942      7.5614      7.2678
   780.5000    140.8116      7.7049      7.4066
   780.0000    141.3548      7.7886      7.5172
   779.5000    137.7667      7.8319      7.5917
   779.0000    134.1569      7.8627      7.6356
   778.5000    133.6086      7.8991      7.6709
   778.0000    132.0174      7.9437      7.7028
   777.5000    128.7859      7.9896      7.7191
   777.0000    129.7093      8.0278      7.7301
   776.5000    134.9873      8.0500      7.7493
   776.0000    136.1179      8.0507      7.7680
   775.5000    129.9974      8.0333      7.7777
   775.0000    126.3469      8.0170      7.7774
   774.5000    130.0573      8.0256      7.7722
   774.0000    133.7193      8.0699      7.7841
   773.5000    131.7672      8.1363      7.8320
   773.0000    129.7617      8.1987      7.8999
   772.5000    131.2979      8.2367      7.9633
   772.0000    133.6176      8.2492      8.0068
   771.5000    134.4069      8.2560      8.0293
   771.0000    134.5434      8.2798      8.0442
   770.5000    134.1089      8.3208      8.0708
   770.0000    132.8275      8.3597      8.1067
   769.5000    130.8135      8.3821      8.1399
   769.0000    129.5244      8.3930      8.1640
   768.5000    129.1194      8.4068      8.1774
   768.0000    129.3423      8.4276      8.1849
   767.5000    130.6029      8.4392      8.2095
   767.0000    131.8255      8.4378      8.2508
   766.5000    130.2385      8.4503      8.2904
   766.0000    126.6584      8.4977      8.3347
   765.5000    124.6411      8.5794      8.4138
   765.0000    124.4052      8.6938      8.5465
   764.5000    123.2492      8.8382      8.7173
   764.0000    120.9942      8.9799      8.8532
   763.5000    116.7820      9.0717      8.8857
   763.0000    112.9590      9.1152      8.8368
   762.5000    113.9194      9.1665      8.7652
   762.0000    120.7204      9.2260      8.6940
   761.5000    126.1795      9.1778      8.6094
   761.0000    126.3562      8.9459      8.4809
   760.5000    124.3029      8.6306      8.2957
   760.0000    124.1951      8.3682      8.0896
   759.5000    126.3224      8.1988      7.9096
   759.0000    128.0440      8.0904      7.7620
   758.5000    128.7552      7.9967      7.6299
   758.0000    129.8057      7.8964      7.5060
   757.5000    132.9216      7.7939      7.3927
   757.0000    135.7549      7.6835      7.2904
   756.5000    137.1157      7.5486      7.2032
   756.0000    138.1760      7.4068      7.1307
   755.5000    138.9718      7.3018      7.0744
   755.0000    136.7046      7.2525      7.0437
   754.5000    132.8056      7.2415      7.0397
   754.0000    130.7224      7.2447      7.0356
   753.5000    131.6173      7.2515      7.0131
   753.0000    133.1249      7.2587      6.9796
   752.5000    134.1005      7.2550      6.9437
   752.0000    134.5514      7.2179      6.9011
   751.5000    134.6926      7.1406      6.8491
   751.0000    134.3414      7.0397      6.7873
   750.5000    133.9805      6.9324      6.7173
   750.0000    133.1265      6.8249      6.6434
   749.5000    130.5229      6.7306      6.5680
   749.0000    128.6720      6.6725      6.4942
   748.5000    129.9147      6.6513      6.4324
   748.0000    132.9853      6.6327      6.3916
   747.5000    134.6642      6.5883      6.3630
   747.0000    134.0434      6.5299      6.3307
   746.5000    133.2810      6.4847      6.2881
   746.0000    134.8406      6.4572      6.2442
   745.5000    134.5913      6.4362      6.2100
   745.0000    130.3282      6.4177      6.1875
   744.5000    126.3144      6.4071      6.1709
   744.0000    125.9566      6.3986      6.1543
   743.5000    127.1803      6.3781      6.1290
   743.0000    127.7060      6.3422      6.0889
   742.5000    126.7865      6.2995      6.0427
   742.0000    125.0556      6.2572      6.0084
   741.5000    124.2348      6.2208      5.9899
   741.0000    125.8878      6.1916      5.9745
   740.5000    129.4760      6.1673      5.9545
   740.0000    129.1102      6.1539      5.9363
   739.5000    123.2270      6.1612      5.9291
   739.0000    121.1590      6.1845      5.9382
   738.5000    128.4232      6.2049      5.9677
   738.0000    135.5726      6.2151      6.0113
   737.5000    133.5121      6.2278      6.0558
   737.0000    128.0429      6.2573      6.1028
   736.5000    127.5092      6.3106      6.1639
   736.0000    131.5877      6.3861      6.2402
   735.5000    134.1680      6.4734      6.3167
   735.0000    132.1921      6.5614      6.3832
   734.5000    128.3321      6.6434      6.4450
   734.0000    126.5121      6.7044      6.5052
   733.5000    125.1994      6.7308      6.5480
   733.0000    122.7960      6.7281      6.5573
   732.5000    123.1225      6.7108      6.5361
   732.0000    127.4259      6.6920      6.5012
   731.5000    129.4069      6.6729      6.4732
   731.0000    126.4063      6.6469      6.4547
   730.5000    123.4160      6.6122      6.4343
   730.0000    123.3822      6.5709      6.4051
   729.5000    124.5094      6.5275      6.3620
   729.0000    125.8062      6.4923      6.3023
   728.5000    127.9593      6.4634      6.2256
   728.0000    129.8056      6.4203      6.1317
   727.5000    130.2554      6.3468      6.0328
   727.0000    128.1136      6.2461      5.9403
   726.5000    125.8862      6.1346      5.8543
   726.0000    127.1654      6.0287      5.7784
   725.5000    129.6685      5.9348      5.7176
   725.0000    128.3462      5.8591      5.6725
   724.5000    124.9739      5.8226      5.6553
   724.0000    122.9440      5.8516      5.6833
   723.5000    121.9503      5.9494      5.7607
   723.0000    121.9337      6.0840      5.8862
   722.5000    122.8517      6.2170      6.0442
   722.0000    125.2750      6.3444      6.2054
   721.5000    126.2461      6.4827      6.3527
   721.0000    123.3027      6.6340      6.4852
   720.5000    119.8885      6.7848      6.5991
   720.0000    120.4312      6.9177      6.6845
   719.5000    122.5004      7.0071      6.7313
   719.0000    123.8631      7.0222      6.7205
   718.5000    124.9678      6.9505      6.6384
   718.0000    125.8023      6.8135      6.5003
   717.5000    124.0108      6.6457      6.3412
   717.0000    122.9527      6.4651      6.1839
   716.5000    128.3191      6.2816      6.0338
   716.0000    135.1897      6.1130      5.9001
   715.5000    134.3519      5.9794      5.7958
   715.0000    128.3833      5.8965      5.7266
   714.5000    125.0307      5.8690      5.6943
   714.0000    124.8608      5.8898      5.7047
   713.5000    125.3390      5.9419      5.7512
