~Version Information
 VERS.                2.00:   CWLS log ASCII Standard -VERSION 2.00
 WRAP.                  NO:   One line per frame
~Well Information Block
#MNEM.UNIT              Data                Description
#--------- -------------------------------  -------------------------------
 STRT.F                         1214.0000:   Starting Depth
 STOP.F                           -9.7500:   Ending Depth
 STEP.F                           -0.5000:   Level Spacing
 NULL.                          -999.2500:   Absent Value
 COMP.     FLUOR DANIEL (NPSOR), INC.    :   Company
 WELL.     66 X 14                       :   Well
 FLD .     NPR NO.3                      :   Field
 LOC .     SEC.14/TWP.38N/RGE.78W        :   Location
 CNTY.     NATRONA                       :   County
 STAT.     WYOMING                       :   State
 SRVC.     ATLAS WIRELINE SERVICES       :   Service Company
 LIC .                                   :   License Number
 DATE.     27-AUGUST-1994                :   Log Date
 API .     4902522638                    :   API Number
~Curve Information Block
#MNEM.UNIT       API Codes    Curve Description
#---------    -------------   -------------------------------
 DEPT.F        0   0  0  0:   Depth
 GR  .API      0   0  0  0:   Gamma ray counts
 RILM.OHMM     0   0  0  0:   Resistivity from CILM
 RILD.OHMM     0   0  0  0:   Resistivity from CILD
#  Curve Data
~A
# ...
   379.0000    115.9136      7.3293      7.1884
   378.5000    115.0483      7.4727      7.3537
   378.0000    115.5522      7.5899      7.4901
   377.5000    119.7885      7.6863      7.5866
   377.0000    121.9950      7.7901      7.6551
   376.5000    120.7086      7.9214      7.7232
   376.0000    119.0103      8.0523      7.8031
   375.5000    115.4202      8.1321      7.8829
   375.0000    110.9333      8.1463      7.9463
   374.5000    111.0858      8.1189      7.9884
   374.0000    114.8912      8.0906      8.0177
   373.5000    117.2733      8.0927      8.0370
   373.0000    115.6758      8.1388      8.0432
   372.5000    111.3901      8.2100      8.0459
   372.0000    108.3751      8.2673      8.0510
   371.5000    110.0044      8.2886      8.0438
   371.0000    114.1434      8.2789      8.0200
   370.5000    115.4815      8.2397      7.9874
   370.0000    113.8801      8.1637      7.9423
   369.5000    113.0894      8.0650      7.8793
   369.0000    115.3173      7.9806      7.8168
   368.5000    118.2539      7.9374      7.7765
   368.0000    120.4813      7.9250      7.7625
   367.5000    119.8620      7.9207      7.7514
   367.0000    116.3004      7.9164      7.7196
   366.5000    112.3898      7.9078      7.6663
   366.0000    112.3028      7.8779      7.5983
   365.5000    115.2838      7.8023      7.5103
   365.0000    117.5794      7.6846      7.4067
   364.5000    117.7932      7.5561      7.3040
   364.0000    117.9644      7.4381      7.2090
   363.5000    119.2065      7.3257      7.1193
   363.0000    120.4744      7.2238      7.0332
   362.5000    119.5007      7.1495      6.9538
   362.0000    115.8427      7.1003      6.8884
   361.5000    111.1901      7.0483      6.8259
   361.0000    108.6493      6.9758      6.7491
   360.5000    109.3518      6.9023      6.6651
   360.0000    112.6642      6.8494      6.5956
   359.5000    116.3650      6.8078      6.5453
   359.0000    117.9367      6.7500      6.5054
   358.5000    117.4699      6.6783      6.4656
   358.0000    117.1829      6.6251      6.4276
   357.5000    116.9971      6.6103      6.4049
   357.0000    117.1452      6.6171      6.4084
   356.5000    118.4078      6.6212      6.4317
   356.0000    118.0279      6.6214      6.4609
   355.5000    113.8179      6.6387      6.4858
   355.0000    108.9937      6.6862      6.5139
   354.5000    107.9729      6.7443      6.5538
   354.0000    111.0623      6.7878      6.5994
   353.5000    115.5694      6.8198      6.6414
   353.0000    117.8557      6.8612      6.6827
   352.5000    116.4046      6.9109      6.7230
   352.0000    115.6543      6.9516      6.7544
   351.5000    116.9735      6.9782      6.7694
   351.0000    116.9930      6.9957      6.7654
   350.5000    115.1019      7.0072      6.7506
   350.0000    115.3652      7.0069      6.7342
   349.5000    118.5045      6.9838      6.7137
   349.0000    121.0145      6.9392      6.6873
   348.5000    119.8344      6.9022      6.6703
   348.0000    115.0834      6.8996      6.6757
   347.5000    110.4277      6.9251      6.7015
   347.0000    108.8558      6.9499      6.7361
   346.5000    109.4894      6.9637      6.7718
   346.0000    110.3354      6.9911      6.8082
   345.5000    111.7854      7.0514      6.8601
   345.0000    112.3145      7.1386      6.9516
   344.5000    109.3832      7.2438      7.0953
   344.0000    106.0942      7.3693      7.2906
   343.5000    105.3137      7.5291      7.5311
   343.0000    104.8611      7.7320      7.7851
   342.5000    101.8949      7.9530      7.9906
   342.0000     97.0406      8.1611      8.1045
   341.5000     94.5851      8.3726      8.1418
   341.0000     97.6784      8.5931      8.1332
   340.5000    102.6659      8.7001      8.0771
   340.0000    104.7983      8.5165      7.9355
   339.5000    105.0549      8.0735      7.6722
   339.0000    105.2776      7.5919      7.3225
   338.5000    107.6594      7.2167      6.9828
   338.0000    112.6116      6.9567      6.7244
   337.5000    117.3154      6.7808      6.5575
   337.0000    119.2190      6.6637      6.4608
   336.5000    117.2790      6.5776      6.3932
   336.0000    110.8112      6.5045      6.3145
   335.5000    103.8573      6.4450      6.2064
   335.0000    102.4126      6.4019      6.0716
   334.5000    105.6383      6.3626      5.9399
   334.0000    110.2252      6.3138      5.8580
   333.5000    114.5321      6.2430      5.8424
   333.0000    117.5806      6.1282      5.8677
   332.5000    117.6820      5.9804      5.8981
   332.0000    115.5199      5.8851      5.9204
   331.5000    113.2255      5.9480      5.9721
   331.0000    111.3558      6.1973      6.1202
   330.5000    110.2490      6.5621      6.3875
   330.0000    110.9193      6.9210      6.7166
   329.5000    111.7438      7.1787      7.0106
   329.0000    110.0503      7.3167      7.1701
   328.5000    108.1141      7.3911      7.1688
   328.0000    109.5989      7.4644      7.0884
   327.5000    114.2963      7.5201      7.0184
   327.0000    118.5863      7.4654      6.9657
   326.5000    118.5654      7.2450      6.8882
   326.0000    116.3788      6.9416      6.7621
   325.5000    115.5368      6.6853      6.6075
   325.0000    114.8761      6.5370      6.4678
   324.5000    112.4408      6.4881      6.3661
   324.0000    111.8132      6.4985      6.2983
   323.5000    115.0514      6.5188      6.2451
   323.0000    116.2655      6.5102      6.1901
   322.5000    114.1069      6.4560      6.1298
   322.0000    114.4872      6.3603      6.0648
   321.5000    118.3383      6.2426      5.9884
   321.0000    119.3862      6.1261      5.9001
   320.5000    116.3140      6.0291      5.8132
   320.0000    112.4635      5.9665      5.7434
   319.5000    108.7691      5.9369      5.7036
   319.0000    108.8769      5.9154      5.6953
   318.5000    114.7576      5.8826      5.7068
   318.0000    120.1899      5.8522      5.7248
   317.5000    119.3446      5.8501      5.7469
   317.0000    118.2859      5.8832      5.7737
   316.5000    120.7090      5.9361      5.8015
   316.0000    122.3515      5.9882      5.8192
   315.5000    123.0034      6.0266      5.8111
   315.0000    123.5903      6.0419      5.7671
   314.5000    121.8432      6.0175      5.6904
   314.0000    118.3665      5.9419      5.5933
   313.5000    116.5721      5.8260      5.4908
   313.0000    115.7934      5.6856      5.3874
   312.5000    114.1602      5.5211      5.2652
   312.0000    111.9846      5.3367      5.1171
   311.5000    107.4445      5.1807      4.9828
   311.0000    102.6416      5.1204      4.9104
   310.5000    104.3525      5.1604      4.9113
   310.0000    111.4887      5.2128      4.9654
   309.5000    116.3314      5.2008      5.0387
   309.0000    118.9680      5.1773      5.1064
   308.5000    121.4354      5.2380      5.1842
   308.0000    121.0979      5.3964      5.3095
   307.5000    119.4641      5.5953      5.4810
   307.0000    119.2408      5.7840      5.6617
   306.5000    118.7071      5.9462      5.8277
   306.0000    116.0599      6.0815      5.9621
   305.5000    113.8434      6.1852      6.0411
   305.0000    115.3844      6.2462      6.0665
   304.5000    118.0215      6.2601      6.0602
   304.0000    117.8262      6.2269      6.0221
   303.5000    116.5430      6.1510      5.9493
   303.0000    116.8555      6.0494      5.8568
   302.5000    117.0196      5.9459      5.7612
   302.0000    115.5553      5.8530      5.6633
   301.5000    114.1198      5.7627      5.5486
   301.0000    114.5757      5.6589      5.4077
   300.5000    117.4409      5.5357      5.2497
   300.0000    119.8949      5.4013      5.0917
   299.5000    118.6001      5.2623      4.9509
   299.0000    115.5929      5.1198      4.8404
   298.5000    113.2738      4.9835      4.7683
   298.0000    110.6949      4.8762      4.7394
   297.5000    109.0523      4.8245      4.7586
   297.0000    110.8751      4.8396      4.8265
   296.5000    114.8348      4.9285      4.9374
   296.0000    117.8030      5.0939      5.0884
