~Version Information
 VERS.                2.00:   CWLS log ASCII Standard -VERSION 2.00
 WRAP.                  NO:   One line per frame
~Well Information Block
#MNEM.UNIT              Data                Description
#--------- -------------------------------  -------------------------------
 STRT.F                         1214.0000:   Starting Depth
 STOP.F                           -9.7500:   Ending Depth
 STEP.F                           -0.5000:   Level Spacing
 NULL.                          -999.2500:   Absent Value
 COMP.     FLUOR DANIEL (NPSOR), INC.    :   Company
 WELL.     66 X 14                       :   Well
 FLD .     NPR NO.3                      :   Field
 LOC .     SEC.14/TWP.38N/RGE.78W        :   Location
 CNTY.     NATRONA                       :   County
 STAT.     WYOMING                       :   State
 SRVC.     ATLAS WIRELINE SERVICES       :   Service Company
 LIC .                                   :   License Number
 DATE.     27-AUGUST-1994                :   Log Date
 API .     4902522638                    :   API Number
~Curve Information Block
#MNEM.UNIT       API Codes    Curve Description
#---------    -------------   -------------------------------
 DEPT.F        0   0  0  0:   Depth
 GR  .API      0   0  0  0:   Gamma ray counts
 RILM.OHMM     0   0  0  0:   Resistivity from CILM
 RILD.OHMM     0   0  0  0:   Resistivity from CILD
#  Curve Data
~A
# ...
   462.5000    125.8805      6.5798      6.4203
   462.0000    120.5261      6.7054      6.4624
   461.5000    119.6602      6.8226      6.4954
   461.0000    121.7699      6.8945      6.5528
   460.5000    123.1903      6.8692      6.6194
   460.0000    124.3409      6.7556      6.6521
   459.5000    125.0440      6.6290      6.6386
   459.0000    125.0531      6.5799      6.6161
   458.5000    125.2220      6.6585      6.6473
   458.0000    125.6129      6.8506      6.7745
   457.5000    124.5295      7.0954      6.9840
   457.0000    121.5004      7.3277      7.2169
   456.5000    119.7654      7.5081      7.4098
   456.0000    119.5504      7.6501      7.5343
   455.5000    117.8648      7.7949      7.5997
   455.0000    114.1508      7.9325      7.6247
   454.5000    112.2081      8.0002      7.6185
   454.0000    113.4283      7.9678      7.5747
   453.5000    117.1109      7.8609      7.4851
   453.0000    120.6829      7.7066      7.3558
   452.5000    123.1806      7.5183      7.2050
   452.0000    125.3596      7.3238      7.0467
   451.5000    126.3923      7.1552      6.8816
   451.0000    125.3658      7.0172      6.7156
   450.5000    123.4425      6.8874      6.5574
   450.0000    123.4050      6.7540      6.4089
   449.5000    124.4334      6.6293      6.2736
   449.0000    122.5536      6.5229      6.1679
   448.5000    119.1065      6.4127      6.0937
   448.0000    118.2780      6.2759      6.0232
   447.5000    117.9646      6.1339      5.9449
   447.0000    115.5207      6.0418      5.8837
   446.5000    116.2493      6.0385      5.8729
   446.0000    120.0562      6.1101      5.9351
   445.5000    120.4694      6.2015      6.0640
   445.0000    117.6624      6.2760      6.2144
   444.5000    116.8537      6.3510      6.3449
   444.0000    117.6561      6.4622      6.4455
   443.5000    117.8907      6.6147      6.5127
   443.0000    118.3691      6.7637      6.5382
   442.5000    118.0625      6.8430      6.5143
   442.0000    117.0788      6.8114      6.4297
   441.5000    116.7827      6.6722      6.2872
   441.0000    115.8645      6.4574      6.1069
   440.5000    113.3421      6.2089      5.9148
   440.0000    110.5984      5.9650      5.7284
   439.5000    109.7991      5.7568      5.5643
   439.0000    112.8168      5.6028      5.4379
   438.5000    117.0041      5.5064      5.3517
   438.0000    116.7750      5.4640      5.2976
   437.5000    112.6301      5.4610      5.2675
   437.0000    111.1572      5.4699      5.2532
   436.5000    113.3266      5.4709      5.2461
   436.0000    115.7301      5.4601      5.2375
   435.5000    115.1926      5.4384      5.2160
   435.0000    112.9048      5.4101      5.1777
   434.5000    111.2847      5.3838      5.1403
   434.0000    111.0180      5.3612      5.1234
   433.5000    114.1706      5.3412      5.1327
   433.0000    119.8854      5.3246      5.1614
   432.5000    123.3568      5.3119      5.1922
   432.0000    121.4655      5.3116      5.2147
   431.5000    117.0120      5.3404      5.2395
   431.0000    114.5390      5.4102      5.2846
   430.5000    116.6190      5.5134      5.3551
   430.0000    119.3300      5.6189      5.4441
   429.5000    116.7887      5.6927      5.5300
   429.0000    111.1137      5.7288      5.5900
   428.5000    106.9515      5.7484      5.6175
   428.0000    105.8189      5.7753      5.6256
   427.5000    106.8904      5.8139      5.6310
   427.0000    108.1559      5.8468      5.6414
   426.5000    108.0188      5.8544      5.6521
   426.0000    106.6812      5.8397      5.6543
   425.5000    106.5443      5.8204      5.6491
   425.0000    109.2094      5.8013      5.6428
   424.5000    112.2773      5.7784      5.6328
   424.0000    112.7110      5.7579      5.6066
   423.5000    111.9239      5.7436      5.5574
   423.0000    111.1445      5.7230      5.4898
   422.5000    109.1877      5.6805      5.4097
   422.0000    106.3902      5.6116      5.3245
   421.5000    105.7531      5.5216      5.2471
   421.0000    107.4369      5.4283      5.1880
   420.5000    108.3253      5.3433      5.1498
   420.0000    106.9267      5.2707      5.1283
   419.5000    106.6142      5.2265      5.1230
   419.0000    108.4513      5.2362      5.1399
   418.5000    109.9514      5.3011      5.1809
   418.0000    110.5023      5.3899      5.2324
   417.5000    109.5277      5.4708      5.2820
   417.0000    104.7555      5.5409      5.3253
   416.5000     98.9917      5.6052      5.3609
   416.0000     97.7705      5.6393      5.3890
   415.5000    100.4180      5.6158      5.4033
   415.0000    104.6374      5.5572      5.3908
   414.5000    109.0109      5.5091      5.3524
   414.0000    110.7901      5.4829      5.3036
   413.5000    109.5869      5.4666      5.2549
   413.0000    108.3117      5.4534      5.2143
   412.5000    107.8526      5.4328      5.1864
   412.0000    107.6628      5.3919      5.1644
   411.5000    108.4214      5.3406      5.1372
   411.0000    110.8831      5.2991      5.1090
   410.5000    112.9626      5.2716      5.0961
   410.0000    112.6430      5.2621      5.1029
   409.5000    111.9369      5.2867      5.1201
   409.0000    112.9829      5.3415      5.1513
   408.5000    114.2813      5.3984      5.2058
   408.0000    114.5247      5.4515      5.2789
   407.5000    113.6884      5.5137      5.3599
   407.0000    113.0999      5.5875      5.4493
   406.5000    113.1001      5.6736      5.5551
   406.0000    113.6649      5.7825      5.6867
   405.5000    115.3802      5.9182      5.8409
   405.0000    116.4642      6.0635      5.9899
   404.5000    113.8658      6.1947      6.0972
   404.0000    108.3950      6.3099      6.1559
   403.5000    105.5850      6.4363      6.1893
   403.0000    107.6927      6.5609      6.2089
   402.5000    112.2032      6.5942      6.2026
   402.0000    114.1163      6.4755      6.1438
   401.5000    111.7878      6.2732      6.0242
   401.0000    109.5356      6.0951      5.8826
   400.5000    110.5686      5.9826      5.7768
   400.0000    114.1232      5.9164      5.7270
   399.5000    116.5637      5.8687      5.7150
   399.0000    117.2564      5.8343      5.7150
   398.5000    117.1074      5.8257      5.7168
   398.0000    116.6224      5.8535      5.7247
   397.5000    114.4389      5.9151      5.7491
   397.0000    112.1680      5.9912      5.7909
   396.5000    111.4547      6.0545      5.8314
   396.0000    112.0997      6.0816      5.8455
   395.5000    113.3614      6.0658      5.8294
   395.0000    113.9322      6.0244      5.7955
   394.5000    113.2991      5.9779      5.7460
   394.0000    111.8628      5.9258      5.6750
   393.5000    111.8027      5.8572      5.5828
   393.0000    113.4577      5.7751      5.4872
   392.5000    114.6036      5.6991      5.4153
   392.0000    113.3475      5.6397      5.3802
   391.5000    111.6295      5.5788      5.3727
   391.0000    111.9844      5.4985      5.3708
   390.5000    113.8805      5.4297      5.3594
   390.0000    114.7671      5.4324      5.3540
   389.5000    112.0602      5.5266      5.3927
   389.0000    107.6537      5.6713      5.4944
   388.5000    106.3312      5.8128      5.6413
   388.0000    109.5187      5.9278      5.8015
   387.5000    113.9973      6.0226      5.9524
   387.0000    116.6438      6.1203      6.0835
   386.5000    117.6105      6.2483      6.1975
   386.0000    117.5050      6.4067      6.3071
   385.5000    115.8137      6.5632      6.4199
   385.0000    113.0087      6.6877      6.5213
   384.5000    110.9503      6.7698      6.5853
   384.0000    110.4336      6.8088      6.6107
   383.5000    109.7952      6.8101      6.6249
   383.0000    108.1164      6.7873      6.6425
   382.5000    107.5316      6.7630      6.6542
   382.0000    109.3550      6.7546      6.6604
   381.5000    111.1614      6.7664      6.6761
   381.0000    111.8237      6.8044      6.7092
   380.5000    112.3661      6.8845      6.7681
   380.0000    113.0553      7.0121      6.8700
   379.5000    114.4203      7.1695      7.0172
