~Version Information
 VERS.                2.00:   CWLS log ASCII Standard -VERSION 2.00
 WRAP.                  NO:   One line per frame
~Well Information Block
#MNEM.UNIT              Data                Description
#--------- -------------------------------  -------------------------------
 STRT.F                         1214.0000:   Starting Depth
 STOP.F                           -9.7500:   Ending Depth
 STEP.F                           -0.5000:   Level Spacing
 NULL.                          -999.2500:   Absent Value
 COMP.     FLUOR DANIEL (NPSOR), INC.    :   Company
 WELL.     66 X 14                       :   Well
 FLD .     NPR NO.3                      :   Field
 LOC .     SEC.14/TWP.38N/RGE.78W        :   Location
 CNTY.     NATRONA                       :   County
 STAT.     WYOMING                       :   State
 SRVC.     ATLAS WIRELINE SERVICES       :   Service Company
 LIC .                                   :   License Number
 DATE.     27-AUGUST-1994                :   Log Date
 API .     4902522638                    :   API Number
~Curve Information Block
#MNEM.UNIT       API Codes    Curve Description
#---------    -------------   -------------------------------
 DEPT.F        0   0  0  0:   Depth
 GR  .API      0   0  0  0:   Gamma ray counts
 RILM.OHMM     0   0  0  0:   Resistivity from CILM
 RILD.OHMM     0   0  0  0:   Resistivity from CILD
#  Curve Data
~A
# ...
   963.5000    137.6208      4.1869      4.2491
   963.0000    139.6833      4.4329      4.4006
   962.5000    142.9445      4.6668      4.5698
   962.0000    146.7604      4.7927      4.6651
   961.5000    147.3165      4.7777      4.5993
   961.0000    142.7138      4.6157      4.3408
   960.5000    137.3150      4.3298      3.9371
   960.0000    133.9767      3.9881      3.4856
   959.5000    133.8730      3.6241      3.0798
   959.0000    135.2376      3.2164      2.7234
   958.5000    131.7374      2.7951      2.4312
   958.0000    121.7431      2.4483      2.2232
   957.5000    115.1230      2.2177      2.0926
   957.0000    117.9380      2.0973      2.0466
   956.5000    125.4509      2.0467      2.0694
   956.0000    130.4700      2.0646      2.1455
   955.5000    131.7975      2.1837      2.2768
   955.0000    131.1720      2.4365      2.4847
   954.5000    130.2508      2.8108      2.7993
   954.0000    129.4330      3.2907      3.2283
   953.5000    127.3987      3.8286      3.7582
   953.0000    126.4214      4.3602      4.3148
   952.5000    128.3460      4.8425      4.8264
   952.0000    130.4294      5.2530      5.2722
   951.5000    129.9039      5.5969      5.6580
   951.0000    130.0768      5.8794      5.9946
   950.5000    130.3658      6.0987      6.2676
   950.0000    129.0486      6.2687      6.4604
   949.5000    128.0594      6.4097      6.5971
   949.0000    127.1594      6.5225      6.6999
   948.5000    124.7444      6.5957      6.7555
   948.0000    124.4735      6.6330      6.7527
   947.5000    127.8714      6.6518      6.7095
   947.0000    131.5841      6.6724      6.6519
   946.5000    133.3765      6.7061      6.6139
   946.0000    132.6156      6.7526      6.6209
   945.5000    129.5189      6.8060      6.6601
   945.0000    126.8278      6.8604      6.6937
   944.5000    125.7439      6.9082      6.7097
   944.0000    125.0923      6.9431      6.7214
   943.5000    125.3111      6.9598      6.7361
   943.0000    128.1896      6.9559      6.7407
   942.5000    130.2589      6.9380      6.7250
   942.0000    128.4842      6.9142      6.7011
   941.5000    126.1626      6.8838      6.6839
   941.0000    126.1468      6.8377      6.6557
   940.5000    125.2811      6.7780      6.5978
   940.0000    122.8537      6.7208      6.5323
   939.5000    123.3251      6.6744      6.4929
   939.0000    126.9699      6.6331      6.4761
   938.5000    129.1602      6.5873      6.4608
   938.0000    128.4474      6.5344      6.4331
   937.5000    126.6962      6.4789      6.3797
   937.0000    124.8069      6.4216      6.2941
   936.5000    123.3087      6.3563      6.1937
   936.0000    123.2735      6.2775      6.1006
   935.5000    125.2383      6.1839      6.0186
   935.0000    126.0178      6.0812      5.9357
   934.5000    122.7445      5.9850      5.8481
   934.0000    119.1156      5.9030      5.7623
   933.5000    120.0856      5.8231      5.6610
   933.0000    122.9323      5.7158      5.4925
   932.5000    123.1272      5.5422      5.2184
   932.0000    120.8966      5.2717      4.8471
   931.5000    119.3104      4.9250      4.4453
   931.0000    119.7186      4.5775      4.1198
   930.5000    120.2194      4.2993      3.9263
   930.0000    119.9790      4.0613      3.8441
   929.5000    121.0245      3.8129      3.8116
   929.0000    122.7730      3.6006      3.7858
   928.5000    122.3833      3.5453      3.7863
   928.0000    120.8100      3.7246      3.8808
   927.5000    121.9749      4.1155      4.1139
   927.0000    125.3313      4.5968      4.4542
   926.5000    127.0764      5.0211      4.8309
   926.0000    126.5804      5.3082      5.1619
   925.5000    127.0822      5.4878      5.3932
   925.0000    129.5460      5.6117      5.5283
   924.5000    130.3635      5.7146      5.6248
   924.0000    126.7394      5.8072      5.7211
   923.5000    121.4967      5.8939      5.8201
   923.0000    118.9334      5.9803      5.9231
   922.5000    121.1261      6.0669      6.0335
   922.0000    125.4411      6.1498      6.1412
   921.5000    126.5583      6.2175      6.2236
   921.0000    124.0773      6.2566      6.2622
   920.5000    124.3251      6.2711      6.2572
   920.0000    127.5618      6.2854      6.2260
   919.5000    128.0596      6.3092      6.1926
   919.0000    124.4046      6.3268      6.1715
   918.5000    122.0154      6.3208      6.1564
   918.0000    122.4791      6.2836      6.1220
   917.5000    123.0776      6.2090      6.0376
   917.0000    123.3478      6.0919      5.8754
   916.5000    122.8107      5.9263      5.6323
   916.0000    122.0956      5.7228      5.3538
   915.5000    123.3206      5.5219      5.1204
   915.0000    127.8208      5.3513      4.9814
   914.5000    131.4708      5.1827      4.9255
   914.0000    130.3347      4.9914      4.9121
   913.5000    125.5228      4.8262      4.9126
   913.0000    122.1538      4.7906      4.9337
   912.5000    121.4541      4.9335      5.0163
   912.0000    120.5692      5.2187      5.1900
   911.5000    119.7213      5.5718      5.4381
   911.0000    121.6325      5.9146      5.7138
   910.5000    124.2280      6.1789      5.9695
   910.0000    121.7435      6.3340      6.1600
   909.5000    115.1058      6.4023      6.2643
   909.0000    111.6492      6.4281      6.3048
   908.5000    113.7791      6.4519      6.3264
   908.0000    118.2881      6.4939      6.3578
   907.5000    124.2751      6.5439      6.4012
   907.0000    129.0927      6.5801      6.4529
   906.5000    129.3181      6.5961      6.5136
   906.0000    127.1933      6.6112      6.5740
   905.5000    127.4429      6.6469      6.6162
   905.0000    128.2975      6.7064      6.6422
   904.5000    127.9034      6.7790      6.6748
   904.0000    127.6759      6.8520      6.7201
   903.5000    127.1696      6.9152      6.7595
   903.0000    125.8770      6.9629      6.7836
   902.5000    125.5313      6.9946      6.7946
   902.0000    124.1471      7.0112      6.7906
   901.5000    120.7989      7.0164      6.7753
   901.0000    120.0685      7.0074      6.7618
   900.5000    123.1933      6.9763      6.7523
   900.0000    125.1068      6.9253      6.7411
   899.5000    125.0788      6.8697      6.7316
   899.0000    126.2464      6.8260      6.7283
   898.5000    127.6034      6.8035      6.7366
   898.0000    127.7145      6.8096      6.7574
   897.5000    126.4918      6.8513      6.7921
   897.0000    123.3870      6.9285      6.8437
   896.5000    119.4638      7.0260      6.9179
   896.0000    117.6136      7.1201      7.0019
   895.5000    118.9905      7.1936      7.0684
   895.0000    121.4612      7.2373      7.0945
   894.5000    121.7116      7.2490      7.0750
   894.0000    118.7736      7.2331      7.0239
   893.5000    116.5434      7.1914      6.9615
   893.0000    118.3875      7.1168      6.8941
   892.5000    123.1065      7.0076      6.8224
   892.0000    126.1128      6.8769      6.7476
   891.5000    126.1064      6.7495      6.6676
   891.0000    126.1221      6.6516      6.5821
   890.5000    125.8779      6.5955      6.5108
   890.0000    123.6664      6.5839      6.4701
   889.5000    120.6323      6.6022      6.4512
   889.0000    119.0861      6.6114      6.4224
   888.5000    118.9749      6.5696      6.3568
   888.0000    118.6264      6.4722      6.2518
   887.5000    117.9386      6.3533      6.1247
   887.0000    119.1593      6.2592      6.0178
   886.5000    121.3751      6.2085      5.9718
   886.0000    121.8154      6.1711      5.9950
   885.5000    122.4225      6.1142      6.0606
   885.0000    122.4739      6.0681      6.1427
   884.5000    119.5302      6.1084      6.2427
   884.0000    118.4061      6.2772      6.3810
   883.5000    120.3672      6.5505      6.5736
   883.0000    119.6482      6.8654      6.8018
   882.5000    115.1254      7.1549      7.0227
   882.0000    111.7458      7.3702      7.1967
   881.5000    111.7881      7.5022      7.3117
   881.0000    113.9033      7.5724      7.3848
   880.5000    115.2584      7.5984      7.4287
