~Version Information
 VERS.                2.00:   CWLS log ASCII Standard -VERSION 2.00
 WRAP.                  NO:   One line per frame
~Well Information Block
#MNEM.UNIT              Data                Description
#--------- -------------------------------  -------------------------------
 STRT.F                         1214.0000:   Starting Depth
 STOP.F                           -9.7500:   Ending Depth
 STEP.F                           -0.5000:   Level Spacing
 NULL.                          -999.2500:   Absent Value
 COMP.     FLUOR DANIEL (NPSOR), INC.    :   Company
 WELL.     66 X 14                       :   Well
 FLD .     NPR NO.3                      :   Field
 LOC .     SEC.14/TWP.38N/RGE.78W        :   Location
 CNTY.     NATRONA                       :   County
 STAT.     WYOMING                       :   State
 SRVC.     ATLAS WIRELINE SERVICES       :   Service Company
 LIC .                                   :   License Number
 DATE.     27-AUGUST-1994                :   Log Date
 API .     4902522638                    :   API Number
~Curve Information Block
#MNEM.UNIT       API Codes    Curve Description
#---------    -------------   -------------------------------
 DEPT.F        0   0  0  0:   Depth
 GR  .API      0   0  0  0:   Gamma ray counts
 RILM.OHMM     0   0  0  0:   Resistivity from CILM
 RILD.OHMM     0   0  0  0:   Resistivity from CILD
#  Curve Data
~A
  1214.0000      0.0000      0.2000      0.2000
  1213.5000      0.0000      0.2000      0.2000
  1213.0000      0.0000      0.2000      0.2000
  1212.5000      0.0000      0.2000      0.2000
  1212.0000      0.0000      0.2000      0.2000
  1211.5000      0.0000      0.2000      0.2000
  1211.0000      0.0000      0.2000      0.2000
  1210.5000      0.0000      0.2000      0.2000
  1210.0000      0.0000      0.2000      0.2000
  1209.5000      0.0000      0.2000      0.2000
  1209.0000      0.0000      0.2000      0.2000
  1208.5000      0.0000      0.2000      0.2000
  1208.0000      0.0000      0.2000      0.2000
  1207.5000      0.0000      0.2000      0.2000
  1207.0000      0.0000      0.2000      0.2000
  1206.5000      0.0000      0.2000      0.2000
  1206.0000      0.0000      0.2000      0.2000
  1205.5000      0.0000      0.2000      0.2000
  1205.0000      0.0000      0.2000      0.2000
  1204.5000      0.0000      0.2000      0.2000
  1204.0000      0.0000      0.2000      0.2000
  1203.5000      0.0000      0.2000      0.2000
  1203.0000      0.0000      0.2000      0.2000
  1202.5000      0.0000      0.2000      0.2000
  1202.0000      0.0000      0.2000      0.2000
  1201.5000      0.0000      0.2000      0.2000
  1201.0000      0.0000      0.2000      0.2000
  1200.5000      0.0000      0.2000      0.2000
  1200.0000      0.0000      0.2000      0.2000
  1199.5000      0.0000      0.2000      0.2000
  1199.0000      0.0000      0.2000      0.2000
  1198.5000      0.0000      0.2000      0.2000
  1198.0000      0.0000      8.5603      0.2000
  1197.5000      0.0000      8.5611      0.2000
  1197.0000      0.0000      8.5612      0.2000
  1196.5000      0.0000      8.5600      0.2000
  1196.0000      0.0000      8.5588      0.2000
  1195.5000      0.0000      8.5630      0.2000
  1195.0000      0.0000      8.5684      0.2000
  1194.5000      0.0000      8.5684      0.2000
  1194.0000      0.0000      8.5676      0.2000
  1193.5000      0.0000      8.5651      0.2000
  1193.0000      0.0000      8.5560      0.2000
  1192.5000      0.0000      8.5496      0.2000
  1192.0000      0.0000      8.5536      0.2000
  1191.5000      0.0000      8.5577      0.2000
  1191.0000      0.0000      8.5550      0.2000
  1190.5000      0.0000      8.5520      0.2000
  1190.0000      0.0000      8.5515      0.2000
  1189.5000      0.0000      8.5509      0.2000
  1189.0000      0.0000      8.5520      0.2000
  1188.5000      0.0000      8.5558      0.2000
  1188.0000      0.0000      8.5599      8.8174
  1187.5000      0.0000      8.5626      8.8201
  1187.0000      0.0000      8.5622      8.8208
  1186.5000      0.0000      8.5580      8.8203
  1186.0000      0.0000      8.5534      8.8176
  1185.5000      0.0000      8.5539      8.8147
  1185.0000      0.0000      8.5581      8.8117
  1184.5000      0.0000      8.5606      8.8127
  1184.0000      0.0000      8.5585      8.8158
  1183.5000      0.0000      8.5557      8.8158
  1183.0000      0.0000      8.5552      8.8101
  1182.5000      0.0000      8.5529      8.8026
  1182.0000      0.0000      8.5501      8.7928
  1181.5000      0.0000      8.5538      8.7837
  1181.0000      0.0000      8.5603      8.7798
  1180.5000     96.2831      8.5763      8.7790
  1180.0000     98.2652      8.6252      8.7760
  1179.5000     99.4866      8.7064      8.7744
  1179.0000     98.8567      8.7885      8.7830
  1178.5000     98.3263      8.8581      8.7970
  1178.0000     98.3838      8.9235      8.8017
  1177.5000     99.0878      8.9876      8.7959
  1177.0000     99.9655      9.0460      8.7942
  1176.5000     98.9646      9.0931      8.8109
  1176.0000     97.8238      9.1297      8.8421
  1175.5000     98.4053      9.1608      8.8771
  1175.0000     98.0726      9.1897      8.9139
  1174.5000     95.4711      9.2190      8.9527
  1174.0000     92.3627      9.2534      8.9961
  1173.5000     91.7855      9.2935      9.0476
  1173.0000     94.9675      9.3347      9.0962
  1172.5000     98.4453      9.3684      9.1238
  1172.0000     98.6878      9.3867      9.1300
  1171.5000     98.4819      9.3976      9.1291
  1171.0000    100.6276      9.4203      9.1434
  1170.5000    103.6961      9.4554      9.1846
  1170.0000    104.0882      9.4814      9.2468
  1169.5000    101.0607      9.4983      9.3201
  1169.0000     98.3338      9.5365      9.3941
  1168.5000     98.5066      9.6169      9.4576
  1168.0000     99.8826      9.7239      9.5143
  1167.5000    100.0514      9.8325      9.5711
  1167.0000     98.2681      9.9370      9.6216
  1166.5000     96.4790     10.0274      9.6609
  1166.0000     96.2177     10.0468      9.6839
  1165.5000     96.4849      9.9562      9.6729
  1165.0000     96.4569      9.8083      9.6207
  1164.5000     97.7444      9.6933      9.5540
  1164.0000     98.2233      9.6398      9.4951
  1163.5000     97.0230      9.6256      9.4651
  1163.0000     97.6180      9.6287      9.4878
  1162.5000     99.0003      9.6321      9.5415
  1162.0000     97.9846      9.6197      9.5700
  1161.5000     97.0688      9.5838      9.5517
  1161.0000     97.6943      9.5339      9.5058
  1160.5000     97.7718      9.4879      9.4552
  1160.0000     95.9551      9.4501      9.4101
  1159.5000     92.3362      9.4180      9.3650
  1159.0000     88.9697      9.4041      9.3327
  1158.5000     88.0351      9.4160      9.3316
  1158.0000     88.3547      9.4290      9.3517
  1157.5000     89.2862      9.4382      9.3748
  1157.0000     92.6862      9.4545      9.3878
  1156.5000     98.7758      9.4677      9.3707
  1156.0000    102.3090      9.4562      9.3263
  1155.5000    100.6037      9.4224      9.2863
  1155.0000     96.5189      9.3779      9.2459
  1154.5000     92.3077      9.3330      9.1877
  1154.0000     88.4743      9.2907      9.1348
  1153.5000     86.9365      9.2491      9.0977
  1153.0000     87.6622      9.2127      9.0542
  1152.5000     88.8359      9.1815      9.0029
  1152.0000     90.0094      9.1548      8.9553
  1151.5000     91.5430      9.1391      8.9021
  1151.0000     93.0488      9.1336      8.8485
  1150.5000     93.7339      9.1271      8.8176
  1150.0000     93.1022      9.1304      8.8412
  1149.5000     89.5690      9.1767      8.9526
  1149.0000     83.9371      9.2994      9.1736
  1148.5000     80.4455      9.5315      9.5248
  1148.0000     80.2027      9.9111     10.0268
  1147.5000     80.7944     10.4818     10.6466
  1147.0000     81.0161     11.3270     11.3736
  1146.5000     81.1894     12.5057     12.1650
  1146.0000     80.7589     13.9207     12.9294
  1145.5000     80.6331     15.2089     13.4901
  1145.0000     81.1909     15.8795     13.6551
  1144.5000     83.3749     15.7302     13.3701
  1144.0000     86.5116     14.9427     12.7780
  1143.5000     89.2992     13.8243     12.0611
  1143.0000     92.2865     12.6435     11.3271
  1142.5000     96.0384     11.5790     10.6510
  1142.0000     98.3169     10.7282     10.0940
  1141.5000     99.9898     10.1352      9.6612
  1141.0000    101.1059      9.7827      9.3521
  1140.5000     99.9071      9.6120      9.1450
  1140.0000     97.7696      9.5332      9.0229
  1139.5000     96.6475      9.4753      8.9733
  1139.0000     96.2628      9.4178      8.9859
  1138.5000     95.2771      9.3835      9.0481
  1138.0000     92.9547      9.4059      9.1711
  1137.5000     91.7045      9.5075      9.3965
  1137.0000     93.9916      9.6922      9.7532
  1136.5000     95.4602      9.9669     10.2089
  1136.0000     93.5428     10.3407     10.7005
  1135.5000     91.5226     10.8193     11.1585
  1135.0000     90.2925     11.3643     11.5221
  1134.5000     89.2208     11.9038     11.7987
  1134.0000     90.1910     12.3429     12.0173
  1133.5000     93.1613     12.5400     12.1408
  1133.0000     94.5394     12.3695     12.1039
  1132.5000     92.7459     11.8932     11.8925
  1132.0000     91.4445     11.3789     11.5709
  1131.5000     91.9710     11.0415     11.2627
  1131.0000     91.6157     10.8961     11.0592
