~Version Information
 VERS.                2.00:   CWLS log ASCII Standard -VERSION 2.00
 WRAP.                  NO:   One line per frame
~Well Information Block
#MNEM.UNIT              Data                Description
#--------- -------------------------------  -------------------------------
 STRT.F                         1214.0000:   Starting Depth
 STOP.F                           -9.7500:   Ending Depth
 STEP.F                           -0.5000:   Level Spacing
 NULL.                          -999.2500:   Absent Value
 COMP.     FLUOR DANIEL (NPSOR), INC.    :   Company
 WELL.     66 X 14                       :   Well
 FLD .     NPR NO.3                      :   Field
 LOC .     SEC.14/TWP.38N/RGE.78W        :   Location
 CNTY.     NATRONA                       :   County
 STAT.     WYOMING                       :   State
 SRVC.     ATLAS WIRELINE SERVICES       :   Service Company
 LIC .                                   :   License Number
 DATE.     27-AUGUST-1994                :   Log Date
 API .     4902522638                    :   API Number
~Curve Information Block
#MNEM.UNIT       API Codes    Curve Description
#---------    -------------   -------------------------------
 DEPT.F        0   0  0  0:   Depth
 GR  .API      0   0  0  0:   Gamma ray counts
 RILM.OHMM     0   0  0  0:   Resistivity from CILM
 RILD.OHMM     0   0  0  0:   Resistivity from CILD
#  Curve Data
~A
# ...
   128.5000    109.6764      6.4733      6.1239
   128.0000    113.7824      6.3024      6.0215
   127.5000    116.5123      6.1488      5.9397
   127.0000    117.4440      6.0280      5.8847
   126.5000    118.4391      5.9565      5.8505
   126.0000    117.0890      5.9442      5.8348
   125.5000    115.0690      5.9815      5.8393
   125.0000    116.4880      6.0433      5.8588
   124.5000    119.3920      6.1049      5.8925
   124.0000    119.8043      6.1493      5.9480
   123.5000    117.6575      6.1720      6.0182
   123.0000    115.8000      6.1841      6.0922
   122.5000    114.6341      6.2081      6.1744
   122.0000    112.6444      6.2637      6.2540
   121.5000    110.6812      6.3443      6.2853
   121.0000    109.8672      6.4152      6.2507
   120.5000    109.2595      6.4568      6.1715
   120.0000    108.5945      6.4763      6.0697
   119.5000    112.4388      6.4376      5.9583
   119.0000    119.7939      6.2658      5.8419
   118.5000    123.4854      5.9769      5.7061
   118.0000    121.7042      5.6897      5.5529
   117.5000    119.9509      5.4928      5.4198
   117.0000    119.3898      5.4047      5.3358
   116.5000    117.2504      5.4120      5.3072
   116.0000    114.7105      5.4776      5.3266
   115.5000    114.1065      5.5517      5.3757
   115.0000    113.7593      5.6149      5.4352
   114.5000    114.2204      5.6740      5.4901
   114.0000    117.6019      5.7240      5.5262
   113.5000    121.1586      5.7493      5.5412
   113.0000    120.0198      5.7565      5.5443
   112.5000    115.5860      5.7735      5.5447
   112.0000    112.4002      5.8021      5.5508
   111.5000    113.6707      5.8114      5.5729
   111.0000    117.2234      5.7972      5.6163
   110.5000    119.3721      5.7996      5.6791
   110.0000    119.7015      5.8463      5.7576
   109.5000    119.0837      5.9253      5.8493
   109.0000    118.2409      6.0152      5.9477
   108.5000    118.0121      6.1201      6.0478
   108.0000    117.6679      6.2599      6.1561
   107.5000    115.1623      6.4307      6.2788
   107.0000    111.7554      6.5864      6.4090
   106.5000    110.3490      6.6902      6.5311
   106.0000    112.1055      6.7568      6.6177
   105.5000    114.0436      6.8056      6.6527
   105.0000    114.0555      6.8206      6.6338
   104.5000    113.9632      6.7907      6.5556
   104.0000    115.1727      6.7277      6.4235
   103.5000    116.6358      6.6328      6.2713
   103.0000    118.5895      6.4946      6.1193
   102.5000    122.4563      6.3046      5.9744
   102.0000    124.7693      6.0750      5.8347
   101.5000    121.9733      5.8462      5.6933
   101.0000    118.4932      5.6623      5.5512
   100.5000    120.3232      5.5451      5.4276
   100.0000    123.6676      5.4912      5.3401
    99.5000    124.8328      5.4800      5.2925
    99.0000    125.4915      5.4778      5.2751
    98.5000    124.3889      5.4566      5.2600
    98.0000    120.2028      5.4095      5.2173
    97.5000    117.4286      5.3419      5.1362
    97.0000    116.6714      5.2631      5.0292
    96.5000    114.5306      5.1854      4.9190
    96.0000    111.3255      5.1043      4.8162
    95.5000    110.9565      4.9959      4.7214
    95.0000    115.2715      4.8578      4.6439
    94.5000    119.6917      4.7316      4.5961
    94.0000    118.8809      4.6477      4.5822
    93.5000    116.6997      4.6078      4.6044
    93.0000    118.6192      4.6116      4.6643
    92.5000    122.1626      4.6758      4.7603
    92.0000    120.8674      4.8198      4.8978
    91.5000    114.5167      5.0331      5.0765
    91.0000    107.7965      5.2654      5.2631
    90.5000    104.0153      5.4756      5.4075
    90.0000    102.7248      5.6401      5.4888
    89.5000    103.3729      5.7544      5.5122
    89.0000    106.7609      5.8079      5.4896
    88.5000    111.7561      5.7848      5.4408
    88.0000    115.6026      5.6909      5.3835
    87.5000    117.6650      5.5580      5.3200
    87.0000    119.8917      5.4257      5.2575
    86.5000    120.5284      5.3322      5.2112
    86.0000    117.4868      5.3033      5.1851
    85.5000    112.5828      5.3301      5.1690
    85.0000    109.0729      5.3753      5.1610
    84.5000    107.8273      5.4136      5.1676
    84.0000    110.8186      5.4401      5.1816
    83.5000    117.1996      5.4416      5.1867
    83.0000    121.1418      5.4032      5.1763
    82.5000    121.4420      5.3465      5.1572
    82.0000    122.3344      5.3126      5.1435
    81.5000    122.6772      5.3164      5.1484
    81.0000    119.7158      5.3459      5.1722
    80.5000    116.8763      5.3877      5.2107
    80.0000    116.0331      5.4381      5.2653
    79.5000    115.8396      5.4981      5.3398
    79.0000    116.3522      5.5675      5.4307
    78.5000    119.1242      5.6438      5.5232
    78.0000    121.2000      5.7270      5.6096
    77.5000    120.5539      5.8191      5.6928
    77.0000    118.5019      5.9208      5.7755
    76.5000    116.9793      6.0265      5.8605
    76.0000    114.5396      6.1299      5.9581
    75.5000    111.1361      6.2297      6.0748
    75.0000    109.2544      6.3281      6.2109
    74.5000    109.5367      6.4286      6.3669
    74.0000    109.5865      6.5345      6.5296
    73.5000    107.2503      6.6475      6.6678
    73.0000    104.5969      6.7771      6.7667
    72.5000    104.2257      6.9365      6.8324
    72.0000    105.7131      7.0997      6.8601
    71.5000    107.6872      7.1812      6.8347
    71.0000    109.7922      7.1180      6.7546
    70.5000    112.1367      6.9544      6.6415
    70.0000    114.4281      6.7777      6.5373
    69.5000    116.4154      6.6283      6.4795
    69.0000    117.6620      6.5214      6.4815
    68.5000    116.5914      6.4902      6.5360
    68.0000    112.4965      6.5661      6.6172
    67.5000    107.3671      6.7295      6.6927
    67.0000    104.2049      6.9207      6.7364
    66.5000    104.7303      7.0945      6.6755
    66.0000    107.4128      7.2193      6.5251
    65.5000    108.0797      7.2406      6.5496
    65.0000    105.3790      7.1218      6.8558
    64.5000    101.8026      6.9001      7.2149
    64.0000     99.6221      6.6571      7.4281
    63.5000    101.6599      6.4819      7.1247
    63.0000    106.2238      6.6127      6.0674
    62.5000    108.6593      7.3155      5.1785
    62.0000    109.2649      7.7804      4.9545
    61.5000    109.9146      7.1453      5.1425
    61.0000    108.8337      6.6320      5.3219
    60.5000    107.4969      7.0192      5.3708
    60.0000    108.6242      7.9269      5.7331
    59.5000    110.0216      7.9217      7.8138
    59.0000    109.4349      6.3340     10.0226
    58.5000    108.9108      4.8886      5.9777
    58.0000    108.3530      4.1999      3.3310
    57.5000    106.9973      3.4497      2.3105
    57.0000    106.3925      2.5982      1.8675
    56.5000    107.0314      2.6558      2.4448
    56.0000    105.7377      5.5687     16.5821
    55.5000     98.8945  10000.0000  10000.0000
    55.0000     87.0635  10000.0000  10000.0000
    54.5000     75.8931  10000.0000  10000.0000
    54.0000     71.0920  10000.0000  10000.0000
    53.5000     70.9898  10000.0000  10000.0000
    53.0000     71.4286  10000.0000  10000.0000
    52.5000     71.4996  10000.0000  10000.0000
    52.0000     72.3256  10000.0000     12.7345
    51.5000     73.1404  10000.0000      9.5637
    51.0000     72.5641  10000.0000     10.3123
    50.5000     69.9825  10000.0000     11.7879
    50.0000     66.3463  10000.0000     12.6662
    49.5000     64.6752  10000.0000     11.1280
    49.0000     66.0603  10000.0000      9.2360
    48.5000     67.3434  10000.0000      8.4982
    48.0000     66.0367  10000.0000      8.4785
    47.5000     65.2358  10000.0000      8.4496
    47.0000     66.6332  10000.0000      8.3328
    46.5000     67.3451  10000.0000      8.7073
    46.0000     65.2158  10000.0000     10.4224
    45.5000     63.8873  10000.0000     13.4191
