~Version Information
 VERS.                2.00:   CWLS log ASCII Standard -VERSION 2.00
 WRAP.                  NO:   One line per frame
~Well Information Block
#MNEM.UNIT              Data                Description
#--------- -------------------------------  -------------------------------
 STRT.F                         1214.0000:   Starting Depth
 STOP.F                           -9.7500:   Ending Depth
 STEP.F                           -0.5000:   Level Spacing
 NULL.                          -999.2500:   Absent Value
 COMP.     FLUOR DANIEL (NPSOR), INC.    :   Company
 WELL.     66 X 14                       :   Well
 FLD .     NPR NO.3                      :   Field
 LOC .     SEC.14/TWP.38N/RGE.78W        :   Location
 CNTY.     NATRONA                       :   County
 STAT.     WYOMING                       :   State
 SRVC.     ATLAS WIRELINE SERVICES       :   Service Company
 LIC .                                   :   License Number
 DATE.     27-AUGUST-1994                :   Log Date
 API .     4902522638                    :   API Number
~Curve Information Block
#MNEM.UNIT       API Codes    Curve Description
#---------    -------------   -------------------------------
 DEPT.F        0   0  0  0:   Depth
 GR  .API      0   0  0  0:   Gamma ray counts
 RILM.OHMM     0   0  0  0:   Resistivity from CILM
 RILD.OHMM     0   0  0  0:   Resistivity from CILD
#  Curve Data
~A
# ...
  1130.5000     89.6803     10.8539     10.9507
  1130.0000     88.8833     10.8527     10.8922
  1129.5000     89.1123     10.8753     10.8676
  1129.0000     89.5200     10.9204     10.8764
  1128.5000     89.9847     10.9857     10.9182
  1128.0000     90.2643     11.0565     10.9824
  1127.5000     91.0716     11.1270     11.0427
  1127.0000     91.8925     11.2113     11.0847
  1126.5000     90.9351     11.3202     11.1238
  1126.0000     89.2435     11.4422     11.1996
  1125.5000     87.9539     11.5758     11.3329
  1125.0000     86.4862     11.6998     11.4828
  1124.5000     86.5294     11.7489     11.5912
  1124.0000     88.4289     11.6978     11.6302
  1123.5000     90.0350     11.6216     11.6123
  1123.0000     90.7106     11.6185     11.6081
  1122.5000     90.2343     11.6957     11.6779
  1122.0000     88.3340     11.7769     11.8125
  1121.5000     85.5665     11.8113     11.9612
  1121.0000     81.9076     11.8258     12.0562
  1120.5000     78.2025     11.8488     12.0363
  1120.0000     78.4709     11.8645     11.9269
  1119.5000     81.9568     11.8417     11.7845
  1119.0000     84.0823     11.7571     11.5958
  1118.5000     85.3662     11.5913     11.3348
  1118.0000     88.0942     11.3182     11.0209
  1117.5000     92.3165     10.9322     10.6810
  1117.0000     97.6268     10.4874     10.3291
  1116.5000    100.8639     10.0619      9.9902
  1116.0000     98.8185      9.7016      9.6714
  1115.5000     96.0282      9.4383      9.4031
  1115.0000     96.4967      9.2706      9.2019
  1114.5000     96.7757      9.1774      9.0773
  1114.0000     96.1166      9.1270      9.0168
  1113.5000     99.3275      9.0960      8.9908
  1113.0000    106.4534      9.0725      8.9726
  1112.5000    110.8719      9.0566      8.9560
  1112.0000    110.5488      9.0445      8.9498
  1111.5000    107.9573      9.0347      8.9579
  1111.0000    103.4835      9.0309      8.9742
  1110.5000     98.8357      9.0407      9.0020
  1110.0000     97.9898      9.0690      9.0473
  1109.5000     98.5917      9.1167      9.1082
  1109.0000     97.3637      9.1752      9.1811
  1108.5000     95.5673      9.2313      9.2541
  1108.0000     95.5125      9.2831      9.3087
  1107.5000     96.4695      9.3423      9.3409
  1107.0000     96.8653      9.4118      9.3672
  1106.5000     96.9187      9.4732      9.3978
  1106.0000     99.0062      9.5073      9.4321
  1105.5000    100.5225      9.5175      9.4550
  1105.0000     98.6193      9.5185      9.4567
  1104.5000     96.9937      9.5123      9.4468
  1104.0000     99.3997      9.4941      9.4382
  1103.5000    104.3056      9.4727      9.4300
  1103.0000    107.8911      9.4589      9.4195
  1102.5000    108.0337      9.4499      9.3988
  1102.0000    104.4400      9.4455      9.3704
  1101.5000    100.3218      9.4492      9.3493
  1101.0000     99.1013      9.4634      9.3360
  1100.5000    100.6278      9.4791      9.3235
  1100.0000    101.0660      9.4789      9.3168
  1099.5000     99.5778      9.4612      9.3153
  1099.0000     98.2967      9.4522      9.3107
  1098.5000     97.7168      9.4665      9.3063
  1098.0000     97.2643      9.4872      9.3076
  1097.5000     97.2956      9.4982      9.3191
  1097.0000     97.1379      9.5033      9.3354
  1096.5000     96.3705      9.5118      9.3414
  1096.0000     95.9302      9.5258      9.3398
  1095.5000     95.7068      9.5401      9.3498
  1095.0000     95.0826      9.5482      9.3813
  1094.5000     93.5811      9.5511      9.4239
  1094.0000     91.9272      9.5585      9.4552
  1093.5000     91.4824      9.5802      9.4724
  1093.0000     92.4573      9.6217      9.5073
  1092.5000     94.5115      9.6883      9.6015
  1092.0000     98.1427      9.7970      9.7842
  1091.5000    101.4232      9.9708     10.0619
  1091.0000     99.9304     10.2128     10.4246
  1090.5000     95.3546     10.5262     10.8569
  1090.0000     94.6688     10.9244     11.2979
  1089.5000     99.1514     11.4210     11.6872
  1089.0000    102.3552     11.9704     12.0034
  1088.5000    101.7444     12.4443     12.2253
  1088.0000    100.3992     12.7015     12.2947
  1087.5000     98.9068     12.6738     12.1772
  1087.0000     96.2943     12.3627     11.9075
  1086.5000     94.4207     11.8390     11.5472
  1086.0000     95.0340     11.2355     11.1345
  1085.5000     96.4215     10.6819     10.7118
  1085.0000     97.6782     10.2616     10.3488
  1084.5000     97.6342      9.9961     10.0914
  1084.0000     96.9021      9.8531      9.9276
  1083.5000     95.6392      9.7992      9.8355
  1083.0000     94.4147      9.8075      9.8134
  1082.5000     94.0974      9.8504      9.8339
  1082.0000     95.0830      9.8970      9.8562
  1081.5000     95.9566      9.9300      9.8737
  1081.0000     97.4117      9.9503      9.8994
  1080.5000     99.0681      9.9723      9.9313
  1080.0000     98.8166     10.0054      9.9710
  1079.5000     95.6861     10.0486     10.0327
  1079.0000     93.3277     10.1035     10.1108
  1078.5000     94.2031     10.1680     10.1796
  1078.0000     96.7643     10.2434     10.2297
  1077.5000     97.0983     10.3292     10.2872
  1077.0000     96.4728     10.4123     10.3841
  1076.5000     97.6525     10.4813     10.5054
  1076.0000     98.2600     10.5368     10.6016
  1075.5000     95.9377     10.5893     10.6521
  1075.0000     93.7153     10.6499     10.6789
  1074.5000     93.4855     10.7231     10.7094
  1074.0000     93.1073     10.8003     10.7515
  1073.5000     92.6841     10.8653     10.7926
  1073.0000     93.3762     10.9048     10.8094
  1072.5000     94.2800     10.9097     10.8003
  1072.0000     94.3041     10.8754     10.7768
  1071.5000     93.2408     10.8134     10.7487
  1071.0000     92.3327     10.7503     10.7142
  1070.5000     93.2893     10.7058     10.6819
  1070.0000     93.9347     10.6807     10.6618
  1069.5000     93.5197     10.6662     10.6527
  1069.0000     94.6432     10.6573     10.6447
  1068.5000     97.4759     10.6471     10.6365
  1068.0000    100.8335     10.6345     10.6267
  1067.5000    102.9397     10.6339     10.6123
  1067.0000    101.3939     10.6533     10.5963
  1066.5000     96.8837     10.6704     10.5793
  1066.0000     93.4127     10.6731     10.5599
  1065.5000     92.9126     10.6718     10.5532
  1065.0000     94.6629     10.6805     10.5759
  1064.5000     95.8683     10.7074     10.6133
  1064.0000     93.2460     10.7519     10.6561
  1063.5000     87.8752     10.7994     10.7157
  1063.0000     84.4731     10.8383     10.7796
  1062.5000     85.5402     10.8740     10.8182
  1062.0000     87.7105     10.9118     10.8474
  1061.5000     86.9060     10.9504     10.9150
  1061.0000     83.9050     10.9886     11.0267
  1060.5000     81.1097     11.0374     11.1521
  1060.0000     80.4872     11.1149     11.2850
  1059.5000     81.0967     11.2386     11.4636
  1059.0000     80.0644     11.4062     11.6769
  1058.5000     78.5621     11.5909     11.8620
  1058.0000     80.2553     11.7705     11.9830
  1057.5000     82.7360     11.9531     12.0585
  1057.0000     82.7477     12.1497     12.1241
  1056.5000     82.3215     12.3047     12.2020
  1056.0000     82.3339     12.3219     12.2649
  1055.5000     80.3049     12.1836     12.2424
  1055.0000     77.5734     11.9917     12.1138
  1054.5000     77.2118     11.8595     11.9166
  1054.0000     77.8595     11.8196     11.7139
  1053.5000     78.1236     11.8169     11.5655
  1053.0000     77.9062     11.7726     11.4951
  1052.5000     76.3193     11.6578     11.4635
  1052.0000     74.3819     11.5176     11.4304
  1051.5000     74.8527     11.4220     11.4213
  1051.0000     76.4661     11.4213     11.4947
  1050.5000     75.7862     11.5218     11.6467
  1050.0000     72.7379     11.6918     11.8065
  1049.5000     68.9006     11.8842     11.9108
  1049.0000     66.3822     12.0517     11.9620
  1048.5000     66.4257     12.1668     11.9827
  1048.0000     69.4578     12.2258     11.9864
  1047.5000     75.5921     12.2236     12.0159
