~Version Information
 VERS.                2.00:   CWLS log ASCII Standard -VERSION 2.00
 WRAP.                  NO:   One line per frame
~Well Information Block
#MNEM.UNIT              Data                Description
#--------- -------------------------------  -------------------------------
 STRT.F                         1214.0000:   Starting Depth
 STOP.F                           -9.7500:   Ending Depth
 STEP.F                           -0.5000:   Level Spacing
 NULL.                          -999.2500:   Absent Value
 COMP.     FLUOR DANIEL (NPSOR), INC.    :   Company
 WELL.     66 X 14                       :   Well
 FLD .     NPR NO.3                      :   Field
 LOC .     SEC.14/TWP.38N/RGE.78W        :   Location
 CNTY.     NATRONA                       :   County
 STAT.     WYOMING                       :   State
 SRVC.     ATLAS WIRELINE SERVICES       :   Service Company
 LIC .                                   :   License Number
 DATE.     27-AUGUST-1994                :   Log Date
 API .     4902522638                    :   API Number
~Curve Information Block
#MNEM.UNIT       API Codes    Curve Description
#---------    -------------   -------------------------------
 DEPT.F        0   0  0  0:   Depth
 GR  .API      0   0  0  0:   Gamma ray counts
 RILM.OHMM     0   0  0  0:   Resistivity from CILM
 RILD.OHMM     0   0  0  0:   Resistivity from CILD
#  Curve Data
~A
# ...
   212.0000    107.1358      6.0868      5.8563
   211.5000    109.1138      6.0403      5.8437
   211.0000    112.3860      6.0221      5.8605
   210.5000    112.4124      6.0227      5.8949
   210.0000    109.6294      6.0343      5.9268
   209.5000    107.5703      6.0626      5.9468
   209.0000    107.6348      6.1193      5.9663
   208.5000    108.8629      6.2071      6.0078
   208.0000    110.0000      6.3060      6.0797
   207.5000    111.4362      6.3823      6.1648
   207.0000    114.7616      6.4088      6.2302
   206.5000    118.2740      6.3924      6.2557
   206.0000    119.7368      6.3770      6.2467
   205.5000    120.1758      6.3981      6.2356
   205.0000    120.1191      6.4418      6.2491
   204.5000    117.9867      6.4719      6.2813
   204.0000    115.0134      6.4790      6.3113
   203.5000    114.7465      6.4797      6.3297
   203.0000    116.2625      6.4948      6.3488
   202.5000    117.4646      6.5340      6.3924
   202.0000    118.0723      6.5925      6.4663
   201.5000    117.1181      6.6668      6.5464
   201.0000    114.4669      6.7562      6.6209
   200.5000    112.7591      6.8516      6.7003
   200.0000    111.9472      6.9421      6.7819
   199.5000    111.4425      7.0303      6.8516
   199.0000    111.7774      7.1169      6.9060
   198.5000    110.4635      7.1802      6.9432
   198.0000    107.6666      7.1923      6.9461
   197.5000    107.0925      7.1564      6.9074
   197.0000    109.3474      7.1058      6.8479
   196.5000    110.9412      7.0528      6.7966
   196.0000    110.4176      6.9878      6.7613
   195.5000    109.6412      6.9113      6.7412
   195.0000    110.0499      6.8513      6.7428
   194.5000    111.3418      6.8338      6.7704
   194.0000    113.9363      6.8742      6.8253
   193.5000    117.2057      6.9818      6.9148
   193.0000    116.7317      7.1498      7.0465
   192.5000    112.7738      7.3459      7.2112
   192.0000    110.0074      7.5241      7.3685
   191.5000    109.2917      7.6526      7.4675
   191.0000    108.6658      7.7325      7.5048
   190.5000    107.0943      7.7831      7.5153
   190.0000    106.0598      7.7985      7.5110
   189.5000    105.9405      7.7532      7.4833
   189.0000    105.7453      7.6503      7.4254
   188.5000    106.5722      7.5287      7.3371
   188.0000    110.0208      7.4263      7.2350
   187.5000    113.1623      7.3478      7.1528
   187.0000    113.2132      7.2827      7.1009
   186.5000    111.5427      7.2361      7.0754
   186.0000    109.4479      7.2224      7.0806
   185.5000    107.8822      7.2363      7.1211
   185.0000    109.7690      7.2681      7.1848
   184.5000    113.6791      7.3230      7.2507
   184.0000    115.9018      7.4090      7.3146
   183.5000    115.5680      7.5170      7.3854
   183.0000    111.9206      7.6191      7.4551
   182.5000    106.0798      7.6907      7.5015
   182.0000    102.8487      7.7284      7.5157
   181.5000    103.7975      7.7347      7.5100
   181.0000    105.6661      7.7096      7.4959
   180.5000    107.7232      7.6505      7.4676
   180.0000    110.7528      7.5576      7.3980
   179.5000    113.1687      7.4354      7.2726
   179.0000    114.0309      7.2954      7.1042
   178.5000    112.5958      7.1577      6.9193
   178.0000    110.9402      7.0283      6.7423
   177.5000    112.0258      6.8803      6.5893
   177.0000    114.4048      6.6897      6.4683
   176.5000    114.9061      6.4937      6.3824
   176.0000    113.3338      6.3604      6.3351
   175.5000    112.0037      6.3273      6.3450
   175.0000    110.9515      6.3830      6.4232
   174.5000    111.1266      6.4940      6.5284
   174.0000    112.8544      6.6207      6.5814
   173.5000    113.8510      6.7098      6.5195
   173.0000    112.4266      6.6999      6.3254
   172.5000    109.9422      6.5732      6.0449
   172.0000    108.3740      6.3630      5.7704
   171.5000    107.8407      6.0866      5.5450
   171.0000    110.5957      5.7300      5.3543
   170.5000    115.8389      5.3340      5.1784
   170.0000    119.0087      5.0122      5.0119
   169.5000    116.7303      4.8534      4.8779
   169.0000    112.2270      4.8719      4.8203
   168.5000    111.2911      4.9974      4.8565
   168.0000    112.9855      5.1423      4.9567
   167.5000    111.7459      5.2642      5.0798
   167.0000    107.4864      5.3498      5.1980
   166.5000    105.8970      5.4094      5.2982
   166.0000    107.7922      5.4689      5.3839
   165.5000    109.5097      5.5479      5.4703
   165.0000    109.9941      5.6483      5.5642
   164.5000    109.7965      5.7558      5.6584
   164.0000    109.9028      5.8561      5.7425
   163.5000    111.5549      5.9391      5.8143
   163.0000    113.6763      5.9970      5.8701
   162.5000    113.5905      6.0243      5.9001
   162.0000    112.4976      6.0106      5.8895
   161.5000    112.2079      5.9503      5.8279
   161.0000    112.0885      5.8641      5.7247
   160.5000    113.1022      5.7823      5.6112
   160.0000    114.0694      5.7082      5.5085
   159.5000    112.2313      5.6328      5.4199
   159.0000    108.8120      5.5557      5.3450
   158.5000    106.5527      5.4780      5.2795
   158.0000    105.7896      5.3989      5.2155
   157.5000    107.6597      5.3291      5.1542
   157.0000    110.2752      5.2879      5.1066
   156.5000    109.9828      5.2812      5.0808
   156.0000    107.6902      5.2890      5.0774
   155.5000    106.0094      5.2882      5.0884
   155.0000    106.0823      5.2859      5.1105
   154.5000    108.8093      5.3058      5.1484
   154.0000    112.4723      5.3561      5.2124
   153.5000    115.8010      5.4264      5.3110
   153.0000    118.7292      5.5121      5.4358
   152.5000    117.9981      5.6255      5.5745
   152.0000    111.5306      5.7772      5.7334
   151.5000    105.0019      5.9589      5.9186
   151.0000    103.2225      6.1480      6.1141
   150.5000    103.8355      6.3294      6.2980
   150.0000    103.8899      6.5043      6.4661
   149.5000    103.2638      6.6780      6.6323
   149.0000    102.7798      6.8396      6.7973
   148.5000    102.7030      6.9609      6.9288
   148.0000    103.0174      7.0214      6.9824
   147.5000    103.7160      7.0284      6.9357
   147.0000    105.3690      7.0089      6.8070
   146.5000    108.9309      6.9787      6.6518
   146.0000    112.7756      6.9241      6.5286
   145.5000    113.8658      6.8112      6.4534
   145.0000    114.5577      6.6247      6.3912
   144.5000    116.1738      6.4045      6.3013
   144.0000    115.7555      6.2339      6.1918
   143.5000    113.2644      6.1878      6.1224
   143.0000    112.6705      6.2801      6.1408
   142.5000    114.4054      6.4433      6.2405
   142.0000    115.3121      6.5793      6.3740
   141.5000    114.8580      6.6530      6.4924
   141.0000    116.1457      6.7022      6.5628
   140.5000    118.2180      6.7616      6.5872
   140.0000    117.4156      6.8341      6.6066
   139.5000    117.1225      6.9131      6.6592
   139.0000    121.0080      6.9852      6.7480
   138.5000    124.4023      7.0190      6.8482
   138.0000    122.2930      7.0099      6.9333
   137.5000    116.7108      7.0224      7.0035
   137.0000    113.2576      7.1318      7.0981
   136.5000    114.3699      7.3333      7.2435
   136.0000    117.1110      7.5422      7.4032
   135.5000    117.7874      7.6767      7.5103
   135.0000    116.7022      7.7190      7.5244
   134.5000    115.2023      7.6981      7.4502
   134.0000    113.1217      7.6459      7.3352
   133.5000    111.9927      7.5601      7.2234
   133.0000    115.1105      7.4164      7.1189
   132.5000    120.1102      7.2212      7.0175
   132.0000    122.5172      7.0316      6.9261
   131.5000    122.3937      6.8979      6.8312
   131.0000    120.9061      6.8204      6.7171
   130.5000    116.9081      6.7761      6.5934
   130.0000    113.1058      6.7510      6.4705
   129.5000    110.7375      6.7162      6.3498
   129.0000    108.7720      6.6255      6.2344
