~Version Information
 VERS.                2.00:   CWLS log ASCII Standard -VERSION 2.00
 WRAP.                  NO:   One line per frame
~Well Information Block
#MNEM.UNIT              Data                Description
#--------- -------------------------------  -------------------------------
 STRT.F                         1214.0000:   Starting Depth
 STOP.F                           -9.7500:   Ending Depth
 STEP.F                           -0.5000:   Level Spacing
 NULL.                          -999.2500:   Absent Value
 COMP.     FLUOR DANIEL (NPSOR), INC.    :   Company
 WELL.     66 X 14                       :   Well
 FLD .     NPR NO.3                      :   Field
 LOC .     SEC.14/TWP.38N/RGE.78W        :   Location
 CNTY.     NATRONA                       :   County
 STAT.     WYOMING                       :   State
 SRVC.     ATLAS WIRELINE SERVICES       :   Service Company
 LIC .                                   :   License Number
 DATE.     27-AUGUST-1994                :   Log Date
 API .     4902522638                    :   API Number
~Curve Information Block
#MNEM.UNIT       API Codes    Curve Description
#---------    -------------   -------------------------------
 DEPT.F        0   0  0  0:   Depth
 GR  .API      0   0  0  0:   Gamma ray counts
 RILM.OHMM     0   0  0  0:   Resistivity from CILM
 RILD.OHMM     0   0  0  0:   Resistivity from CILD
#  Curve Data
~A
# ...
   295.5000    119.3021      5.3266      5.2819
   295.0000    118.3361      5.6042      5.5077
   294.5000    116.0549      5.8816      5.7335
   294.0000    114.0214      6.1023      5.9261
   293.5000    110.9361      6.2339      6.0612
   293.0000    109.5090      6.2944      6.1174
   292.5000    113.7485      6.3061      6.0895
   292.0000    117.6127      6.2688      6.0007
   291.5000    115.1844      6.1857      5.8893
   291.0000    110.4455      6.0682      5.7782
   290.5000    108.5114      5.9195      5.6652
   290.0000    109.7438      5.7468      5.5457
   289.5000    113.1285      5.5804      5.4324
   289.0000    115.7494      5.4561      5.3413
   288.5000    116.4775      5.3867      5.2842
   288.0000    115.9425      5.3627      5.2699
   287.5000    114.5452      5.3702      5.2926
   287.0000    112.4794      5.4022      5.3285
   286.5000    110.1799      5.4582      5.3613
   286.0000    109.5596      5.5362      5.3971
   285.5000    109.7901      5.6208      5.4434
   285.0000    110.2799      5.6899      5.4910
   284.5000    113.1794      5.7313      5.5221
   284.0000    118.5723      5.7414      5.5216
   283.5000    119.6229      5.7090      5.4809
   283.0000    114.7290      5.6294      5.3970
   282.5000    111.5113      5.5279      5.2811
   282.0000    113.8932      5.4328      5.1640
   281.5000    117.1724      5.3423      5.0767
   281.0000    118.0311      5.2442      5.0232
   280.5000    117.5482      5.1424      4.9900
   280.0000    117.5497      5.0594      4.9675
   279.5000    119.3001      5.0266      4.9598
   279.0000    120.9965      5.0650      4.9785
   278.5000    119.3972      5.1649      5.0344
   278.0000    116.6424      5.2896      5.1231
   277.5000    115.1104      5.4027      5.2223
   277.0000    113.5837      5.4919      5.3077
   276.5000    115.0059      5.5606      5.3741
   276.0000    120.6430      5.6065      5.4241
   275.5000    124.8587      5.6304      5.4538
   275.0000    123.4851      5.6422      5.4678
   274.5000    119.7655      5.6447      5.4768
   274.0000    117.9552      5.6338      5.4799
   273.5000    118.2745      5.6192      5.4767
   273.0000    118.8775      5.6108      5.4729
   272.5000    119.3822      5.6073      5.4708
   272.0000    119.2922      5.6047      5.4733
   271.5000    117.0860      5.6083      5.4847
   271.0000    114.4118      5.6263      5.5045
   270.5000    114.7401      5.6583      5.5285
   270.0000    116.6949      5.7004      5.5548
   269.5000    118.8133      5.7496      5.5855
   269.0000    120.5238      5.7926      5.6199
   268.5000    120.5690      5.8101      5.6416
   268.0000    118.3671      5.8048      5.6332
   267.5000    116.7390      5.8004      5.6078
   267.0000    117.8247      5.8070      5.6023
   266.5000    120.5242      5.8184      5.6410
   266.0000    121.6040      5.8352      5.7180
   265.5000    120.0645      5.8693      5.8209
   265.0000    118.7696      5.9321      5.9409
   264.5000    119.3756      6.0402      6.0685
   264.0000    120.9066      6.2109      6.1956
   263.5000    123.4359      6.4353      6.3207
   263.0000    126.3496      6.6608      6.4459
   262.5000    126.8189      6.8197      6.5597
   262.0000    124.9217      6.8816      6.6294
   261.5000    123.1606      6.8626      6.6337
   261.0000    122.3279      6.7963      6.5851
   260.5000    121.9775      6.7153      6.5125
   260.0000    121.5011      6.6369      6.4319
   259.5000    119.9930      6.5591      6.3467
   259.0000    118.4278      6.4788      6.2519
   258.5000    119.8142      6.3909      6.1410
   258.0000    122.4295      6.2872      6.0209
   257.5000    123.2056      6.1769      5.9064
   257.0000    122.6623      6.0845      5.8199
   256.5000    123.1073      6.0096      5.7715
   256.0000    123.1328      5.9355      5.7477
   255.5000    120.6559      5.8725      5.7319
   255.0000    117.8927      5.8565      5.7376
   254.5000    118.2133      5.9033      5.7891
   254.0000    120.4083      5.9951      5.8842
   253.5000    120.0937      6.1062      5.9975
   253.0000    118.2986      6.2232      6.1150
   252.5000    118.1103      6.3491      6.2455
   252.0000    119.2154      6.4977      6.4049
   251.5000    118.5871      6.6639      6.5886
   251.0000    116.1065      6.8031      6.7556
   250.5000    113.2645      6.8819      6.8607
   250.0000    111.3913      6.9401      6.9025
   249.5000    110.6677      7.0424      6.9173
   249.0000    111.3237      7.1840      6.9448
   248.5000    112.2407      7.2918      6.9997
   248.0000    114.4919      7.3152      7.0615
   247.5000    118.1044      7.2700      7.0978
   247.0000    119.4589      7.1945      7.0706
   246.5000    116.1831      7.1020      6.9362
   246.0000    110.9703      6.9866      6.6970
   245.5000    107.0583      6.8655      6.4257
   245.0000    106.0613      6.7638      6.1956
   244.5000    110.6370      6.6376      6.0302
   244.0000    118.2553      6.3926      5.9124
   243.5000    121.9687      6.0459      5.7986
   243.0000    120.4174      5.7491      5.6760
   242.5000    117.5972      5.6152      5.5932
   242.0000    113.7455      5.6407      5.5978
   241.5000    108.6109      5.7710      5.6856
   241.0000    107.5119      5.9639      5.8264
   240.5000    113.8875      6.1802      5.9938
   240.0000    121.6375      6.3689      6.1555
   239.5000    122.7898      6.5000      6.2822
   239.0000    118.5379      6.5838      6.3717
   238.5000    115.8487      6.6315      6.4375
   238.0000    115.9739      6.6323      6.4707
   237.5000    115.4149      6.6000      6.4607
   237.0000    113.9728      6.5819      6.4300
   236.5000    115.0079      6.5954      6.4071
   236.0000    118.9019      6.6036      6.3909
   235.5000    121.6502      6.5657      6.3615
   235.0000    120.6503      6.4878      6.3038
   234.5000    117.4052      6.4034      6.2188
   234.0000    115.6852      6.3287      6.1252
   233.5000    116.4922      6.2573      6.0361
   233.0000    117.0285      6.1796      5.9380
   232.5000    116.1589      6.0883      5.8190
   232.0000    115.0015      5.9814      5.6851
   231.5000    112.7942      5.8677      5.5471
   231.0000    110.4925      5.7513      5.4161
   230.5000    110.0317      5.6244      5.3069
   230.0000    109.6518      5.4849      5.2190
   229.5000    107.5858      5.3493      5.1406
   229.0000    107.7589      5.2395      5.0661
   228.5000    110.4011      5.1681      5.0003
   228.0000    112.5890      5.1391      4.9531
   227.5000    114.6538      5.1482      4.9352
   227.0000    119.8517      5.1737      4.9437
   226.5000    124.8613      5.1858      4.9627
   226.0000    124.5193      5.1780      4.9821
   225.5000    120.2706      5.1746      5.0077
   225.0000    115.8986      5.1972      5.0509
   224.5000    114.5659      5.2460      5.1106
   224.0000    116.8472      5.3109      5.1769
   223.5000    118.2404      5.3900      5.2513
   223.0000    116.3972      5.4878      5.3405
   222.5000    115.4379      5.6012      5.4423
   222.0000    115.5729      5.7127      5.5472
   221.5000    114.0372      5.8089      5.6470
   221.0000    114.2547      5.8906      5.7359
   220.5000    115.6156      5.9604      5.8084
   220.0000    112.7594      6.0132      5.8596
   219.5000    108.6799      6.0445      5.8918
   219.0000    109.1650      6.0660      5.9194
   218.5000    112.1793      6.0972      5.9522
   218.0000    113.7188      6.1351      5.9879
   217.5000    112.3663      6.1554      6.0163
   217.0000    109.8508      6.1560      6.0313
   216.5000    109.0476      6.1618      6.0402
   216.0000    109.6826      6.1885      6.0509
   215.5000    109.7358      6.2278      6.0580
   215.0000    108.6568      6.2614      6.0512
   214.5000    108.6615      6.2776      6.0302
   214.0000    109.1168      6.2796      6.0070
   213.5000    108.5986      6.2660      5.9832
   213.0000    107.4690      6.2247      5.9464
   212.5000    107.0848      6.1565      5.8963
