~Version Information
 VERS.                2.00:   CWLS log ASCII Standard -VERSION 2.00
 WRAP.                  NO:   One line per frame
~Well Information Block
#MNEM.UNIT              Data                Description
#--------- -------------------------------  -------------------------------
 STRT.F                         1214.0000:   Starting Depth
 STOP.F                           -9.7500:   Ending Depth
 STEP.F                           -0.5000:   Level Spacing
 NULL.                          -999.2500:   Absent Value
 COMP.     FLUOR DANIEL (NPSOR), INC.    :   Company
 WELL.     66 X 14                       :   Well
 FLD .     NPR NO.3                      :   Field
 LOC .     SEC.14/TWP.38N/RGE.78W        :   Location
 CNTY.     NATRONA                       :   County
 STAT.     WYOMING                       :   State
 SRVC.     ATLAS WIRELINE SERVICES       :   Service Company
 LIC .                                   :   License Number
 DATE.     27-AUGUST-1994                :   Log Date
 API .     4902522638                    :   API Number
~Curve Information Block
#MNEM.UNIT       API Codes    Curve Description
#---------    -------------   -------------------------------
 DEPT.F        0   0  0  0:   Depth
 GR  .API      0   0  0  0:   Gamma ray counts
 RILM.OHMM     0   0  0  0:   Resistivity from CILM
 RILD.OHMM     0   0  0  0:   Resistivity from CILD
#  Curve Data
~A
# ...
   546.0000    113.2874      5.0155      4.9653
   545.5000    117.6518      4.9986      4.9883
   545.0000    120.1586      4.9207      4.9423
   544.5000    119.2547      4.7813      4.7628
   544.0000    116.4299      4.5908      4.4248
   543.5000    113.5945      4.3346      3.9781
   543.0000    111.8583      4.0226      3.5182
   542.5000    111.9706      3.7075      3.1778
   542.0000    113.7318      3.4042      2.9594
   541.5000    115.6730      3.0871      2.8170
   541.0000    117.8541      2.7828      2.7107
   540.5000    119.0494      2.5767      2.6279
   540.0000    116.6519      2.5279      2.5916
   539.5000    113.8561      2.6362      2.6393
   539.0000    114.3094      2.8614      2.7858
   538.5000    115.3247      3.1472      3.0113
   538.0000    114.1024      3.4373      3.2807
   537.5000    112.6273      3.6877      3.5606
   537.0000    111.7214      3.8867      3.8263
   536.5000    112.3886      4.0502      4.0596
   536.0000    114.1279      4.1929      4.2381
   535.5000    114.6805      4.3139      4.3543
   535.0000    113.1091      4.4019      4.4058
   534.5000    111.4295      4.4501      4.4157
   534.0000    112.3817      4.4698      4.4219
   533.5000    117.7217      4.4807      4.4520
   533.0000    123.5877      4.4820      4.5033
   532.5000    123.4369      4.4509      4.5360
   532.0000    118.6980      4.3834      4.4824
   531.5000    113.8567      4.2992      4.2832
   531.0000    108.9777      4.1764      3.9213
   530.5000    103.9640      3.9464      3.4334
   530.0000    101.3336      3.6008      2.9667
   529.5000    101.9350      3.2234      2.6189
   529.0000    104.2870      2.8816      2.4084
   528.5000    106.4712      2.5815      2.3023
   528.0000    108.9017      2.3098      2.2577
   527.5000    110.9757      2.1134      2.2432
   527.0000    111.1738      2.0514      2.2621
   526.5000    111.4148      2.1685      2.3551
   526.0000    114.2469      2.5014      2.5708
   525.5000    117.1855      3.0228      2.9419
   525.0000    118.2397      3.6762      3.4656
   524.5000    118.1458      4.2895      4.0615
   524.0000    117.1882      4.7060      4.5434
   523.5000    114.2013      4.9079      4.8407
   523.0000    111.6412      4.9841      4.9701
   522.5000    113.6201      5.0225      5.0150
   522.0000    118.4855      5.0641      5.0427
   521.5000    120.7442      5.1110      5.0773
   521.0000    118.3794      5.1427      5.1150
   520.5000    114.5297      5.1340      5.1275
   520.0000    114.1452      5.0748      5.0619
   519.5000    118.0932      4.9643      4.8785
   519.0000    121.4971      4.7988      4.5955
   518.5000    121.8310      4.5902      4.2816
   518.0000    121.9142      4.3751      4.0242
   517.5000    125.0477      4.1905      3.8683
   517.0000    130.9299      4.0283      3.8153
   516.5000    133.8054      3.8567      3.8108
   516.0000    130.2545      3.7077      3.8186
   515.5000    125.1518      3.6829      3.8495
   515.0000    124.0009      3.8605      3.9539
   514.5000    125.2173      4.2195      4.1657
   514.0000    124.6131      4.6391      4.4656
   513.5000    120.1522      4.9929      4.7808
   513.0000    114.3946      5.2423      5.0571
   512.5000    112.8082      5.4318      5.2823
   512.0000    115.3754      5.6000      5.4654
   511.5000    119.0849      5.7680      5.6339
   511.0000    122.2696      5.9315      5.8004
   510.5000    123.5157      6.0698      5.9492
   510.0000    122.6800      6.1798      6.0683
   509.5000    121.8461      6.2809      6.1538
   509.0000    121.8881      6.3764      6.2162
   508.5000    121.4016      6.4359      6.2690
   508.0000    119.5747      6.4300      6.2803
   507.5000    116.2063      6.3581      6.2137
   507.0000    112.0823      6.2467      6.0992
   506.5000    111.6102      6.1183      5.9822
   506.0000    114.5385      5.9655      5.8524
   505.5000    115.4965      5.7884      5.6762
   505.0000    114.3335      5.6165      5.4573
   504.5000    115.6771      5.4703      5.2456
   504.0000    118.4297      5.3345      5.0786
   503.5000    121.6655      5.1755      4.9248
   503.0000    125.5268      4.9620      4.7088
   502.5000    126.2446      4.6772      4.3837
   502.0000    123.2589      4.3416      3.9656
   501.5000    120.1184      3.9913      3.5112
   501.0000    120.3176      3.6659      3.1390
   500.5000    125.3924      3.3641      2.8598
   500.0000    131.2937      3.0420      2.6316
   499.5000    132.0551      2.7010      2.4322
   499.0000    130.3546      2.4196      2.2802
   498.5000    129.3950      2.2703      2.2018
   498.0000    128.4487      2.2571      2.2168
   497.5000    125.9649      2.3191      2.3157
   497.0000    119.6032      2.4173      2.4688
   496.5000    111.2343      2.5800      2.6532
   496.0000    107.3417      2.8594      2.8823
   495.5000    107.9306      3.2739      3.1803
   495.0000    108.8294      3.7576      3.5409
   494.5000    109.2736      4.1773      3.9140
   494.0000    110.9294      4.4256      4.2058
   493.5000    115.1162      4.5096      4.3834
   493.0000    120.0833      4.5172      4.4736
   492.5000    120.7149      4.5225      4.5273
   492.0000    118.5271      4.5509      4.5808
   491.5000    117.8336      4.5992      4.6428
   491.0000    117.8382      4.6650      4.7052
   490.5000    117.8070      4.7508      4.7642
   490.0000    118.6897      4.8468      4.8187
   489.5000    119.8387      4.9287      4.8578
   489.0000    120.2496      4.9772      4.8667
   488.5000    117.8926      4.9940      4.8386
   488.0000    112.8319      4.9962      4.7844
   487.5000    109.7754      4.9958      4.7311
   487.0000    111.2047      4.9792      4.6939
   486.5000    113.5126      4.9291      4.6631
   486.0000    116.4729      4.8587      4.6303
   485.5000    121.2093      4.7947      4.5972
   485.0000    126.0300      4.7461      4.5628
   484.5000    127.0988      4.7095      4.5261
   484.0000    125.1919      4.6856      4.4933
   483.5000    125.1364      4.6756      4.4697
   483.0000    127.5688      4.6767      4.4606
   482.5000    129.3299      4.6820      4.4731
   482.0000    129.7743      4.6880      4.5087
   481.5000    129.0002      4.7014      4.5657
   481.0000    127.7991      4.7371      4.6420
   480.5000    127.6654      4.8067      4.7316
   480.0000    127.4331      4.9134      4.8285
   479.5000    126.5489      5.0521      4.9325
   479.0000    127.5348      5.2072      5.0393
   478.5000    128.9433      5.3497      5.1391
   478.0000    127.0397      5.4433      5.2161
   477.5000    124.2117      5.4793      5.2564
   477.0000    124.4623      5.4791      5.2612
   476.5000    127.1255      5.4585      5.2455
   476.0000    127.3144      5.4211      5.2249
   475.5000    123.1718      5.3746      5.2062
   475.0000    118.7767      5.3379      5.1917
   474.5000    118.3156      5.3303      5.1857
   474.0000    120.3735      5.3604      5.2013
   473.5000    122.0928      5.4182      5.2451
   473.0000    123.6272      5.4832      5.3215
   472.5000    124.6239      5.5451      5.4184
   472.0000    123.7941      5.6116      5.5083
   471.5000    122.3497      5.6900      5.5738
   471.0000    123.5646      5.7790      5.6149
   470.5000    125.0388      5.8713      5.6333
   470.0000    124.9130      5.9509      5.6378
   469.5000    124.1537      5.9867      5.6401
   469.0000    122.9645      5.9567      5.6325
   468.5000    120.1927      5.8715      5.6019
   468.0000    119.7352      5.7680      5.5497
   467.5000    122.9651      5.6834      5.4916
   467.0000    124.7295      5.6361      5.4547
   466.5000    121.6835      5.6285      5.4575
   466.0000    117.6484      5.6549      5.4964
   465.5000    118.1089      5.7050      5.5659
   465.0000    121.2717      5.7761      5.6687
   464.5000    121.8248      5.8852      5.8053
   464.0000    120.8401      6.0482      5.9767
   463.5000    124.2048      6.2470      6.1662
   463.0000    128.3392      6.4327      6.3259
