~Version Information
 VERS.                2.00:   CWLS log ASCII Standard -VERSION 2.00
 WRAP.                  NO:   One line per frame
~Well Information Block
#MNEM.UNIT              Data                Description
#--------- -------------------------------  -------------------------------
 STRT.F                         1214.0000:   Starting Depth
 STOP.F                           -9.7500:   Ending Depth
 STEP.F                           -0.5000:   Level Spacing
 NULL.                          -999.2500:   Absent Value
 COMP.     FLUOR DANIEL (NPSOR), INC.    :   Company
 WELL.     66 X 14                       :   Well
 FLD .     NPR NO.3                      :   Field
 LOC .     SEC.14/TWP.38N/RGE.78W        :   Location
 CNTY.     NATRONA                       :   County
 STAT.     WYOMING                       :   State
 SRVC.     ATLAS WIRELINE SERVICES       :   Service Company
 LIC .                                   :   License Number
 DATE.     27-AUGUST-1994                :   Log Date
 API .     4902522638                    :   API Number
~Curve Information Block
#MNEM.UNIT       API Codes    Curve Description
#---------    -------------   -------------------------------
 DEPT.F        0   0  0  0:   Depth
 GR  .API      0   0  0  0:   Gamma ray counts
 RILM.OHMM     0   0  0  0:   Resistivity from CILM
 RILD.OHMM     0   0  0  0:   Resistivity from CILD
#  Curve Data
~A
# ...
    45.0000     66.4102  10000.0000     14.5329
    44.5000     70.4524  10000.0000     12.3436
    44.0000     71.9987  10000.0000     10.1385
    43.5000     71.7385  10000.0000      9.0055
    43.0000     72.0780  10000.0000      8.7634
    42.5000     72.8235  10000.0000      8.8518
    42.0000     71.9516  10000.0000      8.7788
    41.5000     69.7773  10000.0000      8.4418
    41.0000     69.0770  10000.0000      8.0570
    40.5000     68.7608  10000.0000      7.7362
    40.0000     66.8267  10000.0000      7.4033
    39.5000     66.0006  10000.0000      7.0592
    39.0000     68.0603  10000.0000      7.0322
    38.5000     69.8779  10000.0000      7.6799
    38.0000     68.7783  10000.0000      8.9678
    37.5000     65.8937  10000.0000      9.9412
    37.0000     64.8285  10000.0000      9.3570
    36.5000     67.5709  10000.0000      7.8733
    36.0000     69.3520  10000.0000      6.7854
    35.5000     67.5721  10000.0000      6.4646
    35.0000     66.5776  10000.0000      6.9448
    34.5000     68.9364  10000.0000      8.4630
    34.0000     71.5086  10000.0000     11.1694
    33.5000     71.1578  10000.0000     13.1260
    33.0000     67.8528  10000.0000     11.1307
    32.5000     64.6301  10000.0000      7.7730
    32.0000     62.5898  10000.0000      5.8605
    31.5000     60.6193  10000.0000      5.3953
    31.0000     58.7100  10000.0000      6.1785
    30.5000     59.3672  10000.0000      8.1156
    30.0000     60.5632    220.0922      9.7750
    29.5000     58.9728    212.2660      8.6684
    29.0000     56.2682    213.1900      6.7611
    28.5000     55.6504    214.5156      6.9149
    28.0000     56.2906    214.2227     11.8074
    27.5000     57.8115    214.0923     44.4600
    27.0000     60.5954    214.8416  10000.0000
    26.5000     62.6951    214.6052  10000.0000
    26.0000     62.4076    212.4319  10000.0000
    25.5000     60.9691    209.5400  10000.0000
    25.0000     60.0217    208.0244  10000.0000
    24.5000     59.8209    208.3606  10000.0000
    24.0000     60.0651    208.2894  10000.0000
    23.5000     60.8173    205.9432  10000.0000
    23.0000     63.4614    202.8597  10000.0000
    22.5000     66.6015    201.7577  10000.0000
    22.0000     66.8284    203.4337  10000.0000
    21.5000     65.2095    207.0642  10000.0000
    21.0000     66.4624    210.5772  10000.0000
    20.5000     70.6192    211.8022  10000.0000
    20.0000     74.1640    210.4509  10000.0000
    19.5000     75.0644    208.4851  10000.0000
    19.0000     74.1335    207.8970  10000.0000
    18.5000     74.1924    209.3792  10000.0000
    18.0000     76.8335    210.9688  10000.0000
    17.5000     79.4017    209.4787  10000.0000
    17.0000     79.9272    204.8799  10000.0000
    16.5000     79.4902    200.4464  10000.0000
    16.0000     79.1671    198.2930  10000.0000
    15.5000     77.5584    198.6045      0.2000
    15.0000     71.3817    200.5245      0.2000
    14.5000     59.9642    201.5731      0.2000
    14.0000     54.6694    199.5957      0.2000
    13.5000     60.4917    196.0602      0.2000
    13.0000     68.9780    195.6005      0.2000
    12.5000     72.3010    199.4742      0.2000
    12.0000     71.7255      0.2000      0.2000
    11.5000     64.4950      0.2000      0.2000
    11.0000     50.1695      0.2000      0.2000
    10.5000     33.5489      0.2000      0.2000
    10.0000     19.3799      0.2000      0.2000
     9.5000     11.0011      0.2000      0.2000
     9.0000      8.1868      0.2000      0.2000
     8.5000      7.6538      0.2000      0.2000
     8.0000      7.4404      0.2000      0.2000
     7.5000      7.8035      0.2000      0.2000
     7.0000      8.1798      0.2000      0.2000
     6.5000      7.7393      0.2000      0.2000
     6.0000      6.8087      0.2000      0.2000
     5.5000      6.0603      0.2000      0.2000
     5.0000      7.2275      0.2000      0.2000
     4.5000     12.6111      0.2000      0.2000
     4.0000     21.8654      0.2000      0.2000
     3.5000     31.7733      0.2000      0.2000
     3.0000     38.6604      0.2000      0.2000
     2.5000     40.8408      0.2000      0.2000
     2.0000     37.6243      0.2000      0.2000
     1.5000     30.2521      0.2000      0.2000
     1.0000     21.5244      0.2000      0.2000
     0.5000     15.5894      0.2000      0.2000
     0.0000     15.2343      0.2000      0.2000
    -0.5000     19.2906      0.2000      0.2000
    -1.0000     23.2205      0.2000      0.2000
    -1.5000     24.9934      0.2000      0.2000
    -2.0000     25.6573      0.2000      0.2000
    -2.5000     26.2912      0.2000      0.2000
    -3.0000     27.7838      0.2000      0.2000
    -3.5000     31.3955      0.2000      0.2000
    -4.0000     34.8948      0.2000      0.2000
    -4.5000     36.1266      0.2000      0.2000
    -5.0000     36.5574      0.2000      0.2000
    -5.5000     36.5574      0.2000      0.2000
    -6.0000     36.5574      0.2000      0.2000
    -6.5000     36.5574      0.2000      0.2000
    -7.0000     36.5574      0.2000      0.2000
    -7.5000     36.5574      0.2000      0.2000
    -8.0000     36.5574      0.2000      0.2000
    -8.5000     36.5574      0.2000      0.2000
    -9.0000     36.5574      0.2000      0.2000
    -9.5000     36.5574      0.2000      0.2000
