~Version Information
 VERS.                2.00:   CWLS log ASCII Standard -VERSION 2.00
 WRAP.                  NO:   One line per frame
~Well Information Block
#MNEM.UNIT              Data                Description
#--------- -------------------------------  -------------------------------
 STRT.F                         1214.0000:   Starting Depth
 STOP.F                           -9.7500:   Ending Depth
 STEP.F                           -0.5000:   Level Spacing
 NULL.                          -999.2500:   Absent Value
 COMP.     FLUOR DANIEL (NPSOR), INC.    :   Company
 WELL.     66 X 14                       :   Well
 FLD .     NPR NO.3                      :   Field
 LOC .     SEC.14/TWP.38N/RGE.78W        :   Location
 CNTY.     NATRONA                       :   County
 STAT.     WYOMING                       :   State
 SRVC.     ATLAS WIRELINE SERVICES       :   Service Company
 LIC .                                   :   License Number
 DATE.     27-AUGUST-1994                :   Log Date
 API .     4902522638                    :   API Number
~Curve Information Block
#MNEM.UNIT       API Codes    Curve Description
#---------    -------------   -------------------------------
 DEPT.F        0   0  0  0:   Depth
 GR  .API      0   0  0  0:   Gamma ray counts
 RILM.OHMM     0   0  0  0:   Resistivity from CILM
 RILD.OHMM     0   0  0  0:   Resistivity from CILD
#  Curve Data
~A
# ...
   880.0000    114.1328      7.5944      7.4484
   879.5000    112.9683      7.5923      7.4599
   879.0000    115.2842      7.6164      7.4676
   878.5000    118.6272      7.6598      7.4738
   878.0000    118.6150      7.6925      7.4905
   877.5000    115.7121      7.6996      7.5068
   877.0000    113.5313      7.6925      7.5056
   876.5000    112.3608      7.6827      7.4964
   876.0000    111.5076      7.6754      7.4906
   875.5000    110.8697      7.6819      7.4947
   875.0000    111.1767      7.7017      7.5214
   874.5000    111.6254      7.7251      7.5679
   874.0000    111.0395      7.7664      7.6272
   873.5000    110.4437      7.8440      7.7062
   873.0000    111.2037      7.9433      7.7975
   872.5000    112.7883      8.0336      7.8735
   872.0000    114.8121      8.1044      7.9242
   871.5000    115.5043      8.1656      7.9685
   871.0000    113.7733      8.2261      8.0229
   870.5000    112.2391      8.2794      8.0839
   870.0000    112.4559      8.3137      8.1442
   869.5000    113.8819      8.3320      8.2093
   869.0000    115.3129      8.3655      8.2886
   868.5000    115.5649      8.4512      8.3926
   868.0000    113.9036      8.5926      8.5158
   867.5000    110.8492      8.7565      8.6351
   867.0000    106.8851      8.9153      8.7267
   866.5000    105.0097      9.0621      8.7908
   866.0000    107.7374      9.1896      8.8415
   865.5000    111.9057      9.2610      8.8828
   865.0000    113.5062      9.2319      8.8945
   864.5000    112.8938      9.1138      8.8569
   864.0000    113.3117      8.9767      8.7847
   863.5000    115.8858      8.8916      8.7230
   863.0000    119.8804      8.8782      8.7091
   862.5000    122.6689      8.9053      8.7427
   862.0000    121.5798      8.9402      8.7957
   861.5000    118.2941      8.9858      8.8507
   861.0000    117.8701      9.0554      8.9094
   860.5000    117.7360      9.1518      8.9860
   860.0000    112.8701      9.2703      9.1029
   859.5000    107.4555      9.3899      9.2587
   859.0000    106.8557      9.4994      9.4210
   858.5000    108.4642      9.6115      9.5526
   858.0000    109.8588      9.7307      9.6477
   857.5000    111.5786      9.8490      9.7262
   857.0000    112.9683      9.9676      9.8032
   856.5000    113.8789     10.0599      9.8621
   856.0000    114.0351     10.0834      9.8756
   855.5000    114.6657     10.0396      9.8412
   855.0000    116.3794      9.9547      9.7647
   854.5000    115.9809      9.8101      9.6352
   854.0000    111.3246      9.5894      9.4345
   853.5000    106.8988      9.3566      9.1830
   853.0000    106.2894      9.1932      8.9386
   852.5000    108.6065      9.0937      8.7403
   852.0000    112.1630      8.9739      8.5828
   851.5000    116.4257      8.7788      8.4347
   851.0000    120.7036      8.5368      8.2644
   850.5000    123.6082      8.3098      8.0766
   850.0000    124.7225      8.1300      7.8978
   849.5000    125.2000      7.9902      7.7315
   849.0000    125.5899      7.8583      7.5573
   848.5000    124.6205      7.7108      7.3808
   848.0000    122.8240      7.5556      7.2207
   847.5000    124.8653      7.4037      7.0832
   847.0000    132.9332      7.2548      6.9605
   846.5000    139.6472      7.1070      6.8470
   846.0000    139.6491      6.9729      6.7445
   845.5000    137.3336      6.8794      6.6632
   845.0000    136.7636      6.8426      6.6178
   844.5000    135.9708      6.8422      6.6126
   844.0000    133.7078      6.8432      6.6336
   843.5000    131.9848      6.8409      6.6606
   843.0000    131.7657      6.8571      6.6902
   842.5000    132.7206      6.9042      6.7297
   842.0000    134.6542      6.9674      6.7853
   841.5000    136.9537      7.0247      6.8533
   841.0000    138.3027      7.0675      6.9169
   840.5000    138.4277      7.1017      6.9606
   840.0000    137.2593      7.1331      6.9844
   839.5000    134.5966      7.1632      6.9936
   839.0000    132.0312      7.1840      6.9936
   838.5000    132.8720      7.1797      6.9859
   838.0000    135.6540      7.1415      6.9599
   837.5000    134.7857      7.0796      6.9103
   837.0000    131.9341      7.0102      6.8483
   836.5000    132.8655      6.9459      6.7802
   836.0000    136.4960      6.8910      6.7051
   835.5000    139.5994      6.8391      6.6258
   835.0000    138.4362      6.7832      6.5476
   834.5000    132.1396      6.7211      6.4719
   834.0000    127.6176      6.6461      6.3961
   833.5000    130.2474      6.5559      6.3180
   833.0000    135.8279      6.4639      6.2436
   832.5000    139.8515      6.3857      6.1860
   832.0000    141.1841      6.3265      6.1524
   831.5000    140.6355      6.2914      6.1430
   831.0000    140.5892      6.2895      6.1563
   830.5000    141.2972      6.3249      6.1885
   830.0000    140.8990      6.3917      6.2377
   829.5000    138.0663      6.4771      6.3069
   829.0000    133.7646      6.5702      6.3970
   828.5000    130.5840      6.6634      6.4941
   828.0000    127.2098      6.7547      6.5773
   827.5000    122.4795      6.8417      6.6435
   827.0000    121.5609      6.9160      6.7080
   826.5000    127.3195      6.9717      6.7689
   826.0000    132.3675      7.0115      6.8147
   825.5000    133.2919      7.0404      6.8480
   825.0000    132.9947      7.0641      6.8763
   824.5000    133.3531      7.0898      6.9024
   824.0000    132.8555      7.1189      6.9368
   823.5000    131.7715      7.1503      6.9879
   823.0000    130.6863      7.1785      7.0396
   822.5000    129.2460      7.1907      7.0605
   822.0000    126.0950      7.1819      7.0363
   821.5000    123.8075      7.1741      6.9809
   821.0000    124.8889      7.1850      6.9205
   820.5000    128.8932      7.1912      6.8755
   820.0000    133.7376      7.1463      6.8410
   819.5000    138.5356      7.0449      6.7874
   819.0000    141.0638      6.9262      6.7061
   818.5000    140.9733      6.8277      6.6238
   818.0000    141.4553      6.7626      6.5639
   817.5000    142.7686      6.7292      6.5297
   817.0000    143.1531      6.7184      6.5202
   816.5000    142.5531      6.7160      6.5285
   816.0000    142.0465      6.7195      6.5455
   815.5000    140.5645      6.7371      6.5638
   815.0000    138.1579      6.7714      6.5882
   814.5000    134.6256      6.8107      6.6265
   814.0000    131.4821      6.8442      6.6699
   813.5000    131.4313      6.8705      6.6985
   813.0000    133.8561      6.8925      6.7069
   812.5000    134.8797      6.9069      6.7045
   812.0000    132.7478      6.9107      6.7007
   811.5000    130.5252      6.9130      6.6992
   811.0000    131.3562      6.9243      6.6984
   810.5000    132.4434      6.9425      6.6992
   810.0000    132.0229      6.9602      6.7113
   809.5000    131.9167      6.9775      6.7388
   809.0000    132.5021      6.9965      6.7813
   808.5000    133.4889      7.0187      6.8359
   808.0000    135.2754      7.0452      6.8912
   807.5000    134.0559      7.0789      6.9293
   807.0000    129.2057      7.1279      6.9521
   806.5000    128.4060      7.2062      6.9822
   806.0000    132.3943      7.3049      7.0316
   805.5000    135.4622      7.3757      7.0838
   805.0000    135.1543      7.3797      7.1139
   804.5000    132.4349      7.3360      7.1100
   804.0000    126.8866      7.2905      7.0803
   803.5000    123.3715      7.2693      7.0525
   803.0000    125.7760      7.2755      7.0530
   802.5000    128.7094      7.2974      7.0887
   802.0000    127.3740      7.3155      7.1407
   801.5000    126.6122      7.3213      7.1859
   801.0000    129.0317      7.3314      7.2139
   800.5000    131.2678      7.3697      7.2364
   800.0000    131.9510      7.4337      7.2636
   799.5000    131.2153      7.4873      7.2868
   799.0000    129.6741      7.5010      7.2874
   798.5000    129.7099      7.4803      7.2615
   798.0000    130.5805      7.4391      7.2229
   797.5000    128.9881      7.3869      7.1822
   797.0000    126.2899      7.3367      7.1468
