~Version Information
 VERS.                2.00:   CWLS log ASCII Standard -VERSION 2.00
 WRAP.                  NO:   One line per frame
~Well Information Block
#MNEM.UNIT              Data                Description
#--------- -------------------------------  -------------------------------
 STRT.F                         1080.0000:   Starting Depth
 STOP.F                            0.2500:   Ending Depth
 STEP.F                           -0.5000:   Level Spacing
 NULL.                          -999.2500:   Absent Value
 COMP.     FLUOR DANIEL (NPSOR), INC.    :   Company
 WELL.     45-1 X 14                     :   Well
 FLD .                                   :   Field
 LOC .                                   :   Location
 PROV.                                   :   Province
 SRVC.                                   :   Service Company
 LIC .                                   :   License Number
 DATE.                                   :   Log Date
 UWI .                                   :   Unique Well ID
~Curve Information Block
#MNEM.UNIT       API Codes    Curve Description
#---------    -------------   -------------------------------
 DEPT.F        0   0  0  0:   Depth
 CILD.MMHO     0   0  0  0:   Conductivity of Deep Induction
 GR  .API      0   0  0  0:   Gamma ray counts
 TEN .LBF      0   0  0  0:   Differential Tension
 RILM.OHMM     0   0  0  0:   Resistivity from CILM
 RILD.OHMM     0   0  0  0:   Resistivity from CILD
#  Curve Data
~A
# ...
   464.0000    150.3942    131.6409    -34.1145      6.7071      6.6492
   463.5000    153.1010    130.8818    -45.0561      6.6030      6.5316
   463.0000    155.7643    131.7317    -44.0243      6.5264      6.4200
   462.5000    157.8434    134.1438    -44.3433      6.4736      6.3354
   462.0000    159.3336    135.7268    -47.3555      6.4184      6.2761
   461.5000    160.7411    133.5856    -43.0779      6.3394      6.2212
   461.0000    162.3049    130.4516    -37.8834      6.2419      6.1612
   460.5000    163.8421    130.1482    -41.0512      6.1527      6.1034
   460.0000    165.0016    130.6768    -46.2444      6.0968      6.0605
   459.5000    165.3655    131.6164    -45.0647      6.0836      6.0472
   459.0000    164.7731    133.1396    -38.8183      6.1039      6.0690
   458.5000    163.4743    133.1531    -36.0632      6.1422      6.1172
   458.0000    161.8547    130.9750    -40.7077      6.1892      6.1784
   457.5000    160.1452    127.9911    -41.6258      6.2474      6.2443
   457.0000    158.3130    126.2517    -36.6552      6.3210      6.3166
   456.5000    156.2573    125.6432    -35.9000      6.4040      6.3997
   456.0000    154.3163    125.2042    -40.1066      6.4827      6.4802
   455.5000    153.0809    123.6278    -41.2156      6.5443      6.5325
   455.0000    152.8319    122.1603    -43.2460      6.5786      6.5431
   454.5000    153.5484    123.0930    -46.4643      6.5817      6.5126
   454.0000    155.0261    128.0270    -41.1363      6.5586      6.4505
   453.5000    156.7656    135.7354    -30.3725      6.5155      6.3790
   453.0000    158.2003    141.9516    -29.5786      6.4520      6.3211
   452.5000    159.2031    143.5113    -34.3128      6.3702      6.2813
   452.0000    159.9791    140.6239    -33.5402      6.2853      6.2508
   451.5000    160.5493    137.1330    -31.8386      6.2213      6.2286
   451.0000    160.7090    135.0916    -34.3119      6.1965      6.2224
   450.5000    160.6662    132.9667    -37.2673      6.2148      6.2241
   450.0000    160.7831    130.6193    -37.2487      6.2650      6.2196
   449.5000    160.9159    129.2584    -35.6481      6.3286      6.2144
   449.0000    160.6790    127.6895    -30.4113      6.3903      6.2236
   448.5000    159.7568    127.3191    -21.8978      6.4356      6.2595
   448.0000    157.3875    130.5528    -18.5059      6.4642      6.3537
   447.5000    152.4801    133.7615    -27.0160      6.5123      6.5582
   447.0000    144.9965    134.1838    -33.4073      6.6350      6.8967
   446.5000    135.9554    132.2171    -26.0625      6.8653      7.3554
   446.0000    126.2756    127.0315    -20.1553      7.2316      7.9192
   445.5000    116.1281    118.9188    -26.0293      7.8306      8.6112
   445.0000    105.3400    113.0578    -31.7130      8.8176      9.4931
   444.5000     94.3394    111.6914    -31.7438     10.2539     10.6000
   444.0000     84.0952    114.7064    -35.0567     11.8722     11.8913
   443.5000     75.6575    117.7336    -41.0862     13.2485     13.2175
   443.0000     69.8235    116.4520    -37.7556     14.0944     14.3218
   442.5000     66.4170    112.4930    -26.4569     14.4837     15.0564
   442.0000     64.5673    109.7584    -23.5795     14.6521     15.4877
   441.5000     63.4757    107.7975    -32.4855     14.8010     15.7541
   441.0000     62.8216    105.1600    -36.3533     15.0066     15.9181
   440.5000     62.3174    102.0732    -31.5327     15.2537     16.0469
   440.0000     61.5849    100.1749    -28.6093     15.5434     16.2378
   439.5000     60.6479     99.6659    -27.8852     15.8815     16.4886
   439.0000     59.8091     99.6392    -28.9216     16.2070     16.7198
   438.5000     59.0657    100.5892    -31.2140     16.4273     16.9303
   438.0000     58.1273    103.2571    -32.2937     16.5623     17.2036
   437.5000     56.8252    103.5734    -36.0873     16.7610     17.5978
   437.0000     55.1850     99.3140    -46.8453     17.1360     18.1209
   436.5000     53.3537     93.2587    -50.3958     17.6380     18.7428
   436.0000     51.4971     89.1062    -43.2810     18.2093     19.4186
   435.5000     49.6166     85.5673    -39.9099     19.0009     20.1546
   435.0000     47.7614     81.5121    -39.5777     20.2093     20.9374
   434.5000     46.3127     78.5258    -33.3853     21.6268     21.5923
   434.0000     45.8308     77.5290    -28.4849     22.5027     21.8194
   433.5000     46.6709     78.6424    -28.9762     22.2975     21.4267
   433.0000     48.7601     81.8223    -27.2539     21.3063     20.5085
   432.5000     51.5481     85.4481    -24.9850     20.0150     19.3994
   432.0000     54.6078     89.8817    -31.0310     18.6199     18.3124
   431.5000     57.9103     97.8400    -39.6152     17.2541     17.2681
   431.0000     61.3381    106.1389    -40.0938     16.0917     16.3031
   430.5000     64.4563    109.8736    -36.2166     15.2228     15.5144
   430.0000     66.9236    109.0022    -38.4660     14.6262     14.9424
   429.5000     68.7750    105.5052    -41.1786     14.2348     14.5402
   429.0000     70.2815    102.3287    -36.9514     13.9740     14.2285
   428.5000     71.6588    101.3860    -31.5062     13.7763     13.9550
   428.0000     72.9251    102.3003    -30.2786     13.6044     13.7127
   427.5000     74.0405    104.3967    -32.1510     13.4307     13.5061
   427.0000     75.0389    107.1162    -36.3835     13.2306     13.3264
   426.5000     76.0279    106.7480    -37.2191     13.0176     13.1531
   426.0000     77.1559    103.9514    -31.3760     12.8113     12.9608
   425.5000     78.4631    103.5018    -30.3423     12.5996     12.7448
   425.0000     79.7566    106.8908    -36.6985     12.3784     12.5381
   424.5000     80.8978    110.2239    -37.0386     12.1682     12.3613
   424.0000     82.0144    111.4403    -30.2542     11.9772     12.1930
   423.5000     83.1882    110.8370    -29.1122     11.8000     12.0209
   423.0000     84.3483    108.6716    -31.3366     11.6398     11.8556
   422.5000     85.5024    106.6579    -31.8124     11.5154     11.6956
   422.0000     86.6705    106.2419    -38.1253     11.4350     11.5380
   421.5000     87.6070    105.6693    -46.8099     11.3840     11.4146
   421.0000     87.9343    102.5736    -42.2206     11.3400     11.3721
   420.5000     87.6530     98.8143    -29.3074     11.2997     11.4086
   420.0000     87.2016     97.4221    -27.8694     11.2661     11.4677
   419.5000     87.0278     98.8723    -34.8401     11.2306     11.4906
   419.0000     87.3767    100.9112    -38.2891     11.1804     11.4447
   418.5000     88.6148    100.9851    -39.6845     11.0890     11.2848
   418.0000     91.0077     99.4430    -39.2312     10.9119     10.9881
   417.5000     94.1918     98.8031    -34.2396     10.6343     10.6166
   417.0000     97.4569     99.9200    -30.5656     10.3177     10.2609
   416.5000    100.3371    101.4603    -27.7211     10.0432      9.9664
   416.0000    102.8976    102.5647    -21.7807      9.8221      9.7184
   415.5000    105.6248    101.9954    -19.7576      9.5906      9.4675
   415.0000    110.0617     98.6276    -21.8197      9.2541      9.0858
   414.5000    118.3730     95.7436    -25.1149      8.7714      8.4479
   414.0000    132.7453     97.3427    -31.5614      8.1456      7.5332
   413.5000    153.8647    102.7796    -34.0475      7.3980      6.4992
   413.0000    179.1306    108.4801    -27.6544      6.6087      5.5825
   412.5000    201.6198    115.6365    -25.9836      5.9059      4.9598
   412.0000    215.0191    124.9826    -30.5775      5.3394      4.6507
   411.5000    218.8065    134.0238    -32.5850      4.8418      4.5702
   411.0000    217.4320    134.9479    -36.2190      4.3750      4.5991
   410.5000    214.3359    125.0677    -43.8999      4.0572      4.6656
   410.0000    207.9944    113.4076    -46.8980      4.0481      4.8078
   409.5000    194.0373    109.0707    -41.6847      4.4745      5.1536
   409.0000    170.9463    107.8055    -35.6252      5.3961      5.8498
   408.5000    143.8289    103.9793    -36.3090      6.6980      6.9527
