~Version Information
 VERS.                2.00:   CWLS log ASCII Standard -VERSION 2.00
 WRAP.                  NO:   One line per frame
~Well Information Block
#MNEM.UNIT              Data                Description
#--------- -------------------------------  -------------------------------
 STRT.F                         1080.0000:   Starting Depth
 STOP.F                            0.2500:   Ending Depth
 STEP.F                           -0.5000:   Level Spacing
 NULL.                          -999.2500:   Absent Value
 COMP.     FLUOR DANIEL (NPSOR), INC.    :   Company
 WELL.     45-1 X 14                     :   Well
 FLD .                                   :   Field
 LOC .                                   :   Location
 PROV.                                   :   Province
 SRVC.                                   :   Service Company
 LIC .                                   :   License Number
 DATE.                                   :   Log Date
 UWI .                                   :   Unique Well ID
~Curve Information Block
#MNEM.UNIT       API Codes    Curve Description
#---------    -------------   -------------------------------
 DEPT.F        0   0  0  0:   Depth
 CILD.MMHO     0   0  0  0:   Conductivity of Deep Induction
 GR  .API      0   0  0  0:   Gamma ray counts
 TEN .LBF      0   0  0  0:   Differential Tension
 RILM.OHMM     0   0  0  0:   Resistivity from CILM
 RILD.OHMM     0   0  0  0:   Resistivity from CILD
#  Curve Data
~A
# ...
   632.0000    132.4645    138.7889    -30.2075      7.6124      7.5492
   631.5000    130.6595    134.8699    -32.6649      7.6654      7.6535
   631.0000    129.0857    131.0167    -27.7520      7.6971      7.7468
   630.5000    128.3516    131.0424    -22.7936      7.7276      7.7911
   630.0000    128.3437    135.7736    -22.3602      7.7655      7.7916
   629.5000    128.5866    138.9583    -21.8331      7.8017      7.7769
   629.0000    128.7172    136.0976    -25.8250      7.8195      7.7690
   628.5000    128.7435    129.1957    -32.6573      7.8058      7.7674
   628.0000    129.0473    122.0197    -33.4314      7.7584      7.7491
   627.5000    129.8839    118.6027    -33.1983      7.6847      7.6992
   627.0000    131.1705    120.2237    -34.3939      7.6163      7.6237
   626.5000    132.7269    123.9557    -32.2977      7.5900      7.5343
   626.0000    134.3174    128.2660    -31.7361      7.5880      7.4451
   625.5000    135.8917    131.4213    -34.4339      7.5433      7.3588
   625.0000    137.6851    134.0146    -34.8710      7.4306      7.2630
   624.5000    139.8544    137.4605    -35.9268      7.2953      7.1503
   624.0000    142.1602    139.5555    -35.7564      7.1763      7.0343
   623.5000    144.2714    139.3419    -32.6551      7.0704      6.9314
   623.0000    146.0425    140.8945    -29.8202      6.9706      6.8473
   622.5000    147.3962    144.2737    -28.7950      6.8872      6.7844
   622.0000    148.1301    143.8180    -27.6574      6.8268      6.7508
   621.5000    148.1521    141.1761    -28.7301      6.7896      6.7498
   621.0000    147.5998    142.2756    -35.0503      6.7825      6.7751
   620.5000    146.6649    145.5499    -42.6692      6.8106      6.8183
   620.0000    145.3275    144.7290    -41.8588      6.8699      6.8810
   619.5000    143.5917    141.1891    -34.5897      6.9545      6.9642
   619.0000    141.6920    139.8292    -31.6129      7.0573      7.0576
   618.5000    139.9474    139.8736    -31.6858      7.1653      7.1455
   618.0000    138.3495    138.9549    -29.9943      7.2659      7.2281
   617.5000    136.6658    137.1470    -31.5007      7.3589      7.3171
   617.0000    134.9249    136.5669    -31.3159      7.4470      7.4115
   616.5000    133.0619    137.9742    -27.5345      7.5319      7.5153
   616.0000    130.7455    138.5526    -28.5636      7.6235      7.6484
   615.5000    127.9614    135.9221    -34.4662      7.7387      7.8149
   615.0000    125.3824    131.5199    -34.8453      7.8738      7.9756
   614.5000    123.3487    127.2236    -34.0639      8.0156      8.1071
   614.0000    121.8071    124.5781    -34.8289      8.1796      8.2097
   613.5000    120.8846    122.0806    -32.8464      8.3740      8.2724
   613.0000    120.7036    118.3830    -30.6595      8.5441      8.2848
   612.5000    121.1412    115.9498    -30.6684      8.6191      8.2548
   612.0000    122.3510    119.4350    -29.7405      8.5904      8.1732
   611.5000    124.4319    125.9834    -30.6964      8.4643      8.0365
   611.0000    127.1341    129.3642    -37.0901      8.2235      7.8657
   610.5000    130.3043    130.9475    -38.8375      7.9119      7.6743
   610.0000    133.6998    135.1405    -35.5050      7.6405      7.4794
   609.5000    136.6359    140.7856    -33.6217      7.4662      7.3187
   609.0000    138.7025    142.8859    -31.5391      7.3568      7.2097
   608.5000    140.0246    139.8178    -27.7745      7.2745      7.1416
   608.0000    140.7867    135.0788    -31.2570      7.2135      7.1029
   607.5000    141.2156    136.0147    -35.8787      7.1729      7.0814
   607.0000    141.5101    141.8321    -34.3634      7.1430      7.0666
   606.5000    141.5642    143.8727    -34.8182      7.1248      7.0639
   606.0000    141.2294    141.1461    -37.5940      7.1298      7.0807
   605.5000    140.8117    140.3420    -32.6286      7.1575      7.1017
   605.0000    140.4734    141.6055    -24.6419      7.1943      7.1188
   604.5000    140.0409    141.4196    -26.8720      7.2288      7.1408
   604.0000    139.4868    141.8325    -34.6925      7.2552      7.1691
   603.5000    138.9541    145.6419    -38.0817      7.2753      7.1966
   603.0000    138.4077    148.4382    -39.2849      7.2891      7.2250
   602.5000    137.9012    147.5881    -41.1668      7.2904      7.2516
   602.0000    137.6246    144.9486    -41.7810      7.2824      7.2661
   601.5000    137.6013    141.1140    -40.8133      7.2808      7.2674
   601.0000    137.7391    136.1383    -40.7315      7.2882      7.2601
   600.5000    137.8542    132.4040    -40.0084      7.2956      7.2540
   600.0000    137.6793    131.5026    -37.3271      7.3099      7.2633
   599.5000    137.1453    132.3518    -34.9091      7.3461      7.2915
   599.0000    136.2938    133.2888    -32.1147      7.4002      7.3371
   598.5000    135.0835    133.7464    -28.2125      7.4504      7.4028
   598.0000    133.6468    136.1830    -28.0405      7.4902      7.4824
   597.5000    132.4097    140.0316    -32.4618      7.5272      7.5523
   597.0000    131.6273    140.1195    -32.0887      7.5758      7.5972
   596.5000    131.1685    135.3865    -29.4526      7.6578      7.6238
   596.0000    130.7367    132.4828    -31.0740      7.7737      7.6490
   595.5000    130.2275    135.3885    -33.8001      7.8665      7.6789
   595.0000    129.8860    139.0950    -35.7689      7.8751      7.6991
   594.5000    130.0382    138.2985    -35.9342      7.8146      7.6900
   594.0000    130.7356    135.1281    -28.9335      7.7417      7.6490
   593.5000    131.6112    133.2085    -19.8314      7.6851      7.5981
   593.0000    132.2032    133.6534    -21.0490      7.6511      7.5641
   592.5000    132.2735    135.4832    -28.0530      7.6396      7.5601
   592.0000    131.7589    138.6722    -29.3797      7.6403      7.5896
   591.5000    130.8276    139.9995    -26.6973      7.6436      7.6436
   591.0000    129.8721    137.7256    -25.9720      7.6557      7.6999
   590.5000    129.1031    136.4519    -27.7690      7.6955      7.7457
   590.0000    128.3726    139.3180    -31.6032      7.7746      7.7898
   589.5000    127.6698    139.8425    -36.4701      7.8732      7.8327
   589.0000    127.2638    135.9998    -38.0423      7.9489      7.8577
   588.5000    127.3313    131.8360    -33.2310      7.9736      7.8535
   588.0000    127.8217    129.1547    -26.4414      7.9497      7.8234
   587.5000    128.6294    128.2834    -26.1894      7.8932      7.7743
   587.0000    129.6635    130.6431    -28.7850      7.8129      7.7123
   586.5000    130.9994    132.7068    -28.8829      7.7112      7.6336
   586.0000    132.6898    131.4269    -32.1232      7.6004      7.5364
   585.5000    134.4177    131.6048    -35.3385      7.5057      7.4395
   585.0000    135.6341    135.6647    -31.4406      7.4403      7.3728
   584.5000    136.1162    138.0817    -29.8873      7.3994      7.3467
   584.0000    136.0099    136.7797    -33.7303      7.3772      7.3524
   583.5000    135.4738    136.5173    -35.1253      7.3737      7.3815
   583.0000    134.6836    137.6879    -36.6561      7.3879      7.4248
   582.5000    133.8973    135.3810    -41.3848      7.4207      7.4684
   582.0000    133.2813    129.8052    -38.4026      7.4742      7.5029
   581.5000    132.6497    126.6047    -32.1485      7.5420      7.5387
   581.0000    131.8315    127.7575    -31.7093      7.6078      7.5854
   580.5000    130.9805    130.7032    -31.5736      7.6632      7.6347
   580.0000    130.2848    133.1583    -28.5205      7.7015      7.6755
   579.5000    130.0249    133.1678    -28.1655      7.7054      7.6908
   579.0000    130.7314    131.4299    -30.5271      7.6670      7.6493
   578.5000    132.6331    129.1410    -29.4697      7.6033      7.5396
   578.0000    135.2380    128.8888    -23.5506      7.5302      7.3944
   577.5000    137.9421    130.9050    -19.3718      7.4457      7.2494
   577.0000    140.4623    132.9348    -25.8521      7.3412      7.1193
   576.5000    142.6934    133.3991    -32.8900      7.2008      7.0080
