~Version Information
 VERS.                2.00:   CWLS log ASCII Standard -VERSION 2.00
 WRAP.                  NO:   One line per frame
~Well Information Block
#MNEM.UNIT              Data                Description
#--------- -------------------------------  -------------------------------
 STRT.F                         1080.0000:   Starting Depth
 STOP.F                            0.2500:   Ending Depth
 STEP.F                           -0.5000:   Level Spacing
 NULL.                          -999.2500:   Absent Value
 COMP.     FLUOR DANIEL (NPSOR), INC.    :   Company
 WELL.     45-1 X 14                     :   Well
 FLD .                                   :   Field
 LOC .                                   :   Location
 PROV.                                   :   Province
 SRVC.                                   :   Service Company
 LIC .                                   :   License Number
 DATE.                                   :   Log Date
 UWI .                                   :   Unique Well ID
~Curve Information Block
#MNEM.UNIT       API Codes    Curve Description
#---------    -------------   -------------------------------
 DEPT.F        0   0  0  0:   Depth
 CILD.MMHO     0   0  0  0:   Conductivity of Deep Induction
 GR  .API      0   0  0  0:   Gamma ray counts
 TEN .LBF      0   0  0  0:   Differential Tension
 RILM.OHMM     0   0  0  0:   Resistivity from CILM
 RILD.OHMM     0   0  0  0:   Resistivity from CILD
#  Curve Data
~A
# ...
   520.0000    141.5255    133.1542    -30.8922      7.1019      7.0659
   519.5000    142.4570    132.8026    -32.4349      7.0372      7.0197
   519.0000    144.0067    130.9826    -38.6609      6.9747      6.9441
   518.5000    145.8605    129.7260    -48.0128      6.9217      6.8559
   518.0000    147.6153    130.1463    -47.2054      6.8814      6.7744
   517.5000    149.3621    131.4089    -32.6780      6.8403      6.6951
   517.0000    151.4379    131.3342    -22.4376      6.7716      6.6034
   516.5000    153.9150    130.3283    -28.3153      6.6620      6.4971
   516.0000    156.5387    130.2780    -36.2331      6.5268      6.3882
   515.5000    158.7757    130.1013    -35.1098      6.3912      6.2982
   515.0000    160.2865    128.6203    -29.3654      6.2779      6.2388
   514.5000    161.0731    129.1354    -26.9711      6.2082      6.2084
   514.0000    160.9333    131.3651    -28.2354      6.1951      6.2138
   513.5000    159.4526    130.2355    -27.2310      6.2382      6.2715
   513.0000    156.6600    127.0062    -21.6855      6.3302      6.3833
   512.5000    152.9394    126.1574    -24.0230      6.4642      6.5385
   512.0000    148.8036    127.8645    -35.8451      6.6317      6.7203
   511.5000    144.6873    127.9186    -40.7907      6.8242      6.9115
   511.0000    140.9301    124.7681    -37.3915      7.0326      7.0957
   510.5000    137.7188    121.2978    -35.4407      7.2398      7.2612
   510.0000    135.1928    120.3896    -34.4851      7.4195      7.3968
   509.5000    133.5876    121.0178    -34.3381      7.5442      7.4857
   509.0000    133.3279    122.2547    -36.5259      7.5912      7.5003
   508.5000    134.5397    124.4309    -35.9473      7.5477      7.4328
   508.0000    136.9834    127.4430    -34.7236      7.4315      7.3002
   507.5000    140.2560    130.7228    -40.7486      7.2801      7.1298
   507.0000    143.8499    132.1227    -46.5878      7.1100      6.9517
   506.5000    147.2970    130.2611    -39.9147      6.9236      6.7890
   506.0000    150.4276    128.8011    -32.2080      6.7344      6.6477
   505.5000    153.2512    130.9606    -35.0918      6.5639      6.5252
   505.0000    155.6853    133.1314    -39.4673      6.4311      6.4232
   504.5000    157.6012    130.6198    -39.1788      6.3508      6.3451
   504.0000    158.6851    125.1230    -39.7186      6.3256      6.3018
   503.5000    158.5397    122.1205    -39.9516      6.3427      6.3076
   503.0000    157.2668    122.5966    -42.1275      6.3862      6.3586
   502.5000    155.5050    124.3387    -45.8860      6.4456      6.4307
   502.0000    153.6112    126.6260    -40.5028      6.5143      6.5099
   501.5000    151.6210    128.0588    -28.1170      6.5921      6.5954
   501.0000    149.6698    126.1783    -26.9138      6.6819      6.6814
   500.5000    147.8556    123.6897    -33.5381      6.7753      6.7634
   500.0000    146.2216    122.5197    -33.9962      6.8558      6.8389
   499.5000    144.9719    122.2596    -32.9738      6.9164      6.8979
   499.0000    144.1684    124.9243    -38.4526      6.9518      6.9363
   498.5000    143.8235    130.7375    -41.5328      6.9528      6.9530
   498.0000    144.1500    132.9716    -40.4872      6.9212      6.9372
   497.5000    145.3017    129.0066    -41.9808      6.8682      6.8822
   497.0000    147.2357    124.4826    -40.7053      6.8082      6.7918
   496.5000    149.8852    123.1211    -31.6700      6.7546      6.6718
   496.0000    152.9067    125.7322    -25.6279      6.7041      6.5399
   495.5000    155.8586    130.3446    -27.6049      6.6308      6.4161
   495.0000    158.6649    133.4359    -30.0150      6.5080      6.3026
   494.5000    161.3445    132.9792    -31.2640      6.3448      6.1979
   494.0000    163.7158    131.4939    -35.4666      6.1850      6.1081
   493.5000    165.6314    130.6389    -40.8956      6.0721      6.0375
   493.0000    166.8637    130.5716    -39.9947      6.0226      5.9929
   492.5000    167.0684    129.3269    -35.8781      6.0303      5.9856
   492.0000    166.2896    127.5900    -39.5759      6.0759      6.0136
   491.5000    164.8861    128.7420    -49.1019      6.1394      6.0648
   491.0000    163.3481    133.4802    -49.4088      6.2054      6.1219
   490.5000    162.1432    135.9746    -40.9612      6.2553      6.1674
   490.0000    161.3465    133.8711    -39.6857      6.2827      6.1978
   489.5000    160.6087    132.2514    -43.6669      6.2998      6.2263
   489.0000    159.7306    132.8068    -39.5762      6.3158      6.2605
   488.5000    158.5800    133.3673    -32.9650      6.3288      6.3060
   488.0000    157.0560    131.5072    -35.0393      6.3443      6.3672
   487.5000    155.3656    125.7937    -36.3054      6.3814      6.4364
   487.0000    153.4943    122.4133    -28.2887      6.4557      6.5149
   486.5000    151.0618    128.0043    -24.7443      6.5665      6.6198
   486.0000    148.2844    133.2335    -33.1483      6.6967      6.7438
   485.5000    145.9399    130.1042    -39.5161      6.8261      6.8521
   485.0000    144.3919    124.0949    -36.8803      6.9438      6.9256
   484.5000    143.5934    121.3209    -35.1098      7.0427      6.9641
   484.0000    143.3964    122.2663    -37.3366      7.1072      6.9737
   483.5000    143.7338    126.0807    -38.1390      7.1155      6.9573
   483.0000    144.6213    128.0904    -36.1901      7.0611      6.9146
   482.5000    145.9615    125.6917    -32.8741      6.9673      6.8511
   482.0000    147.2593    122.7875    -31.6892      6.8717      6.7907
   481.5000    148.1317    123.0104    -33.2233      6.8006      6.7507
   481.0000    148.5548    126.0560    -32.7094      6.7616      6.7315
   480.5000    148.6880    128.0392    -33.6214      6.7530      6.7255
   480.0000    148.7996    128.3807    -41.4437      6.7670      6.7204
   479.5000    149.0183    128.2638    -44.2284      6.7916      6.7106
   479.0000    149.1288    127.5030    -37.9731      6.8104      6.7056
   478.5000    149.0758    126.7912    -35.9153      6.8132      6.7080
   478.0000    149.0607    128.6716    -35.9092      6.7973      6.7087
   477.5000    148.9909    131.7391    -32.0418      6.7651      6.7118
   477.0000    148.9221    132.1579    -31.9509      6.7299      6.7149
   476.5000    149.1731    128.3339    -34.4430      6.7142      6.7036
   476.0000    149.6463    123.0433    -30.3692      6.7265      6.6824
   475.5000    149.8225    121.9906    -27.0535      6.7566      6.6746
   475.0000    149.4166    126.7497    -33.0605      6.7880      6.6927
   474.5000    148.5457    131.6496    -40.2868      6.8016      6.7319
   474.0000    147.6815    132.3982    -37.2713      6.7789      6.7713
   473.5000    147.2917    131.4919    -27.8404      6.7267      6.7892
   473.0000    147.2524    130.8421    -24.2881      6.6864      6.7911
   472.5000    147.0072    129.4666    -27.0074      6.7032      6.8024
   472.0000    145.9978    127.5204    -32.0884      6.7826      6.8494
   471.5000    144.1721    127.2158    -35.7283      6.8912      6.9362
   471.0000    142.0264    127.6466    -36.3993      6.9980      7.0409
   470.5000    140.2727    125.3114    -34.5141      7.0954      7.1290
   470.0000    139.1724    120.8581    -31.1195      7.1830      7.1853
   469.5000    138.4038    118.5509    -25.7902      7.2608      7.2252
   469.0000    137.5679    120.3100    -26.8366      7.3291      7.2691
   468.5000    136.9317    123.8235    -33.3435      7.3714      7.3029
   468.0000    137.0142    125.9299    -33.6253      7.3603      7.2985
   467.5000    137.8561    126.3714    -34.1588      7.2970      7.2539
   467.0000    139.3515    126.5503    -42.2361      7.2170      7.1761
   466.5000    141.2893    129.0978    -45.0250      7.1502      7.0777
   466.0000    143.2023    132.9597    -39.3194      7.0914      6.9831
   465.5000    144.7509    135.9725    -33.6098      7.0193      6.9084
   465.0000    146.2379    136.2514    -26.5997      6.9278      6.8382
   464.5000    148.0628    134.0824    -23.2806      6.8212      6.7539
