~Version Information
 VERS.                2.00:   CWLS log ASCII Standard -VERSION 2.00
 WRAP.                  NO:   One line per frame
~Well Information Block
#MNEM.UNIT              Data                Description
#--------- -------------------------------  -------------------------------
 STRT.F                         1080.0000:   Starting Depth
 STOP.F                            0.2500:   Ending Depth
 STEP.F                           -0.5000:   Level Spacing
 NULL.                          -999.2500:   Absent Value
 COMP.     FLUOR DANIEL (NPSOR), INC.    :   Company
 WELL.     45-1 X 14                     :   Well
 FLD .                                   :   Field
 LOC .                                   :   Location
 PROV.                                   :   Province
 SRVC.                                   :   Service Company
 LIC .                                   :   License Number
 DATE.                                   :   Log Date
 UWI .                                   :   Unique Well ID
~Curve Information Block
#MNEM.UNIT       API Codes    Curve Description
#---------    -------------   -------------------------------
 DEPT.F        0   0  0  0:   Depth
 CILD.MMHO     0   0  0  0:   Conductivity of Deep Induction
 GR  .API      0   0  0  0:   Gamma ray counts
 TEN .LBF      0   0  0  0:   Differential Tension
 RILM.OHMM     0   0  0  0:   Resistivity from CILM
 RILD.OHMM     0   0  0  0:   Resistivity from CILD
#  Curve Data
~A
# ...
   408.0000    120.4736    101.0532    -41.5428      8.0507      8.3006
   407.5000    105.3748    100.7667    -42.6530      9.0637      9.4899
   407.0000     98.6113    100.4837    -39.1962      9.5788     10.1408
   406.5000     98.4570     98.5139    -37.3311      9.6313     10.1567
   406.0000    104.2554     96.5976    -34.7749      9.3022      9.5918
   405.5000    117.5688     98.4397    -31.4675      8.6219      8.5057
   405.0000    141.9885    103.1133    -29.7351      7.6128      7.0428
   404.5000    180.9053    106.9019    -30.2301      6.4126      5.5278
   404.0000    232.4007    113.1179    -33.2273      5.2589      4.3029
   403.5000    292.4731    123.6400    -39.0558      4.2810      3.4191
   403.0000    353.5571    134.3063    -42.0656      3.5054      2.8284
   402.5000    411.0227    140.3727    -37.4747      2.8857      2.4330
   402.0000    462.4158    143.6628    -30.0025      2.4018      2.1626
   401.5000    504.0652    147.6697    -30.1050      2.0591      1.9839
   401.0000    526.2205    150.6797    -37.5281      1.8751      1.9003
   400.5000    523.3889    147.8179    -39.3185      1.8219      1.9106
   400.0000    496.1494    138.7644    -34.0228      1.8841      2.0155
   399.5000    450.5891    128.1420    -34.8752      2.0582      2.2193
   399.0000    397.4658    118.9501    -39.8788      2.3746      2.5159
   398.5000    339.3196    113.4134    -36.0641      2.8569      2.9471
   398.0000    281.7703    111.5939    -30.3576      3.5424      3.5490
   397.5000    231.7316    111.3238    -32.3413      4.4127      4.3153
   397.0000    194.3802    111.1912    -36.3319      5.2929      5.1446
   396.5000    169.5656    111.8036    -33.0690      5.9449      5.8974
   396.0000    155.2599    113.9678    -27.1871      6.3205      6.4408
   395.5000    147.5159    114.7692    -25.9653      6.5180      6.7789
   395.0000    142.8351    113.7135    -31.1878      6.6498      7.0011
   394.5000    139.2584    113.6404    -39.7894      6.7545      7.1809
   394.0000    136.5978    114.6519    -45.6588      6.8152      7.3208
   393.5000    135.5001    115.1825    -43.7099      6.8330      7.3801
   393.0000    136.1001    116.6349    -38.8994      6.8460      7.3475
   392.5000    137.8779    118.2900    -39.7574      6.8861      7.2528
   392.0000    140.3181    118.9861    -43.6617      6.9401      7.1267
   391.5000    143.2209    119.2248    -42.3032      6.9597      6.9822
   391.0000    146.5092    120.3451    -36.6436      6.9163      6.8255
   390.5000    150.1743    122.1114    -35.2189      6.8200      6.6589
   390.0000    154.1462    122.6618    -36.9983      6.6942      6.4873
   389.5000    157.9926    122.6178    -38.7149      6.5608      6.3294
   389.0000    161.0728    125.4498    -40.3597      6.4366      6.2084
   388.5000    163.3358    130.9746    -40.9496      6.3204      6.1224
   388.0000    165.1279    133.9954    -38.1037      6.2031      6.0559
   387.5000    166.6165    134.5192    -36.6281      6.0934      6.0018
   387.0000    167.8413    134.8876    -37.5491      6.0180      5.9580
   386.5000    168.5553    133.7192    -40.0090      5.9863      5.9328
   386.0000    168.3788    129.0838    -41.6426      5.9868      5.9390
   385.5000    167.4107    123.8604    -40.3244      6.0154      5.9733
   385.0000    166.0265    122.1739    -37.2951      6.0690      6.0231
   384.5000    164.4884    123.2351    -37.4561      6.1245      6.0795
   384.0000    163.0578    123.6739    -41.1430      6.1665      6.1328
   383.5000    161.8984    123.0811    -40.3289      6.2094      6.1767
   383.0000    160.8550    123.1736    -33.9617      6.2611      6.2168
   382.5000    159.8048    123.1370    -30.9108      6.3069      6.2576
   382.0000    158.8058    121.8208    -34.3985      6.3362      6.2970
   381.5000    157.8754    122.0953    -36.8492      6.3559      6.3341
   381.0000    157.0498    123.8311    -35.1848      6.3735      6.3674
   380.5000    156.2610    123.9678    -32.6106      6.3890      6.3995
   380.0000    155.3989    124.1345    -32.9174      6.4023      6.4351
   379.5000    154.4986    125.3975    -36.7995      6.4239      6.4726
   379.0000    153.6097    124.2975    -39.3465      6.4640      6.5100
   378.5000    152.6956    120.8033    -35.5032      6.5158      6.5490
   378.0000    151.8506    119.0057    -29.3242      6.5640      6.5854
   377.5000    151.2682    118.7247    -30.8212      6.6003      6.6108
   377.0000    151.0519    119.2797    -37.8340      6.6148      6.6202
   376.5000    151.7435    121.8522    -40.2899      6.5889      6.5901
   376.0000    154.3904    123.3618    -37.5961      6.5080      6.4771
   375.5000    159.2775    122.3591    -36.8882      6.3748      6.2783
   375.0000    165.4431    120.6491    -38.3339      6.2003      6.0444
   374.5000    171.6496    118.6937    -39.2035      5.9826      5.8258
   374.0000    177.9930    117.5725    -36.9029      5.7229      5.6182
   373.5000    185.0518    117.9046    -35.5593      5.4593      5.4039
   373.0000    192.3843    116.9189    -39.0650      5.2481      5.1979
   372.5000    198.8770    113.8311    -41.6234      5.1102      5.0282
   372.0000    204.8032    112.5657    -39.7378      5.0140      4.8827
   371.5000    212.2068    115.1085    -39.1727      4.9069      4.7124
   371.0000    223.5699    119.9591    -38.6176      4.7622      4.4729
   370.5000    240.7841    122.3990    -34.5653      4.5576      4.1531
   370.0000    264.6963    119.5847    -30.2862      4.2779      3.7779
   369.5000    290.0730    115.7742    -27.7242      3.9700      3.4474
   369.0000    308.7051    118.1568    -26.9373      3.7053      3.2393
   368.5000    319.6924    127.4170    -29.5246      3.4775      3.1280
   368.0000    329.8494    136.4677    -33.4057      3.2276      3.0317
   367.5000    343.1780    139.4054    -37.2917      2.9844      2.9139
   367.0000    353.9917    136.7689    -39.5664      2.8754      2.8249
   366.5000    352.1785    133.1246    -36.4881      2.9987      2.8395
   366.0000    333.6404    130.4921    -32.9412      3.3431      2.9972
   365.5000    305.5310    128.5072    -33.0086      3.7238      3.2730
   365.0000    281.3174    128.4416    -33.8172      3.8788      3.5547
   364.5000    269.2407    129.7090    -30.5046      3.7984      3.7141
   364.0000    267.2361    129.0197    -27.1279      3.6727      3.7420
   363.5000    268.5532    126.6784    -29.3349      3.6192      3.7237
   363.0000    267.9434    125.4951    -35.7994      3.6591      3.7321
   362.5000    263.1958    125.1376    -35.4794      3.7695      3.7995
   362.0000    255.7016    124.7773    -29.6542      3.8996      3.9108
   361.5000    249.7790    123.2369    -28.0579      3.9919      4.0035
   361.0000    249.9807    120.2237    -33.4371      4.0089      4.0003
   360.5000    260.4551    117.0730    -39.1010      3.9300      3.8394
   360.0000    283.1570    114.3749    -37.9264      3.7546      3.5316
   359.5000    314.3555    111.4339    -34.4891      3.5180      3.1811
   359.0000    346.1536    110.1640    -33.2883      3.2682      2.8889
   358.5000    373.2273    114.7175    -32.2778      3.0150      2.6793
   358.0000    395.3599    123.3283    -31.3775      2.7432      2.5293
   357.5000    414.9194    126.6760    -30.7605      2.4754      2.4101
   357.0000    432.3215    120.8010    -25.3708      2.2688      2.3131
   356.5000    442.6296    114.6096    -20.0858      2.1887      2.2592
   356.0000    438.8784    114.7762    -24.5336      2.2355      2.2785
   355.5000    420.5156    116.3875    -30.6714      2.3753      2.3780
   355.0000    394.7979    116.4354    -30.2853      2.5531      2.5329
   354.5000    370.6250    116.4342    -28.7106      2.7192      2.6981
   354.0000    353.4285    115.2512    -29.7961      2.8674      2.8294
   353.5000    342.9092    113.0191    -31.8878      3.0069      2.9162
   353.0000    334.1086    114.4809    -34.8859      3.1434      2.9930
   352.5000    322.8401    119.0141    -37.8313      3.2637      3.0975
