~Version Information
 VERS.                2.00:   CWLS log ASCII Standard -VERSION 2.00
 WRAP.                  NO:   One line per frame
~Well Information Block
#MNEM.UNIT              Data                Description
#--------- -------------------------------  -------------------------------
 STRT.F                         1080.0000:   Starting Depth
 STOP.F                            0.2500:   Ending Depth
 STEP.F                           -0.5000:   Level Spacing
 NULL.                          -999.2500:   Absent Value
 COMP.     FLUOR DANIEL (NPSOR), INC.    :   Company
 WELL.     45-1 X 14                     :   Well
 FLD .                                   :   Field
 LOC .                                   :   Location
 PROV.                                   :   Province
 SRVC.                                   :   Service Company
 LIC .                                   :   License Number
 DATE.                                   :   Log Date
 UWI .                                   :   Unique Well ID
~Curve Information Block
#MNEM.UNIT       API Codes    Curve Description
#---------    -------------   -------------------------------
 DEPT.F        0   0  0  0:   Depth
 CILD.MMHO     0   0  0  0:   Conductivity of Deep Induction
 GR  .API      0   0  0  0:   Gamma ray counts
 TEN .LBF      0   0  0  0:   Differential Tension
 RILM.OHMM     0   0  0  0:   Resistivity from CILM
 RILD.OHMM     0   0  0  0:   Resistivity from CILD
#  Curve Data
~A
# ...
   968.0000     99.7979    111.7282     85.0462      9.9226     10.0202
   967.5000     99.1954    109.5276     83.9790      9.9743     10.0811
   967.0000     98.5509    107.1591     82.0386     10.0358     10.1470
   966.5000     97.9057    107.1561     81.2474     10.1025     10.2139
   966.0000     97.3966    109.3818     81.8336     10.1641     10.2673
   965.5000     97.1774    111.5589     81.4570     10.2074     10.2905
   965.0000     97.1866    111.8457     78.7168     10.2314     10.2895
   964.5000     97.3344    110.5379     78.0400     10.2387     10.2739
   964.0000     97.5779    107.7914     80.7606     10.2351     10.2482
   963.5000     97.8477    104.5543     81.5460     10.2258     10.2200
   963.0000     98.0328    105.1211     77.4874     10.2065     10.2007
   962.5000     98.1662    109.2717     72.9545     10.1640     10.1868
   962.0000     98.2645    110.1556     73.9793     10.1101     10.1766
   961.5000     98.2368    105.7689     78.7873     10.0747     10.1795
   961.0000     97.9439    102.2544     80.5874     10.0765     10.2099
   960.5000     97.4005    103.6258     76.1930     10.1094     10.2669
   960.0000     96.7186    108.0389     70.0444     10.1590     10.3393
   959.5000     96.0229    110.0373     67.2095     10.2069     10.4142
   959.0000     95.4011    108.4618     66.6864     10.2408     10.4821
   958.5000     94.8691    106.6952     65.5277     10.2682     10.5408
   958.0000     94.4428    108.0740     65.1041     10.2986     10.5884
   957.5000     94.0902    111.1569     67.9027     10.3293     10.6281
   957.0000     93.7088    113.2860     70.5212     10.3643     10.6714
   956.5000     93.1285    111.7653     69.7029     10.4127     10.7379
   956.0000     92.4611    106.7818     67.5093     10.4663     10.8154
   955.5000     91.9642    102.2424     66.4451     10.5121     10.8738
   955.0000     91.7854    100.6897     65.1517     10.5509     10.8950
   954.5000     91.7914    101.0518     64.2010     10.5690     10.8943
   954.0000     92.0295    102.0161     64.2534     10.5530     10.8661
   953.5000     92.6401    103.3705     63.5025     10.5185     10.7945
   953.0000     93.5389    105.8627     60.0765     10.4855     10.6907
   952.5000     94.3833    107.7616     56.0794     10.4573     10.5951
   952.0000     94.8634    106.0676     58.1092     10.4298     10.5415
   951.5000     94.9833    100.8745     67.9958     10.4010     10.5282
   951.0000     95.0263     96.3431     74.8238     10.3709     10.5234
   950.5000     95.1276     95.4385     71.6811     10.3497     10.5122
   950.0000     95.1234     96.4288     66.8557     10.3444     10.5127
   949.5000     94.9928     97.8395     66.0670     10.3392     10.5271
   949.0000     94.8201    100.5825     63.7837     10.3217     10.5463
   948.5000     94.5228    103.9474     57.8344     10.3173     10.5795
   948.0000     94.1324    104.2421     54.2317     10.3427     10.6233
   947.5000     93.7760     99.9708     56.7321     10.3766     10.6637
   947.0000     93.4964     94.7532     61.7887     10.4048     10.6956
   946.5000     93.2402     92.9427     64.5267     10.4394     10.7250
   946.0000     92.9956     94.2458     66.5376     10.4778     10.7532
   945.5000     92.7701     94.6427     69.6196     10.5126     10.7793
   945.0000     92.4931     94.2440     73.0469     10.5332     10.8116
   944.5000     92.1402     94.7569     71.7799     10.5446     10.8530
   944.0000     91.7053     94.9413     66.8423     10.5689     10.9045
   943.5000     91.2988     94.1080     62.4686     10.6130     10.9531
   943.0000     90.9585     94.4949     60.2317     10.6540     10.9940
   942.5000     90.6962     95.5322     59.4070     10.6783     11.0258
   942.0000     90.4027     96.3808     59.3469     10.6980     11.0616
   941.5000     90.1171     97.2665     61.1812     10.7172     11.0967
   941.0000     89.9126     96.6940     62.0410     10.7206     11.1219
   940.5000     89.8258     95.2062     59.3210     10.7149     11.1327
   940.0000     89.7924     94.4504     53.3289     10.7329     11.1368
   939.5000     89.6270     93.1955     49.4274     10.7870     11.1573
   939.0000     89.2301     91.5765     49.2831     10.8490     11.2070
   938.5000     88.7090     91.9042     50.4430     10.8919     11.2728
   938.0000     88.1972     93.1786     48.0369     10.9087     11.3382
   937.5000     87.8129     93.7088     47.7050     10.9128     11.3878
   937.0000     87.5662     94.9984     53.8252     10.9331     11.4199
   936.5000     87.3668     94.7124     57.2006     10.9949     11.4460
   936.0000     86.9095     90.9218     51.7558     11.0960     11.5062
   935.5000     85.8055     87.5962     48.4273     11.2265     11.6543
   935.0000     84.0238     88.0396     49.9627     11.3956     11.9014
   934.5000     82.2926     89.3431     48.0552     11.5864     12.1518
   934.0000     81.4344     89.3639     41.8914     11.7431     12.2798
   933.5000     81.4886     90.1039     37.0691     11.8664     12.2717
   933.0000     81.9509     92.5084     38.5694     12.0302     12.2024
   932.5000     82.4333     95.1152     45.1351     12.2342     12.1310
   932.0000     83.0381     97.0186     48.9077     12.3152     12.0427
   931.5000     84.1820     98.8743     49.1285     12.1036     11.8790
   931.0000     86.0298     99.4548     48.9735     11.6640     11.6239
   930.5000     88.1943     97.6637     46.9496     11.2219     11.3386
   930.0000     90.0335     96.4165     41.4733     10.9141     11.1070
   929.5000     91.1481     97.9452     38.1942     10.7360     10.9712
   929.0000     91.4591     99.6766     35.5700     10.6395     10.9338
   928.5000     91.3084     99.4839     35.5816     10.5876     10.9519
   928.0000     91.1234     99.6292     37.9234     10.5613     10.9741
   927.5000     90.8532    100.5014     38.9778     10.5863     11.0068
   927.0000     90.1369     98.9381     38.2677     10.7087     11.0942
   926.5000     88.8887     95.9562     39.9007     10.9200     11.2500
   926.0000     87.3912     94.1717     41.2586     11.1373     11.4428
   925.5000     85.9118     92.7798     38.3001     11.2923     11.6398
   925.0000     84.6889     91.6683     32.8650     11.3914     11.8079
   924.5000     83.9276     93.8826     26.6594     11.4774     11.9150
   924.0000     83.5982     96.5201     22.5535     11.5753     11.9620
   923.5000     83.4198     95.5397     23.5546     11.6859     11.9876
   923.0000     83.1898     93.5232     30.1544     11.7936     12.0207
   922.5000     82.9135     95.2460     34.1826     11.8527     12.0608
   922.0000     82.7247     97.9880     32.9867     11.8277     12.0883
   921.5000     82.7051     96.8560     30.6187     11.7506     12.0912
   921.0000     82.7672     93.2529     29.0985     11.6806     12.0821
   920.5000     82.7607     91.1648     28.2363     11.6487     12.0830
   920.0000     82.6137     90.6373     28.6413     11.6724     12.1045
   919.5000     82.2978     90.8725     28.5858     11.7495     12.1510
   919.0000     81.8004     92.9023     28.6057     11.8550     12.2249
   918.5000     81.1900     96.4336     29.1620     11.9679     12.3168
   918.0000     80.6394     98.5848     28.1716     12.0609     12.4009
   917.5000     80.2572     96.8699     28.9622     12.0980     12.4599
   917.0000     80.0372     92.4277     30.1200     12.0890     12.4942
   916.5000     79.9155     87.6500     30.6479     12.0849     12.5132
   916.0000     79.6540     84.6145     31.7407     12.1116     12.5543
   915.5000     78.9262     85.8874     30.8029     12.1791     12.6701
   915.0000     77.7958     90.3983     25.0869     12.2968     12.8542
   914.5000     76.4800     92.6441     25.0313     12.4545     13.0753
   914.0000     74.8577     92.5623     30.9133     12.6468     13.3587
   913.5000     73.0184     92.6691     31.7221     12.8869     13.6952
   913.0000     71.4449     93.0089     27.5134     13.1697     13.9968
   912.5000     70.1945     92.3632     23.7497     13.4831     14.2461
