~Version Information
 VERS.                2.00:   CWLS log ASCII Standard -VERSION 2.00
 WRAP.                  NO:   One line per frame
~Well Information Block
#MNEM.UNIT              Data                Description
#--------- -------------------------------  -------------------------------
 STRT.F                         1080.0000:   Starting Depth
 STOP.F                            0.2500:   Ending Depth
 STEP.F                           -0.5000:   Level Spacing
 NULL.                          -999.2500:   Absent Value
 COMP.     FLUOR DANIEL (NPSOR), INC.    :   Company
 WELL.     45-1 X 14                     :   Well
 FLD .                                   :   Field
 LOC .                                   :   Location
 PROV.                                   :   Province
 SRVC.                                   :   Service Company
 LIC .                                   :   License Number
 DATE.                                   :   Log Date
 UWI .                                   :   Unique Well ID
~Curve Information Block
#MNEM.UNIT       API Codes    Curve Description
#---------    -------------   -------------------------------
 DEPT.F        0   0  0  0:   Depth
 CILD.MMHO     0   0  0  0:   Conductivity of Deep Induction
 GR  .API      0   0  0  0:   Gamma ray counts
 TEN .LBF      0   0  0  0:   Differential Tension
 RILM.OHMM     0   0  0  0:   Resistivity from CILM
 RILD.OHMM     0   0  0  0:   Resistivity from CILD
#  Curve Data
~A
# ...
   688.0000    134.6202    128.0876    -25.7411      7.3775      7.4283
   687.5000    133.5462    130.1956    -22.8152      7.4665      7.4880
   687.0000    132.2392    129.7044    -21.1530      7.5680      7.5621
   686.5000    131.0922    127.0894    -19.0302      7.6656      7.6282
   686.0000    130.3903    125.2359    -19.1140      7.7355      7.6693
   685.5000    130.2012    124.7669    -20.2895      7.7625      7.6804
   685.0000    130.7246    123.2928    -19.3126      7.7456      7.6497
   684.5000    131.9907    122.4589    -20.5634      7.6950      7.5763
   684.0000    133.5301    123.7425    -26.4383      7.6259      7.4889
   683.5000    134.9753    124.0347    -32.1351      7.5429      7.4088
   683.0000    136.3924    122.5392    -35.8576      7.4399      7.3318
   682.5000    137.8957    123.6168    -35.4312      7.3183      7.2519
   682.0000    139.4699    126.3268    -32.2992      7.1999      7.1700
   681.5000    141.0798    126.1833    -32.0640      7.1130      7.0882
   681.0000    142.5868    124.3446    -30.4707      7.0729      7.0133
   680.5000    143.5833    124.9825    -23.7226      7.0734      6.9646
   680.0000    143.8751    126.1714    -23.3099      7.0868      6.9505
   679.5000    143.9456    126.1165    -32.4166      7.0739      6.9471
   679.0000    144.5228    125.3685    -37.5946      7.0154      6.9193
   678.5000    145.9265    124.7313    -35.0222      6.9362      6.8528
   678.0000    147.7397    124.7420    -31.2497      6.8832      6.7687
   677.5000    149.0010    124.7399    -30.0934      6.8731      6.7114
   677.0000    149.0667    124.4075    -27.7333      6.8822      6.7084
   676.5000    148.0484    124.4253    -25.3443      6.8830      6.7545
   676.0000    146.4060    123.9288    -24.2884      6.8753      6.8303
   675.5000    144.5100    120.9712    -25.8250      6.8805      6.9199
   675.0000    142.3787    119.5729    -28.6968      6.9294      7.0235
   674.5000    139.7073    121.4251    -29.7415      7.0536      7.1578
   674.0000    136.5057    122.5625    -29.5850      7.2569      7.3257
   673.5000    133.2519    121.1345    -32.1314      7.4985      7.5046
   673.0000    130.3005    118.2676    -37.4668      7.7172      7.6746
   672.5000    127.7324    115.1064    -39.4218      7.8760      7.8289
   672.0000    125.6508    116.1069    -39.7741      7.9703      7.9586
   671.5000    124.2242    122.4451    -38.1814      8.0158      8.0500
   671.0000    123.5993    125.1818    -35.0030      8.0341      8.0907
   670.5000    123.6316    120.9711    -33.4875      8.0393      8.0885
   670.0000    123.8357    117.3109    -30.8410      8.0522      8.0752
   669.5000    123.7524    116.6459    -24.0154      8.0896      8.0807
   669.0000    123.3161    115.2640    -24.6800      8.1326      8.1092
   668.5000    122.8404    112.3109    -32.0277      8.1432      8.1406
   668.0000    122.6643    112.3803    -32.7442      8.1217      8.1523
   667.5000    122.7977    115.1817    -28.8185      8.1060      8.1435
   667.0000    122.8769    117.6928    -27.4396      8.1170      8.1382
   666.5000    122.5844    119.9272    -27.9109      8.1407      8.1576
   666.0000    122.0492    123.7602    -29.9318      8.1644      8.1934
   665.5000    121.4376    127.0391    -32.1668      8.1990      8.2347
   665.0000    120.5706    126.9841    -29.5795      8.2535      8.2939
   664.5000    119.1686    124.2590    -25.0783      8.3237      8.3915
   664.0000    117.5230    122.5390    -26.4273      8.4050      8.5090
   663.5000    116.1349    122.4992    -31.2863      8.4941      8.6107
   663.0000    115.1712    123.3955    -32.2473      8.5928      8.6827
   662.5000    114.3443    125.1439    -30.7644      8.7015      8.7455
   662.0000    113.3931    126.8802    -27.8791      8.8125      8.8189
   661.5000    112.2841    124.7870    -24.4155      8.9114      8.9060
   661.0000    111.0793    120.1396    -27.6675      8.9873      9.0026
   660.5000    109.9684    117.6752    -35.5157      9.0270      9.0935
   660.0000    109.2222    116.7244    -37.8477      9.0294      9.1556
   659.5000    108.7530    114.6525    -37.8365      9.0346      9.1952
   659.0000    108.2805    113.7226    -40.4555      9.0934      9.2353
   658.5000    107.6629    116.7377    -37.7666      9.2051      9.2883
   658.0000    106.8945    120.7211    -30.0831      9.3155      9.3550
   657.5000    106.0542    122.0141    -25.9293      9.3818      9.4291
   657.0000    105.4099    122.0315    -27.5116      9.4103      9.4868
   656.5000    105.0708    122.0030    -31.3265      9.4326      9.5174
   656.0000    104.8640    121.7883    -33.0827      9.4613      9.5362
   655.5000    104.6161    119.9614    -31.9509      9.4890      9.5588
   655.0000    104.2976    116.4958    -31.1799      9.5118      9.5880
   654.5000    103.8965    114.0258    -32.4221      9.5423      9.6250
   654.0000    103.4032    114.7882    -32.3446      9.5925      9.6709
   653.5000    102.7977    117.2142    -33.6263      9.6511      9.7278
   653.0000    102.0643    119.7675    -36.2255      9.6933      9.7977
   652.5000    101.2234    121.3124    -33.4850      9.7172      9.8791
   652.0000    100.4187    121.7025    -27.3347      9.7492      9.9583
   651.5000     99.7669    121.2902    -26.6472      9.8173     10.0234
   651.0000     99.0928    118.8904    -27.0596      9.9340     10.0916
   650.5000     97.9997    115.9471    -21.1749     10.0822     10.2041
   650.0000     96.5174    116.0811    -17.9227     10.2203     10.3608
   649.5000     95.1564    118.8042    -19.4459     10.3202     10.5090
   649.0000     94.1171    119.3768    -18.6157     10.3922     10.6251
   648.5000     93.2412    116.7727    -20.2672     10.4610     10.7249
   648.0000     92.6326    112.7491    -27.6537     10.5305     10.7953
   647.5000     92.5139    109.8689    -29.6972     10.5895     10.8092
   647.0000     92.7328    110.3363    -25.5925     10.6330     10.7837
   646.5000     93.0542    114.7047    -23.6494     10.6578     10.7464
   646.0000     93.4474    120.3211    -20.6140     10.6478     10.7012
   645.5000     94.0738    123.6473    -18.2329     10.5727     10.6299
   645.0000     95.2014    123.3213    -23.2666     10.4204     10.5040
   644.5000     96.9953    120.6906    -32.0485     10.2260     10.3098
   644.0000     99.2803    118.8334    -35.9445     10.0421     10.0725
   643.5000    101.6183    119.9413    -36.8620      9.8855      9.8407
   643.0000    103.5697    123.4729    -35.3181      9.7408      9.6553
   642.5000    105.2436    126.7475    -29.8452      9.5717      9.5018
   642.0000    107.0912    127.4343    -27.9069      9.3600      9.3378
   641.5000    109.2291    127.4002    -32.2214      9.1354      9.1551
   641.0000    111.4365    129.5560    -32.8058      8.9498      8.9737
   640.5000    113.5471    132.4424    -28.2122      8.8148      8.8069
   640.0000    115.6364    133.4886    -25.9665      8.7017      8.6478
   639.5000    117.9344    133.5938    -27.2036      8.5738      8.4793
   639.0000    120.6799    133.8282    -30.2664      8.4151      8.2864
   638.5000    123.7033    134.0667    -28.8716      8.2307      8.0839
   638.0000    126.5238    134.2596    -20.0912      8.0397      7.9037
   637.5000    128.9777    135.1040    -19.0802      7.8516      7.7533
   637.0000    131.3444    138.4273    -32.7350      7.6621      7.6136
   636.5000    133.6912    140.9282    -41.0917      7.4843      7.4799
   636.0000    135.7508    139.9673    -34.4754      7.3543      7.3664
   635.5000    137.0556    138.8068    -27.6239      7.2996      7.2963
   635.0000    137.3240    140.3763    -26.7622      7.3110      7.2820
   634.5000    136.7371    141.9442    -29.8757      7.3522      7.3133
   634.0000    135.8324    141.2557    -35.1061      7.3913      7.3620
   633.5000    135.0199    140.0613    -38.1317      7.4248      7.4063
   633.0000    134.3915    140.4009    -33.3109      7.4706      7.4409
   632.5000    133.7065    140.7532    -27.8685      7.5385      7.4791
