~Version Information
 VERS.                2.00:   CWLS log ASCII Standard -VERSION 2.00
 WRAP.                  NO:   One line per frame
~Well Information Block
#MNEM.UNIT              Data                Description
#--------- -------------------------------  -------------------------------
 STRT.F                         1080.0000:   Starting Depth
 STOP.F                            0.2500:   Ending Depth
 STEP.F                           -0.5000:   Level Spacing
 NULL.                          -999.2500:   Absent Value
 COMP.     FLUOR DANIEL (NPSOR), INC.    :   Company
 WELL.     45-1 X 14                     :   Well
 FLD .                                   :   Field
 LOC .                                   :   Location
 PROV.                                   :   Province
 SRVC.                                   :   Service Company
 LIC .                                   :   License Number
 DATE.                                   :   Log Date
 UWI .                                   :   Unique Well ID
~Curve Information Block
#MNEM.UNIT       API Codes    Curve Description
#---------    -------------   -------------------------------
 DEPT.F        0   0  0  0:   Depth
 CILD.MMHO     0   0  0  0:   Conductivity of Deep Induction
 GR  .API      0   0  0  0:   Gamma ray counts
 TEN .LBF      0   0  0  0:   Differential Tension
 RILM.OHMM     0   0  0  0:   Resistivity from CILM
 RILD.OHMM     0   0  0  0:   Resistivity from CILD
#  Curve Data
~A
# ...
   184.0000    106.3741    117.1689    -34.3558      9.1312      9.4008
   183.5000    105.8078    116.2377    -31.3223      9.1646      9.4511
   183.0000    106.2313    117.4256    -28.4846      9.1665      9.4134
   182.5000    107.3690    120.6024    -28.8255      9.1614      9.3137
   182.0000    108.7140    123.0480    -28.6810      9.1452      9.1985
   181.5000    109.9560    121.3981    -29.4914      9.0820      9.0945
   181.0000    111.1488    117.8622    -31.8640      8.9427      8.9969
   180.5000    112.6845    118.1858    -32.4529      8.7443      8.8743
   180.0000    114.8548    121.3587    -33.0730      8.5321      8.7066
   179.5000    117.3805    122.9472    -35.5603      8.3468      8.5193
   179.0000    119.7060    121.1456    -36.3420      8.2179      8.3538
   178.5000    121.5241    118.0898    -36.3060      8.1555      8.2288
   178.0000    122.9443    115.3111    -37.4089      8.1281      8.1338
   177.5000    124.3768    115.1535    -39.0058      8.0688      8.0401
   177.0000    126.0875    118.6726    -41.0499      7.9463      7.9310
   176.5000    127.8376    123.2337    -42.2178      7.8043      7.8224
   176.0000    129.3290    125.5108    -40.9334      7.6926      7.7322
   175.5000    130.6923    126.0016    -39.2041      7.6013      7.6516
   175.0000    132.1809    126.3289    -35.5221      7.4947      7.5654
   174.5000    133.7124    125.2549    -34.1585      7.3883      7.4787
   174.0000    134.8671    121.1724    -40.8974      7.3366      7.4147
   173.5000    135.2196    116.8099    -49.2743      7.3497      7.3954
   173.0000    134.7524    114.8827    -45.5164      7.3789      7.4210
   172.5000    134.0031    115.2576    -35.6072      7.3833      7.4625
   172.0000    133.5412    117.2498    -32.9671      7.3714      7.4883
   171.5000    133.4041    119.2823    -32.6384      7.3770      7.4960
   171.0000    133.0794    117.1899    -27.2679      7.4191      7.5143
   170.5000    132.1835    112.4536    -22.3596      7.4860      7.5652
   170.0000    130.8803    111.6689    -22.3846      7.5539      7.6406
   169.5000    129.5942    115.5592    -21.6590      7.6187      7.7164
   169.0000    128.5115    119.7452    -20.1675      7.6901      7.7814
   168.5000    127.6286    120.8207    -25.3476      7.7675      7.8352
   168.0000    126.9192    119.5341    -36.3761      7.8371      7.8790
   167.5000    126.2948    118.9597    -43.0654      7.8940      7.9180
   167.0000    125.7279    120.6169    -45.4569      7.9391      7.9537
   166.5000    125.3312    121.8841    -46.9624      7.9661      7.9789
   166.0000    125.2664    120.9859    -40.3018      7.9743      7.9830
   165.5000    125.5979    119.8674    -27.1901      7.9658      7.9619
   165.0000    126.3542    120.2363    -22.6203      7.9305      7.9143
   164.5000    127.2256    120.9962    -29.7207      7.8776      7.8601
   164.0000    127.7605    121.6377    -37.8511      7.8396      7.8271
   163.5000    127.8390    120.5946    -41.3113      7.8230      7.8223
   163.0000    127.6262    119.0093    -43.9383      7.8037      7.8354
   162.5000    127.2754    119.8728    -47.3022      7.7750      7.8570
   162.0000    126.8487    124.6373    -45.4721      7.7682      7.8834
   161.5000    126.0897    128.1340    -38.8085      7.8217      7.9309
   161.0000    124.4932    125.4959    -35.0155      7.9369      8.0326
   160.5000    122.1307    118.9380    -36.3316      8.0729      8.1879
   160.0000    119.6858    115.4264    -36.7601      8.1924      8.3552
   159.5000    117.6704    116.9729    -35.4941      8.2991      8.4983
   159.0000    116.1616    119.8559    -34.0688      8.4182      8.6087
   158.5000    115.2794    120.7241    -34.5888      8.5484      8.6746
   158.0000    115.0392    117.6113    -37.2283      8.6455      8.6927
   157.5000    115.3542    113.0882    -36.7449      8.6676      8.6690
   157.0000    116.3789    110.5440    -33.6079      8.6114      8.5926
   156.5000    118.2565    109.6259    -31.6126      8.4908      8.4562
   156.0000    120.9264    109.6091    -30.5515      8.3023      8.2695
   155.5000    124.2945    111.4095    -28.2799      8.0563      8.0454
   155.0000    128.0540    113.4969    -28.1982      7.8000      7.8092
   154.5000    131.6538    115.5815    -31.0725      7.5792      7.5957
   154.0000    134.7128    117.9584    -34.4488      7.4139      7.4232
   153.5000    136.9919    117.9796    -35.9476      7.3058      7.2997
   153.0000    138.5721    115.6457    -38.5035      7.2326      7.2165
   152.5000    140.0379    115.5989    -42.3660      7.1593      7.1409
   152.0000    141.9046    117.4887    -45.2205      7.0758      7.0470
   151.5000    144.3336    117.4345    -42.4023      6.9979      6.9284
   151.0000    147.3680    116.7409    -35.8006      6.9267      6.7857
   150.5000    150.4266    118.8609    -30.5866      6.8523      6.6478
   150.0000    152.3405    123.1591    -28.7514      6.7763      6.5642
   149.5000    152.6335    125.2434    -30.3249      6.7013      6.5516
   149.0000    151.8833    122.0956    -36.3289      6.6108      6.5840
   148.5000    150.9279    115.8393    -43.4973      6.5092      6.6257
   148.0000    150.1680    111.0644    -43.5143      6.4609      6.6592
   147.5000    149.0874    110.2274    -38.8436      6.5434      6.7075
   147.0000    146.6564    113.1803    -39.8424      6.7636      6.8187
   146.5000    142.7956    117.2971    -45.3029      7.0388      7.0030
   146.0000    138.6215    119.1527    -45.5517      7.2622      7.2139
   145.5000    135.4687    119.3763    -39.0577      7.3851      7.3818
   145.0000    134.0049    119.4134    -32.5566      7.4316      7.4624
   144.5000    133.8995    119.4953    -31.1722      7.4479      7.4683
   144.0000    134.3160    119.7367    -35.7780      7.4615      7.4451
   143.5000    134.7052    119.3809    -40.8023      7.4758      7.4236
   143.0000    134.8689    119.5644    -37.8721      7.4774      7.4146
   142.5000    134.9110    122.2149    -28.8823      7.4450      7.4123
   142.0000    135.3188    124.3681    -24.3253      7.3640      7.3900
   141.5000    136.5161    122.4198    -26.7412      7.2443      7.3251
   141.0000    138.3910    119.1592    -29.6655      7.1285      7.2259
   140.5000    140.5867    118.2836    -27.2874      7.0540      7.1130
   140.0000    142.9472    118.2322    -21.9252      7.0128      6.9956
   139.5000    145.4627    117.2376    -20.5451      6.9672      6.8746
   139.0000    147.9313    116.5490    -27.5619      6.8900      6.7599
   138.5000    150.2554    116.9675    -34.3354      6.7792      6.6553
   138.0000    152.6194    116.4709    -35.5200      6.6489      6.5522
   137.5000    155.0935    117.5398    -35.6505      6.5156      6.4477
   137.0000    157.5370    120.4133    -36.6582      6.3947      6.3477
   136.5000    159.8547    120.9238    -34.2012      6.3027      6.2557
   136.0000    161.8140    119.8369    -31.5220      6.2430      6.1799
   135.5000    163.0790    121.4136    -30.5927      6.1999      6.1320
   135.0000    163.6884    122.8825    -27.0309      6.1593      6.1092
   134.5000    163.7433    122.0638    -24.9344      6.1243      6.1071
   134.0000    163.2118    121.7584    -28.9539      6.1066      6.1270
   133.5000    162.1961    122.2153    -33.6384      6.1188      6.1654
   133.0000    160.9928    120.9919    -32.9693      6.1627      6.2115
   132.5000    160.0581    117.8275    -31.7725      6.2221      6.2477
   132.0000    159.8174    116.3882    -32.8592      6.2791      6.2571
   131.5000    160.4819    117.4680    -35.1616      6.3168      6.2312
   131.0000    162.2167    117.2369    -37.8285      6.3146      6.1646
   130.5000    165.0984    114.2522    -40.4677      6.2609      6.0570
   130.0000    168.6595    113.5657    -39.5259      6.1597      5.9291
   129.5000    172.2798    117.7398    -37.1838      6.0197      5.8045
   129.0000    175.6176    121.4468    -37.6571      5.8573      5.6942
   128.5000    178.3524    120.3098    -40.8008      5.7037      5.6069
