~Version Information
 VERS.                2.00:   CWLS log ASCII Standard -VERSION 2.00
 WRAP.                  NO:   One line per frame
~Well Information Block
#MNEM.UNIT              Data                Description
#--------- -------------------------------  -------------------------------
 STRT.F                         1080.0000:   Starting Depth
 STOP.F                            0.2500:   Ending Depth
 STEP.F                           -0.5000:   Level Spacing
 NULL.                          -999.2500:   Absent Value
 COMP.     FLUOR DANIEL (NPSOR), INC.    :   Company
 WELL.     45-1 X 14                     :   Well
 FLD .                                   :   Field
 LOC .                                   :   Location
 PROV.                                   :   Province
 SRVC.                                   :   Service Company
 LIC .                                   :   License Number
 DATE.                                   :   Log Date
 UWI .                                   :   Unique Well ID
~Curve Information Block
#MNEM.UNIT       API Codes    Curve Description
#---------    -------------   -------------------------------
 DEPT.F        0   0  0  0:   Depth
 CILD.MMHO     0   0  0  0:   Conductivity of Deep Induction
 GR  .API      0   0  0  0:   Gamma ray counts
 TEN .LBF      0   0  0  0:   Differential Tension
 RILM.OHMM     0   0  0  0:   Resistivity from CILM
 RILD.OHMM     0   0  0  0:   Resistivity from CILD
#  Curve Data
~A
# ...
    72.0000    176.5669    128.6044    -40.1764      5.7203      5.6636
    71.5000    177.5476    130.1036    -37.2795      5.6463      5.6323
    71.0000    178.0832    125.6863    -33.0650      5.5970      5.6154
    70.5000    177.7593    120.1178    -29.6603      5.6111      5.6256
    70.0000    175.8400    117.4059    -28.5434      5.7032      5.6870
    69.5000    172.3864    117.1804    -30.7913      5.8363      5.8009
    69.0000    168.4309    117.2656    -34.2503      5.9598      5.9372
    68.5000    164.6310    115.9534    -35.8793      6.0641      6.0742
    68.0000    160.7649    115.3686    -34.2799      6.1785      6.2203
    67.5000    156.8271    117.0462    -34.0047      6.3193      6.3765
    67.0000    153.2449    118.6773    -38.3858      6.4612      6.5255
    66.5000    150.4451    118.7296    -43.7663      6.5686      6.6469
    66.0000    148.8686    118.3850    -40.9899      6.6420      6.7173
    65.5000    149.7923    118.2439    -33.6531      6.7113      6.6759
    65.0000    152.3867    117.9498    -31.7850      6.7864      6.5623
    64.5000    150.4939    118.3067    -38.0012      6.8446      6.6448
    64.0000    142.1042    118.9638    -43.4570      6.8666      7.0371
    63.5000    132.9330    117.5617    -42.0665      6.8582      7.5226
    63.0000    126.7409    114.5171    -36.6647      6.8411      7.8901
    62.5000    129.8026    112.1252    -32.5847      6.8364      7.7040
    62.0000    152.4485    109.6814    -30.0132      6.9874      6.5596
    61.5000    182.8660    106.4169    -28.3046      7.3807      5.4685
    61.0000    197.8824    104.1297    -29.9995      7.1745      5.0535
    60.5000    197.1057    105.3164    -33.4649      6.2486      5.0734
    60.0000    194.2762    109.8611    -35.8585      5.8366      5.1473
    59.5000    194.0744    116.2132    -40.6614      6.2234      5.1527
    59.0000    186.5886    120.9600    -47.9780      6.7261      5.3594
    58.5000    148.0545    122.8109    -52.1376      6.3430      6.7543
    58.0000    123.7447    122.9601    -52.0754      5.1165      8.0812
    57.5000    186.0269    120.1336    -50.3104      4.0694      5.3756
    57.0000    307.9841    115.2545    -48.7631      3.5909      3.2469
    56.5000    420.5308    114.8185    -51.3654      3.1076      2.3779
    56.0000    499.9368    118.8090    -54.4596      2.4922      2.0003
    55.5000    379.4431    120.5561    -54.7798      2.6629      2.6354
    55.0000     54.4120    118.1869    -52.6134      6.2566     18.3783
    54.5000   -161.9117    110.5562    -43.8294  10000.0000  10000.0000
    54.0000   -174.3480     96.0750    -29.7397  10000.0000  10000.0000
    53.5000   -103.3903     80.8928    -20.7418  10000.0000  10000.0000
    53.0000    -56.6797     72.7097    -19.5853  10000.0000  10000.0000
    52.5000    -40.9623     71.8873    -20.0760  10000.0000  10000.0000
    52.0000    -12.4387     74.0415    -19.5752  10000.0000  10000.0000
    51.5000     69.5411     76.0929    -21.5595  10000.0000     14.3800
    51.0000    157.9974     77.4768    -30.1120  10000.0000      6.3292
    50.5000    184.7191     78.3886    -40.2051  10000.0000      5.4136
    50.0000    173.5695     76.1452    -45.4197  10000.0000      5.7614
    49.5000    159.3818     72.3385    -47.9826  10000.0000      6.2742
    49.0000    159.4171     71.4167    -50.8408  10000.0000      6.2729
    48.5000    184.1333     71.9401    -51.7353  10000.0000      5.4308
    48.0000    212.8221     70.4939    -50.4116  10000.0000      4.6988
    47.5000    219.6993     69.0796    -50.9872  10000.0000      4.5517
    47.0000    208.9344     69.6154    -53.4238  10000.0000      4.7862
    46.5000    196.9534     69.8352    -50.7288  10000.0000      5.0773
    46.0000    189.3302     67.3893    -41.1360  10000.0000      5.2818
    45.5000    185.0827     64.1443    -32.5185  10000.0000      5.4030
    45.0000    179.2040     64.1073    -30.3103  10000.0000      5.5802
    44.5000    171.1884     66.7954    -29.8793  10000.0000      5.8415
    44.0000    167.4033     68.2519    -28.3806  10000.0000      5.9736
    43.5000    169.5224     68.2187    -28.7661  10000.0000      5.8989
    43.0000    173.2872     70.1488    -32.6454  10000.0000      5.7708
    42.5000    176.4576     73.2276    -36.0867  10000.0000      5.6671
    42.0000    178.2977     74.6914    -36.6113  10000.0000      5.6086
    41.5000    178.5483     75.4218    -35.3852  10000.0000      5.6007
    41.0000    177.9868     75.0892    -34.0792  10000.0000      5.6184
    40.5000    180.7941     72.4007    -32.1043  10000.0000      5.5312
    40.0000    189.1142     71.4891    -28.7734  10000.0000      5.2878
    39.5000    198.7292     74.3153    -28.6883  10000.0000      5.0320
    39.0000    205.1661     76.3173    -35.7960  10000.0000      4.8741
    38.5000    208.9919     74.0510    -46.1999  10000.0000      4.7849
    38.0000    210.2650     69.6934    -54.9220  10000.0000      4.7559
    37.5000    207.2417     67.2286    -58.9455  10000.0000      4.8253
    37.0000    201.1952     68.2824    -52.9425  10000.0000      4.9703
    36.5000    196.3880     70.7443    -38.2839  10000.0000      5.0920
    36.0000    194.7884     71.4825    -25.6337  10000.0000      5.1338
    35.5000    194.8878     70.5588    -18.2613  10000.0000      5.1312
    35.0000    194.6523     69.1522    -13.3739    159.7345      5.1374
    34.5000    194.2358     67.4498    -12.7655    157.7330      5.1484
    34.0000    178.4522     66.3989    -19.2937    157.0175      5.6037
    33.5000    124.1627     66.7099    -27.6546    156.7804      8.0539
    33.0000     53.5225     67.9984    -34.0194    156.3817     18.6837
    32.5000     11.4881     67.7946    -40.4317    155.8974     87.0464
    32.0000      2.6139     65.5611    -44.5889    156.0588    382.5752
    31.5000      2.4827     63.6307    -40.6217    156.5724    402.7825
    31.0000      2.5243     63.9600    -28.6667    156.5245    396.1572
    30.5000      2.5256     66.1135    -17.9804    155.7855    395.9380
    30.0000      2.5240     68.0890    -12.5254    157.4040    396.2007
    29.5000      2.5452     69.3850    -10.2941    171.1616    392.8997
    29.0000      2.5566     70.0294     -9.5996    203.1871    391.1487
    28.5000      2.5402     70.2397    -13.8135    240.1962    393.6680
    28.0000      2.5194     69.7901    -21.7203    256.8276    396.9226
    27.5000      2.5247     70.7659    -28.7246    258.4478    396.0920
    27.0000      2.6287     72.7081    -31.5001    258.9756    380.4124
    26.5000      2.8794     72.6332    -29.9010    259.8569    347.2954
    26.0000      3.1600     69.0977    -23.7647    260.7749    316.4597
    25.5000      3.3182     65.9842    -16.4712    259.7573    301.3691
    25.0000      3.3482     65.8495    -14.1810    256.4258    298.6641
    24.5000      3.3310     67.4272    -17.9834    253.6757    300.2070
    24.0000      3.3044     68.1117    -21.3540    253.5398    302.6238
    23.5000      3.2896     67.6405   -250.0000    253.3246    303.9890
    23.0000      3.2742     66.6157   -250.0000    249.6694    305.4214
    22.5000      3.2487     66.4734   -250.0000    244.9911    307.8159
    22.0000      3.2449     67.4260   -250.0000    243.8688    308.1721
    21.5000      3.2584     66.2908   -250.0000    246.5428    306.8950
    21.0000      0.0000     64.1454   -250.0000    249.8371      0.2000
    20.5000      0.0000     64.2790   -250.0000    251.3071      0.2000
    20.0000      0.0000     61.4489   -250.0000    250.7140      0.2000
    19.5000      0.0000     52.2859   -250.0000    248.5728      0.2000
    19.0000      0.0000     47.3394   -250.0000    245.8657      0.2000
    18.5000      0.0000     52.3947   -250.0000    244.1245      0.2000
    18.0000      0.0000     60.0149   -250.0000    245.1870      0.2000
    17.5000      0.0000     64.4845   -250.0000      0.2000      0.2000
    17.0000      0.0000     67.0722   -250.0000      0.2000      0.2000
    16.5000      0.0000     67.6838   -250.0000      0.2000      0.2000
