~Version Information
 VERS.                2.00:   CWLS log ASCII Standard -VERSION 2.00
 WRAP.                  NO:   One line per frame
~Well Information Block
#MNEM.UNIT              Data                Description
#--------- -------------------------------  -------------------------------
 STRT.F                         1080.0000:   Starting Depth
 STOP.F                            0.2500:   Ending Depth
 STEP.F                           -0.5000:   Level Spacing
 NULL.                          -999.2500:   Absent Value
 COMP.     FLUOR DANIEL (NPSOR), INC.    :   Company
 WELL.     45-1 X 14                     :   Well
 FLD .                                   :   Field
 LOC .                                   :   Location
 PROV.                                   :   Province
 SRVC.                                   :   Service Company
 LIC .                                   :   License Number
 DATE.                                   :   Log Date
 UWI .                                   :   Unique Well ID
~Curve Information Block
#MNEM.UNIT       API Codes    Curve Description
#---------    -------------   -------------------------------
 DEPT.F        0   0  0  0:   Depth
 CILD.MMHO     0   0  0  0:   Conductivity of Deep Induction
 GR  .API      0   0  0  0:   Gamma ray counts
 TEN .LBF      0   0  0  0:   Differential Tension
 RILM.OHMM     0   0  0  0:   Resistivity from CILM
 RILD.OHMM     0   0  0  0:   Resistivity from CILD
#  Curve Data
~A
# ...
   352.0000    309.9158    122.7000    -36.9450      3.3348      3.2267
   351.5000    299.0957    124.1896    -36.3526      3.3299      3.3434
   351.0000    292.2930    121.9437    -39.5795      3.2859      3.4212
   350.5000    287.0093    117.9621    -39.1635      3.2980      3.4842
   350.0000    278.2034    116.4866    -33.6064      3.4351      3.5945
   349.5000    263.4304    116.6023    -32.0186      3.6879      3.7961
   349.0000    245.6372    116.6396    -34.9014      3.9770      4.0710
   348.5000    229.9968    119.1664    -37.4131      4.2159      4.3479
   348.0000    218.4205    123.7513    -36.8175      4.3876      4.5783
   347.5000    211.3736    126.2699    -34.2704      4.5351      4.7310
   347.0000    207.4580    124.3101    -29.5515      4.6822      4.8203
   346.5000    205.4876    120.8124    -31.9323      4.8031      4.8665
   346.0000    205.4683    119.0416    -41.2415      4.8657      4.8669
   345.5000    207.4389    119.1620    -43.8011      4.8677      4.8207
   345.0000    210.6679    121.0624    -36.1468      4.8248      4.7468
   344.5000    214.5001    124.8708    -30.5284      4.7456      4.6620
   344.0000    219.1756    126.0386    -32.8570      4.6298      4.5626
   343.5000    226.1188    120.4522    -38.4648      4.4828      4.4225
   343.0000    237.3179    112.2855    -40.9231      4.3145      4.2138
   342.5000    254.5849    109.4562    -36.5915      4.1224      3.9280
   342.0000    278.1040    112.9930    -30.1126      3.9037      3.5958
   341.5000    301.8311    118.1467    -30.1227      3.6841      3.3131
   341.0000    319.3445    123.3967    -32.6048      3.4965      3.1314
   340.5000    328.0635    130.6383    -31.9719      3.3305      3.0482
   340.0000    330.0610    138.3077    -33.6327      3.1538      3.0297
   339.5000    328.4810    138.7997    -38.6478      2.9886      3.0443
   339.0000    323.7693    129.3930    -41.1906      2.9185      3.0886
   338.5000    312.4187    119.8211    -40.8224      3.0143      3.2008
   338.0000    291.4685    118.8252    -40.1846      3.2914      3.4309
   337.5000    263.5288    123.4889    -39.3627      3.7126      3.7947
   337.0000    235.9394    123.9229    -39.9413      4.2095      4.2384
   336.5000    213.5485    117.3652    -39.4853      4.6949      4.6828
   336.0000    198.1325    110.1861    -37.6556      5.0669      5.0471
   335.5000    189.8164    110.0771    -38.4251      5.2687      5.2682
   335.0000    186.2755    114.4196    -38.0735      5.3482      5.3684
   334.5000    184.9997    116.9971    -36.6939      5.3721      5.4054
   334.0000    185.0016    118.8384    -39.8062      5.3598      5.4054
   333.5000    187.0471    122.1103    -42.4002      5.2927      5.3462
   333.0000    193.2505    122.1991    -41.9985      5.1611      5.1746
   332.5000    206.0947    117.4621    -40.1081      4.9699      4.8521
   332.0000    226.9503    113.7053    -35.9290      4.7037      4.4063
   331.5000    254.4997    112.6172    -32.5520      4.3643      3.9293
   331.0000    285.2275    109.8849    -32.8033      3.9949      3.5060
   330.5000    311.6306    107.5375    -27.8209      3.6435      3.2089
   330.0000    331.4788    110.7995    -22.6548      3.3156      3.0168
   329.5000    345.9617    114.8092    -28.8542      3.0151      2.8905
   329.0000    356.6492    113.1892    -36.2523      2.7867      2.8039
   328.5000    362.2153    109.5820    -35.9891      2.6836      2.7608
   328.0000    358.7205    109.4416    -36.9712      2.7281      2.7877
   327.5000    344.1689    109.9502    -40.0444      2.9070      2.9056
   327.0000    321.3823    108.5902    -38.9445      3.1800      3.1116
   326.5000    295.7971    108.2823    -35.6396      3.4875      3.3807
   326.0000    272.0154    111.1997    -34.5040      3.7697      3.6763
   325.5000    252.1530    115.2035    -34.7859      3.9952      3.9658
   325.0000    237.4741    119.2491    -34.1920      4.1686      4.2110
   324.5000    226.6540    123.1693    -35.0177      4.3103      4.4120
   324.0000    219.1086    124.3873    -37.5812      4.4333      4.5639
   323.5000    214.4354    121.8969    -36.3157      4.5367      4.6634
   323.0000    212.4010    120.0416    -34.4809      4.6086      4.7081
   322.5000    211.9399    120.1272    -37.0438      4.6440      4.7183
   322.0000    211.2091    120.2999    -40.4726      4.6580      4.7346
   321.5000    209.4091    120.9728    -41.9970      4.6709      4.7753
   321.0000    207.3707    122.0619    -42.0622      4.6800      4.8223
   320.5000    206.9266    122.6988    -38.4010      4.6630      4.8326
   320.0000    210.9420    121.9058    -37.6654      4.6063      4.7406
   319.5000    222.9952    119.6501    -41.2348      4.5064      4.4844
   319.0000    245.7553    116.2772    -44.2561      4.3367      4.0691
   318.5000    281.2014    114.7902    -41.9039      4.0574      3.5562
   318.0000    322.1448    115.3164    -38.0914      3.6893      3.1042
   317.5000    357.7937    116.2545    -36.1916      3.3151      2.7949
   317.0000    380.6794    117.5702    -39.0787      2.9855      2.6269
   316.5000    391.4961    118.7269    -43.2270      2.6944      2.5543
   316.0000    395.8735    118.5668    -44.9213      2.4417      2.5261
   315.5000    396.8250    118.6586    -42.7586      2.2799      2.5200
   315.0000    390.3284    120.2121    -38.6322      2.2919      2.5619
   314.5000    368.9509    120.5844    -37.3042      2.5262      2.7104
   314.0000    331.2266    118.7547    -40.9164      2.9744      3.0191
   313.5000    285.1716    116.8001    -46.6284      3.6000      3.5067
   313.0000    242.9131    115.9897    -45.1964      4.2594      4.1167
   312.5000    213.6215    116.8283    -38.1647      4.7741      4.6812
   312.0000    196.6412    119.7358    -34.2436      5.0634      5.0854
   311.5000    189.2126    124.2455    -36.7003      5.1821      5.2851
   311.0000    186.5314    126.7691    -41.0576      5.2341      5.3610
   310.5000    184.9807    124.5378    -42.2535      5.2844      5.4060
   310.0000    183.3506    120.3942    -39.2523      5.3493      5.4540
   309.5000    181.5496    119.2899    -36.1041      5.4150      5.5081
   309.0000    179.9081    120.7565    -35.0296      5.4557      5.5584
   308.5000    179.8967    121.0473    -36.2865      5.4451      5.5587
   308.0000    183.4885    121.5742    -40.5199      5.3707      5.4499
   307.5000    191.5601    124.1865    -38.7274      5.2420      5.2203
   307.0000    203.7744    125.2728    -31.0081      5.0717      4.9074
   306.5000    218.0457    123.2491    -28.4995      4.8684      4.5862
   306.0000    229.9455    122.6777    -34.3332      4.6651      4.3489
   305.5000    236.0872    126.4780    -38.2083      4.4932      4.2357
   305.0000    237.5250    131.5312    -39.9724      4.3363      4.2101
   304.5000    237.3225    134.0114    -41.9171      4.1636      4.2137
   304.0000    236.8362    132.0553    -42.8311      4.0227      4.2223
   303.5000    234.7581    127.9586    -40.1337      4.0305      4.2597
   303.0000    228.0896    125.6463    -37.1490      4.2583      4.3842
   302.5000    215.6929    123.8503    -34.6132      4.6549      4.6362
   302.0000    200.7406    120.9327    -32.8952      5.0740      4.9816
   301.5000    187.4747    118.5365    -34.1429      5.4031      5.3341
   301.0000    177.5429    119.0958    -38.5621      5.6495      5.6324
   300.5000    170.3894    122.0871    -40.9450      5.8411      5.8689
   300.0000    164.7463    127.0650    -39.8586      6.0154      6.0699
   299.5000    159.5849    131.4725    -38.2778      6.1968      6.2663
   299.0000    154.9487    132.4142    -36.6906      6.3682      6.4537
   298.5000    151.2454    130.6818    -34.7285      6.4990      6.6118
   298.0000    148.5780    127.6699    -34.2762      6.5950      6.7305
   297.5000    146.5940    124.4323    -36.2492      6.6906      6.8216
   297.0000    144.9442    122.0673    -38.2525      6.7928      6.8992
   296.5000    143.8114    121.8707    -37.5016      6.8583      6.9536
