~Version Information
 VERS.                2.00:   CWLS log ASCII Standard -VERSION 2.00
 WRAP.                  NO:   One line per frame
~Well Information Block
#MNEM.UNIT              Data                Description
#--------- -------------------------------  -------------------------------
 STRT.F                         1080.0000:   Starting Depth
 STOP.F                            0.2500:   Ending Depth
 STEP.F                           -0.5000:   Level Spacing
 NULL.                          -999.2500:   Absent Value
 COMP.     FLUOR DANIEL (NPSOR), INC.    :   Company
 WELL.     45-1 X 14                     :   Well
 FLD .                                   :   Field
 LOC .                                   :   Location
 PROV.                                   :   Province
 SRVC.                                   :   Service Company
 LIC .                                   :   License Number
 DATE.                                   :   Log Date
 UWI .                                   :   Unique Well ID
~Curve Information Block
#MNEM.UNIT       API Codes    Curve Description
#---------    -------------   -------------------------------
 DEPT.F        0   0  0  0:   Depth
 CILD.MMHO     0   0  0  0:   Conductivity of Deep Induction
 GR  .API      0   0  0  0:   Gamma ray counts
 TEN .LBF      0   0  0  0:   Differential Tension
 RILM.OHMM     0   0  0  0:   Resistivity from CILM
 RILD.OHMM     0   0  0  0:   Resistivity from CILD
#  Curve Data
~A
# ...
   744.0000    290.1663    128.8592    -29.6106      3.4853      3.4463
   743.5000    246.6330    133.1262    -25.9351      4.0578      4.0546
   743.0000    215.7714    137.1233    -22.2348      4.5937      4.6345
   742.5000    193.5275    134.0411    -17.8943      5.0660      5.1672
   742.0000    177.1724    128.8269    -19.0293      5.4661      5.6442
   741.5000    164.6775    127.7274    -23.2809      5.8126      6.0725
   741.0000    155.2438    127.7644    -25.3684      6.1091      6.4415
   740.5000    148.2013    125.4369    -25.3232      6.3565      6.7476
   740.0000    142.9269    124.8414    -24.4680      6.5562      6.9966
   739.5000    139.1942    129.6229    -25.6950      6.7167      7.1842
   739.0000    137.0334    134.2862    -27.7239      6.8454      7.2975
   738.5000    136.4433    132.9334    -26.5542      6.9480      7.3291
   738.0000    136.8313    126.7110    -25.5163      7.0397      7.3083
   737.5000    137.3233    121.8677    -25.8243      7.1265      7.2821
   737.0000    137.5160    121.9772    -24.6251      7.1999      7.2719
   736.5000    137.3292    124.0526    -25.2055      7.2584      7.2818
   736.0000    136.6468    126.1281    -27.3896      7.3224      7.3181
   735.5000    135.7202    128.4695    -27.0773      7.3970      7.3681
   735.0000    134.9745    130.9386    -29.4727      7.4619      7.4088
   734.5000    134.5185    131.9409    -31.0139      7.5028      7.4339
   734.0000    134.1484    131.4581    -22.8003      7.5237      7.4544
   733.5000    133.9492    130.6898    -15.2347      7.5217      7.4655
   733.0000    134.3351    131.0886    -17.9547      7.4906      7.4441
   732.5000    135.3929    131.6659    -23.7177      7.4406      7.3859
   732.0000    136.6342    131.1356    -26.5005      7.3899      7.3188
   731.5000    137.6732    130.0194    -25.6679      7.3447      7.2636
   731.0000    138.5036    128.9436    -22.4895      7.3037      7.2200
   730.5000    139.2192    130.0852    -24.2484      7.2705      7.1829
   730.0000    139.8994    132.5791    -29.1699      7.2423      7.1480
   729.5000    140.5220    133.7173    -28.6737      7.2044      7.1163
   729.0000    140.9662    133.3460    -27.6415      7.1550      7.0939
   728.5000    141.2166    133.4467    -28.1042      7.1017      7.0813
   728.0000    141.6835    132.7773    -28.7353      7.0441      7.0580
   727.5000    142.9626    129.8776    -27.0358      6.9762      6.9948
   727.0000    145.2227    125.1986    -21.9454      6.8963      6.8860
   726.5000    148.0009    122.3172    -21.1847      6.8028      6.7567
   726.0000    150.7241    123.5197    -29.7378      6.6993      6.6346
   725.5000    153.2158    125.5364    -34.5531      6.5940      6.5267
   725.0000    155.7523    127.2034    -32.2791      6.4886      6.4205
   724.5000    158.4897    129.8265    -31.3018      6.3810      6.3096
   724.0000    161.6864    130.9460    -28.5898      6.2673      6.1848
   723.5000    166.2839    127.5553    -25.2442      6.1348      6.0138
   723.0000    173.7378    123.0233    -26.9223      5.9592      5.7558
   722.5000    185.4543    121.6299    -26.9358      5.7118      5.3922
   722.0000    201.9033    122.1406    -25.0512      5.3818      4.9529
   721.5000    220.0833    123.2303    -28.5392      5.0186      4.5437
   721.0000    234.2128    125.5067    -32.0817      4.6936      4.2696
   720.5000    241.4446    127.0423    -29.1790      4.4377      4.1417
   720.0000    243.9121    127.3441    -24.5113      4.1880      4.0998
   719.5000    244.8563    128.3275    -23.7613      3.9307      4.0840
   719.0000    245.2959    130.6429    -24.4662      3.7743      4.0767
   718.5000    242.7663    133.1737    -27.7986      3.8408      4.1192
   718.0000    233.5150    134.8279    -30.4539      4.1582      4.2824
   717.5000    217.7577    134.0567    -30.5802      4.6415      4.5923
   717.0000    200.4063    133.2359    -30.4646      5.1308      4.9899
   716.5000    186.0462    133.7884    -28.3278      5.5007      5.3750
   716.0000    176.1899    133.0066    -25.2458      5.7394      5.6757
   715.5000    170.1540    129.9185    -28.5462      5.8894      5.8770
   715.0000    166.2874    126.9850    -34.1768      6.0025      6.0137
   714.5000    163.0746    126.8792    -32.6295      6.1024      6.1322
   714.0000    159.7633    129.5458    -28.0329      6.1955      6.2593
   713.5000    156.5005    132.6595    -27.0999      6.2897      6.3898
   713.0000    153.5376    135.9135    -31.3134      6.3905      6.5131
   712.5000    150.8935    137.5659    -35.3772      6.4937      6.6272
   712.0000    148.5858    134.0706    -29.8927      6.5888      6.7301
   711.5000    147.1888    128.3396    -21.9469      6.6636      6.7940
   711.0000    147.2199    125.4263    -21.1941      6.7098      6.7926
   710.5000    148.3474    125.8081    -24.6812      6.7259      6.7409
   710.0000    149.8111    127.8445    -28.8347      6.7166      6.6751
   709.5000    151.1324    130.1967    -33.1129      6.6886      6.6167
   709.0000    152.0896    130.7132    -34.7496      6.6486      6.5751
   708.5000    152.9476    130.2315    -31.1945      6.6063      6.5382
   708.0000    154.4885    129.0941    -29.1781      6.5604      6.4730
   707.5000    157.4545    126.6331    -29.2437      6.4902      6.3510
   707.0000    162.2739    124.0235    -31.2341      6.3727      6.1624
   706.5000    168.6488    122.6313    -34.1847      6.2126      5.9295
   706.0000    175.0732    122.2027    -33.7028      6.0407      5.7119
   705.5000    179.9105    122.4810    -28.0048      5.8777      5.5583
   705.0000    182.6905    123.5354    -23.8281      5.7121      5.4737
   704.5000    183.9208    124.7567    -22.4077      5.5349      5.4371
   704.0000    184.1996    125.4397    -24.1828      5.3915      5.4289
   703.5000    183.4901    123.3036    -27.8126      5.3502      5.4499
   703.0000    180.9345    120.1529    -26.6195      5.4396      5.5269
   702.5000    176.0880    119.2431    -25.7271      5.6412      5.6790
   702.0000    169.6387    119.6340    -31.1951      5.9201      5.8949
   701.5000    162.6518    118.8276    -33.3938      6.2259      6.1481
   701.0000    156.2469    120.6077    -30.3365      6.4920      6.4001
   700.5000    151.3780    125.2393    -26.8653      6.6776      6.6060
   700.0000    148.2841    125.6844    -21.7477      6.7954      6.7438
   699.5000    146.3507    120.6143    -17.1029      6.8773      6.8329
   699.0000    144.8619    118.4474    -19.4752      6.9475      6.9031
   698.5000    143.3090    123.5116    -26.3514      7.0149      6.9779
   698.0000    141.6761    129.4367    -31.8512      7.0698      7.0584
   697.5000    140.3757    130.0516    -32.0903      7.1017      7.1237
   697.0000    139.5534    126.4671    -29.2141      7.1223      7.1657
   696.5000    138.9157    124.1194    -30.2194      7.1501      7.1986
   696.0000    138.3460    125.0455    -29.1888      7.1923      7.2283
   695.5000    137.9551    125.9982    -22.0033      7.2471      7.2487
   695.0000    137.5539    124.9459    -20.5387      7.3050      7.2699
   694.5000    137.0561    123.5692    -26.4441      7.3498      7.2963
   694.0000    136.6245    121.7978    -26.7281      7.3691      7.3193
   693.5000    136.3670    119.6552    -24.0929      7.3647      7.3332
   693.0000    136.3007    120.0649    -24.5650      7.3503      7.3367
   692.5000    136.5190    123.5121    -23.2535      7.3417      7.3250
   692.0000    136.9158    127.2743    -24.5912      7.3479      7.3038
   691.5000    137.1758    130.8192    -30.2542      7.3647      7.2899
   691.0000    137.1263    134.3177    -31.4287      7.3756      7.2925
   690.5000    136.8683    136.4681    -28.8069      7.3657      7.3063
   690.0000    136.5659    135.5253    -27.7242      7.3336      7.3225
   689.5000    136.2757    131.3170    -24.9362      7.2962      7.3381
   689.0000    135.9145    126.8448    -23.6268      7.2827      7.3576
   688.5000    135.3805    125.8891    -25.7591      7.3115      7.3866
