~Version Information
 VERS.                2.00:   CWLS log ASCII Standard -VERSION 2.00
 WRAP.                  NO:   One line per frame
~Well Information Block
#MNEM.UNIT              Data                Description
#--------- -------------------------------  -------------------------------
 STRT.F                         1080.0000:   Starting Depth
 STOP.F                            0.2500:   Ending Depth
 STEP.F                           -0.5000:   Level Spacing
 NULL.                          -999.2500:   Absent Value
 COMP.     FLUOR DANIEL (NPSOR), INC.    :   Company
 WELL.     45-1 X 14                     :   Well
 FLD .                                   :   Field
 LOC .                                   :   Location
 PROV.                                   :   Province
 SRVC.                                   :   Service Company
 LIC .                                   :   License Number
 DATE.                                   :   Log Date
 UWI .                                   :   Unique Well ID
~Curve Information Block
#MNEM.UNIT       API Codes    Curve Description
#---------    -------------   -------------------------------
 DEPT.F        0   0  0  0:   Depth
 CILD.MMHO     0   0  0  0:   Conductivity of Deep Induction
 GR  .API      0   0  0  0:   Gamma ray counts
 TEN .LBF      0   0  0  0:   Differential Tension
 RILM.OHMM     0   0  0  0:   Resistivity from CILM
 RILD.OHMM     0   0  0  0:   Resistivity from CILD
#  Curve Data
~A
# ...
   800.0000    167.2718    149.3818    -22.1226      6.1249      5.9783
   799.5000    167.3181    154.0926    -18.0731      6.0938      5.9766
   799.0000    173.1066    153.0069    -14.8096      5.9633      5.7768
   798.5000    183.6966    150.4793    -20.1782      5.7575      5.4438
   798.0000    197.6207    150.0556    -24.7666      5.4761      5.0602
   797.5000    211.6839    149.9395    -21.5370      5.1604      4.7240
   797.0000    221.4954    148.7182    -17.0364      4.8731      4.5148
   796.5000    225.4200    146.4284    -15.1521      4.6334      4.4362
   796.0000    225.8726    144.7106    -14.1560      4.4135      4.4273
   795.5000    226.1753    146.5550    -16.9681      4.2233      4.4213
   795.0000    226.7854    151.8661    -20.2852      4.1545      4.4095
   794.5000    224.8104    154.7832    -20.6622      4.2995      4.4482
   794.0000    217.3103    153.3297    -20.1123      4.6646      4.6017
   793.5000    205.1327    152.2005    -18.3927      5.1302      4.8749
   793.0000    192.0489    153.1018    -18.3528      5.5160      5.2070
   792.5000    181.2121    155.5399    -21.6394      5.7474      5.5184
   792.0000    173.8593    157.7652    -25.4898      5.8459      5.7518
   791.5000    169.6701    155.7889    -27.5333      5.8688      5.8938
   791.0000    167.2234    149.4479    -26.0223      5.8916      5.9800
   790.5000    164.9365    143.7037    -21.6083      5.9867      6.0629
   790.0000    161.8343    140.8272    -19.5712      6.1644      6.1792
   789.5000    158.0090    142.9853    -21.6556      6.3599      6.3288
   789.0000    154.5277    148.7602    -26.4651      6.5004      6.4713
   788.5000    152.1140    151.0625    -29.5606      6.5721      6.5740
   788.0000    150.7013    148.5286    -25.1155      6.6051      6.6356
   787.5000    150.2829    147.9698    -20.5491      6.6273      6.6541
   787.0000    150.8911    151.3657    -22.4822      6.6432      6.6273
   786.5000    151.9115    155.4129    -24.5086      6.6462      6.5828
   786.0000    152.6413    157.4810    -22.6005      6.6389      6.5513
   785.5000    152.9790    156.9466    -20.9965      6.6275      6.5368
   785.0000    153.0732    153.9861    -20.8263      6.6119      6.5328
   784.5000    152.9898    149.3861    -22.4758      6.5920      6.5364
   784.0000    152.9156    146.9192    -22.1500      6.5767      6.5396
   783.5000    152.9346    147.5824    -19.9708      6.5751      6.5387
   783.0000    152.7476    147.8056    -19.4175      6.5908      6.5467
   782.5000    152.1423    147.2769    -19.2998      6.6171      6.5728
   782.0000    151.1602    149.0720    -21.0593      6.6444      6.6155
   781.5000    149.8448    150.4841    -25.6343      6.6700      6.6736
   781.0000    148.4850    148.9697    -28.9585      6.6966      6.7347
   780.5000    147.6436    147.0349    -29.1046      6.7222      6.7731
   780.0000    147.5481    145.9773    -25.6554      6.7427      6.7774
   779.5000    147.9806    145.1699    -19.0659      6.7475      6.7576
   779.0000    148.7112    146.7269    -15.2418      6.7189      6.7244
   778.5000    149.7162    149.7944    -14.4393      6.6583      6.6793
   778.0000    151.0934    150.9461    -13.2684      6.5961      6.6184
   777.5000    152.7963    149.0400    -19.2870      6.5508      6.5447
   777.0000    154.7192    145.9578    -28.0173      6.4981      6.4633
   776.5000    157.5937    142.1109    -27.3643      6.4011      6.3454
   776.0000    163.1235    139.3292    -23.4344      6.2522      6.1303
   775.5000    172.8372    138.7609    -24.7068      6.0543      5.7858
   775.0000    187.2845    139.2636    -26.7009      5.7822      5.3395
   774.5000    205.2171    138.5013    -25.4584      5.4238      4.8729
   774.0000    222.4334    138.5814    -20.2788      5.0385      4.4957
   773.5000    234.6377    144.2197    -13.4060      4.6865      4.2619
   773.0000    241.6100    152.4406    -11.1011      4.3741      4.1389
   772.5000    245.9296    154.9680    -16.0579      4.0681      4.0662
   772.0000    249.1091    151.4875    -22.2894      3.8199      4.0143
   771.5000    250.0126    148.7320    -21.9481      3.7426      3.9998
   771.0000    245.2495    147.1025    -21.0331      3.9025      4.0775
   770.5000    232.9772    144.0992    -22.0015      4.2686      4.2923
   770.0000    216.2554    139.6561    -20.0016      4.7241      4.6242
   769.5000    200.2379    136.7771    -21.7782      5.1350      4.9941
   769.0000    187.6606    138.4456    -31.8588      5.4377      5.3288
   768.5000    178.8666    142.3441    -34.4232      5.6482      5.5908
   768.0000    172.9286    141.7943    -27.8791      5.8026      5.7827
   767.5000    168.3282    137.4654    -22.4184      5.9312      5.9408
   767.0000    164.0138    135.2080    -17.1303      6.0478      6.0970
   766.5000    159.8577    135.9357    -15.2781      6.1606      6.2556
   766.0000    156.0396    137.7588    -19.7735      6.2772      6.4086
   765.5000    152.4398    140.6647    -20.0885      6.4006      6.5600
   765.0000    149.0941    143.5369    -17.9315      6.5244      6.7072
   764.5000    146.4748    143.9679    -21.3845      6.6303      6.8271
   764.0000    145.3191    140.8756    -24.0377      6.7015      6.8814
   763.5000    146.0639    139.0419    -20.1065      6.7312      6.8463
   763.0000    148.6403    141.2390    -17.1578      6.7148      6.7277
   762.5000    152.7500    143.1827    -17.3932      6.6381      6.5466
   762.0000    158.1871    140.8955    -17.4963      6.4874      6.3216
   761.5000    165.0098    138.6431    -17.3652      6.2744      6.0602
   761.0000    173.0263    140.3025    -19.3434      6.0357      5.7795
   760.5000    182.0642    142.8890    -19.0241      5.7874      5.4926
   760.0000    192.6825    142.7620    -18.9972      5.5015      5.1899
   759.5000    205.4096    140.6456    -20.7339      5.1686      4.8683
   759.0000    219.5081    138.3094    -20.2337      4.8363      4.5556
   758.5000    234.0753    135.3547    -18.2588      4.5498      4.2721
   758.0000    248.6740    132.9509    -18.9155      4.2869      4.0213
   757.5000    262.0120    133.6264    -18.7374      4.0296      3.8166
   757.0000    269.2209    137.9556    -18.8533      3.8321      3.7144
   756.5000    268.5940    141.2790    -21.0545      3.7396      3.7231
   756.0000    262.1687    142.4937    -16.5167      3.7077      3.8143
   755.5000    253.7372    145.3587    -11.1911      3.6802      3.9411
   755.0000    246.3288    148.3528    -17.7214      3.7098      4.0596
   754.5000    238.5645    147.3638    -23.8736      3.9070      4.1917
   754.0000    226.8906    144.0629    -21.0182      4.2867      4.4074
   753.5000    212.4700    140.9313    -18.4470      4.7107      4.7065
   753.0000    201.0444    138.7175    -22.5386      4.9975      4.9740
   752.5000    197.5156    138.7724    -25.2393      5.0816      5.0629
   752.0000    204.6176    138.4405    -24.6281      4.9868      4.8872
   751.5000    223.2330    133.7409    -23.9471      4.7333      4.4796
   751.0000    250.8361    128.3504    -26.7363      4.3823      3.9867
   750.5000    287.0249    127.8988    -28.7304      3.9821      3.4840
   750.0000    330.3875    130.4520    -25.6298      3.5331      3.0267
   749.5000    381.2576    129.5818    -22.9357      3.0519      2.6229
   749.0000    434.8467    123.0433    -21.8801      2.6187      2.2997
   748.5000    484.9978    117.8517    -20.7330      2.2886      2.0619
   748.0000    520.3843    119.4542    -22.6758      2.0737      1.9217
   747.5000    535.7341    123.7180    -25.8914      1.9368      1.8666
   747.0000    534.3433    125.6866    -25.5505      1.8543      1.8715
   746.5000    519.9507    125.5966    -26.2569      1.8413      1.9233
   746.0000    491.7122    125.4754    -25.7344      1.9289      2.0337
   745.5000    448.5969    127.5870    -21.2359      2.1383      2.2292
   745.0000    397.5996    130.4954    -23.2047      2.4863      2.5151
   744.5000    342.3542    129.7820    -29.6024      2.9405      2.9210
