~Version Information
 VERS.                2.00:   CWLS log ASCII Standard -VERSION 2.00
 WRAP.                  NO:   One line per frame
~Well Information Block
#MNEM.UNIT              Data                Description
#--------- -------------------------------  -------------------------------
 STRT.F                         1080.0000:   Starting Depth
 STOP.F                            0.2500:   Ending Depth
 STEP.F                           -0.5000:   Level Spacing
 NULL.                          -999.2500:   Absent Value
 COMP.     FLUOR DANIEL (NPSOR), INC.    :   Company
 WELL.     45-1 X 14                     :   Well
 FLD .                                   :   Field
 LOC .                                   :   Location
 PROV.                                   :   Province
 SRVC.                                   :   Service Company
 LIC .                                   :   License Number
 DATE.                                   :   Log Date
 UWI .                                   :   Unique Well ID
~Curve Information Block
#MNEM.UNIT       API Codes    Curve Description
#---------    -------------   -------------------------------
 DEPT.F        0   0  0  0:   Depth
 CILD.MMHO     0   0  0  0:   Conductivity of Deep Induction
 GR  .API      0   0  0  0:   Gamma ray counts
 TEN .LBF      0   0  0  0:   Differential Tension
 RILM.OHMM     0   0  0  0:   Resistivity from CILM
 RILD.OHMM     0   0  0  0:   Resistivity from CILD
#  Curve Data
~A
# ...
  1024.0000    152.4684    132.0406    185.5552      6.6669      6.5587
  1023.5000    145.9682    131.0201    180.1485      6.9175      6.8508
  1023.0000    141.4779    132.4655    171.7180      7.0530      7.0682
  1022.5000    138.7617    136.1373    165.2886      7.1281      7.2066
  1022.0000    137.1480    137.8618    165.7620      7.1952      7.2914
  1021.5000    135.8293    135.5844    170.4965      7.2723      7.3622
  1021.0000    134.4118    131.2100    171.3792      7.3485      7.4398
  1020.5000    132.7616    128.4088    169.1429      7.4211      7.5323
  1020.0000    130.9247    127.0064    168.2712      7.5024      7.6380
  1019.5000    128.9624    126.1886    169.0270      7.5985      7.7542
  1019.0000    126.7941    125.6234    171.2026      7.7066      7.8868
  1018.5000    124.5744    125.4619    172.6590      7.8298      8.0273
  1018.0000    122.8335    124.0409    172.2640      7.9725      8.1411
  1017.5000    121.7503    120.4802    171.4569      8.1221      8.2135
  1017.0000    121.0132    118.0582    170.2653      8.2615      8.2636
  1016.5000    120.2596    120.3120    167.0100      8.3738      8.3153
  1016.0000    119.4945    124.2661    163.3665      8.4337      8.3686
  1015.5000    119.1448    125.8134    161.0687      8.4339      8.3932
  1015.0000    119.3074    128.2711    159.8130      8.4031      8.3817
  1014.5000    119.5672    132.4843    159.5562      8.3650      8.3635
  1014.0000    119.5898    132.1858    160.7176      8.3251      8.3619
  1013.5000    119.3678    126.3165    161.1418      8.2978      8.3775
  1013.0000    118.9023    121.9902    157.3979      8.3022      8.4103
  1012.5000    118.1228    120.5340    152.0599      8.3474      8.4658
  1012.0000    116.9915    120.0872    152.5997      8.4386      8.5476
  1011.5000    115.5696    121.4617    155.3389      8.5704      8.6528
  1011.0000    113.9846    124.5249    152.8766      8.7212      8.7731
  1010.5000    112.3833    127.7089    147.6191      8.8630      8.8981
  1010.0000    110.8571    128.2161    144.6432      8.9788      9.0206
  1009.5000    109.3544    124.8458    143.0502      9.0711      9.1446
  1009.0000    107.7370    121.6760    142.8327      9.1618      9.2819
  1008.5000    106.0621    123.2715    143.8694      9.2644      9.4284
  1008.0000    104.4190    127.8198    143.6107      9.3693      9.5768
  1007.5000    102.7810    130.1642    139.1492      9.4716      9.7294
  1007.0000    101.1316    129.8637    132.5755      9.5948      9.8881
  1006.5000     99.4761    129.9500    133.1355      9.7645     10.0527
  1006.0000     97.8015    130.6399    143.8459      9.9697     10.2248
  1005.5000     96.2259    129.6399    152.9642     10.1654     10.3922
  1005.0000     95.0424    128.6503    152.0190     10.3206     10.5216
  1004.5000     94.2953    127.5765    147.9149     10.4351     10.6050
  1004.0000     93.8080    123.7343    146.9468     10.5178     10.6601
  1003.5000     93.4169    118.6598    145.1409     10.5611     10.7047
  1003.0000     93.2175    116.1653    140.9240     10.5683     10.7276
  1002.5000     93.3020    115.7188    136.7166     10.5667     10.7179
  1002.0000     93.4266    114.4904    132.4752     10.5650     10.7036
  1001.5000     93.1867    113.1490    128.8055     10.5496     10.7311
  1001.0000     92.6057    113.1644    127.4213     10.5337     10.7985
  1000.5000     91.9616    113.5362    127.4512     10.5492     10.8741
  1000.0000     91.3644    112.9387    128.1152     10.6067     10.9452
   999.5000     90.8687    110.7566    129.1376     10.6955     11.0049
   999.0000     90.4622    108.5157    127.7532     10.8039     11.0543
   998.5000     89.8282    108.9377    123.2462     10.9238     11.1324
   998.0000     88.8850    113.5236    120.6394     11.0271     11.2505
   997.5000     88.1481    119.2307    121.3107     11.0701     11.3445
   997.0000     87.9556    121.1196    122.4014     11.0390     11.3694
   996.5000     88.2892    117.2685    123.4588     10.9766     11.3264
   996.0000     89.1384    111.9135    126.0659     10.9273     11.2185
   995.5000     90.2625    110.2432    125.8698     10.8888     11.0788
   995.0000     91.2751    112.0988    120.6812     10.8447     10.9559
   994.5000     92.1852    114.3275    117.2783     10.7818     10.8477
   994.0000     93.2195    117.1119    119.0759     10.6857     10.7274
   993.5000     94.4962    119.3194    121.2408     10.5558     10.5824
   993.0000     95.9885    119.4791    120.2761     10.4114     10.4179
   992.5000     97.5898    117.6667    119.3651     10.2670     10.2470
   992.0000     99.1695    116.5727    118.8911     10.1311     10.0837
   991.5000    100.6689    117.9586    116.6573     10.0044      9.9336
   991.0000    101.8904    120.7322    113.7851      9.8703      9.8145
   990.5000    102.7010    121.4653    113.2858      9.7209      9.7370
   990.0000    103.5392    119.7659    115.2369      9.5654      9.6582
   989.5000    104.8920    116.9008    115.2808      9.4231      9.5336
   989.0000    106.7240    114.2614    112.5728      9.2982      9.3700
   988.5000    108.7042    114.2253    109.6240      9.1736      9.1993
   988.0000    110.6861    116.1295    107.8690      9.0270      9.0346
   987.5000    112.6624    116.3991    106.5194      8.8515      8.8761
   987.0000    114.7262    116.1917    108.0646      8.6773      8.7164
   986.5000    116.6786    117.5747    110.4414      8.5523      8.5706
   986.0000    118.2870    117.1016    108.9457      8.4741      8.4540
   985.5000    120.1289    114.6395    105.6718      8.3840      8.3244
   985.0000    123.8644    116.2925    105.1530      8.2206      8.0733
   984.5000    131.4212    121.8872    106.5279      7.9472      7.6091
   984.0000    144.1125    123.1425    105.5019      7.5339      6.9390
   983.5000    160.8677    120.8340    102.4879      6.9993      6.2163
   983.0000    177.6029    125.3334     99.0808      6.4445      5.6305
   982.5000    189.6686    139.6751     96.3833      5.9561      5.2724
   982.0000    196.3484    153.4131     93.4136      5.5092      5.0930
   981.5000    199.9210    156.7816     91.6113      5.0599      5.0020
   981.0000    202.4854    151.0546     91.9544      4.6810      4.9386
   980.5000    203.4947    142.1891     94.3831      4.5462      4.9141
   980.0000    199.4283    133.4619     94.8803      4.7477      5.0143
   979.5000    187.9874    126.6636     92.1920      5.2575      5.3195
   979.0000    171.5322    122.6365     90.8790      5.9395      5.8298
   978.5000    154.9760    119.5582     92.0679      6.6223      6.4526
   978.0000    141.6690    118.0863     92.2878      7.1642      7.0587
   977.5000    132.3633    117.6359     90.5560      7.5304      7.5550
   977.0000    126.4610    117.3033     91.1977      7.7804      7.9076
   976.5000    122.6643    116.3237     93.3373      7.9830      8.1523
   976.0000    119.8501    114.7049     94.8483      8.1643      8.3438
   975.5000    117.2738    111.9279     94.1404      8.3324      8.5271
   975.0000    114.6341    110.4465     91.6159      8.4994      8.7234
   974.5000    112.0519    112.5414     87.6216      8.6678      8.9244
   974.0000    109.8762    115.2731     83.7210      8.8251      9.1012
   973.5000    108.3434    115.8202     79.4985      8.9619      9.2299
   973.0000    107.4854    113.7425     74.9464      9.0809      9.3036
   972.5000    107.0287    111.4977     72.5885      9.1882      9.3433
   972.0000    106.5206    112.0751     76.2530      9.2837      9.3879
   971.5000    105.7785    113.9790     83.9122      9.3728      9.4537
   971.0000    104.8206    112.7367     89.4287      9.4658      9.5401
   970.5000    103.7968    109.1689     89.7121      9.5648      9.6342
   970.0000    102.8728    107.6992     86.5517      9.6665      9.7207
   969.5000    102.0186    108.2266     82.9941      9.7614      9.8021
   969.0000    101.1671    109.2106     82.3484      9.8321      9.8846
   968.5000    100.4247    111.0974     84.2971      9.8794      9.9577
