~Version Information
 VERS.                2.00:   CWLS log ASCII Standard -VERSION 2.00
 WRAP.                  NO:   One line per frame
~Well Information Block
#MNEM.UNIT              Data                Description
#--------- -------------------------------  -------------------------------
 STRT.F                         1080.0000:   Starting Depth
 STOP.F                            0.2500:   Ending Depth
 STEP.F                           -0.5000:   Level Spacing
 NULL.                          -999.2500:   Absent Value
 COMP.     FLUOR DANIEL (NPSOR), INC.    :   Company
 WELL.     45-1 X 14                     :   Well
 FLD .                                   :   Field
 LOC .                                   :   Location
 PROV.                                   :   Province
 SRVC.                                   :   Service Company
 LIC .                                   :   License Number
 DATE.                                   :   Log Date
 UWI .                                   :   Unique Well ID
~Curve Information Block
#MNEM.UNIT       API Codes    Curve Description
#---------    -------------   -------------------------------
 DEPT.F        0   0  0  0:   Depth
 CILD.MMHO     0   0  0  0:   Conductivity of Deep Induction
 GR  .API      0   0  0  0:   Gamma ray counts
 TEN .LBF      0   0  0  0:   Differential Tension
 RILM.OHMM     0   0  0  0:   Resistivity from CILM
 RILD.OHMM     0   0  0  0:   Resistivity from CILD
#  Curve Data
~A
  1080.0000      0.0000      0.0000   -250.0000      0.2000      0.2000
  1079.5000      0.0000      0.0000   -250.0000      0.2000      0.2000
  1079.0000      0.0000      0.0000   -250.0000      0.2000      0.2000
  1078.5000      0.0000      0.0000   -250.0000      0.2000      0.2000
  1078.0000      0.0000      0.0000   -250.0000      0.2000      0.2000
  1077.5000      0.0000      0.0000   -250.0000      0.2000      0.2000
  1077.0000      0.0000      0.0000   -250.0000      0.2000      0.2000
  1076.5000      0.0000      0.0000   -250.0000      0.2000      0.2000
  1076.0000      0.0000      0.0000   -250.0000      0.2000      0.2000
  1075.5000      0.0000      0.0000   -250.0000      0.2000      0.2000
  1075.0000      0.0000      0.0000   -250.0000      0.2000      0.2000
  1074.5000      0.0000      0.0000   -250.0000      0.2000      0.2000
  1074.0000      0.0000      0.0000   -250.0000      0.2000      0.2000
  1073.5000      0.0000      0.0000   -250.0000      0.2000      0.2000
  1073.0000      0.0000      0.0000   -250.0000      0.2000      0.2000
  1072.5000      0.0000      0.0000   -250.0000      0.2000      0.2000
  1072.0000      0.0000      0.0000   -250.0000      0.2000      0.2000
  1071.5000      0.0000      0.0000   -250.0000      0.2000      0.2000
  1071.0000      0.0000      0.0000   -250.0000      0.2000      0.2000
  1070.5000      0.0000      0.0000   -250.0000      0.2000      0.2000
  1070.0000      0.0000      0.0000   -259.6445      0.2000      0.2000
  1069.5000      0.0000      0.0000   -260.4312      0.2000      0.2000
  1069.0000      0.0000      0.0000   -253.5077      0.2000      0.2000
  1068.5000      0.0000      0.0000   -238.7424      0.2000      0.2000
  1068.0000      0.0000      0.0000   -226.3557      0.2000      0.2000
  1067.5000      0.0000      0.0000   -225.6890      0.2000      0.2000
  1067.0000      0.0000      0.0000   -234.7692      0.2000      0.2000
  1066.5000      0.0000      0.0000   -242.5265      0.2000      0.2000
  1066.0000      0.0000      0.0000   -238.5578      0.2000      0.2000
  1065.5000      0.0000      0.0000   -227.4857      0.2000      0.2000
  1065.0000      0.0000      0.0000   -221.7575      0.2000      0.2000
  1064.5000      0.0000      0.0000   -222.8979      0.2000      0.2000
  1064.0000      0.0000      0.0000   -222.2641      6.9030      0.2000
  1063.5000      0.0000      0.0000   -214.7779      6.9017      0.2000
  1063.0000      0.0000      0.0000   -205.9857      6.9028      0.2000
  1062.5000      0.0000      0.0000   -200.7424      6.9040      0.2000
  1062.0000      0.0000      0.0000   -196.0320      6.9040      0.2000
  1061.5000      0.0000      0.0000   -187.6750      6.9051      0.2000
  1061.0000      0.0000      0.0000   -175.0779      6.9067      0.2000
  1060.5000      0.0000      0.0000   -158.4417      6.9055      0.2000
  1060.0000      0.0000      0.0000   -116.2642      6.9040      0.2000
  1059.5000      0.0000      0.0000    -13.9644      6.9055      0.2000
  1059.0000      0.0000      0.0000    126.5747      6.9079      0.2000
  1058.5000      0.0000      0.0000    231.5273      6.9091      0.2000
  1058.0000      0.0000      0.0000    270.4819      6.9090      0.2000
  1057.5000      0.0000      0.0000    277.2998      6.9066      0.2000
  1057.0000      0.0000      0.0000    275.2051      6.9048      0.2000
  1056.5000      0.0000      0.0000    271.1257      6.9065      0.2000
  1056.0000      0.0000      0.0000    271.5847      6.9106      0.2000
  1055.5000      0.0000      0.0000    274.7544      6.9111      0.2000
  1055.0000      0.0000      0.0000    271.2405      6.9090      0.2000
  1054.5000      0.0000      0.0000    264.5178      6.9069      0.2000
  1054.0000    328.5469      0.0000    262.9998      6.9000      3.0437
  1053.5000    330.4463      0.0000    268.4258      6.8670      3.0262
  1053.0000    333.3782      0.0000    273.7708      6.7682      2.9996
  1052.5000    337.2380      0.0000    271.3259      6.5389      2.9653
  1052.0000    341.4609      0.0000    264.5562      6.1134      2.9286
  1051.5000    345.2051      0.0000    259.7593      5.4808      2.8968
  1051.0000    348.2607      0.0000    257.6892      4.7313      2.8714
  1050.5000    355.9678      0.0000    255.3993      4.0075      2.8092
  1050.0000    378.7478      0.0000    251.1059      3.3956      2.6403
  1049.5000    415.8118      0.0000    247.9546      2.8855      2.4049
  1049.0000    452.4285      0.0000    248.0293      2.4678      2.2103
  1048.5000    479.0723      0.0000    248.5231      2.1376      2.0874
  1048.0000    491.9153      0.0000    251.2071      1.9260      2.0329
  1047.5000    488.9336      0.0000    255.1672      1.8271      2.0453
  1047.0000    467.8201      0.0000    252.4762      1.8515      2.1376
  1046.5000    430.0156    130.5526    244.0228      2.0222      2.3255
  1046.0000    377.9475    130.0645    240.6431      2.3807      2.6459
  1045.5000    317.0044    132.4078    244.2751      2.9249      3.1545
  1045.0000    259.0049    133.7521    248.9501      3.6317      3.8609
  1044.5000    215.1945    131.3156    247.1287      4.4250      4.6470
  1044.0000    184.6383    128.9072    237.8985      5.1751      5.4160
  1043.5000    164.9966    128.5729    227.3534      5.7590      6.0607
  1043.0000    152.3800    128.9558    222.3553      6.1809      6.5625
  1042.5000    143.0999    130.6328    225.0467      6.4980      6.9881
  1042.0000    135.5427    133.5127    233.2935      6.7687      7.3778
  1041.5000    129.1168    135.4510    239.0852      7.0292      7.7449
  1041.0000    123.5492    135.2436    237.4904      7.2930      8.0939
  1040.5000    119.2787    133.0111    230.4363      7.5592      8.3837
  1040.0000    116.6112    129.9938    222.4063      7.8081      8.5755
  1039.5000    115.4783    128.7488    215.2491      8.0062      8.6596
  1039.0000    115.8297    129.6078    213.2187      8.1416      8.6334
  1038.5000    117.2514    132.3299    216.0247      8.2355      8.5287
  1038.0000    118.8611    135.9308    218.3568      8.3117      8.4132
  1037.5000    119.7309    134.8449    218.0063      8.3670      8.3521
  1037.0000    119.4624    129.0899    220.1499      8.3899      8.3708
  1036.5000    118.4732    126.4543    225.6301      8.3853      8.4407
  1036.0000    117.4630    128.7875    228.2031      8.3787      8.5133
  1035.5000    116.6732    131.1837    224.8960      8.3935      8.5709
  1035.0000    116.1030    132.8794    218.6779      8.4378      8.6130
  1034.5000    115.7930    135.2554    211.8639      8.5007      8.6361
  1034.0000    115.5221    135.6623    204.6430      8.5670      8.6564
  1033.5000    115.0262    131.8912    201.3043      8.6238      8.6937
  1033.0000    114.5850    126.6370    204.4418      8.6516      8.7271
  1032.5000    114.7592    123.7868    207.0489      8.6362      8.7139
  1032.0000    115.7080    122.8162    204.1810      8.5974      8.6424
  1031.5000    117.0262    124.4388    201.0236      8.5528      8.5451
  1031.0000    118.5728    131.1524    202.7722      8.4805      8.4336
  1030.5000    121.1648    139.7463    203.6335      8.3448      8.2532
  1030.0000    125.8298    141.8821    201.3082      8.1334      7.9472
  1029.5000    132.9217    136.4053    199.6850      7.8426      7.5232
  1029.0000    142.1119    130.1255    200.5485      7.4661      7.0367
  1028.5000    152.0884    128.3676    197.7144      7.0324      6.5751
  1028.0000    160.3320    131.7664    190.6552      6.6271      6.2371
  1027.5000    165.2567    137.0964    186.4107      6.3063      6.0512
  1027.0000    167.6054    141.1244    187.1602      6.0265      5.9664
  1026.5000    169.1398    140.8647    189.6465      5.7488      5.9123
  1026.0000    170.5001    135.8149    191.9596      5.5593      5.8651
  1025.5000    170.5951    130.2076    191.2179      5.5911      5.8618
  1025.0000    167.3293    129.9718    188.3716      5.8725      5.9762
  1024.5000    160.3919    132.2610    187.1449      6.2884      6.2347
