~Version Information
 VERS.                2.00:   CWLS log ASCII Standard -VERSION 2.00
 WRAP.                  NO:   One line per frame
~Well Information Block
#MNEM.UNIT              Data                Description
#--------- -------------------------------  -------------------------------
 STRT.F                         1080.0000:   Starting Depth
 STOP.F                            0.2500:   Ending Depth
 STEP.F                           -0.5000:   Level Spacing
 NULL.                          -999.2500:   Absent Value
 COMP.     FLUOR DANIEL (NPSOR), INC.    :   Company
 WELL.     45-1 X 14                     :   Well
 FLD .                                   :   Field
 LOC .                                   :   Location
 PROV.                                   :   Province
 SRVC.                                   :   Service Company
 LIC .                                   :   License Number
 DATE.                                   :   Log Date
 UWI .                                   :   Unique Well ID
~Curve Information Block
#MNEM.UNIT       API Codes    Curve Description
#---------    -------------   -------------------------------
 DEPT.F        0   0  0  0:   Depth
 CILD.MMHO     0   0  0  0:   Conductivity of Deep Induction
 GR  .API      0   0  0  0:   Gamma ray counts
 TEN .LBF      0   0  0  0:   Differential Tension
 RILM.OHMM     0   0  0  0:   Resistivity from CILM
 RILD.OHMM     0   0  0  0:   Resistivity from CILD
#  Curve Data
~A
# ...
   856.0000     81.5459     93.3292      3.1912     12.0771     12.2630
   855.5000     81.4776     98.1330     10.4868     12.0822     12.2733
   855.0000     81.3505    102.0987     14.3258     12.0973     12.2925
   854.5000     81.0758    101.4347      8.7117     12.1047     12.3341
   854.0000     80.7816     98.2756      0.1839     12.1175     12.3791
   853.5000     80.6377     94.9560     -4.9337     12.1600     12.4011
   853.0000     80.4745     91.3297     -7.1675     12.2202     12.4263
   852.5000     80.2086     89.7434     -4.8059     12.2574     12.4675
   852.0000     80.0421     89.3472     -1.7071     12.2686     12.4934
   851.5000     80.0314     87.9246     -2.5410     12.2758     12.4951
   851.0000     79.9829     85.6422     -3.8265     12.2615     12.5027
   850.5000     79.8344     85.0058     -2.4684     12.2038     12.5259
   850.0000     79.6245     86.8477     -2.0981     12.1445     12.5590
   849.5000     79.3901     90.6592     -5.6879     12.1442     12.5960
   849.0000     79.0807     94.1340    -11.7123     12.2131     12.6453
   848.5000     78.6252     93.7828    -16.4593     12.3241     12.7186
   848.0000     78.1497     89.4891    -15.6227     12.4516     12.7960
   847.5000     77.8934     86.7070    -10.4225     12.5732     12.8381
   847.0000     77.9608     89.8120     -8.7989     12.6599     12.8270
   846.5000     78.2856     95.3978    -10.5655     12.6888     12.7737
   846.0000     78.7079     98.2123     -9.5645     12.6614     12.7052
   845.5000     79.0535     98.1693     -3.7701     12.5847     12.6497
   845.0000     79.3148     96.2994     -0.6618     12.4687     12.6080
   844.5000     79.5327     93.6446     -4.4243     12.3393     12.5734
   844.0000     79.6603     92.9094    -10.5725     12.2405     12.5533
   843.5000     79.5134     93.2714    -12.9704     12.2212     12.5765
   843.0000     78.7799     92.1612    -16.3922     12.3236     12.6936
   842.5000     77.0932     89.2398    -20.5125     12.5609     12.9713
   842.0000     74.5370     85.1346    -16.1266     12.9106     13.4161
   841.5000     71.8466     79.6370     -9.4336     13.3059     13.9186
   841.0000     69.8053     74.7339    -10.5695     13.6779     14.3256
   840.5000     68.3694     72.3029    -12.4525     14.0380     14.6264
   840.0000     67.1264     71.2801    -10.3410     14.4605     14.8973
   839.5000     65.8799     71.2901     -7.7095     14.9509     15.1791
   839.0000     64.4646     74.7349     -5.7544     15.3876     15.5124
   838.5000     62.7165     80.9663     -3.8323     15.6411     15.9448
   838.0000     60.9915     84.0584     -3.6411     15.7178     16.3957
   837.5000     59.6662     80.7903     -4.1852     15.7069     16.7599
   837.0000     58.9451     74.5768     -4.9050     15.7007     16.9650
   836.5000     59.2180     69.7392     -8.3219     15.7798     16.8868
   836.0000     60.8333     68.0815    -12.4577     15.9353     16.4384
   835.5000     63.7785     68.6810    -12.3391     15.9734     15.6793
   835.0000     67.9590     73.1912    -10.3917     15.6475     14.7147
   834.5000     73.2802     84.4130    -11.8001     14.8594     13.6463
   834.0000     79.4782    101.0965    -15.6328     13.6958     12.5821
   833.5000     86.2538    116.0961    -18.0642     12.3451     11.5937
   833.0000     93.2856    124.3083    -14.0273     11.0497     10.7198
   832.5000    100.0084    129.3412     -6.5249     10.0085      9.9992
   832.0000    106.0041    134.3185     -4.7949      9.2834      9.4336
   831.5000    110.3792    137.1836     -8.1173      8.8783      9.0597
   831.0000    113.0638    137.8595    -10.3349      8.6986      8.8446
   830.5000    114.3146    136.5850     -9.9869      8.6334      8.7478
   830.0000    114.5484    132.8744     -8.8572      8.6117      8.7299
   829.5000    114.3344    130.2647    -10.2169      8.6233      8.7463
   829.0000    114.2065    130.0541    -13.5447      8.6782      8.7561
   828.5000    114.2943    129.4637    -12.7969      8.7652      8.7493
   828.0000    114.7840    130.2922    -11.0822      8.8472      8.7120
   827.5000    116.3862    132.8590    -12.6188      8.8684      8.5921
   827.0000    120.3011    132.7316    -14.1651      8.7598      8.3125
   826.5000    128.0010    130.7464    -10.3871      8.4572      7.8124
   826.0000    140.3422    130.2928     -6.5517      7.9476      7.1254
   825.5000    156.0746    129.9767    -10.0199      7.3054      6.4072
   825.0000    172.2616    128.5985    -14.5024      6.6442      5.8051
   824.5000    185.4734    128.9265    -15.3863      6.0362      5.3916
   824.0000    193.8613    132.7176    -12.7886      5.5116      5.1583
   823.5000    197.8120    136.6478     -9.9677      5.1092      5.0553
   823.0000    198.5152    136.5294    -10.7397      4.8890      5.0374
   822.5000    195.5840    132.1241    -12.9286      4.9225      5.1129
   822.0000    187.4628    127.6063    -13.3142      5.2425      5.3344
   821.5000    174.1879    127.0891    -15.1274      5.8383      5.7409
   821.0000    158.4391    129.5083    -15.3616      6.6186      6.3116
   820.5000    144.3237    131.4709    -12.2671      7.3668      6.9289
   820.0000    134.6773    131.6384    -13.7650      7.8606      7.4252
   819.5000    130.2651    134.4180    -17.7897      8.0471      7.6767
   819.0000    129.7543    140.1419    -17.7205      8.0076      7.7069
   818.5000    131.2126    142.5222    -17.6031      7.8483      7.6212
   818.0000    133.1579    137.9885    -18.5898      7.6498      7.5099
   817.5000    134.9415    134.6114    -15.0130      7.4486      7.4106
   817.0000    136.3868    136.1118     -8.3393      7.2720      7.3321
   816.5000    137.4239    137.7894     -6.7798      7.1546      7.2768
   816.0000    137.9514    138.6356    -11.8108      7.1136      7.2489
   815.5000    138.0578    140.1142    -18.6279      7.1386      7.2433
   815.0000    138.0756    140.1482    -22.8674      7.1998      7.2424
   814.5000    138.4294    138.3894    -19.3422      7.2596      7.2239
   814.0000    138.9782    137.7676    -13.2852      7.2919      7.1954
   813.5000    139.2068    136.5946    -10.9037      7.2926      7.1836
   813.0000    139.0252    133.2422     -9.7109      7.2660      7.1929
   812.5000    138.7805    132.8230    -10.9864      7.2232      7.2056
   812.0000    138.7195    137.5800    -16.5124      7.1850      7.2088
   811.5000    139.0585    141.5642    -17.7727      7.1679      7.1912
   811.0000    139.9016    142.1075    -16.6283      7.1631      7.1479
   810.5000    141.1905    141.3036    -17.0641      7.1363      7.0826
   810.0000    143.0674    140.3987    -13.2724      7.0607      6.9897
   809.5000    145.9322    140.0591    -11.1587      6.9458      6.8525
   809.0000    150.0358    141.3036    -14.2786      6.8146      6.6651
   808.5000    155.0378    143.4652    -12.1671      6.6647      6.4500
   808.0000    160.3515    145.5402     -9.5685      6.4789      6.2363
   807.5000    166.0936    145.8835    -15.3760      6.2586      6.0207
   807.0000    173.6313    143.0486    -21.6059      6.0103      5.7593
   806.5000    185.0027    139.9482    -19.4553      5.7102      5.4053
   806.0000    200.6151    139.5693    -14.6278      5.3471      4.9847
   805.5000    216.7679    141.2365    -15.9619      4.9998      4.6132
   805.0000    227.2585    145.6436    -23.4713      4.7632      4.4003
   804.5000    229.3248    153.0361    -25.9372      4.6338      4.3606
   804.0000    226.2458    158.1018    -22.3974      4.4813      4.4200
   803.5000    223.2159    157.0912    -18.5187      4.2641      4.4800
   803.0000    222.1290    151.7068    -19.0579      4.1266      4.5019
   802.5000    219.9329    146.2665    -20.7790      4.2268      4.5468
   802.0000    212.0783    143.3612    -20.9446      4.5986      4.7152
   801.5000    198.5410    141.5515    -18.6084      5.1362      5.0367
   801.0000    184.1179    139.8083    -18.0584      5.6435      5.4313
   800.5000    173.1123    142.0747    -21.0188      5.9889      5.7766
