~Version Information
 VERS.                2.00:   CWLS log ASCII Standard -VERSION 2.00
 WRAP.                  NO:   One line per frame
~Well Information Block
#MNEM.UNIT              Data                Description
#--------- -------------------------------  -------------------------------
 STRT.F                         1080.0000:   Starting Depth
 STOP.F                            0.2500:   Ending Depth
 STEP.F                           -0.5000:   Level Spacing
 NULL.                          -999.2500:   Absent Value
 COMP.     FLUOR DANIEL (NPSOR), INC.    :   Company
 WELL.     45-1 X 14                     :   Well
 FLD .                                   :   Field
 LOC .                                   :   Location
 PROV.                                   :   Province
 SRVC.                                   :   Service Company
 LIC .                                   :   License Number
 DATE.                                   :   Log Date
 UWI .                                   :   Unique Well ID
~Curve Information Block
#MNEM.UNIT       API Codes    Curve Description
#---------    -------------   -------------------------------
 DEPT.F        0   0  0  0:   Depth
 CILD.MMHO     0   0  0  0:   Conductivity of Deep Induction
 GR  .API      0   0  0  0:   Gamma ray counts
 TEN .LBF      0   0  0  0:   Differential Tension
 RILM.OHMM     0   0  0  0:   Resistivity from CILM
 RILD.OHMM     0   0  0  0:   Resistivity from CILD
#  Curve Data
~A
# ...
   128.0000    180.5779    117.5379    -43.5308      5.5814      5.5378
   127.5000    182.8329    115.9283    -44.4156      5.4930      5.4695
   127.0000    184.7810    115.0447    -43.0584      5.4455      5.4118
   126.5000    185.1803    113.7457    -38.8802      5.4646      5.4001
   126.0000    183.5244    113.5079    -37.9902      5.5541      5.4489
   125.5000    180.4077    115.2301    -41.1924      5.6659      5.5430
   125.0000    176.8326    115.7437    -39.3172      5.7461      5.6551
   124.5000    173.4950    113.2796    -32.5383      5.7999      5.7639
   124.0000    170.2846    111.6829    -30.3667      5.8667      5.8725
   123.5000    166.6929    113.3578    -29.3099      5.9652      5.9991
   123.0000    162.8706    116.9895    -26.0659      6.0904      6.1398
   122.5000    159.4185    121.7914    -29.2522      6.2292      6.2728
   122.0000    156.7021    124.3234    -39.3075      6.3588      6.3815
   121.5000    154.7468    121.7053    -43.7525      6.4612      6.4622
   121.0000    153.7220    118.6678    -41.3055      6.5293      6.5053
   120.5000    153.6671    119.7560    -39.5167      6.5506      6.5076
   120.0000    154.5503    121.9546    -40.2908      6.5100      6.4704
   119.5000    156.4866    121.5904    -37.1764      6.4155      6.3903
   119.0000    159.4336    119.6477    -32.2873      6.3015      6.2722
   118.5000    162.8570    116.8953    -32.6451      6.1972      6.1404
   118.0000    166.0708    114.8515    -36.1459      6.1023      6.0215
   117.5000    169.1077    115.5170    -37.7422      6.0012      5.9134
   117.0000    172.3970    117.2220    -35.7704      5.8917      5.8006
   116.5000    176.2466    117.4610    -28.6453      5.7839      5.6739
   116.0000    180.7438    118.3513    -22.5502      5.6785      5.5327
   115.5000    185.5326    120.2835    -24.4543      5.5684      5.3899
   115.0000    189.7488    120.4421    -35.0116      5.4611      5.2701
   114.5000    192.4863    117.5387    -45.0613      5.3760      5.1952
   114.0000    193.2657    114.0394    -46.9645      5.3119      5.1742
   113.5000    192.4322    114.3863    -42.2053      5.2494      5.1966
   113.0000    190.7425    117.9075    -39.0519      5.1972      5.2427
   112.5000    188.3596    118.7822    -38.3909      5.2016      5.3090
   112.0000    184.7766    119.7449    -37.8319      5.3006      5.4119
   111.5000    179.7124    124.0813    -38.6420      5.4957      5.5644
   111.0000    173.5142    126.3786    -38.2833      5.7538      5.7632
   110.5000    167.1868    123.3276    -35.8079      6.0149      5.9813
   110.0000    162.0156    119.4034    -36.1446      6.2152      6.1722
   109.5000    158.9239    116.3130    -39.6314      6.3299      6.2923
   109.0000    158.0518    114.0042    -39.4810      6.3797      6.3270
   108.5000    158.8358    114.5557    -37.1459      6.3890      6.2958
   108.0000    160.2148    117.6218    -37.5470      6.3659      6.2416
   107.5000    161.2223    119.5588    -38.9137      6.3181      6.2026
   107.0000    161.6367    117.4147    -37.6083      6.2572      6.1867
   106.5000    162.2473    113.0095    -35.0113      6.1749      6.1634
   106.0000    164.1247    110.7354    -35.8762      6.0558      6.0929
   105.5000    167.3158    110.5417    -39.5271      5.9370      5.9767
   105.0000    170.4249    110.1087    -39.3587      5.9094      5.8677
   104.5000    171.8395    111.5075    -33.9550      6.0052      5.8194
   104.0000    171.1725    117.8054    -30.0028      6.1129      5.8421
   103.5000    169.9716    122.8627    -32.9912      6.0755      5.8833
   103.0000    170.3669    121.4690    -39.6332      5.9047      5.8697
   102.5000    172.6070    118.1907    -39.9678      5.7467      5.7935
   102.0000    174.8482    116.7499    -34.5431      5.6902      5.7192
   101.5000    175.6570    116.3954    -33.8098      5.7229      5.6929
   101.0000    174.9395    115.5022    -38.8750      5.7931      5.7163
   100.5000    173.3003    115.9762    -41.4888      5.8559      5.7703
   100.0000    171.8497    119.6624    -39.1047      5.8882      5.8190
    99.5000    171.8477    125.1611    -35.0308      5.8796      5.8191
    99.0000    173.7576    125.4145    -31.9866      5.8290      5.7551
    98.5000    177.0747    119.0982    -29.5945      5.7550      5.6473
    98.0000    180.8948    112.3248    -27.4015      5.6788      5.5281
    97.5000    184.3888    109.7921    -23.9083      5.5995      5.4233
    97.0000    187.1178    110.0003    -21.5135      5.5010      5.3442
    96.5000    189.1463    112.9235    -23.6061      5.3781      5.2869
    96.0000    190.7316    118.5059    -28.0448      5.2501      5.2430
    95.5000    191.9193    123.3229    -34.2790      5.1552      5.2105
    95.0000    192.3061    125.5877    -38.3345      5.1323      5.2000
    94.5000    191.2792    125.7105    -37.3018      5.1930      5.2280
    94.0000    188.6926    123.3325    -32.8296      5.3095      5.2996
    93.5000    185.2475    120.1211    -31.1991      5.4351      5.3982
    93.0000    182.1573    119.8264    -31.4626      5.5364      5.4898
    92.5000    180.1401    119.7984    -32.2913      5.6055      5.5512
    92.0000    179.0333    116.6427    -32.2955      5.6487      5.5856
    91.5000    178.4419    112.8954    -30.3716      5.6728      5.6041
    91.0000    178.0764    112.7453    -30.5104      5.6794      5.6156
    90.5000    177.7246    116.5176    -32.9379      5.6718      5.6267
    90.0000    177.2844    120.3614    -34.4086      5.6589      5.6407
    89.5000    176.7643    119.9308    -33.8083      5.6535      5.6573
    89.0000    176.0472    116.8525    -36.3526      5.6626      5.6803
    88.5000    175.1668    118.1978    -38.9921      5.6844      5.7088
    88.0000    174.2332    124.3676    -34.2735      5.7144      5.7394
    87.5000    173.4702    127.8604    -24.0648      5.7456      5.7647
    87.0000    173.1024    126.0290    -17.3740      5.7688      5.7769
    86.5000    173.0660    123.9445    -17.5271      5.7835      5.7781
    86.0000    173.1959    124.5108    -22.4794      5.7953      5.7738
    85.5000    173.5693    125.2478    -33.4619      5.7993      5.7614
    85.0000    174.4459    123.1451    -43.9798      5.7832      5.7324
    84.5000    176.0826    119.3839    -42.3050      5.7420      5.6792
    84.0000    178.3558    116.4278    -32.8253      5.6852      5.6068
    83.5000    180.5638    116.9660    -30.4570      5.6274      5.5382
    83.0000    181.9543    120.2347    -35.8155      5.5791      5.4959
    82.5000    181.9743    123.7372    -38.0881      5.5484      5.4953
    82.0000    180.1989    124.0559    -38.2705      5.5456      5.5494
    81.5000    176.8127    119.2592    -42.1531      5.5773      5.6557
    81.0000    172.5333    112.4026    -46.4314      5.6464      5.7960
    80.5000    167.9673    110.3840    -46.6876      5.7590      5.9535
    80.0000    163.4578    113.7998    -45.2498      5.9269      6.1178
    79.5000    159.2534    118.1014    -46.1196      6.1543      6.2793
    79.0000    155.5258    121.6949    -47.6983      6.4133      6.4298
    78.5000    152.3300    125.7792    -43.7440      6.6373      6.5647
    78.0000    149.9290    128.6216    -36.8815      6.7552      6.6698
    77.5000    148.8187    127.6481    -40.3832      6.7514      6.7196
    77.0000    149.2566    124.2327    -47.8923      6.6747      6.6999
    76.5000    150.9722    122.5007    -45.1348      6.5794      6.6237
    76.0000    153.3605    122.5646    -39.5908      6.4883      6.5206
    75.5000    156.0616    122.5027    -38.4852      6.4093      6.4077
    75.0000    158.9134    123.5003    -35.8372      6.3455      6.2927
    74.5000    161.9075    126.4457    -31.9100      6.2829      6.1764
    74.0000    165.2144    128.4770    -32.1619      6.1900      6.0527
    73.5000    168.8882    126.9720    -36.5353      6.0569      5.9211
    73.0000    172.3638    123.5909    -40.2521      5.9165      5.8017
    72.5000    174.9574    124.0209    -41.3406      5.8047      5.7157
