~Version Information
 VERS.                2.00:   CWLS log ASCII Standard -VERSION 2.00
 WRAP.                  NO:   One line per frame
~Well Information Block
#MNEM.UNIT              Data                Description
#--------- -------------------------------  -------------------------------
 STRT.F                         1080.0000:   Starting Depth
 STOP.F                            0.2500:   Ending Depth
 STEP.F                           -0.5000:   Level Spacing
 NULL.                          -999.2500:   Absent Value
 COMP.     FLUOR DANIEL (NPSOR), INC.    :   Company
 WELL.     45-1 X 14                     :   Well
 FLD .                                   :   Field
 LOC .                                   :   Location
 PROV.                                   :   Province
 SRVC.                                   :   Service Company
 LIC .                                   :   License Number
 DATE.                                   :   Log Date
 UWI .                                   :   Unique Well ID
~Curve Information Block
#MNEM.UNIT       API Codes    Curve Description
#---------    -------------   -------------------------------
 DEPT.F        0   0  0  0:   Depth
 CILD.MMHO     0   0  0  0:   Conductivity of Deep Induction
 GR  .API      0   0  0  0:   Gamma ray counts
 TEN .LBF      0   0  0  0:   Differential Tension
 RILM.OHMM     0   0  0  0:   Resistivity from CILM
 RILD.OHMM     0   0  0  0:   Resistivity from CILD
#  Curve Data
~A
# ...
   296.0000    143.9594    122.3363    -36.2694      6.8498      6.9464
   295.5000    145.7686    121.3618    -35.2327      6.7745      6.8602
   295.0000    148.6649    120.7107    -35.0902      6.6625      6.7265
   294.5000    152.2608    121.5640    -35.7930      6.5290      6.5677
   294.0000    156.8834    122.0668    -39.1117      6.3645      6.3742
   293.5000    162.8251    120.3070    -42.8778      6.1629      6.1416
   293.0000    169.6210    117.8685    -43.4302      5.9473      5.8955
   292.5000    176.1291    118.3858    -40.3567      5.7565      5.6777
   292.0000    181.8674    122.8046    -36.8836      5.6023      5.4985
   291.5000    187.8894    127.6037    -33.2197      5.4462      5.3223
   291.0000    196.0921    130.1566    -32.1503      5.2285      5.0996
   290.5000    208.8325    129.5906    -35.8043      4.9378      4.7885
   290.0000    227.9613    126.1629    -37.9332      4.6207      4.3867
   289.5000    251.7451    123.4290    -33.6662      4.3341      3.9723
   289.0000    276.4817    126.4347    -30.7559      4.0772      3.6169
   288.5000    296.6172    133.6742    -33.5067      3.8116      3.3713
   288.0000    310.7629    138.6368    -36.6848      3.5210      3.2179
   287.5000    319.5244    139.7181    -37.0761      3.2437      3.1297
   287.0000    327.0581    136.7836    -38.6264      3.0266      3.0576
   286.5000    335.2612    127.1829    -41.9598      2.8890      2.9827
   286.0000    338.7612    118.2699    -44.0020      2.8590      2.9519
   285.5000    331.8000    119.1912    -43.4460      2.9964      3.0139
   285.0000    313.1343    123.0410    -42.3611      3.3232      3.1935
   284.5000    286.9617    120.6752    -40.6355      3.7075      3.4848
   284.0000    263.5520    117.8786    -40.9225      3.9388      3.7943
   283.5000    249.9680    118.1894    -40.9472      4.0430      4.0005
   283.0000    242.5394    117.3297    -36.9144      4.1830      4.1230
   282.5000    235.1000    115.2456    -33.7324      4.3690      4.2535
   282.0000    228.0322    116.5434    -34.1316      4.5181      4.3853
   281.5000    222.1723    120.1186    -33.6043      4.6029      4.5010
   281.0000    216.9422    121.8818    -32.6963      4.6524      4.6095
   280.5000    212.6598    122.8374    -33.2188      4.6934      4.7023
   280.0000    209.3394    125.5146    -32.1101      4.7403      4.7769
   279.5000    206.0867    126.8922    -31.0386      4.7996      4.8523
   279.0000    202.6678    122.9453    -33.2910      4.8703      4.9342
   278.5000    199.8796    119.5485    -36.4615      4.9423      5.0030
   278.0000    198.2933    122.6076    -35.6987      5.0059      5.0430
   277.5000    197.6598    127.8248    -33.1486      5.0528      5.0592
   277.0000    197.3558    130.4849    -33.9938      5.0794      5.0670
   276.5000    197.3750    131.3418    -37.1563      5.0909      5.0665
   276.0000    197.9856    129.6302    -40.5857      5.0956      5.0509
   275.5000    198.9903    125.3415    -40.6114      5.0863      5.0254
   275.0000    200.3887    121.9948    -35.1445      5.0500      4.9903
   274.5000    202.2388    122.3639    -29.4676      4.9914      4.9446
   274.0000    204.1686    125.6065    -28.6023      4.9285      4.8979
   273.5000    205.9097    128.5326    -28.6834      4.8754      4.8565
   273.0000    207.8131    128.7414    -27.2923      4.8302      4.8120
   272.5000    209.9522    127.1189    -27.7657      4.7904      4.7630
   272.0000    211.8586    125.6426    -32.4938      4.7640      4.7201
   271.5000    212.9098    125.0117    -39.0196      4.7554      4.6968
   271.0000    212.9061    124.6592    -42.6320      4.7522      4.6969
   270.5000    212.0513    124.5196    -43.9249      4.7438      4.7158
   270.0000    210.3399    123.2364    -43.8541      4.7395      4.7542
   269.5000    207.5919    122.2590    -40.1743      4.7591      4.8171
   269.0000    204.1717    125.3281    -34.2240      4.8109      4.8978
   268.5000    200.5079    128.4461    -31.0502      4.8910      4.9873
   268.0000    196.6135    128.1163    -29.1241      4.9988      5.0861
   267.5000    192.5973    129.3114    -29.1989      5.1309      5.1922
   267.0000    188.8571    132.5968    -33.3194      5.2759      5.2950
   266.5000    185.7762    129.9336    -38.3467      5.3951      5.3828
   266.0000    183.9120    124.8325    -40.0492      5.4539      5.4374
   265.5000    183.5334    124.1037    -38.9552      5.4539      5.4486
   265.0000    184.1115    125.4279    -38.1851      5.4272      5.4315
   264.5000    185.0002    125.4431    -34.1600      5.3964      5.4054
   264.0000    185.9115    124.7844    -28.1902      5.3601      5.3789
   263.5000    186.6143    123.3282    -29.1723      5.3122      5.3586
   263.0000    187.0235    122.5365    -37.8511      5.2667      5.3469
   262.5000    187.1609    124.7448    -44.8124      5.2490      5.3430
   262.0000    186.6027    127.0377    -45.1836      5.2694      5.3590
   261.5000    184.8031    126.0041    -40.7828      5.3163      5.4112
   261.0000    182.0800    124.3205    -37.4436      5.3731      5.4921
   260.5000    179.2441    123.7268    -38.5404      5.4374      5.5790
   260.0000    176.7477    122.3213    -42.1178      5.5161      5.6578
   259.5000    174.7272    121.1413    -41.7695      5.6086      5.7232
   259.0000    173.2978    120.3943    -39.8885      5.7010      5.7704
   258.5000    172.4630    117.9708    -40.6943      5.7849      5.7983
   258.0000    172.0191    116.4844    -40.6943      5.8593      5.8133
   257.5000    171.6113    117.9757    -38.4382      5.9121      5.8271
   257.0000    171.2716    118.4995    -39.5634      5.9102      5.8387
   256.5000    171.3121    117.6432    -41.3339      5.8468      5.8373
   256.0000    171.4532    115.5927    -36.6040      5.7751      5.8325
   255.5000    171.2016    108.9129    -33.1837      5.7576      5.8411
   255.0000    170.9213     97.7758    -36.9721      5.8087      5.8506
   254.5000    171.0425     88.0128    -37.7197      5.8991      5.8465
   254.0000    170.9347     84.2730    -35.3205      6.0051      5.8502
   253.5000    170.3541     86.7701    -37.3067      6.1202      5.8701
   253.0000    170.1850     93.8829    -41.9183      6.2200      5.8760
   252.5000    171.1914    103.6531    -44.0713      6.2556      5.8414
   252.0000    173.2497    112.4957    -43.2597      6.1957      5.7720
   251.5000    175.7603    117.1252    -38.3745      6.0530      5.6896
   251.0000    178.1436    116.4176    -35.2882      5.8634      5.6134
   250.5000    180.1427    111.8158    -38.5996      5.6662      5.5512
   250.0000    181.7079    109.2176    -40.6928      5.4990      5.5033
   249.5000    182.5367    112.4201    -40.7446      5.3942      5.4784
   249.0000    182.3780    118.0794    -43.5589      5.3602      5.4831
   248.5000    181.3937    121.1698    -44.4989      5.3819      5.5129
   248.0000    179.8824    121.3478    -39.0412      5.4398      5.5592
   247.5000    177.8218    119.0717    -33.6998      5.5172      5.6236
   247.0000    175.4086    116.2811    -33.6879      5.5984      5.7010
   246.5000    173.1898    115.3516    -34.7261      5.6705      5.7740
   246.0000    171.4897    114.6884    -35.5194      5.7266      5.8313
   245.5000    170.1687    111.0062    -39.3145      5.7633      5.8765
   245.0000    169.1428    107.0896    -43.6720      5.7913      5.9122
   244.5000    168.1371    107.4230    -42.5002      5.8316      5.9475
   244.0000    166.9682    109.1028    -37.2274      5.8931      5.9892
   243.5000    165.8567    108.6201    -35.3696      5.9553      6.0293
   243.0000    165.0744    107.7241    -37.4763      5.9977      6.0579
   242.5000    164.4165    106.9046    -41.3440      6.0220      6.0821
   242.0000    163.7496    105.8079    -41.3052      6.0412      6.1069
   241.5000    163.3284    105.5186    -34.7261      6.0530      6.1226
   241.0000    163.4023    105.4314    -29.4331      6.0485      6.1199
   240.5000    164.0326    105.5159    -32.9797      6.0346      6.0963
