~Version Information Block
 VERS.                1.20:     CWLS LOG ASCII STANDARD - VERSION 1.20
 WRAP.                  NO:     One Line Per Depth Step
     
~Well Information Block
#MNEM.UNIT       Data Type     Information
#컴컴컴컴컴    컴컴컴컴컴컴�   컴컴컴컴컴컴컴컴컴컴컴컴컴컴컴컴컴컴컴컴컴컴�
 STRT.FT           44.0000:
 STOP.FT          636.0000:
 STEP.FT            0.5000:
 NULL.          -9999.0000:
 COMP.             COMPANY:    FLUOR DANIEL (NPSOR), IN
 WELL.                WELL:    73 X 33                 
 FLD .               FIELD:    NPR #3                  
 LOC .            LOCATION:                                            
 CNTY.              COUNTY:    NATRONA                       
 STAT.               STATE:    WYOMING   
 SRVC.     SERVICE COMPANY:    ATLAS WIRELINE PETROPHYSICAL SERVICES
 DATE.                DATE:    09/19/1994
 UWI .      UNIQUE WELL ID:           1.0
 API .          API NUMBER:                    
     
~Curve Information Block
#MNEM.UNIT       API CODE      Curve Description
#컴컴컴컴컴    컴컴컴컴컴컴�   컴컴컴컴컴컴컴컴컴컴컴컴컴컴컴컴컴컴컴컴컴컴�
 DEPT.F         95 995 99 1    Depth                                                        
 GR  .API       31 310 01 1    Gamma Ray Counts                                             
 CAL .IN        28 280 99 1    Caliper                                                      
 RILD.OHMM      12 120 46 1    Resistivity from CILD                                        
 RILM.OHMM      12 120 44 1    Resistivity from CILM                                        
 ZDEN.G/C3      95 350 01 1    Z-Densilog Bulk Density                                      
 ZCOR.G/C3      39 356 99 1    Z-Densilog Bulk Density Correction                           
 PE  .BARN      95 358 01 1    Photo Electric Cross Section                                 
 TEN .LBF       95 635 99 1    Differential Tension                                         
     
~Parameter Information Block
#MNEM.UNIT         Value       Description
#컴컴컴컴컴    컴컴컴컴컴컴�   컴컴컴컴컴컴컴컴컴컴컴컴컴컴컴컴컴컴컴컴컴컴�
 EKB .FT            0.0000:    ELEVATION KELLY BUSHING
 EGL .FT            0.0000:    ELEVATION GROUND LEVEL
 RUN .              1.0000:    RUN NUMBER
 SON .               00000:    SERVICE ORDER NUMBER
 DD  .FT            0.0000:    DEPTH-DRILLER
 DL  .FT            0.0000:    DEPTH-LOGGER
 BLI .FT            0.0000:    BOTTOM LOGGED INTERVAL
 TLI .FT            0.0000:    TOP LOGGED INTERVAL
 CS  .  IN          0.0000:    CASING SIZE 
 CDD .FT            0.0000:    CASING DEPTH-DRILLER
 CDL .FT            0.0000:    CASING DEPTH-LOGGER
 BS  .IN            0.0000:    BIT SIZE
 DFT .               LIGNO:    MUD TYPE   
 DFD .LB/G          0.0000:    MUD WEIGHT
 DFV .S             0.0000:    MUD VISCOSITY
 DFPH.              0.0000:    MUD PH
 DFL .CC            0.0000:    MUD FLUID LOSS
 RMS .           FLOW LINE:    MUD SAMPLE SOURCE
 RM  .OHMM          0.0000:    MUD RESISTIVITY          
 RMT .DEGF          0.0000:    RM TEMPERATURE
 RMBH.OHMM          0.0000:    MUD RESISTIVITY AT BHT
 BHT .DEGF          0.0000:    BOTTOM HOLE TEMPERATURE
 RMFS.            MEASURED:    MUD FILTRATE SOURCE
 RMF .OHMM          0.0000:    MUD FILTRATE RESISTIVITY
 RMFT.DEGF          0.0000:    RMF TEMPERATURE
 RMCS.            MEASURED:    MUD CAKE SOURCE
 RMC .OHMM          0.0000:    MUD CAKE RESISTIVITY
 RMCT.DEGF          0.0000:    RMC TEMPERATURE
     
#      Computation Parameters Used
#MNEM.UNIT         Value       Description
#컴컴컴컴컴    컴컴컴컴컴컴�   컴컴컴컴컴컴컴컴컴컴컴컴컴컴컴컴컴컴컴컴컴컴�
 MDEN.G/CC          2.6500:    LOGGING MATRIX DENSITY
 MATR.              1.0000:    NEUTRON MATRIX (0=LIME,1=SAND,2=DOLO)
 FNUM.              0.6200:    TORTUOSITY CONSTANT ARCHIES (a)
 FEXP.              2.1500:    CEMENTATION EXPONENT ARCHIES (m)
     
~Other Information
#컴컴컴컴컴컴컴컴컴컴컴컴컴컴컴컴컴컴컴컴컴컴컴컴컴컴컴컴컴컴컴컴컴컴컴컴컴컴컴�
# In Making Interpretations Of Logs Our Employees Will Give Customer The Benefit
# Of Their Best Judgement,  But  Since All Interpretations Are Opinions Based On
# Inferences From Electrical Or  Other  Measurements,  We Cannot,  And We Do Not
# Guarantee The Accuracy Or  Correctness Of Any Interpretation.  We Shall Not Be
# Liable Or  Responsible For Any Loss,  Cost,  Damages, Or  Expenses  Whatsoever
# Incurred Or  Sustained By The Customer  Resulting  From Any Interpretaion Made
# By Any Of Our Employees.  ATLAS WIRELINE SERVICES-WESTERN ATLAS INTERNATIONAL
#컴컴컴컴컴컴컴컴컴컴컴컴컴컴컴컴컴컴컴컴컴컴컴컴컴컴컴컴컴컴컴컴컴컴컴컴컴컴컴�
     
~A  DEPTH      GR        CAL       RILD      RILM      ZDEN      ZCOR      PE        TEN       
# ...
   392.000   137.801     9.954     4.288     4.620     2.440     0.075     2.856   -21.225 
   392.500   133.451     9.954     4.436     4.754     2.433     0.098     2.830   -16.330 
   393.000   133.693     9.954     4.629     4.921     2.426     0.124     2.961   -13.368 
   393.500   138.700     9.954     4.854     5.155     2.419     0.142     3.123   -17.067 
   394.000   142.322     9.954     5.089     5.435     2.421     0.143     3.136   -20.664 
   394.500   141.873     9.954     5.317     5.704     2.442     0.124     3.004   -18.889 
   395.000   137.737     9.954     5.536     5.937     2.474     0.099     2.934   -17.153 
   395.500   132.235     9.950     5.766     6.155     2.502     0.081     3.047   -17.181 
   396.000   129.676     9.930     6.016     6.365     2.515     0.077     3.114   -16.584 
   396.500   132.557     9.901     6.270     6.535     2.513     0.081     2.909   -16.179 
   397.000   136.154     9.887     6.480     6.638     2.508     0.088     2.707   -14.991 
   397.500   136.525     9.886     6.594     6.675     2.508     0.091     2.769   -13.489 
   398.000   134.791     9.876     6.600     6.654     2.509     0.090     2.921   -14.851 
   398.500   134.118     9.862     6.534     6.594     2.506     0.084     2.856   -17.661 
   399.000   135.816     9.864     6.436     6.513     2.499     0.076     2.695   -18.294 
   399.500   138.711     9.870     6.322     6.408     2.493     0.075     2.744   -16.637 
   400.000   140.122     9.863     6.197     6.286     2.492     0.086     2.967   -13.951 
   400.500   141.552     9.853     6.063     6.162     2.491     0.100     3.088   -12.515 
   401.000   143.529     9.850     5.914     6.031     2.484     0.110     3.013   -10.921 
   401.500   143.341     9.850     5.716     5.870     2.471     0.125     2.894    -8.052 
   402.000   141.767     9.850     5.443     5.640     2.461     0.134     2.895   -10.007 
   402.500   140.921     9.850     5.109     5.312     2.458     0.124     3.065   -17.268 
   403.000   140.273     9.850     4.760     4.889     2.453     0.115     3.194   -21.820 
   403.500   138.912     9.850     4.467     4.446     2.441     0.126     3.049   -19.701 
   404.000   139.527     9.853     4.299     4.131     2.425     0.133     2.789   -16.098 
   404.500   145.271     9.864     4.256     4.044     2.403     0.118     2.733   -16.970 
   405.000   152.105     9.881     4.276     4.185     2.376     0.105     2.891   -18.224 
   405.500   151.531     9.902     4.314     4.458     2.359     0.122     3.015   -14.502 
   406.000   146.633     9.908     4.374     4.746     2.373     0.140     2.969    -9.087 
   406.500   145.614     9.892     4.495     5.028     2.410     0.133     2.889    -7.358 
   407.000   146.286     9.878     4.726     5.332     2.448     0.108     2.898    -9.683 
   407.500   143.753     9.884     5.065     5.655     2.475     0.089     3.030   -13.073 
   408.000   140.835     9.891     5.451     5.927     2.488     0.074     3.168   -14.212 
   408.500   139.875     9.884     5.800     6.125     2.489     0.067     3.124   -13.719 
   409.000   140.190     9.871     6.056     6.279     2.488     0.073     2.958   -14.934 
   409.500   142.907     9.858     6.199     6.399     2.494     0.085     2.818   -16.832 
   410.000   147.106     9.851     6.258     6.473     2.506     0.082     2.722   -16.399 
   410.500   148.910     9.850     6.290     6.507     2.518     0.074     2.639   -13.426 
   411.000   148.512     9.851     6.325     6.535     2.519     0.084     2.562    -8.380 
   411.500   150.922     9.859     6.368     6.575     2.513     0.113     2.475    -5.605 
   412.000   154.965     9.876     6.417     6.609     2.510     0.135     2.443    -4.852 
   412.500   152.050     9.886     6.461     6.618     2.515     0.131     2.547    -4.322 
   413.000   144.259     9.876     6.484     6.605     2.525     0.117     2.824    -0.496 
   413.500   142.577     9.859     6.480     6.577     2.534     0.128     3.195     3.201 
   414.000   147.026     9.851     6.453     6.546     2.534     0.161     3.347     0.872 
   414.500   147.301     9.853     6.408     6.516     2.527     0.187     3.122    -6.381 
   415.000   145.068     9.863     6.346     6.473     2.522     0.190     2.769    -8.105 
   415.500   146.718     9.870     6.276     6.417     2.518     0.184     2.605    -4.402 
   416.000   150.186     9.864     6.229     6.365     2.511     0.184     2.675    -5.590 
   416.500   149.738     9.864     6.226     6.334     2.504     0.179     2.813   -13.635 
   417.000   148.298     9.881     6.243     6.324     2.507     0.160     2.781   -17.643 
   417.500   148.592     9.891     6.237     6.327     2.517     0.143     2.678   -11.567 
   418.000   147.683     9.885     6.218     6.329     2.516     0.149     2.688    -5.133 
   418.500   145.798     9.882     6.209     6.330     2.495     0.172     2.718    -5.107 
   419.000   147.237     9.892     6.183     6.326     2.471     0.192     2.711    -8.115 
   419.500   149.697     9.913     6.095     6.285     2.469     0.186     2.781    -9.911 
   420.000   148.369     9.937     5.934     6.163     2.487     0.151     2.899   -10.053 
   420.500   145.341     9.951     5.712     5.925     2.504     0.112     2.980    -8.714 
   421.000   144.998     9.954     5.464     5.568     2.507     0.099     3.047    -7.628 
   421.500   147.463     9.954     5.250     5.185     2.497     0.106     3.111    -9.164 
   422.000   149.987     9.954     5.080     4.921     2.486     0.112     3.174   -12.431 
   422.500   149.660     9.954     4.897     4.813     2.467     0.099     3.222   -12.256 
   423.000   148.701     9.950     4.669     4.725     2.439     0.072     3.088   -10.554 
   423.500   148.796     9.930     4.456     4.532     2.415     0.046     2.876   -15.690 
   424.000   149.130     9.893     4.346     4.340     2.407     0.040     2.885   -21.370 
   424.500   149.782     9.869     4.376     4.336     2.400     0.051     3.093   -17.599 
   425.000   150.289     9.869     4.506     4.557     2.391     0.059     3.232   -13.336 
   425.500   147.989     9.868     4.652     4.867     2.396     0.062     3.067   -16.331 
   426.000   145.222     9.858     4.765     5.114     2.427     0.072     2.826   -16.264 
   426.500   145.059     9.851     4.883     5.298     2.465     0.091     2.799   -10.780 
   427.000   144.499     9.850     5.069     5.493     2.483     0.121     2.952   -10.356 
   427.500   141.428     9.850     5.323     5.700     2.479     0.159     3.052   -13.747 
   428.000   138.253     9.850     5.582     5.869     2.472     0.179     3.077   -14.721 
   428.500   136.838     9.853     5.789     5.986     2.478     0.166     3.089   -13.921 
   429.000   138.515     9.863     5.928     6.075     2.491     0.141     3.094   -14.649 
   429.500   141.366     9.870     5.982     6.145     2.505     0.129     3.099   -14.946 
   430.000   141.123     9.863     5.934     6.150     2.516     0.125     3.066   -15.142 
   430.500   136.533     9.856     5.782     6.027     2.520     0.123     2.991   -14.001 
   431.000   133.065     9.863     5.516     5.740     2.508     0.133     2.842   -11.756 
   431.500   133.032     9.873     5.171     5.299     2.484     0.156     2.680    -9.777 
   432.000   136.222     9.887     4.867     4.806     2.470     0.163     2.648    -8.721 
   432.500   140.956     9.904     4.690     4.446     2.469     0.126     2.830    -7.961 
   433.000   145.291     9.904     4.609     4.322     2.458     0.061     3.067    -6.856 
   433.500   147.255     9.890     4.559     4.376     2.429     0.030     3.110    -6.172 
   434.000   146.719     9.887     4.527     4.502     2.401     0.063     2.980    -7.251 
   434.500   145.730     9.883     4.540     4.670     2.396     0.112     2.940    -7.516 
   435.000   146.059     9.867     4.640     4.925     2.419     0.127     2.964    -6.785 
