~Version Information Block
 VERS.                1.20:     CWLS LOG ASCII STANDARD - VERSION 1.20
 WRAP.                  NO:     One Line Per Depth Step
     
~Well Information Block
#MNEM.UNIT       Data Type     Information
#컴컴컴컴컴    컴컴컴컴컴컴�   컴컴컴컴컴컴컴컴컴컴컴컴컴컴컴컴컴컴컴컴컴컴�
 STRT.FT           44.0000:
 STOP.FT          636.0000:
 STEP.FT            0.5000:
 NULL.          -9999.0000:
 COMP.             COMPANY:    FLUOR DANIEL (NPSOR), IN
 WELL.                WELL:    73 X 33                 
 FLD .               FIELD:    NPR #3                  
 LOC .            LOCATION:                                            
 CNTY.              COUNTY:    NATRONA                       
 STAT.               STATE:    WYOMING   
 SRVC.     SERVICE COMPANY:    ATLAS WIRELINE PETROPHYSICAL SERVICES
 DATE.                DATE:    09/19/1994
 UWI .      UNIQUE WELL ID:           1.0
 API .          API NUMBER:                    
     
~Curve Information Block
#MNEM.UNIT       API CODE      Curve Description
#컴컴컴컴컴    컴컴컴컴컴컴�   컴컴컴컴컴컴컴컴컴컴컴컴컴컴컴컴컴컴컴컴컴컴�
 DEPT.F         95 995 99 1    Depth                                                        
 GR  .API       31 310 01 1    Gamma Ray Counts                                             
 CAL .IN        28 280 99 1    Caliper                                                      
 RILD.OHMM      12 120 46 1    Resistivity from CILD                                        
 RILM.OHMM      12 120 44 1    Resistivity from CILM                                        
 ZDEN.G/C3      95 350 01 1    Z-Densilog Bulk Density                                      
 ZCOR.G/C3      39 356 99 1    Z-Densilog Bulk Density Correction                           
 PE  .BARN      95 358 01 1    Photo Electric Cross Section                                 
 TEN .LBF       95 635 99 1    Differential Tension                                         
     
~Parameter Information Block
#MNEM.UNIT         Value       Description
#컴컴컴컴컴    컴컴컴컴컴컴�   컴컴컴컴컴컴컴컴컴컴컴컴컴컴컴컴컴컴컴컴컴컴�
 EKB .FT            0.0000:    ELEVATION KELLY BUSHING
 EGL .FT            0.0000:    ELEVATION GROUND LEVEL
 RUN .              1.0000:    RUN NUMBER
 SON .               00000:    SERVICE ORDER NUMBER
 DD  .FT            0.0000:    DEPTH-DRILLER
 DL  .FT            0.0000:    DEPTH-LOGGER
 BLI .FT            0.0000:    BOTTOM LOGGED INTERVAL
 TLI .FT            0.0000:    TOP LOGGED INTERVAL
 CS  .  IN          0.0000:    CASING SIZE 
 CDD .FT            0.0000:    CASING DEPTH-DRILLER
 CDL .FT            0.0000:    CASING DEPTH-LOGGER
 BS  .IN            0.0000:    BIT SIZE
 DFT .               LIGNO:    MUD TYPE   
 DFD .LB/G          0.0000:    MUD WEIGHT
 DFV .S             0.0000:    MUD VISCOSITY
 DFPH.              0.0000:    MUD PH
 DFL .CC            0.0000:    MUD FLUID LOSS
 RMS .           FLOW LINE:    MUD SAMPLE SOURCE
 RM  .OHMM          0.0000:    MUD RESISTIVITY          
 RMT .DEGF          0.0000:    RM TEMPERATURE
 RMBH.OHMM          0.0000:    MUD RESISTIVITY AT BHT
 BHT .DEGF          0.0000:    BOTTOM HOLE TEMPERATURE
 RMFS.            MEASURED:    MUD FILTRATE SOURCE
 RMF .OHMM          0.0000:    MUD FILTRATE RESISTIVITY
 RMFT.DEGF          0.0000:    RMF TEMPERATURE
 RMCS.            MEASURED:    MUD CAKE SOURCE
 RMC .OHMM          0.0000:    MUD CAKE RESISTIVITY
 RMCT.DEGF          0.0000:    RMC TEMPERATURE
     
#      Computation Parameters Used
#MNEM.UNIT         Value       Description
#컴컴컴컴컴    컴컴컴컴컴컴�   컴컴컴컴컴컴컴컴컴컴컴컴컴컴컴컴컴컴컴컴컴컴�
 MDEN.G/CC          2.6500:    LOGGING MATRIX DENSITY
 MATR.              1.0000:    NEUTRON MATRIX (0=LIME,1=SAND,2=DOLO)
 FNUM.              0.6200:    TORTUOSITY CONSTANT ARCHIES (a)
 FEXP.              2.1500:    CEMENTATION EXPONENT ARCHIES (m)
     
~Other Information
#컴컴컴컴컴컴컴컴컴컴컴컴컴컴컴컴컴컴컴컴컴컴컴컴컴컴컴컴컴컴컴컴컴컴컴컴컴컴컴�
# In Making Interpretations Of Logs Our Employees Will Give Customer The Benefit
# Of Their Best Judgement,  But  Since All Interpretations Are Opinions Based On
# Inferences From Electrical Or  Other  Measurements,  We Cannot,  And We Do Not
# Guarantee The Accuracy Or  Correctness Of Any Interpretation.  We Shall Not Be
# Liable Or  Responsible For Any Loss,  Cost,  Damages, Or  Expenses  Whatsoever
# Incurred Or  Sustained By The Customer  Resulting  From Any Interpretaion Made
# By Any Of Our Employees.  ATLAS WIRELINE SERVICES-WESTERN ATLAS INTERNATIONAL
#컴컴컴컴컴컴컴컴컴컴컴컴컴컴컴컴컴컴컴컴컴컴컴컴컴컴컴컴컴컴컴컴컴컴컴컴컴컴컴�
     
~A  DEPTH      GR        CAL       RILD      RILM      ZDEN      ZCOR      PE        TEN       
# ...
    87.500   133.752     9.953     6.745     6.809     2.517     0.101     2.730    -7.050 
    88.000   134.842     9.954     6.739     6.778     2.499     0.096     2.518    -4.959 
    88.500   133.598     9.954     6.732     6.779     2.475     0.079     2.475    -4.049 
    89.000   128.057     9.954     6.743     6.828     2.459     0.059     2.536    -6.287 
    89.500   123.137     9.954     6.778     6.914     2.455     0.046     2.618   -15.176 
    90.000   124.232     9.954     6.830     7.007     2.457     0.039     2.623   -24.269 
    90.500   127.547     9.954     6.890     7.100     2.466     0.038     2.645   -24.726 
    91.000   128.074     9.954     6.960     7.192     2.477     0.043     2.710   -17.634 
    91.500   126.575     9.954     7.036     7.268     2.483     0.054     2.718   -11.935 
    92.000   125.525     9.954     7.096     7.311     2.480     0.062     2.693   -10.008 
    92.500   126.205     9.954     7.114     7.316     2.471     0.063     2.717    -6.586 
    93.000   128.914     9.954     7.085     7.283     2.465     0.056     2.736    -2.716 
    93.500   132.945     9.954     7.022     7.210     2.461     0.045     2.722    -4.692 
    94.000   136.267     9.954     6.945     7.112     2.457     0.030     2.686   -11.632 
    94.500   137.171     9.954     6.869     7.017     2.456     0.021     2.713   -13.284 
    95.000   136.078     9.954     6.794     6.946     2.458     0.022     2.851    -5.877 
    95.500   134.143     9.954     6.715     6.889     2.459     0.028     2.929     0.762 
    96.000   131.036     9.954     6.646     6.829     2.460     0.037     2.824    -2.696 
    96.500   126.494     9.954     6.605     6.776     2.466     0.045     2.753   -15.518 
    97.000   123.263     9.954     6.598     6.760     2.472     0.047     2.714   -27.083 
    97.500   123.708     9.954     6.625     6.804     2.472     0.045     2.638   -31.000 
    98.000   126.282     9.954     6.678     6.899     2.468     0.041     2.630   -30.311 
    98.500   126.756     9.954     6.738     7.011     2.463     0.032     2.645   -25.758 
    99.000   123.988     9.954     6.791     7.100     2.463     0.024     2.601   -20.242 
    99.500   121.328     9.954     6.841     7.151     2.467     0.024     2.650   -22.937 
   100.000   122.487     9.954     6.909     7.189     2.469     0.027     2.858   -31.529 
   100.500   126.369     9.954     7.017     7.255     2.465     0.028     3.027   -29.831 
   101.000   129.466     9.954     7.163     7.372     2.457     0.035     2.910   -19.257 
   101.500   130.268     9.954     7.320     7.530     2.450     0.045     2.599   -14.446 
   102.000   129.339     9.954     7.461     7.697     2.449     0.046     2.423   -18.657 
   102.500   126.000     9.954     7.577     7.850     2.456     0.035     2.551   -26.129 
   103.000   122.720     9.954     7.680     7.970     2.467     0.026     2.792   -33.534 
   103.500   122.352     9.954     7.792     8.058     2.478     0.029     2.914   -35.391 
   104.000   123.897     9.954     7.920     8.133     2.485     0.037     2.921   -29.776 
   104.500   124.891     9.954     8.047     8.212     2.485     0.043     2.853   -23.519 
   105.000   125.614     9.954     8.145     8.284     2.479     0.052     2.714   -20.736 
   105.500   125.955     9.954     8.188     8.319     2.466     0.064     2.589   -17.691 
   106.000   124.551     9.954     8.174     8.297     2.450     0.070     2.550   -15.485 
   106.500   121.067     9.954     8.123     8.225     2.444     0.073     2.632   -17.835 
   107.000   119.259     9.954     8.054     8.130     2.452     0.075     2.737   -22.753 
   107.500   123.330     9.954     7.973     8.025     2.468     0.069     2.753   -26.967 
   108.000   128.796     9.954     7.876     7.911     2.477     0.061     2.789   -33.490 
   108.500   129.373     9.951     7.754     7.786     2.474     0.068     2.900   -41.116 
   109.000   126.187     9.941     7.618     7.646     2.466     0.081     2.893   -45.545 
   109.500   125.403     9.935     7.509     7.497     2.465     0.088     2.764   -44.575 
   110.000   126.738     9.941     7.457     7.385     2.471     0.097     2.755   -40.689 
   110.500   126.437     9.951     7.454     7.362     2.472     0.104     2.783   -38.363 
   111.000   123.187     9.954     7.475     7.438     2.467     0.097     2.650   -37.768 
   111.500   120.058     9.954     7.488     7.563     2.464     0.085     2.508   -31.902 
   112.000   119.784     9.954     7.475     7.654     2.472     0.077     2.621   -23.139 
   112.500   122.221     9.954     7.453     7.665     2.486     0.073     2.861   -22.802 
   113.000   125.866     9.954     7.459     7.631     2.496     0.070     2.939   -32.025 
   113.500   129.502     9.954     7.499     7.597     2.496     0.068     2.854   -38.604 
   114.000   131.627     9.954     7.542     7.577     2.491     0.068     2.802   -36.512 
   114.500   131.247     9.954     7.557     7.574     2.484     0.071     2.742   -29.324 
   115.000   129.965     9.954     7.548     7.593     2.478     0.070     2.693   -23.129 
   115.500   128.710     9.954     7.537     7.629     2.477     0.068     2.744   -24.147 
   116.000   127.365     9.954     7.537     7.666     2.477     0.069     2.958   -32.324 
   116.500   126.676     9.954     7.535     7.684     2.474     0.077     3.138   -37.784 
   117.000   126.528     9.954     7.526     7.674     2.466     0.086     3.121   -36.899 
   117.500   128.003     9.954     7.522     7.646     2.458     0.087     3.033   -36.816 
   118.000   130.815     9.954     7.526     7.617     2.452     0.083     3.009   -38.970 
   118.500   130.757     9.954     7.533     7.593     2.449     0.078     2.921   -40.482 
   119.000   127.701     9.954     7.539     7.578     2.452     0.072     2.777   -41.742 
   119.500   127.737     9.954     7.549     7.594     2.459     0.066     2.697   -42.702 
   120.000   129.820     9.954     7.574     7.661     2.466     0.057     2.713   -42.105 
   120.500   128.401     9.954     7.618     7.775     2.467     0.042     2.795   -40.540 
   121.000   124.258     9.954     7.671     7.900     2.469     0.028     2.940   -38.067 
   121.500   120.994     9.954     7.714     7.987     2.476     0.024     3.006   -34.255 
   122.000   120.229     9.954     7.736     8.006     2.483     0.027     2.791   -29.846 
   122.500   123.120     9.954     7.729     7.953     2.485     0.029     2.445   -22.550 
   123.000   127.945     9.954     7.682     7.842     2.484     0.026     2.385   -15.782 
   123.500   130.076     9.954     7.584     7.694     2.480     0.018     2.682   -17.229 
   124.000   128.643     9.954     7.450     7.530     2.476     0.014     2.971   -27.086 
   124.500   127.383     9.954     7.289     7.363     2.469     0.013     2.946   -33.260 
   125.000   129.129     9.953     7.119     7.206     2.459     0.013     2.804   -29.673 
   125.500   132.078     9.946     6.968     7.074     2.451     0.012     2.806   -21.950 
   126.000   132.974     9.936     6.861     6.986     2.447     0.013     2.944   -14.809 
   126.500   132.141     9.936     6.797     6.941     2.446     0.018     3.034   -10.026 
   127.000   131.707     9.946     6.761     6.929     2.446     0.024     2.972    -9.772 
   127.500   130.868     9.953     6.737     6.938     2.448     0.027     2.905   -13.919 
   128.000   129.923     9.954     6.714     6.948     2.446     0.025     2.917   -15.797 
   128.500   130.606     9.954     6.689     6.943     2.438     0.019     2.880   -14.345 
   129.000   131.579     9.954     6.661     6.915     2.435     0.014     2.867   -13.395 
   129.500   132.159     9.954     6.633     6.866     2.439     0.012     3.009   -12.339 
   130.000   132.667     9.954     6.600     6.804     2.443     0.013     3.161    -9.754 
   130.500   130.311     9.954     6.555     6.738     2.439     0.023     3.068   -10.469 
