~Version Information Block
 VERS.                1.20:     CWLS LOG ASCII STANDARD - VERSION 1.20
 WRAP.                  NO:     One Line Per Depth Step
     
~Well Information Block
#MNEM.UNIT       Data Type     Information
#컴컴컴컴컴    컴컴컴컴컴컴�   컴컴컴컴컴컴컴컴컴컴컴컴컴컴컴컴컴컴컴컴컴컴�
 STRT.FT           44.0000:
 STOP.FT          636.0000:
 STEP.FT            0.5000:
 NULL.          -9999.0000:
 COMP.             COMPANY:    FLUOR DANIEL (NPSOR), IN
 WELL.                WELL:    73 X 33                 
 FLD .               FIELD:    NPR #3                  
 LOC .            LOCATION:                                            
 CNTY.              COUNTY:    NATRONA                       
 STAT.               STATE:    WYOMING   
 SRVC.     SERVICE COMPANY:    ATLAS WIRELINE PETROPHYSICAL SERVICES
 DATE.                DATE:    09/19/1994
 UWI .      UNIQUE WELL ID:           1.0
 API .          API NUMBER:                    
     
~Curve Information Block
#MNEM.UNIT       API CODE      Curve Description
#컴컴컴컴컴    컴컴컴컴컴컴�   컴컴컴컴컴컴컴컴컴컴컴컴컴컴컴컴컴컴컴컴컴컴�
 DEPT.F         95 995 99 1    Depth                                                        
 GR  .API       31 310 01 1    Gamma Ray Counts                                             
 CAL .IN        28 280 99 1    Caliper                                                      
 RILD.OHMM      12 120 46 1    Resistivity from CILD                                        
 RILM.OHMM      12 120 44 1    Resistivity from CILM                                        
 ZDEN.G/C3      95 350 01 1    Z-Densilog Bulk Density                                      
 ZCOR.G/C3      39 356 99 1    Z-Densilog Bulk Density Correction                           
 PE  .BARN      95 358 01 1    Photo Electric Cross Section                                 
 TEN .LBF       95 635 99 1    Differential Tension                                         
     
~Parameter Information Block
#MNEM.UNIT         Value       Description
#컴컴컴컴컴    컴컴컴컴컴컴�   컴컴컴컴컴컴컴컴컴컴컴컴컴컴컴컴컴컴컴컴컴컴�
 EKB .FT            0.0000:    ELEVATION KELLY BUSHING
 EGL .FT            0.0000:    ELEVATION GROUND LEVEL
 RUN .              1.0000:    RUN NUMBER
 SON .               00000:    SERVICE ORDER NUMBER
 DD  .FT            0.0000:    DEPTH-DRILLER
 DL  .FT            0.0000:    DEPTH-LOGGER
 BLI .FT            0.0000:    BOTTOM LOGGED INTERVAL
 TLI .FT            0.0000:    TOP LOGGED INTERVAL
 CS  .  IN          0.0000:    CASING SIZE 
 CDD .FT            0.0000:    CASING DEPTH-DRILLER
 CDL .FT            0.0000:    CASING DEPTH-LOGGER
 BS  .IN            0.0000:    BIT SIZE
 DFT .               LIGNO:    MUD TYPE   
 DFD .LB/G          0.0000:    MUD WEIGHT
 DFV .S             0.0000:    MUD VISCOSITY
 DFPH.              0.0000:    MUD PH
 DFL .CC            0.0000:    MUD FLUID LOSS
 RMS .           FLOW LINE:    MUD SAMPLE SOURCE
 RM  .OHMM          0.0000:    MUD RESISTIVITY          
 RMT .DEGF          0.0000:    RM TEMPERATURE
 RMBH.OHMM          0.0000:    MUD RESISTIVITY AT BHT
 BHT .DEGF          0.0000:    BOTTOM HOLE TEMPERATURE
 RMFS.            MEASURED:    MUD FILTRATE SOURCE
 RMF .OHMM          0.0000:    MUD FILTRATE RESISTIVITY
 RMFT.DEGF          0.0000:    RMF TEMPERATURE
 RMCS.            MEASURED:    MUD CAKE SOURCE
 RMC .OHMM          0.0000:    MUD CAKE RESISTIVITY
 RMCT.DEGF          0.0000:    RMC TEMPERATURE
     
#      Computation Parameters Used
#MNEM.UNIT         Value       Description
#컴컴컴컴컴    컴컴컴컴컴컴�   컴컴컴컴컴컴컴컴컴컴컴컴컴컴컴컴컴컴컴컴컴컴�
 MDEN.G/CC          2.6500:    LOGGING MATRIX DENSITY
 MATR.              1.0000:    NEUTRON MATRIX (0=LIME,1=SAND,2=DOLO)
 FNUM.              0.6200:    TORTUOSITY CONSTANT ARCHIES (a)
 FEXP.              2.1500:    CEMENTATION EXPONENT ARCHIES (m)
     
~Other Information
#컴컴컴컴컴컴컴컴컴컴컴컴컴컴컴컴컴컴컴컴컴컴컴컴컴컴컴컴컴컴컴컴컴컴컴컴컴컴컴�
# In Making Interpretations Of Logs Our Employees Will Give Customer The Benefit
# Of Their Best Judgement,  But  Since All Interpretations Are Opinions Based On
# Inferences From Electrical Or  Other  Measurements,  We Cannot,  And We Do Not
# Guarantee The Accuracy Or  Correctness Of Any Interpretation.  We Shall Not Be
# Liable Or  Responsible For Any Loss,  Cost,  Damages, Or  Expenses  Whatsoever
# Incurred Or  Sustained By The Customer  Resulting  From Any Interpretaion Made
# By Any Of Our Employees.  ATLAS WIRELINE SERVICES-WESTERN ATLAS INTERNATIONAL
#컴컴컴컴컴컴컴컴컴컴컴컴컴컴컴컴컴컴컴컴컴컴컴컴컴컴컴컴컴컴컴컴컴컴컴컴컴컴컴�
     
~A  DEPTH      GR        CAL       RILD      RILM      ZDEN      ZCOR      PE        TEN       
# ...
   566.000    87.091     9.197    11.455    12.276     2.354     0.229     2.525   118.332 
   566.500    91.388     9.190    11.446    12.334     2.356     0.247     2.507   118.647 
   567.000    94.575     9.207    11.498    12.361     2.387     0.235     2.479   127.539 
   567.500    92.311     9.224    11.559    12.285     2.420     0.224     2.560   132.874 
   568.000    88.307     9.227    11.572    12.095     2.440     0.228     2.598   133.301 
   568.500    89.444     9.227    11.489    11.791     2.466     0.230     2.547   136.028 
   569.000    93.910     9.227    11.266    11.353     2.501     0.224     2.498   138.224 
   569.500    98.452     9.227    10.898    10.797     2.529     0.212     2.504   133.944 
   570.000   104.565     9.227    10.451    10.212     2.535     0.181     2.564   127.691 
   570.500   114.793     9.227    10.016     9.692     2.485     0.153     2.588   126.750 
   571.000   126.866     9.219     9.612     9.279     2.371     0.191     2.529   130.223 
   571.500   138.152     9.198     9.231     8.924     2.255     0.281     2.449   134.551 
   572.000   146.596     9.168     8.842     8.564     2.215     0.322     2.478   135.027 
   572.500   151.402     9.141     8.444     8.203     2.272     0.306     2.627   132.829 
   573.000   152.325     9.127     8.089     7.886     2.377     0.296     2.842   134.165 
   573.500   150.220     9.135     7.823     7.638     2.470     0.294     2.949   140.290 
   574.000   148.241     9.166     7.647     7.468     2.525     0.243     2.915   142.788 
   574.500   149.218     9.203     7.536     7.378     2.534     0.166     2.943   139.658 
   575.000   151.543     9.224     7.474     7.353     2.522     0.121     3.044   139.400 
   575.500   153.195     9.227     7.446     7.378     2.505     0.102     3.000   143.915 
   576.000   153.737     9.227     7.444     7.440     2.488     0.082     2.764   145.218 
   576.500   152.930     9.227     7.454     7.513     2.475     0.062     2.574   146.001 
   577.000   152.006     9.227     7.463     7.559     2.468     0.043     2.574   149.830 
   577.500   151.705     9.227     7.462     7.560     2.466     0.024     2.746   152.831 
   578.000   149.413     9.227     7.443     7.515     2.471     0.012     2.976   153.366 
   578.500   147.382     9.227     7.405     7.434     2.484     0.011     3.178   156.297 
   579.000   147.465     9.231     7.349     7.335     2.495     0.015     3.157   161.131 
   579.500   146.747     9.241     7.267     7.234     2.493     0.027     2.947   164.881 
   580.000   145.142     9.247     7.163     7.149     2.481     0.049     2.815   165.382 
   580.500   145.797     9.241     7.073     7.091     2.464     0.063     2.803   161.820 
   581.000   146.328     9.231     7.008     7.064     2.455     0.057     2.841   157.976 
   581.500   145.095     9.227     6.959     7.058     2.462     0.046     3.014   159.822 
   582.000   144.857     9.227     6.924     7.063     2.480     0.047     3.238   166.659 
   582.500   146.640     9.227     6.910     7.073     2.492     0.051     3.197   173.309 
   583.000   149.782     9.227     6.914     7.082     2.491     0.049     2.932   176.476 
   583.500   152.256     9.227     6.925     7.090     2.487     0.051     2.711   176.656 
   584.000   150.410     9.227     6.933     7.094     2.487     0.053     2.656   174.141 
   584.500   145.500     9.227     6.930     7.090     2.492     0.051     2.698   173.220 
   585.000   143.411     9.227     6.909     7.073     2.501     0.048     2.770   175.782 
   585.500   144.188     9.227     6.875     7.040     2.510     0.047     2.925   180.614 
   586.000   144.443     9.227     6.836     6.991     2.510     0.053     3.084   183.080 
   586.500   142.727     9.227     6.801     6.935     2.502     0.060     3.093   181.995 
   587.000   140.719     9.227     6.777     6.885     2.496     0.053     2.907   181.088 
   587.500   141.794     9.227     6.748     6.848     2.497     0.039     2.682   180.340 
   588.000   146.940     9.227     6.710     6.826     2.501     0.039     2.611   177.702 
   588.500   150.444     9.227     6.680     6.822     2.503     0.052     2.729   177.070 
   589.000   149.063     9.227     6.676     6.836     2.505     0.064     2.820   183.335 
   589.500   147.156     9.227     6.694     6.871     2.508     0.062     2.802   190.980 
   590.000   147.977     9.227     6.721     6.914     2.510     0.050     2.789   190.411 
   590.500   148.693     9.227     6.739     6.946     2.510     0.047     2.748   185.775 
   591.000   148.788     9.227     6.753     6.962     2.508     0.049     2.674   187.132 
   591.500   149.754     9.227     6.785     6.971     2.506     0.042     2.777   195.197 
   592.000   149.593     9.227     6.819     6.978     2.507     0.032     2.994   201.292 
   592.500   148.314     9.227     6.818     6.979     2.510     0.033     3.062   203.444 
   593.000   149.922     9.227     6.788     6.974     2.506     0.043     2.987   204.312 
   593.500   151.044     9.227     6.759     6.965     2.494     0.052     2.946   205.314 
   594.000   148.312     9.227     6.746     6.962     2.487     0.058     3.007   207.016 
   594.500   145.215     9.227     6.749     6.969     2.492     0.060     3.069   207.539 
   595.000   144.126     9.227     6.775     6.988     2.500     0.056     2.895   207.195 
   595.500   143.634     9.227     6.824     7.032     2.501     0.052     2.646   211.670 
   596.000   143.826     9.227     6.879     7.104     2.496     0.060     2.635   217.365 
   596.500   145.098     9.227     6.923     7.184     2.489     0.073     2.730   215.292 
   597.000   146.798     9.227     6.958     7.246     2.482     0.076     2.734   211.945 
   597.500   147.161     9.227     6.990     7.285     2.481     0.063     2.782   214.780 
   598.000   145.869     9.227     7.020     7.305     2.486     0.048     2.976   215.599 
   598.500   144.261     9.227     7.054     7.305     2.493     0.044     3.152   212.489 
   599.000   142.816     9.227     7.085     7.294     2.490     0.044     3.144   214.165 
   599.500   140.867     9.227     7.109     7.281     2.482     0.041     2.982   220.915 
   600.000   140.336     9.227     7.133     7.269     2.481     0.044     2.855   225.094 
   600.500   144.207     9.227     7.148     7.258     2.490     0.054     2.850   224.248 
   601.000   149.094     9.227     7.142     7.248     2.496     0.058     2.852   220.658 
   601.500   149.682     9.227     7.125     7.240     2.497     0.058     2.785   214.097 
   602.000   149.143     9.227     7.110     7.241     2.503     0.062     2.742   211.172 
   602.500   152.617     9.227     7.094     7.246     2.518     0.063     2.799   219.509 
   603.000     0.000     9.227     7.074     7.247     2.534     0.060     2.965   230.822 
   603.500     0.000     9.227     7.064     7.248     2.544     0.061     3.169   234.585 
   604.000     0.000     9.227     7.066     7.254     2.548     0.064     3.245   236.411 
   604.500     0.000     9.227     7.073     7.257     2.554     0.066     3.150   242.752 
   605.000     0.000     9.227     7.076     7.249     2.563     0.068     3.075   249.566 
   605.500     0.000     9.227     7.073     7.232     2.567     0.068     3.063   251.847 
   606.000     0.000     9.227     7.063     7.216     2.561     0.060     3.023   249.105 
   606.500     0.000     9.227     7.039     7.192     2.552     0.049     3.088   244.468 
   607.000     0.000     9.227     7.018     7.124     2.548     0.047     3.348   242.860 
   607.500     0.000     9.227     7.043     7.012     2.549     0.055     3.629   246.098 
   608.000     0.000     9.227     7.109     6.920     2.552     0.060     3.677   249.735 
   608.500     0.000     9.227     7.160     6.899     2.551     0.057     3.518   252.416 
   609.000     0.000     9.227     7.172     6.936     2.546     0.052     3.357   256.214 
