~Version Information Block
 VERS.                1.20:     CWLS LOG ASCII STANDARD - VERSION 1.20
 WRAP.                  NO:     One Line Per Depth Step
     
~Well Information Block
#MNEM.UNIT       Data Type     Information
#컴컴컴컴컴    컴컴컴컴컴컴�   컴컴컴컴컴컴컴컴컴컴컴컴컴컴컴컴컴컴컴컴컴컴�
 STRT.FT           44.0000:
 STOP.FT          636.0000:
 STEP.FT            0.5000:
 NULL.          -9999.0000:
 COMP.             COMPANY:    FLUOR DANIEL (NPSOR), IN
 WELL.                WELL:    73 X 33                 
 FLD .               FIELD:    NPR #3                  
 LOC .            LOCATION:                                            
 CNTY.              COUNTY:    NATRONA                       
 STAT.               STATE:    WYOMING   
 SRVC.     SERVICE COMPANY:    ATLAS WIRELINE PETROPHYSICAL SERVICES
 DATE.                DATE:    09/19/1994
 UWI .      UNIQUE WELL ID:           1.0
 API .          API NUMBER:                    
     
~Curve Information Block
#MNEM.UNIT       API CODE      Curve Description
#컴컴컴컴컴    컴컴컴컴컴컴�   컴컴컴컴컴컴컴컴컴컴컴컴컴컴컴컴컴컴컴컴컴컴�
 DEPT.F         95 995 99 1    Depth                                                        
 GR  .API       31 310 01 1    Gamma Ray Counts                                             
 CAL .IN        28 280 99 1    Caliper                                                      
 RILD.OHMM      12 120 46 1    Resistivity from CILD                                        
 RILM.OHMM      12 120 44 1    Resistivity from CILM                                        
 ZDEN.G/C3      95 350 01 1    Z-Densilog Bulk Density                                      
 ZCOR.G/C3      39 356 99 1    Z-Densilog Bulk Density Correction                           
 PE  .BARN      95 358 01 1    Photo Electric Cross Section                                 
 TEN .LBF       95 635 99 1    Differential Tension                                         
     
~Parameter Information Block
#MNEM.UNIT         Value       Description
#컴컴컴컴컴    컴컴컴컴컴컴�   컴컴컴컴컴컴컴컴컴컴컴컴컴컴컴컴컴컴컴컴컴컴�
 EKB .FT            0.0000:    ELEVATION KELLY BUSHING
 EGL .FT            0.0000:    ELEVATION GROUND LEVEL
 RUN .              1.0000:    RUN NUMBER
 SON .               00000:    SERVICE ORDER NUMBER
 DD  .FT            0.0000:    DEPTH-DRILLER
 DL  .FT            0.0000:    DEPTH-LOGGER
 BLI .FT            0.0000:    BOTTOM LOGGED INTERVAL
 TLI .FT            0.0000:    TOP LOGGED INTERVAL
 CS  .  IN          0.0000:    CASING SIZE 
 CDD .FT            0.0000:    CASING DEPTH-DRILLER
 CDL .FT            0.0000:    CASING DEPTH-LOGGER
 BS  .IN            0.0000:    BIT SIZE
 DFT .               LIGNO:    MUD TYPE   
 DFD .LB/G          0.0000:    MUD WEIGHT
 DFV .S             0.0000:    MUD VISCOSITY
 DFPH.              0.0000:    MUD PH
 DFL .CC            0.0000:    MUD FLUID LOSS
 RMS .           FLOW LINE:    MUD SAMPLE SOURCE
 RM  .OHMM          0.0000:    MUD RESISTIVITY          
 RMT .DEGF          0.0000:    RM TEMPERATURE
 RMBH.OHMM          0.0000:    MUD RESISTIVITY AT BHT
 BHT .DEGF          0.0000:    BOTTOM HOLE TEMPERATURE
 RMFS.            MEASURED:    MUD FILTRATE SOURCE
 RMF .OHMM          0.0000:    MUD FILTRATE RESISTIVITY
 RMFT.DEGF          0.0000:    RMF TEMPERATURE
 RMCS.            MEASURED:    MUD CAKE SOURCE
 RMC .OHMM          0.0000:    MUD CAKE RESISTIVITY
 RMCT.DEGF          0.0000:    RMC TEMPERATURE
     
#      Computation Parameters Used
#MNEM.UNIT         Value       Description
#컴컴컴컴컴    컴컴컴컴컴컴�   컴컴컴컴컴컴컴컴컴컴컴컴컴컴컴컴컴컴컴컴컴컴�
 MDEN.G/CC          2.6500:    LOGGING MATRIX DENSITY
 MATR.              1.0000:    NEUTRON MATRIX (0=LIME,1=SAND,2=DOLO)
 FNUM.              0.6200:    TORTUOSITY CONSTANT ARCHIES (a)
 FEXP.              2.1500:    CEMENTATION EXPONENT ARCHIES (m)
     
~Other Information
#컴컴컴컴컴컴컴컴컴컴컴컴컴컴컴컴컴컴컴컴컴컴컴컴컴컴컴컴컴컴컴컴컴컴컴컴컴컴컴�
# In Making Interpretations Of Logs Our Employees Will Give Customer The Benefit
# Of Their Best Judgement,  But  Since All Interpretations Are Opinions Based On
# Inferences From Electrical Or  Other  Measurements,  We Cannot,  And We Do Not
# Guarantee The Accuracy Or  Correctness Of Any Interpretation.  We Shall Not Be
# Liable Or  Responsible For Any Loss,  Cost,  Damages, Or  Expenses  Whatsoever
# Incurred Or  Sustained By The Customer  Resulting  From Any Interpretaion Made
# By Any Of Our Employees.  ATLAS WIRELINE SERVICES-WESTERN ATLAS INTERNATIONAL
#컴컴컴컴컴컴컴컴컴컴컴컴컴컴컴컴컴컴컴컴컴컴컴컴컴컴컴컴컴컴컴컴컴컴컴컴컴컴컴�
     
~A  DEPTH      GR        CAL       RILD      RILM      ZDEN      ZCOR      PE        TEN       
# ...
   174.500   122.371     9.859     7.249     7.576     2.464     0.089     2.621   -27.127 
   175.000   123.576     9.859     7.272     7.557     2.478     0.087     2.747   -19.625 
   175.500   128.022     9.868     7.298     7.564     2.500     0.058     2.852   -19.719 
   176.000   132.035     9.871     7.325     7.552     2.519     0.045     2.970   -26.479 
   176.500   132.852     9.871     7.345     7.524     2.528     0.050     2.998   -31.587 
   177.000   132.937     9.870     7.351     7.530     2.525     0.044     2.872   -29.858 
   177.500   134.481     9.863     7.351     7.573     2.511     0.032     2.716   -29.195 
   178.000   134.097     9.853     7.352     7.599     2.496     0.023     2.621   -32.588 
   178.500   132.152     9.850     7.354     7.586     2.487     0.021     2.579   -33.238 
   179.000   133.249     9.850     7.374     7.570     2.483     0.025     2.628   -32.309 
   179.500   137.467     9.851     7.433     7.597     2.473     0.026     2.840   -35.222 
   180.000   138.298     9.858     7.521     7.680     2.459     0.024     2.977   -32.447 
   180.500   135.009     9.871     7.614     7.803     2.448     0.033     2.948   -21.481 
   181.000   132.864     9.884     7.698     7.938     2.439     0.057     2.957   -12.102 
   181.500   132.641     9.891     7.769     8.054     2.433     0.078     3.125   -11.685 
   182.000   132.022     9.891     7.826     8.132     2.437     0.072     3.217   -19.188 
   182.500   131.643     9.884     7.880     8.168     2.453     0.043     3.131   -25.704 
   183.000   131.860     9.875     7.932     8.173     2.469     0.016     3.091   -23.934 
   183.500   132.335     9.882     7.964     8.161     2.476     0.012     3.219   -18.649 
   184.000   135.112     9.901     7.970     8.136     2.479     0.021     3.317   -18.830 
   184.500   139.849     9.901     7.968     8.104     2.483     0.024     3.199   -20.784 
   185.000   142.461     9.874     7.982     8.090     2.487     0.020     2.954   -22.299 
   185.500   141.404     9.854     8.018     8.133     2.486     0.020     2.790   -27.184 
   186.000   138.142     9.850     8.071     8.247     2.478     0.032     2.760   -33.201 
   186.500   135.112     9.850     8.150     8.409     2.469     0.044     2.689   -32.821 
   187.000   132.995     9.850     8.269     8.588     2.461     0.039     2.526   -24.695 
   187.500   132.643     9.851     8.433     8.775     2.458     0.023     2.532   -18.108 
   188.000   134.014     9.858     8.637     8.978     2.461     0.016     2.808   -20.880 
   188.500   135.628     9.868     8.854     9.185     2.470     0.025     3.052   -30.032 
   189.000   136.231     9.868     9.047     9.361     2.486     0.039     3.068   -32.276 
   189.500   136.810     9.858     9.209     9.491     2.499     0.044     2.875   -24.733 
   190.000   136.658     9.854     9.360     9.601     2.502     0.039     2.595   -22.050 
   190.500   134.591     9.863     9.512     9.715     2.495     0.035     2.367   -28.931 
   191.000   132.979     9.870     9.685     9.842     2.491     0.034     2.353   -32.772 
   191.500   132.332     9.871     9.878    10.001     2.495     0.030     2.501   -30.907 
   192.000   132.575     9.871    10.046    10.193     2.501     0.029     2.591   -31.535 
   192.500   133.674     9.868    10.158    10.382     2.501     0.038     2.517   -28.794 
   193.000   132.497     9.858    10.229    10.498     2.496     0.047     2.412   -16.313 
   193.500   128.952     9.851    10.268    10.510     2.488     0.047     2.404    -5.959 
   194.000   127.584     9.850    10.262    10.442     2.481     0.040     2.487    -7.562 
   194.500   129.027     9.850    10.210    10.329     2.476     0.031     2.629   -12.977 
   195.000   129.120     9.850    10.125    10.191     2.475     0.030     2.767   -14.857 
   195.500   128.061     9.850    10.020    10.043     2.478     0.035     2.841   -19.364 
   196.000   128.366     9.850     9.901     9.904     2.481     0.036     2.868   -30.593 
   196.500   129.234     9.851     9.763     9.797     2.479     0.031     2.873   -37.915 
   197.000   128.613     9.859     9.624     9.720     2.474     0.031     2.867   -36.714 
   197.500   126.982     9.876     9.514     9.667     2.469     0.037     2.862   -34.656 
   198.000   125.782     9.886     9.439     9.629     2.469     0.039     2.923   -32.376 
   198.500   125.281     9.876     9.401     9.595     2.471     0.035     2.983   -28.624 
   199.000   126.978     9.859     9.404     9.565     2.476     0.034     2.894   -28.569 
   199.500   131.516     9.854     9.419     9.538     2.479     0.027     2.742   -28.545 
   200.000   136.295     9.863     9.418     9.521     2.477     0.012     2.673   -20.014 
   200.500   137.729     9.873     9.403     9.510     2.475     0.003     2.685   -10.217 
   201.000   133.936     9.880     9.364     9.469     2.480     0.012     2.734    -8.151 
   201.500   128.886     9.894     9.302     9.389     2.490     0.030     2.791   -12.265 
   202.000   127.284     9.901     9.250     9.299     2.496     0.038     2.860   -19.942 
   202.500   129.158     9.884     9.213     9.223     2.490     0.040     2.998   -26.777 
   203.000   131.063     9.861     9.173     9.155     2.478     0.050     3.178   -23.581 
   203.500   131.646     9.851     9.120     9.091     2.474     0.061     3.177   -13.169 
   204.000   130.594     9.850     9.066     9.036     2.480     0.059     2.960    -9.409 
   204.500   129.853     9.850     9.037     9.011     2.487     0.053     2.744   -13.904 
   205.000   131.427     9.853     9.036     9.028     2.488     0.059     2.659   -16.017 
   205.500   134.263     9.863     9.051     9.066     2.486     0.074     2.674   -15.247 
   206.000   136.174     9.870     9.070     9.096     2.485     0.080     2.675   -16.507 
   206.500   138.804     9.867     9.083     9.112     2.484     0.077     2.710   -16.696 
   207.000   142.145     9.867     9.079     9.106     2.472     0.084     2.852   -14.788 
   207.500   142.661     9.870     9.061     9.065     2.454     0.103     2.979   -17.129 
   208.000   140.731     9.863     9.018     8.982     2.448     0.109     2.903   -23.339 
   208.500   140.668     9.853     8.951     8.880     2.461     0.094     2.772   -24.390 
   209.000   141.672     9.853     8.887     8.790     2.479     0.077     2.738   -19.811 
   209.500   141.989     9.867     8.829     8.729     2.487     0.066     2.695   -19.502 
   210.000   140.988     9.884     8.764     8.689     2.485     0.053     2.630   -25.201 
   210.500   138.537     9.891     8.695     8.658     2.483     0.039     2.783   -28.137 
   211.000   137.450     9.884     8.623     8.629     2.482     0.035     3.131   -29.298 
   211.500   140.338     9.871     8.532     8.584     2.480     0.039     3.296   -35.507 
   212.000   144.012     9.858     8.406     8.496     2.476     0.044     3.081   -44.517 
   212.500   144.389     9.851     8.240     8.343     2.478     0.047     2.940   -43.993 
   213.000   142.126     9.850     8.048     8.127     2.483     0.047     3.119   -31.234 
   213.500   140.639     9.850     7.843     7.869     2.484     0.041     3.320   -18.406 
   214.000   141.822     9.850     7.622     7.607     2.480     0.038     3.150   -18.930 
   214.500   144.026     9.850     7.387     7.369     2.477     0.037     2.880   -27.478 
   215.000   145.256     9.850     7.161     7.173     2.473     0.037     2.826   -29.360 
   215.500   144.822     9.851     6.974     7.026     2.467     0.039     2.896   -24.575 
   216.000   143.837     9.858     6.842     6.934     2.463     0.042     2.938   -19.830 
   216.500   144.141     9.868     6.783     6.905     2.464     0.042     3.011   -17.875 
   217.000   145.768     9.868     6.801     6.954     2.467     0.043     3.067   -20.308 
   217.500   147.753     9.861     6.878     7.087     2.467     0.041     2.910   -27.801 
