~Version Information Block
 VERS.                1.20:     CWLS LOG ASCII STANDARD - VERSION 1.20
 WRAP.                  NO:     One Line Per Depth Step
     
~Well Information Block
#MNEM.UNIT       Data Type     Information
#컴컴컴컴컴    컴컴컴컴컴컴�   컴컴컴컴컴컴컴컴컴컴컴컴컴컴컴컴컴컴컴컴컴컴�
 STRT.FT           44.0000:
 STOP.FT          636.0000:
 STEP.FT            0.5000:
 NULL.          -9999.0000:
 COMP.             COMPANY:    FLUOR DANIEL (NPSOR), IN
 WELL.                WELL:    73 X 33                 
 FLD .               FIELD:    NPR #3                  
 LOC .            LOCATION:                                            
 CNTY.              COUNTY:    NATRONA                       
 STAT.               STATE:    WYOMING   
 SRVC.     SERVICE COMPANY:    ATLAS WIRELINE PETROPHYSICAL SERVICES
 DATE.                DATE:    09/19/1994
 UWI .      UNIQUE WELL ID:           1.0
 API .          API NUMBER:                    
     
~Curve Information Block
#MNEM.UNIT       API CODE      Curve Description
#컴컴컴컴컴    컴컴컴컴컴컴�   컴컴컴컴컴컴컴컴컴컴컴컴컴컴컴컴컴컴컴컴컴컴�
 DEPT.F         95 995 99 1    Depth                                                        
 GR  .API       31 310 01 1    Gamma Ray Counts                                             
 CAL .IN        28 280 99 1    Caliper                                                      
 RILD.OHMM      12 120 46 1    Resistivity from CILD                                        
 RILM.OHMM      12 120 44 1    Resistivity from CILM                                        
 ZDEN.G/C3      95 350 01 1    Z-Densilog Bulk Density                                      
 ZCOR.G/C3      39 356 99 1    Z-Densilog Bulk Density Correction                           
 PE  .BARN      95 358 01 1    Photo Electric Cross Section                                 
 TEN .LBF       95 635 99 1    Differential Tension                                         
     
~Parameter Information Block
#MNEM.UNIT         Value       Description
#컴컴컴컴컴    컴컴컴컴컴컴�   컴컴컴컴컴컴컴컴컴컴컴컴컴컴컴컴컴컴컴컴컴컴�
 EKB .FT            0.0000:    ELEVATION KELLY BUSHING
 EGL .FT            0.0000:    ELEVATION GROUND LEVEL
 RUN .              1.0000:    RUN NUMBER
 SON .               00000:    SERVICE ORDER NUMBER
 DD  .FT            0.0000:    DEPTH-DRILLER
 DL  .FT            0.0000:    DEPTH-LOGGER
 BLI .FT            0.0000:    BOTTOM LOGGED INTERVAL
 TLI .FT            0.0000:    TOP LOGGED INTERVAL
 CS  .  IN          0.0000:    CASING SIZE 
 CDD .FT            0.0000:    CASING DEPTH-DRILLER
 CDL .FT            0.0000:    CASING DEPTH-LOGGER
 BS  .IN            0.0000:    BIT SIZE
 DFT .               LIGNO:    MUD TYPE   
 DFD .LB/G          0.0000:    MUD WEIGHT
 DFV .S             0.0000:    MUD VISCOSITY
 DFPH.              0.0000:    MUD PH
 DFL .CC            0.0000:    MUD FLUID LOSS
 RMS .           FLOW LINE:    MUD SAMPLE SOURCE
 RM  .OHMM          0.0000:    MUD RESISTIVITY          
 RMT .DEGF          0.0000:    RM TEMPERATURE
 RMBH.OHMM          0.0000:    MUD RESISTIVITY AT BHT
 BHT .DEGF          0.0000:    BOTTOM HOLE TEMPERATURE
 RMFS.            MEASURED:    MUD FILTRATE SOURCE
 RMF .OHMM          0.0000:    MUD FILTRATE RESISTIVITY
 RMFT.DEGF          0.0000:    RMF TEMPERATURE
 RMCS.            MEASURED:    MUD CAKE SOURCE
 RMC .OHMM          0.0000:    MUD CAKE RESISTIVITY
 RMCT.DEGF          0.0000:    RMC TEMPERATURE
     
#      Computation Parameters Used
#MNEM.UNIT         Value       Description
#컴컴컴컴컴    컴컴컴컴컴컴�   컴컴컴컴컴컴컴컴컴컴컴컴컴컴컴컴컴컴컴컴컴컴�
 MDEN.G/CC          2.6500:    LOGGING MATRIX DENSITY
 MATR.              1.0000:    NEUTRON MATRIX (0=LIME,1=SAND,2=DOLO)
 FNUM.              0.6200:    TORTUOSITY CONSTANT ARCHIES (a)
 FEXP.              2.1500:    CEMENTATION EXPONENT ARCHIES (m)
     
~Other Information
#컴컴컴컴컴컴컴컴컴컴컴컴컴컴컴컴컴컴컴컴컴컴컴컴컴컴컴컴컴컴컴컴컴컴컴컴컴컴컴�
# In Making Interpretations Of Logs Our Employees Will Give Customer The Benefit
# Of Their Best Judgement,  But  Since All Interpretations Are Opinions Based On
# Inferences From Electrical Or  Other  Measurements,  We Cannot,  And We Do Not
# Guarantee The Accuracy Or  Correctness Of Any Interpretation.  We Shall Not Be
# Liable Or  Responsible For Any Loss,  Cost,  Damages, Or  Expenses  Whatsoever
# Incurred Or  Sustained By The Customer  Resulting  From Any Interpretaion Made
# By Any Of Our Employees.  ATLAS WIRELINE SERVICES-WESTERN ATLAS INTERNATIONAL
#컴컴컴컴컴컴컴컴컴컴컴컴컴컴컴컴컴컴컴컴컴컴컴컴컴컴컴컴컴컴컴컴컴컴컴컴컴컴컴�
     
~A  DEPTH      GR        CAL       RILD      RILM      ZDEN      ZCOR      PE        TEN       
# ...
   479.000    85.792     9.435    13.505    13.305     2.309     0.097     2.248     4.941 
   479.500    88.368     9.435    13.208    13.093     2.315     0.092     2.380     5.521 
   480.000    91.925     9.435    12.942    12.979     2.326     0.090     2.396     9.887 
   480.500    94.957     9.435    12.753    12.921     2.341     0.084     2.325    15.299 
   481.000    96.722     9.435    12.650    12.869     2.347     0.074     2.258    18.451 
   481.500    95.652     9.435    12.607    12.797     2.343     0.070     2.228    18.084 
   482.000    90.767     9.435    12.596    12.721     2.335     0.067     2.157    17.071 
   482.500    86.595     9.435    12.567    12.662     2.331     0.061     2.012    17.644 
   483.000    87.093     9.435    12.510    12.630     2.328     0.054     1.893    16.463 
   483.500    89.921     9.435    12.462    12.617     2.326     0.050     1.867    15.436 
   484.000    91.358     9.435    12.448    12.613     2.320     0.056     1.990    17.178 
   484.500    91.425     9.435    12.488    12.635     2.312     0.074     2.217    18.065 
   485.000    90.898     9.435    12.614    12.753     2.308     0.084     2.361    18.723 
   485.500    91.376     9.438    12.835    13.036     2.316     0.078     2.309    20.433 
   486.000    93.226     9.448    13.088    13.464     2.332     0.068     2.273    21.354 
   486.500    94.940     9.455    13.266    13.876     2.336     0.065     2.333    20.823 
   487.000    92.820     9.448    13.340    14.064     2.324     0.089     2.345    22.434 
   487.500    86.706     9.438    13.371    13.981     2.311     0.146     2.276    24.999 
   488.000    81.748     9.435    13.403    13.748     2.290     0.217     2.312    23.812 
   488.500    81.851     9.436    13.401    13.473     2.253     0.277     2.513    17.915 
   489.000    84.542     9.446    13.317    13.175     2.238     0.303     2.710    13.588 
   489.500    87.025     9.474    13.123    12.866     2.284     0.272     2.769    14.590 
   490.000    91.272     9.490    12.823    12.573     2.355     0.202     2.739    16.365 
   490.500    95.897     9.474    12.490    12.320     2.399     0.145     2.627    15.204 
   491.000    96.165     9.446    12.208    12.113     2.417     0.124     2.420    13.033 
   491.500    92.180     9.436    12.014    11.957     2.415     0.120     2.230    14.181 
   492.000    88.925     9.435    11.900    11.859     2.396     0.124     2.143    19.077 
   492.500    88.104     9.435    11.850    11.811     2.377     0.130     2.094    20.828 
   493.000    88.722     9.435    11.831    11.798     2.372     0.123     2.085    19.984 
   493.500    90.095     9.435    11.809    11.805     2.374     0.108     2.185    21.384 
   494.000    91.590     9.435    11.774    11.809     2.371     0.103     2.306    24.053 
   494.500    91.941     9.435    11.735    11.793     2.361     0.117     2.329    22.752 
   495.000    91.623     9.435    11.703    11.773     2.350     0.136     2.306    20.456 
   495.500    93.217     9.435    11.673    11.753     2.345     0.140     2.386    21.013 
   496.000    96.011     9.435    11.636    11.722     2.350     0.119     2.509    23.288 
   496.500    96.742     9.435    11.571    11.679     2.357     0.087     2.496    24.169 
   497.000    95.001     9.435    11.481    11.632     2.363     0.066     2.360    22.896 
   497.500    94.036     9.435    11.388    11.578     2.368     0.061     2.282    23.675 
   498.000    94.580     9.435    11.291    11.523     2.369     0.061     2.318    26.183 
   498.500    95.857     9.435    11.202    11.465     2.369     0.061     2.440    27.289 
   499.000    96.503     9.435    11.143    11.387     2.369     0.059     2.574    26.913 
   499.500    94.693     9.435    11.106    11.293     2.366     0.055     2.537    26.688 
   500.000    91.756     9.435    11.061    11.211     2.358     0.047     2.345    27.322 
   500.500    91.520     9.435    10.997    11.147     2.351     0.048     2.266    29.948 
   501.000    93.380     9.435    10.938    11.085     2.353     0.064     2.415    34.368 
   501.500    93.223     9.435    10.934    11.031     2.356     0.088     2.534    43.347 
   502.000    94.072     9.435    11.008    11.005     2.350     0.110     2.424    52.097 
   502.500    97.976     9.435    11.121    11.030     2.336     0.129     2.281    47.764 
   503.000   100.702     9.435    11.232    11.095     2.326     0.139     2.251    32.390 
   503.500   100.431     9.435    11.335    11.184     2.329     0.139     2.236    22.289 
   504.000   100.340     9.435    11.460    11.284     2.341     0.136     2.243    23.323 
   504.500   100.340     9.435    11.627    11.375     2.354     0.127     2.334    27.492 
   505.000    99.406     9.434    11.821    11.458     2.361     0.105     2.460    29.657 
   505.500    97.558     9.427    12.008    11.549     2.361     0.086     2.584    29.824 
   506.000    95.270     9.417    12.160    11.638     2.359     0.077     2.666    31.367 
   506.500    93.123     9.414    12.256    11.677     2.367     0.064     2.633    35.986 
   507.000    92.243     9.414    12.305    11.650     2.383     0.051     2.537    39.252 
   507.500    92.984     9.415    12.326    11.589     2.390     0.053     2.446    37.787 
   508.000    95.324     9.422    12.317    11.531     2.383     0.064     2.441    33.835 
   508.500    97.599     9.428    12.265    11.481     2.371     0.071     2.490    33.095 
   509.000    97.893     9.411    12.174    11.433     2.359     0.074     2.472    36.196 
   509.500    95.804     9.373    12.069    11.390     2.340     0.086     2.448    38.033 
   510.000    93.406     9.343    11.979    11.358     2.316     0.121     2.537    37.649 
   510.500    91.785     9.332    11.900    11.339     2.309     0.170     2.592    37.718 
   511.000    92.163     9.331    11.816    11.325     2.341     0.187     2.521    40.448 
   511.500    95.043     9.331    11.724    11.309     2.407     0.167     2.476    42.565 
   512.000    98.094     9.331    11.649    11.299     2.448     0.155     2.473    38.097 
   512.500    97.373     9.331    11.613    11.310     2.452     0.180     2.403    30.265 
   513.000    95.550     9.331    11.621    11.336     2.449     0.237     2.269    30.013 
   513.500    97.101     9.331    11.644    11.374     2.423     0.321     2.191    38.751 
   514.000   100.446     9.331    11.649    11.412     2.367     0.401     2.233    43.942 
   514.500   101.930     9.335    11.633    11.427     2.337     0.438     2.330    43.932 
   515.000   101.825     9.356    11.603    11.401     2.377     0.414     2.374    46.156 
   515.500   100.795     9.393    11.553    11.344     2.428     0.331     2.421    50.045 
   516.000    98.350     9.424    11.479    11.260     2.430     0.222     2.534    49.336 
   516.500    95.394     9.434    11.373    11.158     2.412     0.140     2.692    47.095 
   517.000    93.795     9.435    11.251    11.055     2.406     0.100     2.806    48.496 
   517.500    93.088     9.434    11.163    10.966     2.405     0.073     2.743    50.481 
   518.000    93.518     9.424    11.115    10.892     2.408     0.050     2.510    48.390 
   518.500    95.807     9.393    11.056    10.841     2.408     0.042     2.326    43.546 
   519.000    98.435     9.356    10.948    10.821     2.406     0.047     2.272    38.654 
   519.500    98.835     9.346    10.806    10.823     2.407     0.051     2.309    37.746 
   520.000    98.474     9.362    10.685    10.817     2.402     0.061     2.433    40.148 
   520.500    99.317     9.369    10.624    10.797     2.387     0.081     2.590    40.577 
   521.000   100.230     9.363    10.614    10.779     2.382     0.092     2.575    36.639 
   521.500    99.165     9.377    10.623    10.767     2.395     0.087     2.398    36.935 
   522.000    97.188     9.399    10.642    10.762     2.414     0.072     2.294    43.291 
