~Version Information Block
 VERS.                1.20:     CWLS LOG ASCII STANDARD - VERSION 1.20
 WRAP.                  NO:     One Line Per Depth Step
     
~Well Information Block
#MNEM.UNIT       Data Type     Information
#컴컴컴컴컴    컴컴컴컴컴컴�   컴컴컴컴컴컴컴컴컴컴컴컴컴컴컴컴컴컴컴컴컴컴�
 STRT.FT           44.0000:
 STOP.FT          636.0000:
 STEP.FT            0.5000:
 NULL.          -9999.0000:
 COMP.             COMPANY:    FLUOR DANIEL (NPSOR), IN
 WELL.                WELL:    73 X 33                 
 FLD .               FIELD:    NPR #3                  
 LOC .            LOCATION:                                            
 CNTY.              COUNTY:    NATRONA                       
 STAT.               STATE:    WYOMING   
 SRVC.     SERVICE COMPANY:    ATLAS WIRELINE PETROPHYSICAL SERVICES
 DATE.                DATE:    09/19/1994
 UWI .      UNIQUE WELL ID:           1.0
 API .          API NUMBER:                    
     
~Curve Information Block
#MNEM.UNIT       API CODE      Curve Description
#컴컴컴컴컴    컴컴컴컴컴컴�   컴컴컴컴컴컴컴컴컴컴컴컴컴컴컴컴컴컴컴컴컴컴�
 DEPT.F         95 995 99 1    Depth                                                        
 GR  .API       31 310 01 1    Gamma Ray Counts                                             
 CAL .IN        28 280 99 1    Caliper                                                      
 RILD.OHMM      12 120 46 1    Resistivity from CILD                                        
 RILM.OHMM      12 120 44 1    Resistivity from CILM                                        
 ZDEN.G/C3      95 350 01 1    Z-Densilog Bulk Density                                      
 ZCOR.G/C3      39 356 99 1    Z-Densilog Bulk Density Correction                           
 PE  .BARN      95 358 01 1    Photo Electric Cross Section                                 
 TEN .LBF       95 635 99 1    Differential Tension                                         
     
~Parameter Information Block
#MNEM.UNIT         Value       Description
#컴컴컴컴컴    컴컴컴컴컴컴�   컴컴컴컴컴컴컴컴컴컴컴컴컴컴컴컴컴컴컴컴컴컴�
 EKB .FT            0.0000:    ELEVATION KELLY BUSHING
 EGL .FT            0.0000:    ELEVATION GROUND LEVEL
 RUN .              1.0000:    RUN NUMBER
 SON .               00000:    SERVICE ORDER NUMBER
 DD  .FT            0.0000:    DEPTH-DRILLER
 DL  .FT            0.0000:    DEPTH-LOGGER
 BLI .FT            0.0000:    BOTTOM LOGGED INTERVAL
 TLI .FT            0.0000:    TOP LOGGED INTERVAL
 CS  .  IN          0.0000:    CASING SIZE 
 CDD .FT            0.0000:    CASING DEPTH-DRILLER
 CDL .FT            0.0000:    CASING DEPTH-LOGGER
 BS  .IN            0.0000:    BIT SIZE
 DFT .               LIGNO:    MUD TYPE   
 DFD .LB/G          0.0000:    MUD WEIGHT
 DFV .S             0.0000:    MUD VISCOSITY
 DFPH.              0.0000:    MUD PH
 DFL .CC            0.0000:    MUD FLUID LOSS
 RMS .           FLOW LINE:    MUD SAMPLE SOURCE
 RM  .OHMM          0.0000:    MUD RESISTIVITY          
 RMT .DEGF          0.0000:    RM TEMPERATURE
 RMBH.OHMM          0.0000:    MUD RESISTIVITY AT BHT
 BHT .DEGF          0.0000:    BOTTOM HOLE TEMPERATURE
 RMFS.            MEASURED:    MUD FILTRATE SOURCE
 RMF .OHMM          0.0000:    MUD FILTRATE RESISTIVITY
 RMFT.DEGF          0.0000:    RMF TEMPERATURE
 RMCS.            MEASURED:    MUD CAKE SOURCE
 RMC .OHMM          0.0000:    MUD CAKE RESISTIVITY
 RMCT.DEGF          0.0000:    RMC TEMPERATURE
     
#      Computation Parameters Used
#MNEM.UNIT         Value       Description
#컴컴컴컴컴    컴컴컴컴컴컴�   컴컴컴컴컴컴컴컴컴컴컴컴컴컴컴컴컴컴컴컴컴컴�
 MDEN.G/CC          2.6500:    LOGGING MATRIX DENSITY
 MATR.              1.0000:    NEUTRON MATRIX (0=LIME,1=SAND,2=DOLO)
 FNUM.              0.6200:    TORTUOSITY CONSTANT ARCHIES (a)
 FEXP.              2.1500:    CEMENTATION EXPONENT ARCHIES (m)
     
~Other Information
#컴컴컴컴컴컴컴컴컴컴컴컴컴컴컴컴컴컴컴컴컴컴컴컴컴컴컴컴컴컴컴컴컴컴컴컴컴컴컴�
# In Making Interpretations Of Logs Our Employees Will Give Customer The Benefit
# Of Their Best Judgement,  But  Since All Interpretations Are Opinions Based On
# Inferences From Electrical Or  Other  Measurements,  We Cannot,  And We Do Not
# Guarantee The Accuracy Or  Correctness Of Any Interpretation.  We Shall Not Be
# Liable Or  Responsible For Any Loss,  Cost,  Damages, Or  Expenses  Whatsoever
# Incurred Or  Sustained By The Customer  Resulting  From Any Interpretaion Made
# By Any Of Our Employees.  ATLAS WIRELINE SERVICES-WESTERN ATLAS INTERNATIONAL
#컴컴컴컴컴컴컴컴컴컴컴컴컴컴컴컴컴컴컴컴컴컴컴컴컴컴컴컴컴컴컴컴컴컴컴컴컴컴컴�
     
~A  DEPTH      GR        CAL       RILD      RILM      ZDEN      ZCOR      PE        TEN       
# ...
   131.000   126.026     9.954     6.503     6.679     2.433     0.031     2.895   -16.210 
   131.500   125.427     9.954     6.474     6.643     2.432     0.027     2.787   -21.051 
   132.000   129.335     9.954     6.489     6.641     2.434     0.020     2.778   -21.904 
   132.500   133.982     9.953     6.542     6.685     2.433     0.016     2.849   -23.673 
   133.000   135.992     9.943     6.615     6.783     2.430     0.014     2.879   -27.522 
   133.500   133.591     9.912     6.699     6.923     2.433     0.017     2.874   -31.765 
   134.000   130.089     9.875     6.797     7.070     2.446     0.021     2.955   -37.950 
   134.500   129.483     9.862     6.914     7.195     2.462     0.023     3.037   -45.621 
   135.000   130.313     9.868     7.049     7.301     2.470     0.021     3.007   -43.349 
   135.500   129.145     9.868     7.199     7.403     2.468     0.016     2.871   -25.692 
   136.000   128.181     9.858     7.348     7.507     2.464     0.012     2.740    -6.557 
   136.500   130.104     9.851     7.471     7.607     2.466     0.027     2.743    -2.314 
   137.000   132.544     9.853     7.543     7.693     2.468     0.056     2.735    -9.911 
   137.500   132.197     9.867     7.561     7.747     2.464     0.075     2.526   -19.179 
   138.000   130.099     9.883     7.545     7.747     2.463     0.075     2.362   -24.428 
   138.500   128.979     9.883     7.515     7.690     2.472     0.063     2.481   -23.702 
   139.000   128.970     9.867     7.471     7.600     2.485     0.056     2.702   -16.490 
   139.500   128.437     9.857     7.412     7.506     2.490     0.056     2.789   -12.659 
   140.000   127.295     9.874     7.345     7.419     2.487     0.057     2.751   -18.091 
   140.500   126.720     9.904     7.267     7.332     2.480     0.059     2.725   -24.657 
   141.000   125.946     9.917     7.181     7.255     2.473     0.066     2.722   -24.454 
   141.500   124.489     9.910     7.097     7.200     2.471     0.068     2.718   -23.326 
   142.000   124.651     9.907     7.018     7.159     2.473     0.057     2.721   -20.832 
   142.500   126.862     9.907     6.952     7.117     2.472     0.047     2.681   -14.429 
   143.000   128.567     9.900     6.912     7.076     2.464     0.050     2.638   -12.795 
   143.500   127.422     9.894     6.909     7.060     2.458     0.060     2.752   -21.786 
   144.000   124.764     9.887     6.946     7.095     2.461     0.069     2.975   -30.869 
   144.500   124.725     9.880     7.024     7.199     2.465     0.072     3.003   -30.731 
   145.000   126.787     9.881     7.135     7.370     2.461     0.067     2.850   -27.148 
   145.500   127.668     9.889     7.265     7.589     2.458     0.056     2.706   -24.234 
   146.000   129.119     9.900     7.406     7.812     2.462     0.042     2.701   -20.181 
   146.500   131.575     9.917     7.565     7.999     2.470     0.031     2.848   -15.589 
   147.000   130.420     9.930     7.744     8.154     2.469     0.021     3.022   -12.469 
   147.500   126.724     9.930     7.931     8.301     2.461     0.014     3.043   -10.103 
   148.000   124.585     9.923     8.090     8.421     2.454     0.021     3.002    -9.572 
   148.500   122.650     9.916     8.165     8.461     2.449     0.038     3.081   -10.005 
   149.000   119.891     9.906     8.131     8.398     2.444     0.049     3.174   -11.024 
   149.500   118.683     9.892     8.033     8.262     2.441     0.047     3.153   -13.593 
   150.000   119.625     9.889     7.908     8.082     2.442     0.036     3.077   -15.256 
   150.500   121.882     9.902     7.745     7.871     2.447     0.027     3.021   -19.103 
   151.000   125.070     9.923     7.548     7.644     2.456     0.028     3.001   -25.911 
   151.500   127.304     9.933     7.349     7.425     2.459     0.031     2.995   -24.138 
   152.000   128.933     9.934     7.165     7.234     2.455     0.028     2.964   -14.455 
   152.500   130.526     9.940     7.006     7.084     2.450     0.023     2.863   -11.758 
   153.000   130.721     9.943     6.885     6.984     2.447     0.022     2.768   -18.446 
   153.500   128.857     9.929     6.808     6.939     2.445     0.022     2.751   -27.663 
   154.000   126.313     9.918     6.777     6.945     2.445     0.020     2.790   -35.254 
   154.500   124.353     9.921     6.793     7.000     2.446     0.014     2.760   -33.873 
   155.000   125.007     9.917     6.856     7.105     2.449     0.007     2.747   -19.846 
   155.500   127.769     9.894     6.959     7.252     2.452     0.004     2.842    -6.083 
   156.000   129.569     9.867     7.080     7.420     2.453     0.010     2.937    -5.258 
   156.500   128.304     9.853     7.207     7.579     2.455     0.016     2.935   -13.184 
   157.000   126.509     9.850     7.330     7.699     2.459     0.018     2.959   -20.506 
   157.500   127.083     9.850     7.444     7.772     2.461     0.021     2.983   -25.659 
   158.000   127.820     9.850     7.554     7.815     2.464     0.025     2.877   -26.666 
   158.500   125.318     9.850     7.661     7.844     2.469     0.026     2.766   -23.100 
   159.000   123.179     9.850     7.752     7.864     2.474     0.029     2.737   -14.598 
   159.500   126.402     9.853     7.816     7.881     2.477     0.040     2.771    -5.313 
   160.000   132.158     9.863     7.855     7.900     2.478     0.050     2.824    -4.577 
   160.500   135.358     9.873     7.882     7.920     2.480     0.051     2.877   -17.972 
   161.000   134.405     9.877     7.904     7.942     2.483     0.049     2.928   -35.980 
   161.500   132.656     9.873     7.920     7.964     2.481     0.058     3.054   -46.426 
   162.000   132.631     9.863     7.929     7.985     2.478     0.071     3.181   -47.292 
   162.500   134.005     9.853     7.941     8.000     2.479     0.065     3.104   -39.988 
   163.000   134.805     9.853     7.949     8.009     2.486     0.039     2.954   -29.523 
   163.500   136.616     9.863     7.936     8.008     2.492     0.023     2.978   -20.296 
   164.000   138.040     9.870     7.891     7.968     2.492     0.035     3.188   -16.675 
   164.500   135.336     9.863     7.805     7.869     2.487     0.058     3.251   -20.584 
   165.000   129.545     9.853     7.690     7.734     2.481     0.071     3.094   -28.435 
   165.500   126.290     9.850     7.573     7.594     2.476     0.070     2.976   -30.242 
   166.000   127.099     9.850     7.465     7.467     2.469     0.066     2.915   -26.378 
   166.500   128.209     9.850     7.369     7.364     2.462     0.061     2.756   -25.776 
   167.000   128.658     9.851     7.283     7.295     2.456     0.046     2.589   -31.499 
   167.500   129.601     9.859     7.205     7.266     2.453     0.029     2.637   -38.555 
   168.000   129.493     9.879     7.141     7.261     2.455     0.027     2.893   -39.571 
   168.500   128.573     9.899     7.093     7.253     2.463     0.032     3.116   -36.135 
   169.000   129.154     9.895     7.053     7.233     2.473     0.031     3.095   -37.538 
   169.500   129.686     9.875     7.025     7.213     2.478     0.028     2.935   -45.290 
   170.000   129.701     9.867     7.023     7.208     2.478     0.023     2.741   -48.844 
   170.500   131.598     9.870     7.039     7.223     2.473     0.010     2.614   -44.877 
   171.000   133.985     9.863     7.056     7.252     2.467    -0.003     2.539   -40.877 
   171.500   133.778     9.854     7.066     7.287     2.466     0.004     2.556   -37.499 
   172.000   131.581     9.858     7.075     7.327     2.475     0.026     2.749   -30.749 
   172.500   129.816     9.869     7.103     7.383     2.482     0.039     2.923   -26.699 
   173.000   128.690     9.876     7.154     7.474     2.481     0.032     2.756   -32.181 
   173.500   126.925     9.876     7.202     7.571     2.475     0.028     2.502   -39.156 
   174.000   124.189     9.869     7.229     7.605     2.465     0.054     2.490   -36.982 
