~Version Information Block
 VERS.                1.20:     CWLS LOG ASCII STANDARD - VERSION 1.20
 WRAP.                  NO:     One Line Per Depth Step
     
~Well Information Block
#MNEM.UNIT       Data Type     Information
#컴컴컴컴컴    컴컴컴컴컴컴�   컴컴컴컴컴컴컴컴컴컴컴컴컴컴컴컴컴컴컴컴컴컴�
 STRT.FT           44.0000:
 STOP.FT          636.0000:
 STEP.FT            0.5000:
 NULL.          -9999.0000:
 COMP.             COMPANY:    FLUOR DANIEL (NPSOR), IN
 WELL.                WELL:    73 X 33                 
 FLD .               FIELD:    NPR #3                  
 LOC .            LOCATION:                                            
 CNTY.              COUNTY:    NATRONA                       
 STAT.               STATE:    WYOMING   
 SRVC.     SERVICE COMPANY:    ATLAS WIRELINE PETROPHYSICAL SERVICES
 DATE.                DATE:    09/19/1994
 UWI .      UNIQUE WELL ID:           1.0
 API .          API NUMBER:                    
     
~Curve Information Block
#MNEM.UNIT       API CODE      Curve Description
#컴컴컴컴컴    컴컴컴컴컴컴�   컴컴컴컴컴컴컴컴컴컴컴컴컴컴컴컴컴컴컴컴컴컴�
 DEPT.F         95 995 99 1    Depth                                                        
 GR  .API       31 310 01 1    Gamma Ray Counts                                             
 CAL .IN        28 280 99 1    Caliper                                                      
 RILD.OHMM      12 120 46 1    Resistivity from CILD                                        
 RILM.OHMM      12 120 44 1    Resistivity from CILM                                        
 ZDEN.G/C3      95 350 01 1    Z-Densilog Bulk Density                                      
 ZCOR.G/C3      39 356 99 1    Z-Densilog Bulk Density Correction                           
 PE  .BARN      95 358 01 1    Photo Electric Cross Section                                 
 TEN .LBF       95 635 99 1    Differential Tension                                         
     
~Parameter Information Block
#MNEM.UNIT         Value       Description
#컴컴컴컴컴    컴컴컴컴컴컴�   컴컴컴컴컴컴컴컴컴컴컴컴컴컴컴컴컴컴컴컴컴컴�
 EKB .FT            0.0000:    ELEVATION KELLY BUSHING
 EGL .FT            0.0000:    ELEVATION GROUND LEVEL
 RUN .              1.0000:    RUN NUMBER
 SON .               00000:    SERVICE ORDER NUMBER
 DD  .FT            0.0000:    DEPTH-DRILLER
 DL  .FT            0.0000:    DEPTH-LOGGER
 BLI .FT            0.0000:    BOTTOM LOGGED INTERVAL
 TLI .FT            0.0000:    TOP LOGGED INTERVAL
 CS  .  IN          0.0000:    CASING SIZE 
 CDD .FT            0.0000:    CASING DEPTH-DRILLER
 CDL .FT            0.0000:    CASING DEPTH-LOGGER
 BS  .IN            0.0000:    BIT SIZE
 DFT .               LIGNO:    MUD TYPE   
 DFD .LB/G          0.0000:    MUD WEIGHT
 DFV .S             0.0000:    MUD VISCOSITY
 DFPH.              0.0000:    MUD PH
 DFL .CC            0.0000:    MUD FLUID LOSS
 RMS .           FLOW LINE:    MUD SAMPLE SOURCE
 RM  .OHMM          0.0000:    MUD RESISTIVITY          
 RMT .DEGF          0.0000:    RM TEMPERATURE
 RMBH.OHMM          0.0000:    MUD RESISTIVITY AT BHT
 BHT .DEGF          0.0000:    BOTTOM HOLE TEMPERATURE
 RMFS.            MEASURED:    MUD FILTRATE SOURCE
 RMF .OHMM          0.0000:    MUD FILTRATE RESISTIVITY
 RMFT.DEGF          0.0000:    RMF TEMPERATURE
 RMCS.            MEASURED:    MUD CAKE SOURCE
 RMC .OHMM          0.0000:    MUD CAKE RESISTIVITY
 RMCT.DEGF          0.0000:    RMC TEMPERATURE
     
#      Computation Parameters Used
#MNEM.UNIT         Value       Description
#컴컴컴컴컴    컴컴컴컴컴컴�   컴컴컴컴컴컴컴컴컴컴컴컴컴컴컴컴컴컴컴컴컴컴�
 MDEN.G/CC          2.6500:    LOGGING MATRIX DENSITY
 MATR.              1.0000:    NEUTRON MATRIX (0=LIME,1=SAND,2=DOLO)
 FNUM.              0.6200:    TORTUOSITY CONSTANT ARCHIES (a)
 FEXP.              2.1500:    CEMENTATION EXPONENT ARCHIES (m)
     
~Other Information
#컴컴컴컴컴컴컴컴컴컴컴컴컴컴컴컴컴컴컴컴컴컴컴컴컴컴컴컴컴컴컴컴컴컴컴컴컴컴컴�
# In Making Interpretations Of Logs Our Employees Will Give Customer The Benefit
# Of Their Best Judgement,  But  Since All Interpretations Are Opinions Based On
# Inferences From Electrical Or  Other  Measurements,  We Cannot,  And We Do Not
# Guarantee The Accuracy Or  Correctness Of Any Interpretation.  We Shall Not Be
# Liable Or  Responsible For Any Loss,  Cost,  Damages, Or  Expenses  Whatsoever
# Incurred Or  Sustained By The Customer  Resulting  From Any Interpretaion Made
# By Any Of Our Employees.  ATLAS WIRELINE SERVICES-WESTERN ATLAS INTERNATIONAL
#컴컴컴컴컴컴컴컴컴컴컴컴컴컴컴컴컴컴컴컴컴컴컴컴컴컴컴컴컴컴컴컴컴컴컴컴컴컴컴�
     
~A  DEPTH      GR        CAL       RILD      RILM      ZDEN      ZCOR      PE        TEN       
    44.000    59.697 -9999.000     5.753 10000.000     2.306 -9999.000 -9999.000   -18.058 
    44.500    59.164     9.954     5.718 10000.000     1.918    -0.450    11.864   -21.351 
    45.000    64.257     9.954     5.678 10000.000     1.854    -0.450    11.864   -23.488 
    45.500    72.075     9.954     5.473 10000.000     1.855    -0.450    11.864   -17.437 
    46.000    78.644     9.954     5.216 10000.000     1.861    -0.450    11.864   -15.628 
    46.500    81.433     9.954     5.112 10000.000     1.862    -0.450    11.864   -23.178 
    47.000    80.190     9.954     5.087 10000.000     1.868    -0.450    11.864   -31.686 
    47.500    76.494     9.954     4.964 10000.000     1.889    -0.450    11.864   -37.221 
    48.000    71.532     9.954     4.705 10000.000     1.925    -0.426    11.377   -37.674 
    48.500    66.411     9.954     4.491 10000.000     1.955    -0.403    10.672   -32.789 
    49.000    63.701     9.954     4.631 10000.000     1.979    -0.396    10.815   -27.737 
    49.500    64.722     9.954     5.121 10000.000     1.994    -0.400    11.825   -25.058 
    50.000    67.291     9.954     5.353 10000.000     2.008    -0.401    12.765   -23.026 
    50.500    70.163     9.954     5.028 10000.000     2.033    -0.393    12.838   -20.298 
    51.000    72.094     9.954     4.652 10000.000     2.076    -0.392    12.131   -14.924 
    51.500    72.352     9.954     4.489 10000.000     2.134    -0.406    10.954    -6.274 
    52.000    71.969     9.954     5.276 10000.000     2.180    -0.423     9.945    -2.509 
    52.500    71.766     9.954    10.052 10000.000     2.195    -0.434     9.995    -4.419 
    53.000    71.517     9.954    39.122 10000.000     2.214    -0.432    10.956    -5.935 
    53.500    71.003     9.954   665.592 10000.000     2.216    -0.443     9.981    -7.100 
    54.000    72.560     9.953 10000.000 10000.000     2.120    -0.552     5.306   -10.357 
    54.500    77.801     9.943 10000.000 10000.000     2.055    -0.593     5.446   -15.151 
    55.000    87.670     9.912 10000.000 10000.000     2.165    -0.356     6.558   -21.637 
    55.500    99.403     9.878 10000.000 10000.000     2.299    -0.102     3.265   -26.844 
    56.000   108.362     9.867     8.009     6.092     2.332    -0.005     2.037   -26.937 
    56.500   109.815     9.870     2.442     3.019     2.319     0.004     1.964   -26.458 
    57.000   104.918     9.863     2.315     3.446     2.317     0.007     2.255   -31.717 
    57.500   100.101     9.856     3.377     5.383     2.321     0.017     2.393   -37.922 
    58.000   100.733     9.863     5.737     6.975     2.335     0.024     2.443   -36.223 
    58.500   104.717     9.870    14.068     9.360     2.352     0.024     2.440   -28.330 
    59.000   107.248     9.863    33.356    16.469     2.363     0.018     2.320   -23.826 
    59.500   107.532     9.856    19.030    27.096     2.366     0.011     2.178   -28.492 
    60.000   106.647     9.863    12.500    22.600     2.359     0.009     2.131   -37.638 
    60.500   104.960     9.870    11.395    14.771     2.345     0.014     2.230   -44.029 
    61.000   103.449     9.863    10.726    11.648     2.333     0.024     2.417   -46.155 
    61.500   102.237     9.853     9.742    12.320     2.327     0.031     2.549   -44.505 
    62.000   100.957     9.850     9.012    14.717     2.328     0.029     2.530   -39.287 
    62.500   101.359     9.850     9.485    14.269     2.335     0.023     2.476   -33.880 
    63.000   102.994     9.850    11.551    12.416     2.345     0.019     2.519   -29.874 
    63.500   104.719     9.850    13.910    11.714     2.353     0.017     2.561   -27.503 
    64.000   107.408     9.850    14.153    11.499     2.357     0.015     2.529   -26.931 
    64.500   109.111     9.850    13.031    11.359     2.360     0.016     2.541   -23.941 
    65.000   105.372     9.850    11.706    11.268     2.364     0.019     2.585   -16.652 
    65.500   100.128     9.850    10.866    11.222     2.366     0.024     2.498   -11.806 
    66.000    97.681     9.850    10.807    11.216     2.368     0.028     2.356   -13.545 
    66.500    95.896     9.850    11.154    11.247     2.371     0.032     2.346   -23.533 
    67.000    93.965     9.850    11.414    11.321     2.374     0.048     2.415   -37.871 
    67.500    95.302     9.850    11.645    11.496     2.375     0.074     2.380   -44.425 
    68.000    98.626     9.850    12.048    11.880     2.381     0.087     2.296   -38.493 
    68.500   100.940     9.853    12.688    12.595     2.394     0.080     2.274   -30.212 
    69.000   101.796     9.863    13.491    13.686     2.405     0.087     2.269   -27.166 
    69.500    99.719     9.870    14.211    14.955     2.413     0.124     2.298   -27.701 
    70.000    95.790     9.864    14.592    15.860     2.436     0.157     2.426   -31.958 
    70.500    93.057     9.861    14.586    15.841     2.486     0.149     2.677   -38.719 
    71.000    91.557     9.868    14.306    14.931     2.533     0.101     2.962   -41.520 
    71.500    90.529     9.868    13.830    13.650     2.529     0.056     3.094   -38.129 
    72.000    92.099     9.858    13.160    12.413     2.471     0.061     2.910   -35.860 
    72.500    97.052     9.852    12.315    11.368     2.412     0.102     2.600   -36.954 
    73.000   102.276     9.858    11.396    10.534     2.384     0.133     2.427   -35.549 
    73.500   104.582     9.868    10.548     9.890     2.377     0.138     2.424   -31.262 
    74.000   103.472     9.871     9.861     9.412     2.379     0.135     2.547   -29.905 
    74.500   101.224     9.871     9.369     9.112     2.376     0.139     2.665   -28.873 
    75.000   100.166     9.870     9.090     8.976     2.363     0.149     2.589   -23.177 
    75.500   101.424     9.863     8.963     8.947     2.353     0.153     2.406   -17.078 
    76.000   103.877     9.853     8.917     8.959     2.362     0.141     2.378   -13.741 
    76.500   106.157     9.850     8.897     8.968     2.382     0.116     2.494   -10.346 
    77.000   107.754     9.850     8.875     8.963     2.402     0.094     2.555    -8.904 
    77.500   108.281     9.850     8.838     8.932     2.412     0.092     2.596   -14.023 
    78.000   107.390     9.850     8.766     8.843     2.412     0.114     2.717   -21.431 
    78.500   107.001     9.850     8.632     8.693     2.409     0.137     2.772   -20.813 
    79.000   108.205     9.850     8.435     8.496     2.412     0.134     2.611    -8.741 
    79.500   110.308     9.850     8.176     8.222     2.419     0.115     2.409     5.161 
    80.000   111.182     9.850     7.849     7.841     2.423     0.106     2.342    11.091 
    80.500   110.714     9.850     7.489     7.405     2.423     0.111     2.392     7.462 
    81.000   113.883     9.850     7.153     7.005     2.432     0.120     2.509    -1.676 
    81.500   122.872     9.851     6.869     6.693     2.454     0.126     2.701   -12.772 
    82.000   132.452     9.858     6.639     6.473     2.484     0.123     2.801   -21.511 
    82.500   138.507     9.868     6.467     6.346     2.506     0.110     2.680   -24.196 
    83.000   141.744     9.868     6.351     6.314     2.509     0.109     2.577   -20.091 
    83.500   140.782     9.858     6.289     6.355     2.491     0.134     2.689   -14.302 
    84.000   134.345     9.851     6.285     6.436     2.470     0.170     2.771   -13.113 
    84.500   128.015     9.850     6.339     6.544     2.462     0.192     2.745   -14.437 
    85.000   126.047     9.850     6.432     6.676     2.452     0.206     2.880   -13.062 
    85.500   125.609     9.854     6.535     6.802     2.433     0.220     3.045    -6.895 
    86.000   124.855     9.875     6.622     6.874     2.440     0.207     3.009    -2.691 
    86.500   127.383     9.912     6.688     6.881     2.480     0.157     2.969    -4.588 
    87.000   131.558     9.943     6.731     6.849     2.513     0.113     2.936    -7.582 
