~Version Information Block
 VERS.                1.20:     CWLS LOG ASCII STANDARD - VERSION 1.20
 WRAP.                  NO:     One Line Per Depth Step
     
~Well Information Block
#MNEM.UNIT       Data Type     Information
#컴컴컴컴컴    컴컴컴컴컴컴�   컴컴컴컴컴컴컴컴컴컴컴컴컴컴컴컴컴컴컴컴컴컴�
 STRT.FT           44.0000:
 STOP.FT          636.0000:
 STEP.FT            0.5000:
 NULL.          -9999.0000:
 COMP.             COMPANY:    FLUOR DANIEL (NPSOR), IN
 WELL.                WELL:    73 X 33                 
 FLD .               FIELD:    NPR #3                  
 LOC .            LOCATION:                                            
 CNTY.              COUNTY:    NATRONA                       
 STAT.               STATE:    WYOMING   
 SRVC.     SERVICE COMPANY:    ATLAS WIRELINE PETROPHYSICAL SERVICES
 DATE.                DATE:    09/19/1994
 UWI .      UNIQUE WELL ID:           1.0
 API .          API NUMBER:                    
     
~Curve Information Block
#MNEM.UNIT       API CODE      Curve Description
#컴컴컴컴컴    컴컴컴컴컴컴�   컴컴컴컴컴컴컴컴컴컴컴컴컴컴컴컴컴컴컴컴컴컴�
 DEPT.F         95 995 99 1    Depth                                                        
 GR  .API       31 310 01 1    Gamma Ray Counts                                             
 CAL .IN        28 280 99 1    Caliper                                                      
 RILD.OHMM      12 120 46 1    Resistivity from CILD                                        
 RILM.OHMM      12 120 44 1    Resistivity from CILM                                        
 ZDEN.G/C3      95 350 01 1    Z-Densilog Bulk Density                                      
 ZCOR.G/C3      39 356 99 1    Z-Densilog Bulk Density Correction                           
 PE  .BARN      95 358 01 1    Photo Electric Cross Section                                 
 TEN .LBF       95 635 99 1    Differential Tension                                         
     
~Parameter Information Block
#MNEM.UNIT         Value       Description
#컴컴컴컴컴    컴컴컴컴컴컴�   컴컴컴컴컴컴컴컴컴컴컴컴컴컴컴컴컴컴컴컴컴컴�
 EKB .FT            0.0000:    ELEVATION KELLY BUSHING
 EGL .FT            0.0000:    ELEVATION GROUND LEVEL
 RUN .              1.0000:    RUN NUMBER
 SON .               00000:    SERVICE ORDER NUMBER
 DD  .FT            0.0000:    DEPTH-DRILLER
 DL  .FT            0.0000:    DEPTH-LOGGER
 BLI .FT            0.0000:    BOTTOM LOGGED INTERVAL
 TLI .FT            0.0000:    TOP LOGGED INTERVAL
 CS  .  IN          0.0000:    CASING SIZE 
 CDD .FT            0.0000:    CASING DEPTH-DRILLER
 CDL .FT            0.0000:    CASING DEPTH-LOGGER
 BS  .IN            0.0000:    BIT SIZE
 DFT .               LIGNO:    MUD TYPE   
 DFD .LB/G          0.0000:    MUD WEIGHT
 DFV .S             0.0000:    MUD VISCOSITY
 DFPH.              0.0000:    MUD PH
 DFL .CC            0.0000:    MUD FLUID LOSS
 RMS .           FLOW LINE:    MUD SAMPLE SOURCE
 RM  .OHMM          0.0000:    MUD RESISTIVITY          
 RMT .DEGF          0.0000:    RM TEMPERATURE
 RMBH.OHMM          0.0000:    MUD RESISTIVITY AT BHT
 BHT .DEGF          0.0000:    BOTTOM HOLE TEMPERATURE
 RMFS.            MEASURED:    MUD FILTRATE SOURCE
 RMF .OHMM          0.0000:    MUD FILTRATE RESISTIVITY
 RMFT.DEGF          0.0000:    RMF TEMPERATURE
 RMCS.            MEASURED:    MUD CAKE SOURCE
 RMC .OHMM          0.0000:    MUD CAKE RESISTIVITY
 RMCT.DEGF          0.0000:    RMC TEMPERATURE
     
#      Computation Parameters Used
#MNEM.UNIT         Value       Description
#컴컴컴컴컴    컴컴컴컴컴컴�   컴컴컴컴컴컴컴컴컴컴컴컴컴컴컴컴컴컴컴컴컴컴�
 MDEN.G/CC          2.6500:    LOGGING MATRIX DENSITY
 MATR.              1.0000:    NEUTRON MATRIX (0=LIME,1=SAND,2=DOLO)
 FNUM.              0.6200:    TORTUOSITY CONSTANT ARCHIES (a)
 FEXP.              2.1500:    CEMENTATION EXPONENT ARCHIES (m)
     
~Other Information
#컴컴컴컴컴컴컴컴컴컴컴컴컴컴컴컴컴컴컴컴컴컴컴컴컴컴컴컴컴컴컴컴컴컴컴컴컴컴컴�
# In Making Interpretations Of Logs Our Employees Will Give Customer The Benefit
# Of Their Best Judgement,  But  Since All Interpretations Are Opinions Based On
# Inferences From Electrical Or  Other  Measurements,  We Cannot,  And We Do Not
# Guarantee The Accuracy Or  Correctness Of Any Interpretation.  We Shall Not Be
# Liable Or  Responsible For Any Loss,  Cost,  Damages, Or  Expenses  Whatsoever
# Incurred Or  Sustained By The Customer  Resulting  From Any Interpretaion Made
# By Any Of Our Employees.  ATLAS WIRELINE SERVICES-WESTERN ATLAS INTERNATIONAL
#컴컴컴컴컴컴컴컴컴컴컴컴컴컴컴컴컴컴컴컴컴컴컴컴컴컴컴컴컴컴컴컴컴컴컴컴컴컴컴�
     
~A  DEPTH      GR        CAL       RILD      RILM      ZDEN      ZCOR      PE        TEN       
# ...
   261.500   135.883     9.850     7.066     7.236     2.493     0.112     3.057   -15.928 
   262.000   133.227     9.850     7.185     7.367     2.485     0.124     3.122   -20.709 
   262.500   131.072     9.850     7.316     7.498     2.476     0.133     3.140   -27.983 
   263.000   129.965     9.850     7.450     7.621     2.467     0.157     2.994   -29.932 
   263.500   130.276     9.850     7.572     7.736     2.468     0.182     2.867   -24.472 
   264.000   130.632     9.850     7.682     7.826     2.479     0.182     2.830   -18.008 
   264.500   129.053     9.850     7.781     7.891     2.494     0.159     2.892   -20.844 
   265.000   126.327     9.850     7.866     7.950     2.512     0.131     3.067   -26.157 
   265.500   126.594     9.850     7.935     8.016     2.525     0.111     3.231   -21.273 
   266.000   129.163     9.850     7.993     8.079     2.532     0.106     3.244   -10.498 
   266.500   131.125     9.850     8.036     8.126     2.536     0.113     3.147    -5.296 
   267.000   132.137     9.850     8.061     8.161     2.532     0.126     3.005    -7.781 
   267.500   133.831     9.850     8.071     8.184     2.512     0.144     2.940   -11.841 
   268.000   135.457     9.850     8.064     8.183     2.482     0.159     2.985   -11.913 
   268.500   135.051     9.853     8.042     8.158     2.465     0.165     3.013   -13.430 
   269.000   131.617     9.863     8.000     8.122     2.474     0.155     2.959   -21.372 
   269.500   128.144     9.870     7.943     8.081     2.496     0.129     2.894   -25.170 
   270.000   127.889     9.863     7.890     8.033     2.509     0.103     2.836   -19.637 
   270.500   129.940     9.853     7.852     7.977     2.509     0.094     2.805   -15.476 
   271.000   132.055     9.850     7.811     7.920     2.506     0.092     2.887   -19.028 
   271.500   134.488     9.850     7.752     7.873     2.504     0.082     3.070   -25.288 
   272.000   136.414     9.850     7.675     7.839     2.506     0.069     3.181   -28.778 
   272.500   136.563     9.850     7.592     7.800     2.511     0.069     3.115   -27.830 
   273.000   136.526     9.850     7.528     7.745     2.509     0.082     2.920   -25.503 
   273.500   135.985     9.850     7.509     7.695     2.500     0.094     2.654   -23.636 
   274.000   135.335     9.850     7.545     7.689     2.491     0.101     2.494   -21.328 
   274.500   136.313     9.850     7.630     7.763     2.485     0.105     2.584   -19.703 
   275.000   136.890     9.850     7.736     7.909     2.483     0.105     2.817   -21.205 
   275.500   133.645     9.850     7.836     8.076     2.487     0.095     2.923   -22.662 
   276.000   128.368     9.850     7.936     8.222     2.503     0.081     2.953   -25.622 
   276.500   124.426     9.850     8.063     8.349     2.522     0.066     2.944   -30.065 
   277.000   123.449     9.851     8.230     8.491     2.525     0.051     2.742   -32.111 
   277.500   126.078     9.858     8.418     8.658     2.513     0.040     2.463   -29.399 
   278.000   129.985     9.868     8.592     8.835     2.504     0.047     2.428   -26.813 
   278.500   132.241     9.871     8.745     9.009     2.507     0.072     2.615   -23.981 
   279.000   130.778     9.871     8.907     9.179     2.508     0.105     2.703   -20.596 
   279.500   126.827     9.870     9.105     9.337     2.496     0.131     2.578   -17.829 
   280.000   123.780     9.863     9.342     9.497     2.486     0.139     2.475   -13.149 
   280.500   123.288     9.853     9.615     9.698     2.491     0.129     2.474    -8.255 
   281.000   122.405     9.850     9.925     9.956     2.505     0.119     2.468    -8.969 
   281.500   121.507     9.850    10.259    10.267     2.515     0.115     2.526   -14.251 
   282.000   121.218     9.850    10.618    10.641     2.520     0.116     2.738   -18.388 
   282.500   119.071     9.850    10.975    11.051     2.529     0.122     2.981   -22.302 
   283.000   115.615     9.850    11.276    11.401     2.542     0.127     2.981   -27.165 
   283.500   114.907     9.850    11.488    11.595     2.552     0.123     2.759   -30.150 
   284.000   114.993     9.850    11.620    11.636     2.558     0.110     2.642   -29.888 
   284.500   112.408     9.850    11.699    11.579     2.562     0.101     2.758   -32.079 
   285.000   111.405     9.850    11.705    11.457     2.561     0.091     2.795   -36.025 
   285.500   114.507     9.850    11.584    11.278     2.551     0.074     2.556   -34.318 
   286.000   117.010     9.850    11.356    11.074     2.533     0.063     2.406   -27.110 
   286.500   117.094     9.850    11.103    10.890     2.513     0.070     2.555   -22.619 
   287.000   117.217     9.851    10.858    10.753     2.496     0.082     2.821   -20.633 
   287.500   118.599     9.858    10.630    10.651     2.486     0.086     2.936   -21.103 
   288.000   120.303     9.868    10.446    10.556     2.488     0.089     2.945   -25.039 
   288.500   121.347     9.868    10.308    10.442     2.495     0.092     2.965   -29.341 
   289.000   120.086     9.858    10.179    10.299     2.498     0.087     2.881   -27.309 
   289.500   118.331     9.851    10.060    10.136     2.492     0.081     2.735   -23.183 
   290.000   119.906     9.850     9.990     9.989     2.480     0.084     2.731   -22.231 
   290.500   125.596     9.850     9.952     9.885     2.468     0.100     2.851   -23.735 
   291.000   130.596     9.850     9.875     9.838     2.460     0.123     2.887   -25.083 
   291.500   129.188     9.850     9.763     9.831     2.457     0.139     2.829   -26.720 
   292.000   122.530     9.850     9.697     9.851     2.461     0.146     2.863   -26.460 
   292.500   117.049     9.850     9.736     9.911     2.473     0.149     2.949   -19.158 
   293.000   114.952     9.850     9.882    10.037     2.496     0.139     3.004    -9.699 
   293.500   114.074     9.850    10.101    10.241     2.521     0.113     2.965    -4.379 
   294.000   113.764     9.850    10.306    10.493     2.531     0.093     2.710    -6.798 
   294.500   114.125     9.850    10.405    10.675     2.514     0.112     2.456   -20.739 
   295.000   113.656     9.850    10.370    10.663     2.470     0.181     2.491   -39.267 
   295.500   110.817     9.854    10.249    10.469     2.426     0.246     2.700   -44.582 
   296.000   108.949     9.875    10.104    10.204     2.423     0.250     2.820   -36.034 
   296.500   111.939     9.912     9.946     9.929     2.457     0.194     2.922   -28.436 
   297.000   117.506     9.943     9.749     9.647     2.487     0.136     3.094   -24.564 
   297.500   120.714     9.953     9.524     9.396     2.498     0.115     3.230   -21.522 
   298.000   119.391     9.954     9.328     9.234     2.502     0.114     3.162   -21.204 
   298.500   115.951     9.954     9.177     9.173     2.500     0.112     2.831   -20.974 
   299.000   114.415     9.954     9.040     9.158     2.497     0.103     2.530   -20.029 
   299.500   115.433     9.954     8.908     9.132     2.496     0.089     2.491   -20.978 
   300.000   116.971     9.954     8.801     9.088     2.495     0.073     2.638   -22.723 
   300.500   117.226     9.954     8.728     9.036     2.484     0.062     2.718   -20.611 
   301.000   115.020     9.954     8.689     8.971     2.466     0.059     2.660   -18.047 
   301.500   112.932     9.954     8.664     8.891     2.450     0.063     2.640   -19.412 
   302.000   114.795     9.954     8.623     8.810     2.439     0.069     2.765   -23.178 
   302.500   118.186     9.954     8.555     8.734     2.433     0.076     2.879   -25.892 
   303.000   119.345     9.954     8.478     8.660     2.431     0.077     2.879   -26.171 
   303.500   118.027     9.954     8.412     8.592     2.431     0.066     2.895   -25.074 
   304.000   117.473     9.954     8.355     8.525     2.438     0.056     3.026   -24.560 
   304.500   120.367     9.954     8.290     8.446     2.448     0.062     3.072   -27.120 
