~Version Information Block
 VERS.                1.20:     CWLS LOG ASCII STANDARD - VERSION 1.20
 WRAP.                  NO:     One Line Per Depth Step
     
~Well Information Block
#MNEM.UNIT       Data Type     Information
#컴컴컴컴컴    컴컴컴컴컴컴�   컴컴컴컴컴컴컴컴컴컴컴컴컴컴컴컴컴컴컴컴컴컴�
 STRT.FT           44.0000:
 STOP.FT          636.0000:
 STEP.FT            0.5000:
 NULL.          -9999.0000:
 COMP.             COMPANY:    FLUOR DANIEL (NPSOR), IN
 WELL.                WELL:    73 X 33                 
 FLD .               FIELD:    NPR #3                  
 LOC .            LOCATION:                                            
 CNTY.              COUNTY:    NATRONA                       
 STAT.               STATE:    WYOMING   
 SRVC.     SERVICE COMPANY:    ATLAS WIRELINE PETROPHYSICAL SERVICES
 DATE.                DATE:    09/19/1994
 UWI .      UNIQUE WELL ID:           1.0
 API .          API NUMBER:                    
     
~Curve Information Block
#MNEM.UNIT       API CODE      Curve Description
#컴컴컴컴컴    컴컴컴컴컴컴�   컴컴컴컴컴컴컴컴컴컴컴컴컴컴컴컴컴컴컴컴컴컴�
 DEPT.F         95 995 99 1    Depth                                                        
 GR  .API       31 310 01 1    Gamma Ray Counts                                             
 CAL .IN        28 280 99 1    Caliper                                                      
 RILD.OHMM      12 120 46 1    Resistivity from CILD                                        
 RILM.OHMM      12 120 44 1    Resistivity from CILM                                        
 ZDEN.G/C3      95 350 01 1    Z-Densilog Bulk Density                                      
 ZCOR.G/C3      39 356 99 1    Z-Densilog Bulk Density Correction                           
 PE  .BARN      95 358 01 1    Photo Electric Cross Section                                 
 TEN .LBF       95 635 99 1    Differential Tension                                         
     
~Parameter Information Block
#MNEM.UNIT         Value       Description
#컴컴컴컴컴    컴컴컴컴컴컴�   컴컴컴컴컴컴컴컴컴컴컴컴컴컴컴컴컴컴컴컴컴컴�
 EKB .FT            0.0000:    ELEVATION KELLY BUSHING
 EGL .FT            0.0000:    ELEVATION GROUND LEVEL
 RUN .              1.0000:    RUN NUMBER
 SON .               00000:    SERVICE ORDER NUMBER
 DD  .FT            0.0000:    DEPTH-DRILLER
 DL  .FT            0.0000:    DEPTH-LOGGER
 BLI .FT            0.0000:    BOTTOM LOGGED INTERVAL
 TLI .FT            0.0000:    TOP LOGGED INTERVAL
 CS  .  IN          0.0000:    CASING SIZE 
 CDD .FT            0.0000:    CASING DEPTH-DRILLER
 CDL .FT            0.0000:    CASING DEPTH-LOGGER
 BS  .IN            0.0000:    BIT SIZE
 DFT .               LIGNO:    MUD TYPE   
 DFD .LB/G          0.0000:    MUD WEIGHT
 DFV .S             0.0000:    MUD VISCOSITY
 DFPH.              0.0000:    MUD PH
 DFL .CC            0.0000:    MUD FLUID LOSS
 RMS .           FLOW LINE:    MUD SAMPLE SOURCE
 RM  .OHMM          0.0000:    MUD RESISTIVITY          
 RMT .DEGF          0.0000:    RM TEMPERATURE
 RMBH.OHMM          0.0000:    MUD RESISTIVITY AT BHT
 BHT .DEGF          0.0000:    BOTTOM HOLE TEMPERATURE
 RMFS.            MEASURED:    MUD FILTRATE SOURCE
 RMF .OHMM          0.0000:    MUD FILTRATE RESISTIVITY
 RMFT.DEGF          0.0000:    RMF TEMPERATURE
 RMCS.            MEASURED:    MUD CAKE SOURCE
 RMC .OHMM          0.0000:    MUD CAKE RESISTIVITY
 RMCT.DEGF          0.0000:    RMC TEMPERATURE
     
#      Computation Parameters Used
#MNEM.UNIT         Value       Description
#컴컴컴컴컴    컴컴컴컴컴컴�   컴컴컴컴컴컴컴컴컴컴컴컴컴컴컴컴컴컴컴컴컴컴�
 MDEN.G/CC          2.6500:    LOGGING MATRIX DENSITY
 MATR.              1.0000:    NEUTRON MATRIX (0=LIME,1=SAND,2=DOLO)
 FNUM.              0.6200:    TORTUOSITY CONSTANT ARCHIES (a)
 FEXP.              2.1500:    CEMENTATION EXPONENT ARCHIES (m)
     
~Other Information
#컴컴컴컴컴컴컴컴컴컴컴컴컴컴컴컴컴컴컴컴컴컴컴컴컴컴컴컴컴컴컴컴컴컴컴컴컴컴컴�
# In Making Interpretations Of Logs Our Employees Will Give Customer The Benefit
# Of Their Best Judgement,  But  Since All Interpretations Are Opinions Based On
# Inferences From Electrical Or  Other  Measurements,  We Cannot,  And We Do Not
# Guarantee The Accuracy Or  Correctness Of Any Interpretation.  We Shall Not Be
# Liable Or  Responsible For Any Loss,  Cost,  Damages, Or  Expenses  Whatsoever
# Incurred Or  Sustained By The Customer  Resulting  From Any Interpretaion Made
# By Any Of Our Employees.  ATLAS WIRELINE SERVICES-WESTERN ATLAS INTERNATIONAL
#컴컴컴컴컴컴컴컴컴컴컴컴컴컴컴컴컴컴컴컴컴컴컴컴컴컴컴컴컴컴컴컴컴컴컴컴컴컴컴�
     
~A  DEPTH      GR        CAL       RILD      RILM      ZDEN      ZCOR      PE        TEN       
# ...
   348.500   125.840     9.954     6.399     6.429     2.448     0.077     2.988   -16.992 
   349.000   123.047     9.954     6.335     6.369     2.444     0.068     2.798   -11.528 
   349.500   121.417     9.954     6.241     6.277     2.447     0.057     2.709    -9.943 
   350.000   121.868     9.954     6.121     6.148     2.450     0.057     2.690   -13.434 
   350.500   124.694     9.954     5.960     5.986     2.445     0.065     2.709   -16.595 
   351.000   127.858     9.954     5.742     5.786     2.436     0.068     2.796   -19.698 
   351.500   128.990     9.954     5.473     5.539     2.432     0.063     2.943   -24.163 
   352.000   128.204     9.954     5.187     5.239     2.434     0.049     3.188   -25.100 
   352.500   124.633     9.954     4.932     4.902     2.433     0.042     3.301   -22.703 
   353.000   120.767     9.954     4.758     4.615     2.423     0.062     3.048   -21.123 
   353.500   121.452     9.954     4.683     4.497     2.406     0.089     2.650   -18.701 
   354.000   124.362     9.954     4.684     4.583     2.384     0.090     2.400   -16.680 
   354.500   123.233     9.954     4.719     4.808     2.367     0.070     2.358   -18.064 
   355.000   119.289     9.954     4.774     5.058     2.365     0.048     2.523   -20.244 
   355.500   117.213     9.954     4.876     5.292     2.368     0.034     2.818   -21.937 
   356.000   117.886     9.954     5.074     5.553     2.372     0.041     3.049   -24.009 
   356.500   120.715     9.954     5.379     5.850     2.382     0.097     3.100   -24.953 
   357.000   125.306     9.954     5.730     6.129     2.380     0.167     2.952   -27.375 
   357.500   130.086     9.954     6.042     6.345     2.383     0.197     2.768   -30.856 
   358.000   131.993     9.954     6.283     6.517     2.405     0.190     2.732   -30.211 
   358.500   130.494     9.954     6.459     6.681     2.420     0.182     2.761   -28.656 
   359.000   127.410     9.954     6.589     6.834     2.419     0.162     2.657   -29.238 
   359.500   123.896     9.954     6.692     6.955     2.416     0.120     2.540   -27.567 
   360.000   120.940     9.954     6.783     7.041     2.419     0.101     2.599   -21.847 
   360.500   121.076     9.954     6.875     7.111     2.427     0.111     2.761   -18.811 
   361.000   124.572     9.954     6.971     7.174     2.443     0.108     2.850   -20.443 
   361.500   127.194     9.954     7.060     7.223     2.459     0.085     2.766   -21.482 
   362.000   125.498     9.954     7.125     7.249     2.463     0.057     2.504   -15.093 
   362.500   123.297     9.954     7.158     7.254     2.462     0.038     2.335    -9.598 
   363.000   126.009     9.954     7.161     7.261     2.463     0.033     2.411   -12.190 
   363.500   130.821     9.954     7.140     7.275     2.462     0.037     2.544   -18.835 
   364.000   130.893     9.954     7.103     7.274     2.460     0.038     2.522   -22.854 
   364.500   126.589     9.954     7.054     7.239     2.461     0.035     2.455   -22.854 
   365.000   123.102     9.954     7.012     7.171     2.467     0.030     2.476   -18.681 
   365.500   122.327     9.954     6.995     7.087     2.468     0.025     2.628   -12.434 
   366.000   123.112     9.954     6.992     7.003     2.461     0.035     2.773    -6.576 
   366.500   124.032     9.954     6.987     6.926     2.453     0.064     2.698   -11.818 
   367.000   123.762     9.954     6.974     6.859     2.447     0.090     2.497   -27.995 
   367.500   122.586     9.954     6.949     6.790     2.441     0.100     2.331   -36.149 
   368.000   122.061     9.954     6.889     6.687     2.435     0.101     2.234   -29.298 
   368.500   121.976     9.954     6.779     6.537     2.435     0.096     2.242   -22.075 
   369.000   122.189     9.954     6.620     6.352     2.444     0.085     2.436   -20.845 
   369.500   124.353     9.954     6.416     6.154     2.459     0.073     2.727   -19.222 
   370.000   128.408     9.954     6.173     5.945     2.470     0.062     2.909   -17.542 
   370.500   130.291     9.954     5.897     5.715     2.475     0.061     2.846   -16.483 
   371.000   128.074     9.954     5.584     5.456     2.472     0.062     2.685   -17.336 
   371.500   126.591     9.954     5.223     5.166     2.462     0.053     2.592   -16.113 
   372.000   129.490     9.954     4.807     4.824     2.448     0.047     2.589   -13.553 
   372.500   133.607     9.954     4.339     4.408     2.436     0.052     2.653   -13.260 
   373.000   132.625     9.954     3.829     3.921     2.428     0.058     2.750   -15.554 
   373.500   127.799     9.954     3.311     3.403     2.416     0.056     2.758   -18.535 
   374.000   125.927     9.954     2.861     2.914     2.394     0.045     2.699   -21.728 
   374.500   128.413     9.954     2.513     2.509     2.363     0.044     2.747   -20.751 
   375.000   130.581     9.954     2.278     2.205     2.323     0.058     2.879   -15.267 
   375.500   129.318     9.954     2.136     2.042     2.277     0.068     2.881   -14.393 
   376.000   125.384     9.954     2.073     2.016     2.229     0.063     2.768   -18.659 
   376.500   118.864     9.954     2.068     2.110     2.187     0.061     2.691   -19.764 
   377.000   111.405     9.954     2.106     2.296     2.164     0.074     2.704   -17.408 
   377.500   107.739     9.954     2.198     2.530     2.177     0.092     2.806   -17.755 
   378.000   111.357     9.954     2.367     2.786     2.229     0.105     3.017   -20.552 
   378.500   120.053     9.954     2.649     3.116     2.301     0.106     3.234   -19.141 
   379.000   128.963     9.954     3.055     3.567     2.360     0.101     3.281   -13.944 
   379.500   133.966     9.954     3.557     4.104     2.396     0.104     3.117   -12.764 
   380.000   133.975     9.954     4.087     4.619     2.421     0.107     2.860   -16.941 
   380.500   131.221     9.954     4.548     5.040     2.444     0.095     2.700   -20.869 
   381.000   129.554     9.954     4.962     5.363     2.459     0.082     2.680   -26.183 
   381.500   131.236     9.954     5.340     5.606     2.466     0.082     2.815   -29.302 
   382.000   135.604     9.954     5.649     5.765     2.470     0.087     3.078   -24.582 
   382.500   140.313     9.954     5.865     5.855     2.475     0.086     3.217   -14.607 
   383.000   143.414     9.954     5.986     5.899     2.482     0.085     3.100   -11.149 
   383.500   144.073     9.954     6.018     5.911     2.491     0.088     3.044   -13.726 
   384.000   140.921     9.954     5.996     5.894     2.495     0.095     3.114   -18.238 
   384.500   134.958     9.954     5.957     5.866     2.498     0.098     3.054   -22.474 
   385.000   130.420     9.951     5.922     5.861     2.505     0.096     2.911   -25.282 
   385.500   131.387     9.941     5.879     5.894     2.507     0.090     2.841   -25.941 
   386.000   137.060     9.931     5.803     5.936     2.493     0.099     2.832   -24.136 
   386.500   143.279     9.916     5.668     5.922     2.463     0.133     2.917   -21.706 
   387.000   145.992     9.893     5.470     5.789     2.439     0.171     3.062   -20.745 
   387.500   142.937     9.886     5.216     5.510     2.442     0.169     3.204   -20.382 
   388.000   137.742     9.913     4.946     5.123     2.465     0.127     3.321   -16.471 
   388.500   137.420     9.943     4.719     4.741     2.476     0.088     3.336   -14.429 
   389.000   142.536     9.953     4.555     4.490     2.465     0.074     3.186   -20.305 
   389.500   146.767     9.954     4.424     4.386     2.441     0.077     2.973   -27.861 
   390.000   147.685     9.954     4.302     4.359     2.418     0.085     2.760   -29.324 
   390.500   146.226     9.954     4.205     4.356     2.415     0.084     2.667   -24.142 
   391.000   144.114     9.954     4.163     4.392     2.429     0.069     2.781   -20.347 
   391.500   141.837     9.954     4.193     4.490     2.441     0.062     2.901   -21.038 
