~Version Information Block
 VERS.                1.20:     CWLS LOG ASCII STANDARD - VERSION 1.20
 WRAP.                  NO:     One Line Per Depth Step
     
~Well Information Block
#MNEM.UNIT       Data Type     Information
#컴컴컴컴컴    컴컴컴컴컴컴�   컴컴컴컴컴컴컴컴컴컴컴컴컴컴컴컴컴컴컴컴컴컴�
 STRT.FT           44.0000:
 STOP.FT          636.0000:
 STEP.FT            0.5000:
 NULL.          -9999.0000:
 COMP.             COMPANY:    FLUOR DANIEL (NPSOR), IN
 WELL.                WELL:    73 X 33                 
 FLD .               FIELD:    NPR #3                  
 LOC .            LOCATION:                                            
 CNTY.              COUNTY:    NATRONA                       
 STAT.               STATE:    WYOMING   
 SRVC.     SERVICE COMPANY:    ATLAS WIRELINE PETROPHYSICAL SERVICES
 DATE.                DATE:    09/19/1994
 UWI .      UNIQUE WELL ID:           1.0
 API .          API NUMBER:                    
     
~Curve Information Block
#MNEM.UNIT       API CODE      Curve Description
#컴컴컴컴컴    컴컴컴컴컴컴�   컴컴컴컴컴컴컴컴컴컴컴컴컴컴컴컴컴컴컴컴컴컴�
 DEPT.F         95 995 99 1    Depth                                                        
 GR  .API       31 310 01 1    Gamma Ray Counts                                             
 CAL .IN        28 280 99 1    Caliper                                                      
 RILD.OHMM      12 120 46 1    Resistivity from CILD                                        
 RILM.OHMM      12 120 44 1    Resistivity from CILM                                        
 ZDEN.G/C3      95 350 01 1    Z-Densilog Bulk Density                                      
 ZCOR.G/C3      39 356 99 1    Z-Densilog Bulk Density Correction                           
 PE  .BARN      95 358 01 1    Photo Electric Cross Section                                 
 TEN .LBF       95 635 99 1    Differential Tension                                         
     
~Parameter Information Block
#MNEM.UNIT         Value       Description
#컴컴컴컴컴    컴컴컴컴컴컴�   컴컴컴컴컴컴컴컴컴컴컴컴컴컴컴컴컴컴컴컴컴컴�
 EKB .FT            0.0000:    ELEVATION KELLY BUSHING
 EGL .FT            0.0000:    ELEVATION GROUND LEVEL
 RUN .              1.0000:    RUN NUMBER
 SON .               00000:    SERVICE ORDER NUMBER
 DD  .FT            0.0000:    DEPTH-DRILLER
 DL  .FT            0.0000:    DEPTH-LOGGER
 BLI .FT            0.0000:    BOTTOM LOGGED INTERVAL
 TLI .FT            0.0000:    TOP LOGGED INTERVAL
 CS  .  IN          0.0000:    CASING SIZE 
 CDD .FT            0.0000:    CASING DEPTH-DRILLER
 CDL .FT            0.0000:    CASING DEPTH-LOGGER
 BS  .IN            0.0000:    BIT SIZE
 DFT .               LIGNO:    MUD TYPE   
 DFD .LB/G          0.0000:    MUD WEIGHT
 DFV .S             0.0000:    MUD VISCOSITY
 DFPH.              0.0000:    MUD PH
 DFL .CC            0.0000:    MUD FLUID LOSS
 RMS .           FLOW LINE:    MUD SAMPLE SOURCE
 RM  .OHMM          0.0000:    MUD RESISTIVITY          
 RMT .DEGF          0.0000:    RM TEMPERATURE
 RMBH.OHMM          0.0000:    MUD RESISTIVITY AT BHT
 BHT .DEGF          0.0000:    BOTTOM HOLE TEMPERATURE
 RMFS.            MEASURED:    MUD FILTRATE SOURCE
 RMF .OHMM          0.0000:    MUD FILTRATE RESISTIVITY
 RMFT.DEGF          0.0000:    RMF TEMPERATURE
 RMCS.            MEASURED:    MUD CAKE SOURCE
 RMC .OHMM          0.0000:    MUD CAKE RESISTIVITY
 RMCT.DEGF          0.0000:    RMC TEMPERATURE
     
#      Computation Parameters Used
#MNEM.UNIT         Value       Description
#컴컴컴컴컴    컴컴컴컴컴컴�   컴컴컴컴컴컴컴컴컴컴컴컴컴컴컴컴컴컴컴컴컴컴�
 MDEN.G/CC          2.6500:    LOGGING MATRIX DENSITY
 MATR.              1.0000:    NEUTRON MATRIX (0=LIME,1=SAND,2=DOLO)
 FNUM.              0.6200:    TORTUOSITY CONSTANT ARCHIES (a)
 FEXP.              2.1500:    CEMENTATION EXPONENT ARCHIES (m)
     
~Other Information
#컴컴컴컴컴컴컴컴컴컴컴컴컴컴컴컴컴컴컴컴컴컴컴컴컴컴컴컴컴컴컴컴컴컴컴컴컴컴컴�
# In Making Interpretations Of Logs Our Employees Will Give Customer The Benefit
# Of Their Best Judgement,  But  Since All Interpretations Are Opinions Based On
# Inferences From Electrical Or  Other  Measurements,  We Cannot,  And We Do Not
# Guarantee The Accuracy Or  Correctness Of Any Interpretation.  We Shall Not Be
# Liable Or  Responsible For Any Loss,  Cost,  Damages, Or  Expenses  Whatsoever
# Incurred Or  Sustained By The Customer  Resulting  From Any Interpretaion Made
# By Any Of Our Employees.  ATLAS WIRELINE SERVICES-WESTERN ATLAS INTERNATIONAL
#컴컴컴컴컴컴컴컴컴컴컴컴컴컴컴컴컴컴컴컴컴컴컴컴컴컴컴컴컴컴컴컴컴컴컴컴컴컴컴�
     
~A  DEPTH      GR        CAL       RILD      RILM      ZDEN      ZCOR      PE        TEN       
# ...
   305.000   124.530     9.954     8.215     8.354     2.450     0.076     2.867   -29.001 
   305.500   125.561     9.954     8.156     8.277     2.444     0.084     2.659   -28.399 
   306.000   124.116     9.954     8.137     8.233     2.443     0.081     2.727   -27.368 
   306.500   123.114     9.954     8.135     8.212     2.449     0.081     2.868   -30.826 
   307.000   122.667     9.954     8.120     8.194     2.449     0.093     2.817   -36.082 
   307.500   121.831     9.954     8.103     8.169     2.443     0.110     2.682   -35.439 
   308.000   120.060     9.954     8.097     8.139     2.444     0.113     2.694   -28.950 
   308.500   118.498     9.954     8.106     8.130     2.455     0.098     2.827   -26.954 
   309.000   117.562     9.954     8.136     8.164     2.462     0.077     2.890   -30.579 
   309.500   116.975     9.954     8.185     8.233     2.460     0.070     2.838   -30.795 
   310.000   116.135     9.954     8.249     8.315     2.452     0.079     2.855   -29.468 
   310.500   116.183     9.954     8.307     8.401     2.447     0.087     2.908   -29.730 
   311.000   117.780     9.954     8.299     8.455     2.450     0.086     2.861   -27.819 
   311.500   119.549     9.954     8.163     8.374     2.463     0.086     2.770   -24.982 
   312.000   119.002     9.954     7.917     8.086     2.481     0.088     2.689   -25.501 
   312.500   116.726     9.954     7.632     7.674     2.503     0.081     2.684   -25.931 
   313.000   116.659     9.954     7.362     7.279     2.514     0.065     2.902   -23.606 
   313.500   120.048     9.954     7.146     6.972     2.501     0.053     3.080   -22.018 
   314.000   124.620     9.954     6.987     6.781     2.473     0.058     2.891   -22.016 
   314.500   127.407     9.954     6.855     6.724     2.453     0.071     2.679   -21.729 
   315.000   125.057     9.954     6.739     6.774     2.448     0.083     2.732   -21.956 
   315.500   118.648     9.954     6.657     6.867     2.450     0.087     2.835   -22.370 
   316.000   115.605     9.954     6.632     6.963     2.450     0.084     2.837   -21.958 
   316.500   118.715     9.954     6.687     7.063     2.447     0.081     2.819   -20.028 
   317.000   122.244     9.954     6.823     7.171     2.447     0.083     2.801   -19.491 
   317.500   122.279     9.954     6.987     7.274     2.455     0.081     2.760   -21.874 
   318.000   120.642     9.954     7.108     7.360     2.465     0.074     2.604   -23.838 
   318.500   119.862     9.954     7.168     7.414     2.475     0.075     2.469   -20.355 
   319.000   119.786     9.954     7.183     7.422     2.480     0.078     2.540   -14.117 
   319.500   120.286     9.954     7.181     7.390     2.475     0.068     2.691   -13.697 
   320.000   121.473     9.954     7.195     7.363     2.464     0.059     2.735   -18.235 
   320.500   123.401     9.954     7.242     7.376     2.456     0.066     2.808   -19.515 
   321.000   125.497     9.954     7.317     7.422     2.455     0.078     2.908   -19.035 
   321.500   124.745     9.954     7.393     7.482     2.459     0.083     2.909   -17.199 
   322.000   122.285     9.954     7.450     7.556     2.463     0.080     2.918   -11.549 
   322.500   122.317     9.954     7.501     7.655     2.465     0.071     2.997    -7.753 
   323.000   124.544     9.954     7.566     7.768     2.464     0.063     3.075   -11.947 
   323.500   125.902     9.954     7.622     7.853     2.463     0.065     3.078   -16.973 
   324.000   125.507     9.954     7.647     7.886     2.463     0.071     3.027   -17.617 
   324.500   123.324     9.954     7.662     7.890     2.469     0.065     2.924   -17.445 
   325.000   121.986     9.954     7.687     7.893     2.482     0.049     2.882   -19.743 
   325.500   123.585     9.954     7.698     7.889     2.493     0.048     2.922   -22.580 
   326.000   125.684     9.954     7.672     7.851     2.494     0.068     2.883   -22.217 
   326.500   126.608     9.953     7.619     7.775     2.483     0.090     2.654   -21.190 
   327.000   126.933     9.946     7.556     7.684     2.472     0.102     2.458   -19.474 
   327.500   126.486     9.933     7.483     7.595     2.467     0.097     2.480   -16.888 
   328.000   125.036     9.923     7.410     7.520     2.461     0.078     2.584   -17.220 
   328.500   124.346     9.927     7.355     7.481     2.451     0.064     2.597   -19.907 
   329.000   127.273     9.940     7.329     7.482     2.445     0.058     2.691   -18.523 
   329.500   131.376     9.951     7.318     7.498     2.445     0.052     2.974   -17.566 
   330.000   132.530     9.954     7.313     7.504     2.440     0.053     3.138   -22.533 
   330.500   131.290     9.954     7.320     7.502     2.429     0.069     3.029   -28.358 
   331.000   129.544     9.954     7.344     7.502     2.424     0.083     2.915   -30.402 
   331.500   128.193     9.954     7.375     7.508     2.427     0.076     2.931   -28.040 
   332.000   127.144     9.954     7.408     7.520     2.436     0.053     2.943   -21.469 
   332.500   125.315     9.954     7.435     7.531     2.450     0.034     2.884   -15.589 
   333.000   123.580     9.954     7.434     7.526     2.460     0.031     2.784   -14.113 
   333.500   122.763     9.954     7.391     7.487     2.459     0.042     2.744   -15.346 
   334.000   121.130     9.954     7.329     7.410     2.448     0.061     2.798   -15.672 
   334.500   121.597     9.954     7.272     7.307     2.444     0.080     2.947   -14.587 
   335.000   126.666     9.954     7.222     7.213     2.455     0.089     3.205   -13.375 
   335.500   129.924     9.954     7.171     7.152     2.475     0.087     3.406   -10.139 
   336.000   128.361     9.954     7.114     7.111     2.489     0.093     3.209    -6.815 
   336.500   125.269     9.954     7.045     7.061     2.489     0.114     2.757    -9.676 
   337.000   122.957     9.954     6.967     6.990     2.482     0.137     2.467   -16.663 
   337.500   122.899     9.954     6.900     6.920     2.476     0.139     2.442   -18.265 
   338.000   125.046     9.954     6.847     6.865     2.472     0.126     2.583   -16.486 
   338.500   125.398     9.954     6.777     6.816     2.469     0.112     2.829   -17.414 
   339.000   122.641     9.954     6.649     6.734     2.465     0.104     3.069   -19.261 
   339.500   119.715     9.954     6.450     6.572     2.461     0.107     3.167   -18.236 
   340.000   118.721     9.954     6.205     6.317     2.459     0.119     3.163   -15.812 
   340.500   119.630     9.954     5.956     6.009     2.457     0.124     3.101   -15.016 
   341.000   120.840     9.954     5.745     5.719     2.452     0.113     2.965   -13.854 
   341.500   122.796     9.954     5.606     5.523     2.445     0.100     2.944   -13.812 
   342.000   125.738     9.954     5.534     5.465     2.438     0.094     3.108   -17.006 
   342.500   127.428     9.954     5.498     5.528     2.430     0.091     3.162   -19.690 
   343.000   127.094     9.954     5.481     5.644     2.427     0.094     2.918   -18.179 
   343.500   127.267     9.954     5.498     5.766     2.437     0.096     2.676   -15.847 
   344.000   128.434     9.954     5.573     5.898     2.453     0.094     2.596   -15.955 
   344.500   128.641     9.954     5.722     6.057     2.457     0.088     2.560   -16.692 
   345.000   126.641     9.954     5.924     6.223     2.453     0.086     2.539   -16.945 
   345.500   123.422     9.954     6.124     6.357     2.450     0.084     2.618   -16.832 
   346.000   121.593     9.954     6.283     6.448     2.449     0.074     2.672   -19.308 
   346.500   122.984     9.954     6.389     6.507     2.448     0.065     2.624   -24.993 
   347.000   125.476     9.954     6.443     6.530     2.449     0.065     2.705   -28.298 
   347.500   127.542     9.954     6.452     6.512     2.454     0.072     2.982   -25.406 
   348.000   127.859     9.954     6.436     6.473     2.453     0.077     3.138   -21.330 
