~Version Information Block
 VERS.                1.20:     CWLS LOG ASCII STANDARD - VERSION 1.20
 WRAP.                  NO:     One Line Per Depth Step
     
~Well Information Block
#MNEM.UNIT       Data Type     Information
#컴컴컴컴컴    컴컴컴컴컴컴�   컴컴컴컴컴컴컴컴컴컴컴컴컴컴컴컴컴컴컴컴컴컴�
 STRT.FT           44.0000:
 STOP.FT          636.0000:
 STEP.FT            0.5000:
 NULL.          -9999.0000:
 COMP.             COMPANY:    FLUOR DANIEL (NPSOR), IN
 WELL.                WELL:    73 X 33                 
 FLD .               FIELD:    NPR #3                  
 LOC .            LOCATION:                                            
 CNTY.              COUNTY:    NATRONA                       
 STAT.               STATE:    WYOMING   
 SRVC.     SERVICE COMPANY:    ATLAS WIRELINE PETROPHYSICAL SERVICES
 DATE.                DATE:    09/19/1994
 UWI .      UNIQUE WELL ID:           1.0
 API .          API NUMBER:                    
     
~Curve Information Block
#MNEM.UNIT       API CODE      Curve Description
#컴컴컴컴컴    컴컴컴컴컴컴�   컴컴컴컴컴컴컴컴컴컴컴컴컴컴컴컴컴컴컴컴컴컴�
 DEPT.F         95 995 99 1    Depth                                                        
 GR  .API       31 310 01 1    Gamma Ray Counts                                             
 CAL .IN        28 280 99 1    Caliper                                                      
 RILD.OHMM      12 120 46 1    Resistivity from CILD                                        
 RILM.OHMM      12 120 44 1    Resistivity from CILM                                        
 ZDEN.G/C3      95 350 01 1    Z-Densilog Bulk Density                                      
 ZCOR.G/C3      39 356 99 1    Z-Densilog Bulk Density Correction                           
 PE  .BARN      95 358 01 1    Photo Electric Cross Section                                 
 TEN .LBF       95 635 99 1    Differential Tension                                         
     
~Parameter Information Block
#MNEM.UNIT         Value       Description
#컴컴컴컴컴    컴컴컴컴컴컴�   컴컴컴컴컴컴컴컴컴컴컴컴컴컴컴컴컴컴컴컴컴컴�
 EKB .FT            0.0000:    ELEVATION KELLY BUSHING
 EGL .FT            0.0000:    ELEVATION GROUND LEVEL
 RUN .              1.0000:    RUN NUMBER
 SON .               00000:    SERVICE ORDER NUMBER
 DD  .FT            0.0000:    DEPTH-DRILLER
 DL  .FT            0.0000:    DEPTH-LOGGER
 BLI .FT            0.0000:    BOTTOM LOGGED INTERVAL
 TLI .FT            0.0000:    TOP LOGGED INTERVAL
 CS  .  IN          0.0000:    CASING SIZE 
 CDD .FT            0.0000:    CASING DEPTH-DRILLER
 CDL .FT            0.0000:    CASING DEPTH-LOGGER
 BS  .IN            0.0000:    BIT SIZE
 DFT .               LIGNO:    MUD TYPE   
 DFD .LB/G          0.0000:    MUD WEIGHT
 DFV .S             0.0000:    MUD VISCOSITY
 DFPH.              0.0000:    MUD PH
 DFL .CC            0.0000:    MUD FLUID LOSS
 RMS .           FLOW LINE:    MUD SAMPLE SOURCE
 RM  .OHMM          0.0000:    MUD RESISTIVITY          
 RMT .DEGF          0.0000:    RM TEMPERATURE
 RMBH.OHMM          0.0000:    MUD RESISTIVITY AT BHT
 BHT .DEGF          0.0000:    BOTTOM HOLE TEMPERATURE
 RMFS.            MEASURED:    MUD FILTRATE SOURCE
 RMF .OHMM          0.0000:    MUD FILTRATE RESISTIVITY
 RMFT.DEGF          0.0000:    RMF TEMPERATURE
 RMCS.            MEASURED:    MUD CAKE SOURCE
 RMC .OHMM          0.0000:    MUD CAKE RESISTIVITY
 RMCT.DEGF          0.0000:    RMC TEMPERATURE
     
#      Computation Parameters Used
#MNEM.UNIT         Value       Description
#컴컴컴컴컴    컴컴컴컴컴컴�   컴컴컴컴컴컴컴컴컴컴컴컴컴컴컴컴컴컴컴컴컴컴�
 MDEN.G/CC          2.6500:    LOGGING MATRIX DENSITY
 MATR.              1.0000:    NEUTRON MATRIX (0=LIME,1=SAND,2=DOLO)
 FNUM.              0.6200:    TORTUOSITY CONSTANT ARCHIES (a)
 FEXP.              2.1500:    CEMENTATION EXPONENT ARCHIES (m)
     
~Other Information
#컴컴컴컴컴컴컴컴컴컴컴컴컴컴컴컴컴컴컴컴컴컴컴컴컴컴컴컴컴컴컴컴컴컴컴컴컴컴컴�
# In Making Interpretations Of Logs Our Employees Will Give Customer The Benefit
# Of Their Best Judgement,  But  Since All Interpretations Are Opinions Based On
# Inferences From Electrical Or  Other  Measurements,  We Cannot,  And We Do Not
# Guarantee The Accuracy Or  Correctness Of Any Interpretation.  We Shall Not Be
# Liable Or  Responsible For Any Loss,  Cost,  Damages, Or  Expenses  Whatsoever
# Incurred Or  Sustained By The Customer  Resulting  From Any Interpretaion Made
# By Any Of Our Employees.  ATLAS WIRELINE SERVICES-WESTERN ATLAS INTERNATIONAL
#컴컴컴컴컴컴컴컴컴컴컴컴컴컴컴컴컴컴컴컴컴컴컴컴컴컴컴컴컴컴컴컴컴컴컴컴컴컴컴�
     
~A  DEPTH      GR        CAL       RILD      RILM      ZDEN      ZCOR      PE        TEN       
# ...
   435.500   146.518     9.853     4.863     5.252     2.460     0.108     2.907    -8.813 
   436.000   143.608     9.850     5.184     5.588     2.494     0.089     2.845   -10.912 
   436.500   137.599     9.853     5.536     5.884     2.493     0.103     2.828   -10.062 
   437.000   132.722     9.863     5.868     6.128     2.463     0.164     2.694    -9.695 
   437.500   132.538     9.870     6.140     6.313     2.433     0.229     2.524    -9.600 
   438.000   134.175     9.867     6.322     6.428     2.436     0.250     2.561    -8.653 
   438.500   133.904     9.878     6.421     6.476     2.469     0.225     2.791   -10.103 
   439.000   133.575     9.912     6.451     6.482     2.509     0.177     2.979   -12.487 
   439.500   135.678     9.943     6.422     6.465     2.547     0.122     3.002   -10.477 
   440.000   138.384     9.950     6.363     6.423     2.570     0.084     2.916    -5.186 
   440.500   140.447     9.933     6.301     6.357     2.569     0.099     2.753    -3.094 
   441.000   141.864     9.917     6.251     6.298     2.548     0.151     2.600    -7.671 
   441.500   141.196     9.923     6.218     6.281     2.517     0.194     2.566   -14.143 
   442.000   138.476     9.936     6.187     6.315     2.491     0.214     2.618   -15.530 
   442.500   137.034     9.936     6.132     6.379     2.478     0.220     2.709   -10.838 
   443.000   137.302     9.936     6.047     6.428     2.478     0.226     2.819    -6.080 
   443.500   137.097     9.946     5.939     6.420     2.485     0.227     2.883    -7.504 
   444.000   136.781     9.953     5.831     6.338     2.494     0.218     2.839   -13.906 
   444.500   138.018     9.943     5.769     6.211     2.497     0.212     2.835   -16.222 
   445.000   137.385     9.923     5.792     6.124     2.493     0.221     2.901   -12.674 
   445.500   133.824     9.917     5.878     6.161     2.498     0.213     2.884    -8.394 
   446.000   131.981     9.933     5.983     6.328     2.516     0.171     2.804    -4.570 
   446.500   131.404     9.950     6.097     6.563     2.529     0.123     2.801    -1.855 
   447.000   127.689     9.954     6.245     6.820     2.530     0.095     2.814    -1.918 
   447.500   122.107     9.954     6.454     7.104     2.525     0.073     2.767    -1.734 
   448.000   119.322     9.954     6.749     7.418     2.519     0.048     2.655    -1.225 
   448.500   120.070     9.954     7.102     7.713     2.513     0.032     2.588    -4.207 
   449.000   121.869     9.954     7.416     7.927     2.509     0.035     2.586    -8.667 
   449.500   123.658     9.954     7.624     8.042     2.510     0.045     2.547   -10.542 
   450.000   125.587     9.954     7.756     8.084     2.513     0.049     2.438   -11.965 
   450.500   126.854     9.954     7.903     8.115     2.510     0.056     2.433   -12.643 
   451.000   128.125     9.954     8.158     8.239     2.507     0.078     2.544    -9.204 
   451.500   130.127     9.954     8.577     8.588     2.502     0.109     2.597    -6.174 
   452.000   129.524     9.954     9.188     9.290     2.483     0.143     2.575    -9.229 
   452.500   125.736     9.954    10.003    10.385     2.461     0.167     2.625   -11.778 
   453.000   120.401     9.954    10.949    11.767     2.459     0.158     2.792    -6.581 
   453.500   109.291     9.954    12.011    13.219     2.463     0.125     2.855     0.414 
   454.000    91.589     9.954    13.190    14.513     2.445     0.105     2.614     0.644 
   454.500    77.152     9.954    14.471    15.635     2.394     0.112     2.341    -4.733 
   455.000    72.508     9.954    15.642    16.570     2.329     0.133     2.313    -9.848 
   455.500    72.991     9.954    16.427    16.926     2.281     0.134     2.388    -9.651 
   456.000    72.859     9.954    16.744    16.475     2.263     0.105     2.388    -5.266 
   456.500    73.613     9.954    16.666    15.754     2.259     0.092     2.350    -3.183 
   457.000    78.901     9.954    16.381    15.332     2.262     0.119     2.358    -2.065 
   457.500    85.656     9.954    16.127    15.264     2.274     0.150     2.444     1.156 
   458.000    87.811     9.954    15.995    15.379     2.288     0.165     2.534     4.068 
   458.500    84.920     9.958    15.986    15.592     2.294     0.162     2.460     1.311 
   459.000    81.368     9.975    16.176    15.887     2.293     0.125     2.291    -4.642 
   459.500    79.148     9.991    16.601    16.314     2.278     0.080     2.314    -6.513 
   460.000    77.832     9.985    17.125    17.003     2.244     0.082     2.496    -2.464 
   460.500    76.338     9.965    17.537    17.823     2.217     0.113     2.533    -1.200 
   461.000    73.350     9.955    17.784    18.234     2.210     0.107     2.472    -3.056 
   461.500    69.341     9.954    18.011    18.036     2.199     0.078     2.523     1.110 
   462.000    68.117     9.958    18.357    17.801     2.171     0.101     2.512     7.610 
   462.500    71.075     9.979    18.746    17.923     2.154     0.157     2.342     8.557 
   463.000    73.891    10.024    18.868    18.092     2.170     0.165     2.264     4.636 
   463.500    72.945    10.076    18.562    17.895     2.196     0.124     2.307     0.379 
   464.000    71.216    10.117    18.089    17.466     2.203     0.089     2.300     0.189 
   464.500    71.875    10.137    17.711    17.131     2.195     0.082     2.244     3.942 
   465.000    74.246    10.141    17.430    16.900     2.194     0.091     2.203     7.609 
   465.500    75.526    10.144    17.218    16.625     2.202     0.099     2.185    10.769 
   466.000    75.258    10.154    17.049    16.374     2.208     0.090     2.199    11.473 
   466.500    75.567    10.161    16.828    16.333     2.213     0.079     2.254     8.777 
   467.000    77.633    10.162    16.522    16.436     2.223     0.080     2.333     5.327 
   467.500    78.836    10.162    16.161    16.376     2.235     0.076     2.389     3.190 
   468.000    77.367    10.159    15.821    16.051     2.236     0.070     2.395     3.076 
   468.500    76.389    10.149    15.603    15.705     2.225     0.084     2.313     1.267 
   469.000    78.403    10.142    15.495    15.542     2.220     0.106     2.260     1.538 
   469.500    80.670    10.149    15.371    15.490     2.232     0.107     2.328     5.845 
   470.000    80.186    10.159    15.192    15.371     2.244     0.089     2.500     8.449 
   470.500    78.258    10.162    15.035    15.167     2.239     0.075     2.598     7.222 
   471.000    77.850    10.162    14.942    15.030     2.224     0.078     2.586     9.615 
   471.500    79.952    10.162    14.897    15.044     2.214     0.098     2.560    13.996 
   472.000    83.097    10.170    14.842    15.093     2.211     0.129     2.569    14.624 
   472.500    85.969    10.206    14.718    14.999     2.199     0.144     2.580    14.437 
   473.000    86.751    10.203    14.561    14.762     2.177     0.143     2.524    15.891 
   473.500    86.505    10.071    14.477    14.536     2.156     0.155     2.404    18.251 
   474.000    86.528     9.877    14.517    14.427     2.154     0.166     2.345    18.002 
   474.500    86.324     9.749    14.620    14.503     2.181     0.159     2.424    14.251 
   475.000    84.989     9.656    14.678    14.783     2.235     0.150     2.508    10.199 
   475.500    85.017     9.544    14.660    15.110     2.304     0.137     2.473     8.996 
   476.000    86.181     9.461    14.589    15.213     2.364     0.100     2.411     8.294 
   476.500    86.022     9.436    14.459    15.011     2.392     0.066     2.370     7.897 
   477.000    84.907     9.435    14.287    14.655     2.378     0.060     2.290     7.733 
   477.500    84.313     9.435    14.140    14.294     2.340     0.070     2.153     7.200 
   478.000    84.103     9.435    13.994    13.953     2.311     0.083     2.047     6.870 
   478.500    84.469     9.435    13.780    13.610     2.305     0.095     2.082     6.375 
