~Version Information Block
 VERS.                1.20:     CWLS LOG ASCII STANDARD - VERSION 1.20
 WRAP.                  NO:     One Line Per Depth Step
     
~Well Information Block
#MNEM.UNIT       Data Type     Information
#컴컴컴컴컴    컴컴컴컴컴컴�   컴컴컴컴컴컴컴컴컴컴컴컴컴컴컴컴컴컴컴컴컴컴�
 STRT.FT           44.0000:
 STOP.FT          636.0000:
 STEP.FT            0.5000:
 NULL.          -9999.0000:
 COMP.             COMPANY:    FLUOR DANIEL (NPSOR), IN
 WELL.                WELL:    73 X 33                 
 FLD .               FIELD:    NPR #3                  
 LOC .            LOCATION:                                            
 CNTY.              COUNTY:    NATRONA                       
 STAT.               STATE:    WYOMING   
 SRVC.     SERVICE COMPANY:    ATLAS WIRELINE PETROPHYSICAL SERVICES
 DATE.                DATE:    09/19/1994
 UWI .      UNIQUE WELL ID:           1.0
 API .          API NUMBER:                    
     
~Curve Information Block
#MNEM.UNIT       API CODE      Curve Description
#컴컴컴컴컴    컴컴컴컴컴컴�   컴컴컴컴컴컴컴컴컴컴컴컴컴컴컴컴컴컴컴컴컴컴�
 DEPT.F         95 995 99 1    Depth                                                        
 GR  .API       31 310 01 1    Gamma Ray Counts                                             
 CAL .IN        28 280 99 1    Caliper                                                      
 RILD.OHMM      12 120 46 1    Resistivity from CILD                                        
 RILM.OHMM      12 120 44 1    Resistivity from CILM                                        
 ZDEN.G/C3      95 350 01 1    Z-Densilog Bulk Density                                      
 ZCOR.G/C3      39 356 99 1    Z-Densilog Bulk Density Correction                           
 PE  .BARN      95 358 01 1    Photo Electric Cross Section                                 
 TEN .LBF       95 635 99 1    Differential Tension                                         
     
~Parameter Information Block
#MNEM.UNIT         Value       Description
#컴컴컴컴컴    컴컴컴컴컴컴�   컴컴컴컴컴컴컴컴컴컴컴컴컴컴컴컴컴컴컴컴컴컴�
 EKB .FT            0.0000:    ELEVATION KELLY BUSHING
 EGL .FT            0.0000:    ELEVATION GROUND LEVEL
 RUN .              1.0000:    RUN NUMBER
 SON .               00000:    SERVICE ORDER NUMBER
 DD  .FT            0.0000:    DEPTH-DRILLER
 DL  .FT            0.0000:    DEPTH-LOGGER
 BLI .FT            0.0000:    BOTTOM LOGGED INTERVAL
 TLI .FT            0.0000:    TOP LOGGED INTERVAL
 CS  .  IN          0.0000:    CASING SIZE 
 CDD .FT            0.0000:    CASING DEPTH-DRILLER
 CDL .FT            0.0000:    CASING DEPTH-LOGGER
 BS  .IN            0.0000:    BIT SIZE
 DFT .               LIGNO:    MUD TYPE   
 DFD .LB/G          0.0000:    MUD WEIGHT
 DFV .S             0.0000:    MUD VISCOSITY
 DFPH.              0.0000:    MUD PH
 DFL .CC            0.0000:    MUD FLUID LOSS
 RMS .           FLOW LINE:    MUD SAMPLE SOURCE
 RM  .OHMM          0.0000:    MUD RESISTIVITY          
 RMT .DEGF          0.0000:    RM TEMPERATURE
 RMBH.OHMM          0.0000:    MUD RESISTIVITY AT BHT
 BHT .DEGF          0.0000:    BOTTOM HOLE TEMPERATURE
 RMFS.            MEASURED:    MUD FILTRATE SOURCE
 RMF .OHMM          0.0000:    MUD FILTRATE RESISTIVITY
 RMFT.DEGF          0.0000:    RMF TEMPERATURE
 RMCS.            MEASURED:    MUD CAKE SOURCE
 RMC .OHMM          0.0000:    MUD CAKE RESISTIVITY
 RMCT.DEGF          0.0000:    RMC TEMPERATURE
     
#      Computation Parameters Used
#MNEM.UNIT         Value       Description
#컴컴컴컴컴    컴컴컴컴컴컴�   컴컴컴컴컴컴컴컴컴컴컴컴컴컴컴컴컴컴컴컴컴컴�
 MDEN.G/CC          2.6500:    LOGGING MATRIX DENSITY
 MATR.              1.0000:    NEUTRON MATRIX (0=LIME,1=SAND,2=DOLO)
 FNUM.              0.6200:    TORTUOSITY CONSTANT ARCHIES (a)
 FEXP.              2.1500:    CEMENTATION EXPONENT ARCHIES (m)
     
~Other Information
#컴컴컴컴컴컴컴컴컴컴컴컴컴컴컴컴컴컴컴컴컴컴컴컴컴컴컴컴컴컴컴컴컴컴컴컴컴컴컴�
# In Making Interpretations Of Logs Our Employees Will Give Customer The Benefit
# Of Their Best Judgement,  But  Since All Interpretations Are Opinions Based On
# Inferences From Electrical Or  Other  Measurements,  We Cannot,  And We Do Not
# Guarantee The Accuracy Or  Correctness Of Any Interpretation.  We Shall Not Be
# Liable Or  Responsible For Any Loss,  Cost,  Damages, Or  Expenses  Whatsoever
# Incurred Or  Sustained By The Customer  Resulting  From Any Interpretaion Made
# By Any Of Our Employees.  ATLAS WIRELINE SERVICES-WESTERN ATLAS INTERNATIONAL
#컴컴컴컴컴컴컴컴컴컴컴컴컴컴컴컴컴컴컴컴컴컴컴컴컴컴컴컴컴컴컴컴컴컴컴컴컴컴컴�
     
~A  DEPTH      GR        CAL       RILD      RILM      ZDEN      ZCOR      PE        TEN       
# ...
   609.500     0.000     9.227     7.173     6.982     2.544     0.051     3.327   258.960 
   610.000     0.000     9.227     7.179     6.923     2.546     0.051     3.509   255.516 
   610.500     0.000     9.227     0.200     6.683     2.552     0.053     3.798   252.157 
   611.000     0.000     9.227     0.200     6.402     2.558     0.048     3.802   257.549 
   611.500     0.000     9.227     0.200     6.276     2.557     0.040     3.414   266.863 
   612.000     0.000     9.227     0.200     6.317     2.551     0.047     3.023   268.685 
   612.500     0.000     9.227     0.200     6.396     2.546     0.068     2.812   263.854 
   613.000     0.000     9.227     0.200     6.433     2.546     0.077     2.894   259.987 
   613.500     0.000     9.227     0.200     6.436     2.551     0.067     3.299   257.755 
   614.000     0.000     9.227     0.200     6.434     2.557     0.054     3.751   256.995 
   614.500     0.000     9.216     0.200     6.428     2.562     0.046     3.791   258.333 
   615.000     0.000     9.173     0.200     6.424     2.562     0.053     3.549   257.300 
   615.500     0.000     9.094     0.200     6.427     2.549     0.074     3.224   253.383 
   616.000     0.000     8.995     0.200     6.429     2.520     0.086     2.862   252.453 
   616.500     0.000     8.902     0.200     6.426     2.490     0.089     2.683   249.280 
   617.000     0.000     8.840     0.200     6.421     2.477     0.100     2.835   231.587 
   617.500     0.000     8.816     0.200     6.418     2.483     0.116     3.161   172.880 
   618.000     0.000     8.812     0.200     6.412     2.494     0.123     3.297    59.186 
   618.500     0.000     8.812     0.200     6.405     2.499     0.122     3.173   -64.417 
   619.000     0.000     8.812     0.200     6.400     2.499     0.121     3.012  -135.542 
   619.500     0.000     8.812     0.200     6.397     2.500     0.124     3.088  -151.768 
   620.000     0.000     8.812     0.200     6.395     2.504     0.124     3.325  -150.636 
   620.500     0.000     8.812     0.200     0.200     2.503     0.122     3.350  -150.454 
   621.000     0.000     8.812     0.200     0.200     2.501     0.119     3.152  -157.352 
   621.500     0.000     8.812     0.200     0.200     2.500     0.117     3.149  -170.179 
   622.000     0.000     8.812     0.200     0.200     2.498     0.116     3.298  -180.692 
   622.500     0.000     8.812     0.200     0.200     2.495     0.114     3.278  -182.269 
   623.000     0.000     8.812     0.200     0.200     2.498     0.114     3.189  -183.497 
   623.500     0.000     8.812     0.200     0.200     2.504     0.120     3.214  -193.914 
   624.000     0.000     8.812     0.200     0.200     2.507     0.127     3.205  -207.046 
   624.500     0.000     8.812     0.200     0.200     2.504     0.127     3.130  -213.352 
   625.000     0.000     8.812     0.200     0.200     2.501     0.122     3.187  -216.738 
   625.500     0.000     8.812     0.200     0.200     2.495     0.117     3.283  -222.502 
   626.000     0.000     8.812     0.200     0.200     2.487     0.115     3.285  -228.806 
   626.500     0.000     8.812     0.200     0.200     2.484     0.115     3.331  -250.000 
   627.000     0.000     8.812     0.200     0.200     0.532     0.116     3.390  -250.000 
   627.500     0.000     6.000     0.200     0.200    -1.047    -6.120     3.324  -250.000 
   628.000     0.000     6.000     0.200     0.200    -0.144    -6.120     3.228  -250.000 
   628.500     0.000     6.000     0.200     0.200    -0.144    -6.120     3.219  -250.000 
   629.000     0.000     6.000     0.200     0.200    -0.144    -6.120   130.112  -250.000 
   629.500     0.000     6.000     0.200     0.200    -0.144    -6.120   130.112  -250.000 
   630.000     0.000     6.000     0.200     0.200    -0.144    -6.120   130.112  -250.000 
   630.500     0.000     6.000     0.200     0.200    -0.144    -6.120   130.112  -250.000 
   631.000     0.000     6.000     0.200     0.200    -0.144    -6.120   130.112  -250.000 
   631.500     0.000     6.000     0.200     0.200    -0.144    -6.120   130.112  -250.000 
   632.000     0.000     6.000     0.200     0.200 -9999.000    -6.120   130.112  -250.000 
   632.500     0.000     6.000     0.200     0.200 -9999.000    -6.120   130.112  -250.000 
   633.000     0.000     6.000     0.200     0.200 -9999.000    -6.120   130.112  -250.000 
   633.500     0.000     6.000     0.200     0.200 -9999.000    -6.120   130.112  -250.000 
   634.000     0.000     6.000     0.200     0.200 -9999.000    -6.120   130.112  -250.000 
   634.500     0.000     6.000     0.200     0.200 -9999.000    -6.120   130.112  -250.000 
   635.000     0.000     6.000     0.200     0.200 -9999.000    -6.120   130.112  -250.000 
   635.500     0.000     6.000     0.200     0.200 -9999.000    -6.120   130.112  -250.000 
   636.000     0.000     6.000     0.200     0.200 -9999.000    -6.120   130.112  -250.000 
