~Version Information Block
 VERS.                1.20:     CWLS LOG ASCII STANDARD - VERSION 1.20
 WRAP.                  NO:     One Line Per Depth Step
     
~Well Information Block
#MNEM.UNIT       Data Type     Information
#컴컴컴컴컴    컴컴컴컴컴컴�   컴컴컴컴컴컴컴컴컴컴컴컴컴컴컴컴컴컴컴컴컴컴�
 STRT.FT           44.0000:
 STOP.FT          636.0000:
 STEP.FT            0.5000:
 NULL.          -9999.0000:
 COMP.             COMPANY:    FLUOR DANIEL (NPSOR), IN
 WELL.                WELL:    73 X 33                 
 FLD .               FIELD:    NPR #3                  
 LOC .            LOCATION:                                            
 CNTY.              COUNTY:    NATRONA                       
 STAT.               STATE:    WYOMING   
 SRVC.     SERVICE COMPANY:    ATLAS WIRELINE PETROPHYSICAL SERVICES
 DATE.                DATE:    09/19/1994
 UWI .      UNIQUE WELL ID:           1.0
 API .          API NUMBER:                    
     
~Curve Information Block
#MNEM.UNIT       API CODE      Curve Description
#컴컴컴컴컴    컴컴컴컴컴컴�   컴컴컴컴컴컴컴컴컴컴컴컴컴컴컴컴컴컴컴컴컴컴�
 DEPT.F         95 995 99 1    Depth                                                        
 GR  .API       31 310 01 1    Gamma Ray Counts                                             
 CAL .IN        28 280 99 1    Caliper                                                      
 RILD.OHMM      12 120 46 1    Resistivity from CILD                                        
 RILM.OHMM      12 120 44 1    Resistivity from CILM                                        
 ZDEN.G/C3      95 350 01 1    Z-Densilog Bulk Density                                      
 ZCOR.G/C3      39 356 99 1    Z-Densilog Bulk Density Correction                           
 PE  .BARN      95 358 01 1    Photo Electric Cross Section                                 
 TEN .LBF       95 635 99 1    Differential Tension                                         
     
~Parameter Information Block
#MNEM.UNIT         Value       Description
#컴컴컴컴컴    컴컴컴컴컴컴�   컴컴컴컴컴컴컴컴컴컴컴컴컴컴컴컴컴컴컴컴컴컴�
 EKB .FT            0.0000:    ELEVATION KELLY BUSHING
 EGL .FT            0.0000:    ELEVATION GROUND LEVEL
 RUN .              1.0000:    RUN NUMBER
 SON .               00000:    SERVICE ORDER NUMBER
 DD  .FT            0.0000:    DEPTH-DRILLER
 DL  .FT            0.0000:    DEPTH-LOGGER
 BLI .FT            0.0000:    BOTTOM LOGGED INTERVAL
 TLI .FT            0.0000:    TOP LOGGED INTERVAL
 CS  .  IN          0.0000:    CASING SIZE 
 CDD .FT            0.0000:    CASING DEPTH-DRILLER
 CDL .FT            0.0000:    CASING DEPTH-LOGGER
 BS  .IN            0.0000:    BIT SIZE
 DFT .               LIGNO:    MUD TYPE   
 DFD .LB/G          0.0000:    MUD WEIGHT
 DFV .S             0.0000:    MUD VISCOSITY
 DFPH.              0.0000:    MUD PH
 DFL .CC            0.0000:    MUD FLUID LOSS
 RMS .           FLOW LINE:    MUD SAMPLE SOURCE
 RM  .OHMM          0.0000:    MUD RESISTIVITY          
 RMT .DEGF          0.0000:    RM TEMPERATURE
 RMBH.OHMM          0.0000:    MUD RESISTIVITY AT BHT
 BHT .DEGF          0.0000:    BOTTOM HOLE TEMPERATURE
 RMFS.            MEASURED:    MUD FILTRATE SOURCE
 RMF .OHMM          0.0000:    MUD FILTRATE RESISTIVITY
 RMFT.DEGF          0.0000:    RMF TEMPERATURE
 RMCS.            MEASURED:    MUD CAKE SOURCE
 RMC .OHMM          0.0000:    MUD CAKE RESISTIVITY
 RMCT.DEGF          0.0000:    RMC TEMPERATURE
     
#      Computation Parameters Used
#MNEM.UNIT         Value       Description
#컴컴컴컴컴    컴컴컴컴컴컴�   컴컴컴컴컴컴컴컴컴컴컴컴컴컴컴컴컴컴컴컴컴컴�
 MDEN.G/CC          2.6500:    LOGGING MATRIX DENSITY
 MATR.              1.0000:    NEUTRON MATRIX (0=LIME,1=SAND,2=DOLO)
 FNUM.              0.6200:    TORTUOSITY CONSTANT ARCHIES (a)
 FEXP.              2.1500:    CEMENTATION EXPONENT ARCHIES (m)
     
~Other Information
#컴컴컴컴컴컴컴컴컴컴컴컴컴컴컴컴컴컴컴컴컴컴컴컴컴컴컴컴컴컴컴컴컴컴컴컴컴컴컴�
# In Making Interpretations Of Logs Our Employees Will Give Customer The Benefit
# Of Their Best Judgement,  But  Since All Interpretations Are Opinions Based On
# Inferences From Electrical Or  Other  Measurements,  We Cannot,  And We Do Not
# Guarantee The Accuracy Or  Correctness Of Any Interpretation.  We Shall Not Be
# Liable Or  Responsible For Any Loss,  Cost,  Damages, Or  Expenses  Whatsoever
# Incurred Or  Sustained By The Customer  Resulting  From Any Interpretaion Made
# By Any Of Our Employees.  ATLAS WIRELINE SERVICES-WESTERN ATLAS INTERNATIONAL
#컴컴컴컴컴컴컴컴컴컴컴컴컴컴컴컴컴컴컴컴컴컴컴컴컴컴컴컴컴컴컴컴컴컴컴컴컴컴컴�
     
~A  DEPTH      GR        CAL       RILD      RILM      ZDEN      ZCOR      PE        TEN       
# ...
   218.000   147.494     9.864     6.999     7.291     2.467     0.032     2.696   -36.221 
   218.500   142.178     9.870     7.150     7.524     2.466     0.022     2.764   -37.535 
   219.000   133.845     9.863     7.311     7.734     2.467     0.017     3.017   -28.461 
   219.500   127.974     9.853     7.468     7.899     2.468     0.014     3.098   -18.108 
   220.000   126.195     9.851     7.610     8.018     2.470     0.015     2.998   -18.078 
   220.500   127.383     9.858     7.736     8.084     2.471     0.022     2.860   -23.053 
   221.000   128.130     9.868     7.851     8.098     2.472     0.030     2.756   -26.363 
   221.500   127.035     9.868     7.958     8.097     2.475     0.031     2.768   -27.657 
   222.000   126.609     9.861     8.055     8.138     2.478     0.029     2.825   -25.679 
   222.500   128.592     9.864     8.133     8.250     2.478     0.037     2.849   -19.834 
   223.000   132.270     9.870     8.171     8.395     2.476     0.056     2.873   -17.334 
   223.500   134.895     9.863     8.160     8.476     2.468     0.066     2.855   -20.200 
   224.000   134.102     9.853     8.135     8.436     2.454     0.059     2.775   -24.724 
   224.500   130.619     9.850     8.154     8.343     2.437     0.060     2.748   -26.057 
   225.000   129.299     9.850     8.243     8.303     2.432     0.086     2.730   -22.336 
   225.500   131.595     9.851     8.345     8.329     2.446     0.116     2.654   -18.352 
   226.000   134.004     9.861     8.380     8.364     2.468     0.137     2.616   -18.181 
   226.500   133.631     9.881     8.337     8.373     2.485     0.157     2.722   -21.627 
   227.000   131.731     9.887     8.268     8.370     2.497     0.176     2.806   -28.396 
   227.500   130.147     9.871     8.222     8.374     2.506     0.189     2.729   -33.657 
   228.000   130.122     9.854     8.213     8.381     2.510     0.188     2.597   -28.319 
   228.500   129.717     9.850     8.227     8.369     2.511     0.177     2.540   -19.426 
   229.000   127.948     9.850     8.236     8.324     2.516     0.162     2.583   -19.507 
   229.500   128.334     9.850     8.223     8.257     2.520     0.147     2.634   -22.100 
   230.000   131.812     9.850     8.197     8.195     2.517     0.136     2.599   -22.336 
   230.500   134.239     9.850     8.175     8.166     2.510     0.137     2.562   -26.038 
   231.000   133.017     9.850     8.165     8.173     2.507     0.137     2.619   -31.589 
   231.500   129.845     9.851     8.157     8.198     2.504     0.119     2.691   -30.933 
   232.000   127.596     9.858     8.131     8.216     2.499     0.091     2.741   -27.010 
   232.500   127.268     9.869     8.101     8.211     2.495     0.073     2.957   -25.592 
   233.000   126.568     9.876     8.093     8.182     2.496     0.068     3.256   -26.499 
   233.500   125.899     9.883     8.103     8.143     2.497     0.065     3.288   -27.847 
   234.000   128.495     9.886     8.101     8.101     2.500     0.059     3.112   -29.777 
   234.500   132.245     9.876     8.062     8.071     2.505     0.047     3.074   -33.237 
   235.000   133.298     9.859     7.981     8.047     2.507     0.036     3.102   -35.775 
   235.500   132.089     9.851     7.887     7.998     2.498     0.032     3.053   -34.287 
   236.000   128.435     9.853     7.815     7.923     2.488     0.039     3.017   -29.714 
   236.500   123.084     9.867     7.779     7.879     2.484     0.044     3.065   -25.491 
   237.000   122.214     9.883     7.776     7.905     2.486     0.035     3.048   -21.851 
   237.500   126.274     9.884     7.788     7.969     2.496     0.024     2.934   -20.594 
   238.000   127.876     9.874     7.783     8.008     2.512     0.029     2.785   -22.505 
   238.500   125.248     9.871     7.751     8.005     2.524     0.047     2.692   -24.719 
   239.000   124.286     9.868     7.721     7.981     2.521     0.056     2.718   -26.944 
   239.500   127.223     9.858     7.708     7.952     2.509     0.046     2.789   -29.390 
   240.000   131.646     9.851     7.704     7.917     2.497     0.036     2.762   -29.820 
   240.500   135.813     9.850     7.698     7.880     2.485     0.043     2.654   -31.607 
   241.000   138.099     9.850     7.679     7.842     2.473     0.056     2.605   -34.664 
   241.500   138.766     9.851     7.640     7.794     2.467     0.055     2.650   -29.776 
   242.000   139.566     9.858     7.584     7.733     2.473     0.041     2.842   -19.615 
   242.500   140.681     9.868     7.534     7.670     2.484     0.030     3.080   -14.963 
   243.000   139.250     9.869     7.496     7.619     2.490     0.028     3.140   -13.944 
   243.500   137.117     9.866     7.456     7.573     2.487     0.032     2.956   -11.997 
   244.000   138.177     9.876     7.407     7.517     2.484     0.033     2.775   -11.347 
   244.500   140.645     9.886     7.366     7.456     2.487     0.029     2.794   -13.494 
   245.000   141.418     9.876     7.342     7.416     2.491     0.026     2.981   -14.664 
   245.500   140.023     9.866     7.329     7.412     2.492     0.038     3.213   -15.767 
   246.000   138.662     9.872     7.331     7.434     2.487     0.062     3.253   -17.569 
   246.500   138.381     9.889     7.350     7.480     2.479     0.076     3.009   -19.331 
   247.000   137.285     9.895     7.400     7.553     2.470     0.071     2.786   -20.993 
   247.500   135.922     9.882     7.486     7.660     2.467     0.066     2.807   -24.181 
   248.000   136.024     9.861     7.600     7.792     2.471     0.072     2.918   -25.786 
   248.500   136.829     9.851     7.716     7.927     2.485     0.076     2.989   -25.541 
   249.000   136.746     9.850     7.818     8.030     2.505     0.072     3.097   -27.293 
   249.500   137.338     9.850     7.901     8.090     2.522     0.072     3.197   -32.334 
   250.000   138.310     9.850     7.970     8.123     2.527     0.081     3.093   -34.209 
   250.500   139.416     9.850     8.035     8.144     2.517     0.084     2.825   -29.403 
   251.000   139.994     9.850     8.092     8.153     2.500     0.088     2.660   -21.768 
   251.500   139.218     9.850     8.122     8.145     2.490     0.105     2.728   -18.794 
   252.000   138.268     9.850     8.118     8.125     2.491     0.120     2.880   -19.335 
   252.500   138.370     9.850     8.091     8.095     2.494     0.121     2.979   -22.273 
   253.000   138.938     9.850     8.058     8.063     2.494     0.116     3.018   -30.007 
   253.500   137.549     9.850     8.016     8.027     2.494     0.112     3.029   -37.912 
   254.000   135.746     9.850     7.965     7.982     2.496     0.107     3.037   -37.943 
   254.500   135.310     9.850     7.918     7.931     2.502     0.102     3.130   -32.317 
   255.000   136.600     9.850     7.874     7.888     2.510     0.099     3.315   -29.058 
   255.500   136.373     9.850     7.816     7.841     2.513     0.104     3.398   -30.534 
   256.000   134.417     9.850     7.732     7.768     2.502     0.110     3.265   -33.527 
   256.500   135.137     9.850     7.625     7.659     2.485     0.112     3.191   -34.595 
   257.000   138.235     9.850     7.506     7.530     2.477     0.112     3.350   -33.351 
   257.500   138.989     9.850     7.388     7.400     2.481     0.111     3.501   -33.969 
   258.000   137.874     9.853     7.271     7.282     2.488     0.105     3.416   -35.857 
   258.500   137.268     9.863     7.155     7.181     2.493     0.096     3.272   -32.576 
   259.000   135.448     9.870     7.055     7.102     2.501     0.090     3.174   -23.820 
   259.500   133.181     9.863     6.984     7.057     2.513     0.090     3.091   -17.326 
   260.000   132.840     9.853     6.943     7.049     2.521     0.088     3.075   -18.912 
   260.500   134.662     9.850     6.937     7.072     2.518     0.086     3.143   -21.719 
   261.000   136.375     9.850     6.977     7.132     2.505     0.095     3.116   -18.660 
