~Version Information Block
 VERS.                1.20:     CWLS LOG ASCII STANDARD - VERSION 1.20
 WRAP.                  NO:     One Line Per Depth Step
     
~Well Information Block
#MNEM.UNIT       Data Type     Information
#컴컴컴컴컴    컴컴컴컴컴컴�   컴컴컴컴컴컴컴컴컴컴컴컴컴컴컴컴컴컴컴컴컴컴�
 STRT.FT           44.0000:
 STOP.FT          636.0000:
 STEP.FT            0.5000:
 NULL.          -9999.0000:
 COMP.             COMPANY:    FLUOR DANIEL (NPSOR), IN
 WELL.                WELL:    73 X 33                 
 FLD .               FIELD:    NPR #3                  
 LOC .            LOCATION:                                            
 CNTY.              COUNTY:    NATRONA                       
 STAT.               STATE:    WYOMING   
 SRVC.     SERVICE COMPANY:    ATLAS WIRELINE PETROPHYSICAL SERVICES
 DATE.                DATE:    09/19/1994
 UWI .      UNIQUE WELL ID:           1.0
 API .          API NUMBER:                    
     
~Curve Information Block
#MNEM.UNIT       API CODE      Curve Description
#컴컴컴컴컴    컴컴컴컴컴컴�   컴컴컴컴컴컴컴컴컴컴컴컴컴컴컴컴컴컴컴컴컴컴�
 DEPT.F         95 995 99 1    Depth                                                        
 GR  .API       31 310 01 1    Gamma Ray Counts                                             
 CAL .IN        28 280 99 1    Caliper                                                      
 RILD.OHMM      12 120 46 1    Resistivity from CILD                                        
 RILM.OHMM      12 120 44 1    Resistivity from CILM                                        
 ZDEN.G/C3      95 350 01 1    Z-Densilog Bulk Density                                      
 ZCOR.G/C3      39 356 99 1    Z-Densilog Bulk Density Correction                           
 PE  .BARN      95 358 01 1    Photo Electric Cross Section                                 
 TEN .LBF       95 635 99 1    Differential Tension                                         
     
~Parameter Information Block
#MNEM.UNIT         Value       Description
#컴컴컴컴컴    컴컴컴컴컴컴�   컴컴컴컴컴컴컴컴컴컴컴컴컴컴컴컴컴컴컴컴컴컴�
 EKB .FT            0.0000:    ELEVATION KELLY BUSHING
 EGL .FT            0.0000:    ELEVATION GROUND LEVEL
 RUN .              1.0000:    RUN NUMBER
 SON .               00000:    SERVICE ORDER NUMBER
 DD  .FT            0.0000:    DEPTH-DRILLER
 DL  .FT            0.0000:    DEPTH-LOGGER
 BLI .FT            0.0000:    BOTTOM LOGGED INTERVAL
 TLI .FT            0.0000:    TOP LOGGED INTERVAL
 CS  .  IN          0.0000:    CASING SIZE 
 CDD .FT            0.0000:    CASING DEPTH-DRILLER
 CDL .FT            0.0000:    CASING DEPTH-LOGGER
 BS  .IN            0.0000:    BIT SIZE
 DFT .               LIGNO:    MUD TYPE   
 DFD .LB/G          0.0000:    MUD WEIGHT
 DFV .S             0.0000:    MUD VISCOSITY
 DFPH.              0.0000:    MUD PH
 DFL .CC            0.0000:    MUD FLUID LOSS
 RMS .           FLOW LINE:    MUD SAMPLE SOURCE
 RM  .OHMM          0.0000:    MUD RESISTIVITY          
 RMT .DEGF          0.0000:    RM TEMPERATURE
 RMBH.OHMM          0.0000:    MUD RESISTIVITY AT BHT
 BHT .DEGF          0.0000:    BOTTOM HOLE TEMPERATURE
 RMFS.            MEASURED:    MUD FILTRATE SOURCE
 RMF .OHMM          0.0000:    MUD FILTRATE RESISTIVITY
 RMFT.DEGF          0.0000:    RMF TEMPERATURE
 RMCS.            MEASURED:    MUD CAKE SOURCE
 RMC .OHMM          0.0000:    MUD CAKE RESISTIVITY
 RMCT.DEGF          0.0000:    RMC TEMPERATURE
     
#      Computation Parameters Used
#MNEM.UNIT         Value       Description
#컴컴컴컴컴    컴컴컴컴컴컴�   컴컴컴컴컴컴컴컴컴컴컴컴컴컴컴컴컴컴컴컴컴컴�
 MDEN.G/CC          2.6500:    LOGGING MATRIX DENSITY
 MATR.              1.0000:    NEUTRON MATRIX (0=LIME,1=SAND,2=DOLO)
 FNUM.              0.6200:    TORTUOSITY CONSTANT ARCHIES (a)
 FEXP.              2.1500:    CEMENTATION EXPONENT ARCHIES (m)
     
~Other Information
#컴컴컴컴컴컴컴컴컴컴컴컴컴컴컴컴컴컴컴컴컴컴컴컴컴컴컴컴컴컴컴컴컴컴컴컴컴컴컴�
# In Making Interpretations Of Logs Our Employees Will Give Customer The Benefit
# Of Their Best Judgement,  But  Since All Interpretations Are Opinions Based On
# Inferences From Electrical Or  Other  Measurements,  We Cannot,  And We Do Not
# Guarantee The Accuracy Or  Correctness Of Any Interpretation.  We Shall Not Be
# Liable Or  Responsible For Any Loss,  Cost,  Damages, Or  Expenses  Whatsoever
# Incurred Or  Sustained By The Customer  Resulting  From Any Interpretaion Made
# By Any Of Our Employees.  ATLAS WIRELINE SERVICES-WESTERN ATLAS INTERNATIONAL
#컴컴컴컴컴컴컴컴컴컴컴컴컴컴컴컴컴컴컴컴컴컴컴컴컴컴컴컴컴컴컴컴컴컴컴컴컴컴컴�
     
~A  DEPTH      GR        CAL       RILD      RILM      ZDEN      ZCOR      PE        TEN       
# ...
   522.500    97.585     9.389    10.686    10.770     2.427     0.054     2.316    50.381 
   523.000   100.932     9.356    10.760    10.807     2.429     0.041     2.422    56.053 
   523.500   104.397     9.335    10.840    10.884     2.428     0.036     2.512    56.457 
   524.000   105.524     9.331    10.906    10.988     2.425     0.036     2.464    54.389 
   524.500   105.135     9.331    10.977    11.094     2.419     0.035     2.322    55.892 
   525.000   103.103     9.331    11.077    11.190     2.411     0.034     2.310    55.611 
   525.500   100.508     9.331    11.211    11.278     2.405     0.032     2.437    49.698 
   526.000    98.822     9.331    11.358    11.374     2.401     0.026     2.523    47.116 
   526.500    98.646     9.331    11.486    11.485     2.399     0.020     2.538    48.675 
   527.000    98.929     9.331    11.580    11.586     2.394     0.019     2.550    50.827 
   527.500    98.931     9.331    11.634    11.626     2.389     0.023     2.537    54.920 
   528.000    98.229     9.331    11.655    11.606     2.385     0.026     2.455    55.911 
   528.500    97.953     9.331    11.665    11.569     2.385     0.026     2.314    50.930 
   529.000    99.603     9.331    11.673    11.546     2.389     0.030     2.269    50.309 
   529.500   101.979     9.331    11.645    11.509     2.393     0.037     2.436    55.519 
   530.000   102.134     9.331    11.553    11.423     2.390     0.043     2.594    56.467 
   530.500    99.848     9.331    11.429    11.291     2.384     0.050     2.556    54.343 
   531.000    97.547     9.331    11.314    11.143     2.379     0.059     2.517    54.829 
   531.500    96.587     9.331    11.199    11.005     2.383     0.058     2.503    56.565 
   532.000    95.762     9.331    11.070    10.892     2.396     0.046     2.378    57.462 
   532.500    95.401     9.331    10.941    10.800     2.403     0.036     2.265    57.366 
   533.000    97.163     9.331    10.828    10.719     2.402     0.042     2.255    54.423 
   533.500   100.350     9.331    10.739    10.652     2.410     0.072     2.298    52.429 
   534.000   101.163     9.320    10.665    10.613     2.434     0.132     2.313    55.094 
   534.500    98.938     9.293    10.601    10.595     2.434     0.220     2.244    61.520 
   535.000    96.666     9.276    10.556    10.582     2.390     0.301     2.124    67.860 
   535.500    97.395     9.297    10.547    10.561     2.369     0.328     2.041    72.076 
   536.000   100.899     9.344    10.580    10.546     2.418     0.288     2.071    72.441 
   536.500   104.746     9.392    10.635    10.569     2.472     0.215     2.248    70.608 
   537.000   107.081     9.424    10.694    10.649     2.484     0.154     2.476    67.764 
   537.500   107.809     9.434    10.758    10.775     2.482     0.126     2.635    65.018 
   538.000   106.117     9.424    10.841    10.918     2.475     0.107     2.658    63.420 
   538.500   102.179     9.393    10.930    11.043     2.463     0.082     2.551    64.770 
   539.000    97.434     9.356    10.984    11.134     2.452     0.063     2.430    70.177 
   539.500    92.704     9.335    10.983    11.191     2.443     0.054     2.402    75.218 
   540.000    88.913     9.331    10.971    11.215     2.418     0.036     2.397    77.233 
   540.500    86.915     9.331    10.992    11.215     2.362     0.030     2.271    76.338 
   541.000    85.880     9.328    11.020    11.209     2.278     0.070     2.114    75.063 
   541.500    84.519     9.318    11.002    11.194     2.217     0.128     2.113    75.531 
   542.000    83.780     9.312    10.930    11.153     2.222     0.141     2.252    79.012 
   542.500    85.326     9.318    10.831    11.080     2.277     0.105     2.361    81.161 
   543.000    86.992     9.328    10.743    10.971     2.327     0.063     2.431    80.274 
   543.500    85.772     9.331    10.683    10.851     2.336     0.037     2.482    79.080 
   544.000    82.942     9.331    10.636    10.777     2.311     0.029     2.511    78.310 
   544.500    80.835     9.331    10.586    10.774     2.277     0.042     2.498    79.897 
   545.000    79.853     9.331    10.531    10.797     2.260     0.058     2.413    84.215 
   545.500    79.951     9.331    10.470    10.786     2.271     0.063     2.332    87.810 
   546.000    79.790     9.331    10.404    10.729     2.302     0.073     2.297    89.465 
   546.500    79.427     9.331    10.358    10.656     2.335     0.082     2.289    90.423 
   547.000    80.582     9.331    10.359    10.609     2.352     0.072     2.325    89.590 
   547.500    83.106     9.328    10.399    10.608     2.340     0.048     2.313    87.818 
   548.000    84.148     9.318    10.451    10.667     2.306     0.040     2.244    86.061 
   548.500    82.834     9.312    10.506    10.782     2.275     0.059     2.235    84.259 
   549.000    81.431     9.318    10.547    10.915     2.267     0.072     2.281    84.060 
   549.500    80.814     9.328    10.575    11.009     2.280     0.065     2.286    86.114 
   550.000    80.354     9.331    10.630    11.064     2.300     0.063     2.297    87.122 
   550.500    81.207     9.331    10.760    11.134     2.318     0.083     2.337    87.133 
   551.000    85.263     9.331    10.951    11.256     2.333     0.095     2.353    91.122 
   551.500    89.721     9.331    11.138    11.418     2.348     0.081     2.310    96.222 
   552.000    92.091     9.320    11.270    11.576     2.354     0.060     2.270    96.955 
   552.500    93.790     9.290    11.336    11.673     2.345     0.071     2.272    95.687 
   553.000    94.548     9.263    11.353    11.677     2.336     0.123     2.270    97.157 
   553.500    90.871     9.273    11.333    11.607     2.343     0.159     2.294    98.366 
   554.000    85.041     9.307    11.296    11.502     2.358     0.137     2.421    97.274 
   554.500    82.790     9.328    11.259    11.403     2.352     0.110     2.436    96.220 
   555.000    84.054     9.331    11.220    11.334     2.326     0.126     2.294    97.673 
   555.500    84.715     9.331    11.171    11.287     2.311     0.146     2.221    98.887 
   556.000    85.091     9.331    11.123    11.249     2.321     0.137     2.333    98.280 
   556.500    86.953     9.331    11.082    11.225     2.344     0.118     2.531    98.555 
   557.000    89.466     9.331    11.034    11.227     2.363     0.096     2.655   100.044 
   557.500    91.011     9.331    10.972    11.256     2.367     0.080     2.617    98.398 
   558.000    91.457     9.331    10.926    11.296     2.357     0.086     2.524    96.575 
   558.500    91.426     9.331    10.929    11.322     2.346     0.103     2.469    99.096 
   559.000    90.791     9.331    10.962    11.341     2.343     0.109     2.433   102.649 
   559.500    89.356     9.331    11.020    11.392     2.345     0.106     2.329   105.219 
   560.000    88.752     9.331    11.146    11.533     2.348     0.110     2.223   108.574 
   560.500    90.237     9.331    11.365    11.824     2.352     0.116     2.216   111.129 
   561.000    91.325     9.331    11.615    12.281     2.358     0.118     2.280   111.904 
   561.500    89.278     9.331    11.792    12.783     2.361     0.125     2.376   113.604 
   562.000    85.847     9.331    11.861    13.071     2.366     0.138     2.528   114.722 
   562.500    83.293     9.328    11.868    13.007     2.383     0.136     2.627   114.461 
   563.000    82.856     9.307    11.869    12.751     2.413     0.104     2.644   113.385 
   563.500    84.813     9.270    11.887    12.540     2.426     0.074     2.808   111.626 
   564.000    88.635     9.239    11.916    12.439     2.398     0.082     2.900   110.615 
   564.500    90.464     9.228    11.884    12.384     2.367     0.112     2.607   114.497 
   565.000    88.854     9.227    11.739    12.319     2.362     0.143     2.308   122.184 
   565.500    86.551     9.217    11.559    12.267     2.364     0.183     2.373   123.594 
