~Version Information
 VERS.                1.20:   CWLS log ASCII Standard -VERSION 1.20
 WRAP.                  NO:   One line per frame
~Well Information Block
#MNEM.UNIT       Data Type    Information
#---------    -------------   -------------------------------
 STRT.F           737.0000:   Starting Depth
 STOP.F            -6.7500:   Ending Depth
 STEP.F            -0.5000:   Level Spacing
 NULL.           -999.2500:   Absent Value
 COMP.             COMPANY:   FLUOR DANIEL (NPSOR), INC.
 WELL.                WELL:   28-1 X 11
 FLD .               FIELD:   N.P.R. #3
 LOC .            LOCATION:   11-38N-78W
 CNTY.              COUNTY:   Natrona
 STAT.               STATE:   Wyoming
 SRVC.     SERVICE COMPANY:   Western Atlas Logging Services
 LIC .      LICENSE NUMBER:   
 DATE.            LOG DATE:   16-December-1995
 API .          API NUMBER:   4902522745
~Curve Information Block
#MNEM.UNIT       API Codes    Curve Description
#---------    -------------   -------------------------------
 DEPT.F        0   1  0  1:   Depth
 CILD.MMHO     0 110 46  1:   Conductivity of Deep Induction
 GR  .API      0 310  1  1:   Gamma ray counts
 TEN .LBF      0 635 99  1:   Differential Tension
 RILM.OHMM     0 120 44  1:   Resistivity from CILM
 RILD.OHMM     0 120 46  1:   Resistivity from CILD
#  Curve Data
~A   DEPT        CILD        GR          TEN         RILM        RILD
# ...
   345.0000    127.2472    124.4819    -36.9901      7.8746      7.8587
   344.5000    125.8883    124.4237    -33.8739      7.9435      7.9435
   344.0000    124.7904    124.2403    -32.9659      7.9909      8.0134
   343.5000    123.9403    124.7865    -35.3425      8.0267      8.0684
   343.0000    123.1769    125.2191    -39.4609      8.0757      8.1184
   342.5000    122.4094    125.1378    -42.0339      8.1461      8.1693
   342.0000    121.6646    123.8588    -40.2185      8.2204      8.2193
   341.5000    120.9857    121.4378    -37.0852      8.2804      8.2654
   341.0000    120.3937    121.0210    -37.4793      8.3255      8.3061
   340.5000    119.8407    124.4007    -39.0964      8.3576      8.3444
   340.0000    119.3695    127.4420    -37.7297      8.3832      8.3774
   339.5000    119.1172    126.1861    -35.6069      8.4077      8.3951
   339.0000    119.0883    122.2662    -35.8811      8.4312      8.3971
   338.5000    119.2370    121.2400    -36.5433      8.4488      8.3867
   338.0000    119.5887    122.7228    -37.2936      8.4599      8.3620
   337.5000    120.0315    124.0742    -38.3663      8.4562      8.3311
   337.0000    120.3553    128.5798    -38.4724      8.4314      8.3087
   336.5000    120.4791    135.0921    -38.5566      8.3881      8.3002
   336.0000    120.5077    136.5635    -41.2577      8.3353      8.2982
   335.5000    120.5020    133.9340    -42.3739      8.2911      8.2986
   335.0000    120.2262    133.8572    -37.7178      8.2823      8.3177
   334.5000    119.3267    134.6368    -32.7689      8.3272      8.3804
   334.0000    117.9492    129.3609    -33.2691      8.4218      8.4782
   333.5000    116.6032    121.6721    -36.5869      8.5441      8.5761
   333.0000    115.5701    120.1325    -39.5728      8.6629      8.6528
   332.5000    114.8712    123.7609    -40.8239      8.7540      8.7054
   332.0000    114.5673    123.8760    -39.7265      8.8152      8.7285
   331.5000    114.6938    120.3740    -38.2866      8.8414      8.7189
   331.0000    115.2229    120.2509    -37.5851      8.8120      8.6788
   330.5000    116.1135    124.9091    -36.6195      8.7243      8.6123
   330.0000    117.2483    127.5455    -36.3346      8.6075      8.5289
   329.5000    118.4988    124.3514    -39.0571      8.4874      8.4389
   329.0000    119.8651    120.5044    -40.2926      8.3732      8.3427
   328.5000    121.3204    119.8772    -35.9751      8.2702      8.2426
   328.0000    122.7630    120.0379    -33.7717      8.1915      8.1458
   327.5000    124.0350    119.6640    -40.0828      8.1545      8.0622
   327.0000    124.9578    120.0699    -46.5098      8.1476      8.0027
   326.5000    125.6335    119.6827    -46.9770      8.1253      7.9597
   326.0000    126.4766    118.5548    -46.8709      8.0552      7.9066
   325.5000    127.8979    119.8741    -48.4678      7.9515      7.8187
   325.0000    130.0798    123.1189    -49.1651      7.8448      7.6876
   324.5000    132.3837    124.4346    -49.0483      7.7585      7.5538
   324.0000    133.5469    126.0797    -48.9702      7.7076      7.4880
   323.5000    133.1193    129.0942    -47.2598      7.6879      7.5121
   323.0000    131.7784    128.9778    -42.5441      7.6630      7.5885
   322.5000    130.1310    124.6859    -37.6346      7.6235      7.6846
   322.0000    128.3388    123.0277    -37.0002      7.6285      7.7919
   321.5000    126.2623    124.4805    -37.6114      7.7522      7.9200
   321.0000    123.4896    122.9809    -34.5998      8.0079      8.0978
   320.5000    119.9151    118.2158    -32.0003      8.3434      8.3392
   320.0000    116.0646    116.3892    -33.8596      8.6852      8.6159
   319.5000    112.4405    116.9765    -36.7440      8.9865      8.8936
   319.0000    109.1608    113.8818    -37.6388      9.2323      9.1608
   318.5000    106.3802    109.0555    -37.7099      9.4125      9.4002
   318.0000    104.5139    107.1672    -39.0665      9.5197      9.5681
   317.5000    103.8164    108.2049    -41.1710      9.5724      9.6324
   317.0000    103.8926    109.5967    -40.8987      9.6287      9.6253
   316.5000    104.0398    111.2740    -38.4367      9.7273      9.6117
   316.0000    103.8827    114.7963    -36.4216      9.8334      9.6262
   315.5000    103.5814    119.7065    -36.7360      9.8535      9.6542
   315.0000    103.6158    123.0258    -41.1109      9.7440      9.6510
   314.5000    104.2439    121.1802    -47.0017      9.5750      9.5929
   314.0000    105.1189    117.7321    -45.9364      9.4573      9.5130
   313.5000    105.6671    115.5864    -39.9126      9.4325      9.4637
   313.0000    105.6687    114.5210    -36.3295      9.4761      9.4635
   312.5000    105.2369    113.8755    -35.9464      9.5508      9.5024
   312.0000    104.5506    114.7608    -36.0495      9.6294      9.5648
   311.5000    103.7638    114.6828    -35.5956      9.7013      9.6373
   311.0000    102.8959    113.9457    -33.2630      9.7748      9.7186
   310.5000    101.9396    115.1458    -31.8298      9.8552      9.8097
   310.0000    101.1346    116.7789    -33.0657      9.9256      9.8878
   309.5000    100.6964    115.3305    -34.9228      9.9802      9.9308
   309.0000    100.4453    113.6845    -36.2782     10.0245      9.9557
   308.5000    100.0869    116.4569    -37.8441     10.0612      9.9913
   308.0000     99.4807    121.8787    -39.5466     10.1098     10.0522
   307.5000     98.5577    124.4957    -40.3003     10.1757     10.1463
   307.0000     97.3870    123.9850    -39.9010     10.2369     10.2683
   306.5000     96.0120    121.7081    -39.1876     10.2961     10.4154
   306.0000     94.4769    117.3444    -39.4295     10.4015     10.5846
   305.5000     93.0585    113.0151    -39.1217     10.5780     10.7459
   305.0000     91.8453    111.6513    -37.0371     10.8079     10.8879
   304.5000     90.6337    111.6224    -36.1791     11.0614     11.0334
   304.0000     89.4569    112.9518    -39.2090     11.3268     11.1786
   303.5000     88.5154    116.5678    -41.7054     11.5763     11.2975
   303.0000     87.7713    117.7226    -41.0112     11.7220     11.3933
   302.5000     87.3564    115.0595    -41.1402     11.6960     11.4474
   302.0000     87.6018    115.1548    -43.1511     11.5480     11.4153
   301.5000     88.3480    118.1252    -42.0323     11.3850     11.3189
   301.0000     89.0614    119.6279    -36.9178     11.2787     11.2282
   300.5000     89.4333    120.0690    -33.0300     11.2521     11.1815
   300.0000     89.3681    119.5970    -32.8345     11.2884     11.1897
   299.5000     88.9553    116.2030    -32.9821     11.3366     11.2416
   299.0000     88.4594    113.3198    -33.0531     11.3724     11.3046
   298.5000     87.9623    114.7639    -36.3966     11.4235     11.3685
   298.0000     87.3050    118.9951    -38.9100     11.5195     11.4541
   297.5000     86.3979    121.9995    -35.3888     11.6527     11.5744
   297.0000     85.3841    122.0563    -31.0618     11.7907     11.7118
   296.5000     84.4603    121.5533    -32.2007     11.9082     11.8399
   296.0000     83.7292    120.9232    -34.8761     12.0024     11.9433
   295.5000     83.1621    119.3903    -32.3999     12.0836     12.0247
   295.0000     82.7947    119.3002    -29.0022     12.1618     12.0781
   294.5000     82.6539    120.1931    -31.0343     12.2355     12.0986
   294.0000     82.7022    118.0197    -37.5345     12.2826     12.0916
   293.5000     82.8465    115.5086    -42.5301     12.2828     12.0705
   293.0000     83.1301    117.1302    -42.4831     12.2444     12.0293
   292.5000     83.7233    120.7832    -37.2978     12.1659     11.9441
   292.0000     84.7154    123.4644    -32.9180     12.0249     11.8042
   291.5000     85.9898    124.7386    -34.9490     11.8253     11.6293
   291.0000     87.4963    125.9018    -37.3235     11.6110     11.4291
   290.5000     89.1588    128.2661    -33.9785     11.4137     11.2159
   290.0000     90.6857    129.3806    -32.4581     11.2422     11.0271
   289.5000     91.9284    127.8808    -37.6532     11.0911     10.8780
