~Version Information
 VERS.                1.20:   CWLS log ASCII Standard -VERSION 1.20
 WRAP.                  NO:   One line per frame
~Well Information Block
#MNEM.UNIT       Data Type    Information
#---------    -------------   -------------------------------
 STRT.F           737.0000:   Starting Depth
 STOP.F            -6.7500:   Ending Depth
 STEP.F            -0.5000:   Level Spacing
 NULL.           -999.2500:   Absent Value
 COMP.             COMPANY:   FLUOR DANIEL (NPSOR), INC.
 WELL.                WELL:   28-1 X 11
 FLD .               FIELD:   N.P.R. #3
 LOC .            LOCATION:   11-38N-78W
 CNTY.              COUNTY:   Natrona
 STAT.               STATE:   Wyoming
 SRVC.     SERVICE COMPANY:   Western Atlas Logging Services
 LIC .      LICENSE NUMBER:   
 DATE.            LOG DATE:   16-December-1995
 API .          API NUMBER:   4902522745
~Curve Information Block
#MNEM.UNIT       API Codes    Curve Description
#---------    -------------   -------------------------------
 DEPT.F        0   1  0  1:   Depth
 CILD.MMHO     0 110 46  1:   Conductivity of Deep Induction
 GR  .API      0 310  1  1:   Gamma ray counts
 TEN .LBF      0 635 99  1:   Differential Tension
 RILM.OHMM     0 120 44  1:   Resistivity from CILM
 RILD.OHMM     0 120 46  1:   Resistivity from CILD
#  Curve Data
~A   DEPT        CILD        GR          TEN         RILM        RILD
# ...
   177.0000    125.7306    129.9547    -36.3295      7.9525      7.9535
   176.5000    126.6053    130.8189    -37.6416      7.9210      7.8986
   176.0000    127.9347    128.0018    -39.5182      7.8941      7.8165
   175.5000    129.6131    125.4585    -39.1632      7.8652      7.7153
   175.0000    131.4482    125.2085    -37.7337      7.8121      7.6076
   174.5000    133.3667    126.0886    -40.0011      7.7122      7.4981
   174.0000    135.5168    128.2030    -42.5890      7.5662      7.3792
   173.5000    137.8504    132.1075    -40.8746      7.4002      7.2542
   173.0000    140.0018    135.6951    -38.8174      7.2481      7.1428
   172.5000    141.6146    135.6282    -39.0858      7.1316      7.0614
   172.0000    142.5001    132.8571    -40.2472      7.0566      7.0175
   171.5000    142.4910    131.6182    -41.2464      7.0241      7.0180
   171.0000    141.5330    133.2141    -42.4353      7.0425      7.0655
   170.5000    139.6791    135.4235    -42.7366      7.1185      7.1593
   170.0000    137.0238    134.2303    -42.8223      7.2440      7.2980
   169.5000    133.7284    129.1001    -41.3415      7.4078      7.4778
   169.0000    130.2029    124.6855    -37.8813      7.6053      7.6803
   168.5000    126.8732    125.5566    -37.3329      7.8237      7.8819
   168.0000    123.9054    129.0448    -42.0744      8.0448      8.0707
   167.5000    121.2184    129.2666    -45.9796      8.2618      8.2496
   167.0000    118.8755    124.6063    -44.6941      8.4663      8.4122
   166.5000    117.3067    120.2452    -42.1928      8.6158      8.5247
   166.0000    116.9510    120.1435    -40.9160      8.6625      8.5506
   165.5000    117.9666    121.6969    -39.7723      8.6077      8.4770
   165.0000    120.2135    121.7740    -38.8780      8.4913      8.3185
   164.5000    123.1335    121.5154    -38.9991      8.3374      8.1213
   164.0000    126.1098    123.1807    -40.4964      8.1415      7.9296
   163.5000    129.0405    126.3984    -41.9131      7.8948      7.7495
   163.0000    132.2179    129.0675    -41.5602      7.6161      7.5633
   162.5000    135.6102    129.3568    -42.0781      7.3591      7.3741
   162.0000    138.6950    129.1481    -45.2071      7.1771      7.2101
   161.5000    140.7948    130.0164    -47.1884      7.0873      7.1025
   161.0000    141.5645    130.9370    -44.3571      7.0734      7.0639
   160.5000    141.1092    131.6587    -40.1020      7.1028      7.0867
   160.0000    139.8715    131.1515    -39.0592      7.1509      7.1494
   159.5000    138.2758    127.1671    -42.5057      7.2146      7.2319
   159.0000    136.6128    122.5922    -45.9549      7.2988      7.3200
   158.5000    135.1197    122.3894    -45.7427      7.3955      7.4008
   158.0000    134.0129    125.0516    -45.2376      7.4905      7.4620
   157.5000    133.1813    126.4040    -46.5158      7.5784      7.5086
   157.0000    132.3518    127.0332    -45.2876      7.6566      7.5556
   156.5000    131.2537    128.0054    -42.4432      7.7222      7.6188
   156.0000    129.7400    128.0962    -41.8722      7.7732      7.7077
   155.5000    128.0608    126.7647    -40.7343      7.8135      7.8088
   155.0000    127.0780    124.9106    -37.7776      7.8424      7.8692
   154.5000    127.6361    123.6764    -36.0717      7.8477      7.8348
   154.0000    129.6964    124.7718    -35.0424      7.8349      7.7103
   153.5000    132.3175    125.8230    -35.7003      7.8391      7.5576
   153.0000    134.6343    123.7399    -39.0092      7.8484      7.4275
   152.5000    136.6106    121.8348    -42.2468      7.7606      7.3201
   152.0000    138.9044    124.3434    -42.1900      7.5054      7.1992
   151.5000    141.9312    129.2159    -41.6520      7.1695      7.0457
   151.0000    145.2568    131.7740    -41.3177      6.8961      6.8844
   150.5000    147.9698    130.5271    -41.7301      6.7452      6.7581
   150.0000    149.5008    126.6289    -41.2415      6.6989      6.6889
   149.5000    149.8409    124.1948    -38.6545      6.7201      6.6737
   149.0000    149.3133    125.4013    -36.8324      6.7760      6.6973
   148.5000    148.4330    127.7899    -39.2837      6.8382      6.7370
   148.0000    147.6888    127.9058    -43.1648      6.8864      6.7710
   147.5000    147.2191    126.8358    -43.7952      6.9113      6.7926
   147.0000    146.7660    127.9245    -42.1147      6.9140      6.8136
   146.5000    146.1880    128.8780    -39.8815      6.9036      6.8405
   146.0000    145.5255    127.2639    -40.1447      6.8935      6.8716
   145.5000    144.6089    125.5404    -44.2784      6.8988      6.9152
   145.0000    143.1278    126.5430    -48.7250      6.9347      6.9868
   144.5000    140.9415    128.0127    -49.5753      7.0157      7.0951
   144.0000    138.1881    127.9940    -48.5737      7.1418      7.2365
   143.5000    135.2644    127.8285    -45.4270      7.2992      7.3929
   143.0000    132.6817    127.9119    -41.0933      7.4680      7.5368
   142.5000    130.7498    127.6517    -40.5107      7.6295      7.6482
   142.0000    129.5258    127.2391    -43.2042      7.7677      7.7205
   141.5000    128.9171    128.5479    -43.3683      7.8685      7.7569
   141.0000    128.7921    128.7495    -40.8541      7.9144      7.7645
   140.5000    129.1484    125.4218    -39.4405      7.8912      7.7430
   140.0000    129.9216    121.9993    -39.7934      7.8063      7.6969
   139.5000    130.7902    123.1011    -40.9603      7.6949      7.6458
   139.0000    131.4820    125.7493    -42.1626      7.6040      7.6056
   138.5000    132.0502    125.2216    -42.9181      7.5528      7.5729
   138.0000    132.6809    121.6613    -41.3379      7.5275      7.5369
   137.5000    133.4210    118.7778    -39.2471      7.5146      7.4951
   137.0000    134.1716    120.6058    -40.2377      7.5158      7.4531
   136.5000    134.8362    124.6326    -42.9525      7.5314      7.4164
   136.0000    135.2956    126.0804    -41.5873      7.5455      7.3912
   135.5000    135.3474    125.9450    -37.1847      7.5372      7.3884
   135.0000    134.7183    127.3144    -33.1989      7.5118      7.4229
   134.5000    133.4683    126.8565    -30.0889      7.4989      7.4924
   134.0000    132.4138    122.9339    -25.9887      7.5048      7.5521
   133.5000    132.5023    118.4650    -21.6282      7.5079      7.5470
   133.0000    133.4978    114.3597    -20.5475      7.5171      7.4908
   132.5000    134.2507    112.7152    -23.8168      7.5872      7.4487
   132.0000    134.0760    117.1269    -28.5190      7.7336      7.4585
   131.5000    133.2025    123.3458    -31.5821      7.8500      7.5074
   131.0000    132.5751    124.7321    -33.2642      7.7988      7.5429
   130.5000    132.9135    123.1007    -33.2099      7.6126      7.5237
   130.0000    133.8171    123.1946    -32.8540      7.4529      7.4729
   129.5000    134.2327    125.6370    -33.9163      7.4109      7.4497
   129.0000    133.6064    127.8130    -35.4700      7.4709      7.4847
   128.5000    132.1010    128.6758    -35.0665      7.5787      7.5700
   128.0000    130.2640    127.1128    -32.4932      7.6878      7.6767
   127.5000    128.6707    123.2707    -28.1033      7.7812      7.7718
   127.0000    127.4709    120.0882    -25.7566      7.8679      7.8449
   126.5000    126.4874    121.0433    -29.1638      7.9523      7.9059
   126.0000    125.6575    124.5326    -33.1694      8.0243      7.9581
   125.5000    125.2140    125.5007    -31.9283      8.0642      7.9863
   125.0000    125.4595    123.9037    -29.2141      8.0536      7.9707
   124.5000    126.5436    124.7791    -29.5551      7.9938      7.9024
   124.0000    128.2728    129.8865    -30.7620      7.9063      7.7959
   123.5000    130.2281    133.2549    -30.8825      7.8126      7.6788
   123.0000    132.0842    133.1087    -30.4118      7.7117      7.5709
   122.5000    133.7004    132.0778    -29.6924      7.5945      7.4794
   122.0000    135.2113    130.2534    -30.2834      7.4632      7.3958
   121.5000    136.9667    126.8241    -32.7637      7.3267      7.3010
