~Version Information
 VERS.                1.20:   CWLS log ASCII Standard -VERSION 1.20
 WRAP.                  NO:   One line per frame
~Well Information Block
#MNEM.UNIT       Data Type    Information
#---------    -------------   -------------------------------
 STRT.F           737.0000:   Starting Depth
 STOP.F            -6.7500:   Ending Depth
 STEP.F            -0.5000:   Level Spacing
 NULL.           -999.2500:   Absent Value
 COMP.             COMPANY:   FLUOR DANIEL (NPSOR), INC.
 WELL.                WELL:   28-1 X 11
 FLD .               FIELD:   N.P.R. #3
 LOC .            LOCATION:   11-38N-78W
 CNTY.              COUNTY:   Natrona
 STAT.               STATE:   Wyoming
 SRVC.     SERVICE COMPANY:   Western Atlas Logging Services
 LIC .      LICENSE NUMBER:   
 DATE.            LOG DATE:   16-December-1995
 API .          API NUMBER:   4902522745
~Curve Information Block
#MNEM.UNIT       API Codes    Curve Description
#---------    -------------   -------------------------------
 DEPT.F        0   1  0  1:   Depth
 CILD.MMHO     0 110 46  1:   Conductivity of Deep Induction
 GR  .API      0 310  1  1:   Gamma ray counts
 TEN .LBF      0 635 99  1:   Differential Tension
 RILM.OHMM     0 120 44  1:   Resistivity from CILM
 RILD.OHMM     0 120 46  1:   Resistivity from CILD
#  Curve Data
~A   DEPT        CILD        GR          TEN         RILM        RILD
# ...
    65.0000    139.4046     96.2348    -37.6187      7.3298      7.1734
    64.5000    140.9820     96.4426    -45.2651      8.9900      7.0931
    64.0000    146.2857     96.5514    -45.5313     11.1434      6.8359
    63.5000    141.4907     96.2204    -43.2097     11.9116      7.0676
    63.0000    133.1762     97.0537    -40.6092     11.2154      7.5088
    62.5000    133.3078     99.3986    -35.2815     11.7274      7.5014
    62.0000    148.3287    102.7112    -30.1209     13.3907      6.7418
    61.5000    163.9627    106.3090    -29.0735     12.8399      6.0989
    61.0000    149.2586    109.6640    -31.3183      8.6433      6.6998
    60.5000    141.3676    114.4614    -34.2097      5.1348      7.0738
    60.0000    199.8594    124.2970    -34.1826      3.4182      5.0035
    59.5000    314.6426    139.2766    -31.6270      2.5971      3.1782
    59.0000    472.5989    152.5990    -30.0019      1.8871      2.1160
    58.5000    617.6465    155.7756    -32.2431      1.4132      1.6190
    58.0000    507.7385    148.1107    -34.9399      1.4108      1.9695
    57.5000    205.1675    137.4930    -36.0903      2.1468      4.8741
    57.0000     44.9603    124.6722    -37.3515      5.8241     22.2418
    56.5000     88.5909    106.0533    -39.9032  10000.0000     11.2878
    56.0000    173.7735     87.5971    -41.7264  10000.0000      5.7546
    55.5000    190.7561     77.2163    -36.7257  10000.0000      5.2423
    55.0000    119.0166     73.0849    -28.8753  10000.0000      8.4022
    54.5000     47.0247     69.7526    -27.3533  10000.0000     21.2654
    54.0000     47.4464     66.9627    -30.1169  10000.0000     21.0764
    53.5000     72.7334     67.0369    -30.1258  10000.0000     13.7488
    53.0000     66.4521     68.5681    -30.8251  10000.0000     15.0484
    52.5000     48.9131     68.3532    -33.9880  10000.0000     20.4444
    52.0000     37.9481     68.0437    -34.5800  10000.0000     26.3518
    51.5000     37.4956     70.2402    -35.8189  10000.0000     26.6698
    51.0000     45.0691     71.9019    -40.5620  10000.0000     22.1882
    50.5000     49.7037     72.0622    -41.4846  10000.0000     20.1192
    50.0000     44.1658     72.7234    -36.5463  10000.0000     22.6419
    49.5000     34.5954     74.1474    -33.2386  10000.0000     28.9056
    49.0000     35.1518     75.1106    -34.0423  10000.0000     28.4480
    48.5000     50.0200     74.8680    -33.7553  10000.0000     19.9920
    48.0000     58.9364     72.4998    -33.9175  10000.0000     16.9675
    47.5000     47.5331     69.5730    -39.5975  10000.0000     21.0380
    47.0000     33.0305     69.9577    -43.7108  10000.0000     30.2751
    46.5000     31.2678     74.1218    -39.8800  10000.0000     31.9818
    46.0000     35.4681     79.0336    -35.0244  10000.0000     28.1943
    45.5000     42.5794     82.0413    -35.8564  10000.0000     23.4855
    45.0000     54.4616     82.4761    -41.6877  10000.0000     18.3616
    44.5000     67.0804     81.7069    -47.2079  10000.0000     14.9075
    44.0000     71.8749     82.7825    -46.6031  10000.0000     13.9131
    43.5000     66.0826     83.6698    -43.5266  10000.0000     15.1326
    43.0000     57.0557     80.7038    -45.0753  10000.0000     17.5267
    42.5000     49.1588     76.1325    -48.1589  10000.0000     20.3422
    42.0000     40.4455     74.4964    -49.4076  10000.0000     24.7246
    41.5000     32.9507     75.1504    -50.8676  10000.0000     30.3484
    41.0000     29.7967     74.7943    -49.6055  10000.0000     33.5607
    40.5000     28.1201     73.0850    -43.6202  10000.0000     35.5617
    40.0000     28.6205     73.4756    -37.5861  10000.0000     34.9400
    39.5000     31.7093     77.5131    -33.9758  10000.0000     31.5365
    39.0000     33.9512     81.5179    -35.0796  10000.0000     29.4540
    38.5000     36.7562     80.8989    -41.4193  10000.0000     27.2063
    38.0000     46.8378     77.2569    -47.8258  10000.0000     21.3503
    37.5000     54.7262     76.4391    -50.6514  10000.0000     18.2728
    37.0000     48.4140     79.0826    -48.1827  10000.0000     20.6552
    36.5000     36.4340     80.4616    -39.0833  10000.0000     27.4469
    36.0000     28.7550     77.7527    -33.5744  10000.0000     34.7765
    35.5000     19.0427     73.8925    -37.5900  10000.0000     52.5136
    35.0000      4.8170     71.0178    -39.1565  10000.0000    207.5989
    34.5000     -6.5149     68.5015    -34.6205   4310.1992  10000.0000
    34.0000     -8.0557     67.7032    -35.0494    913.4534  10000.0000
    33.5000      3.3185     68.8082    -40.1694    827.2292    301.3433
    33.0000     17.3555     68.6129    -45.3834    757.8750     57.6185
    32.5000     18.1758     65.0959    -49.7979    692.2417     55.0184
    32.0000      8.5868     62.8828    -46.9645    658.3745    116.4578
    31.5000      2.4666     63.7557    -32.8259    671.2498    405.4092
    31.0000      1.6342     63.8772    -21.0499    700.3972    611.9224
    30.5000      1.6159     62.2563    -24.4143    706.1946    618.8513
    30.0000      1.5922     61.5555    -34.3878    704.8667    628.0723
    29.5000      1.6029     62.7339    -36.9206    747.0103    623.8550
    29.0000      1.7094     64.4091    -34.9756    862.8672    585.0103
    28.5000      2.0745     66.4247    -37.0676   1021.8447    482.0361
    28.0000      2.7221     66.9403    -39.9791   1075.0764    367.3660
    27.5000      3.2052     63.7736    -40.8120    955.4597    311.9929
    27.0000      2.9981     59.5716    -41.3568    788.6794    333.5415
    26.5000      2.3209     58.9200    -38.8207    675.8301    430.8667
    26.0000      1.8973     61.7176    -35.7551    639.3093    527.0518
    25.5000      1.9667     63.3472    -39.3548    676.9382    508.4736
    25.0000      2.1636     63.1866    -46.4658    773.4790    462.1912
    24.5000      2.2087     63.0824    -51.0033    901.3489    452.7488
    24.0000      2.1508     64.2005    -54.6673   1002.6362    464.9426
    23.5000      2.1183     64.1929    -53.5833   1012.0618    472.0706
    23.0000      2.1324     61.2916    -42.6314    960.3928    468.9448
    22.5000      2.1486     59.7753    -31.5724    929.4314    465.4216
    22.0000      2.1575     62.7494    -25.7350    918.7815    463.4980
    21.5000      2.1767     65.8766   -250.0000    870.4810    459.4131
    21.0000      2.2066     65.6841   -250.0000    788.6787    453.1936
    20.5000      2.2304     64.4232   -250.0000    730.5735    448.3459
    20.0000      2.2293     63.3758   -250.0000    748.0938    448.5696
    19.5000      2.2105     61.5945   -250.0000    856.4636    452.3826
    19.0000      0.0000     55.3953   -250.0000    948.4475      0.2000
    18.5000      0.0000     47.3380   -250.0000    861.5181      0.2000
    18.0000      0.0000     47.0618   -250.0000    752.6450      0.2000
    17.5000      0.0000     55.8682   -250.0000    743.0464      0.2000
    17.0000      0.0000     64.1354   -250.0000    781.9341      0.2000
    16.5000      0.0000     67.1889   -250.0000    804.2961      0.2000
    16.0000      0.0000     66.8468   -250.0000    857.6917      0.2000
    15.5000      0.0000     64.0340   -250.0000      0.2000      0.2000
    15.0000      0.0000     63.0507   -250.0000      0.2000      0.2000
    14.5000      0.0000     65.7163   -250.0000      0.2000      0.2000
    14.0000      0.0000     70.2771   -250.0000      0.2000      0.2000
    13.5000      0.0000     71.8081   -250.0000      0.2000      0.2000
    13.0000      0.0000     68.7867   -250.0000      0.2000      0.2000
    12.5000      0.0000     62.5603   -250.0000      0.2000      0.2000
    12.0000      0.0000     54.6661   -250.0000      0.2000      0.2000
    11.5000      0.0000     44.7876   -250.0000      0.2000      0.2000
    11.0000      0.0000     37.0576   -250.0000      0.2000      0.2000
    10.5000      0.0000     37.2077   -250.0000      0.2000      0.2000
    10.0000      0.0000     42.1593   -250.0000      0.2000      0.2000
     9.5000      0.0000     44.2410   -250.0000      0.2000      0.2000
