~Version Information
 VERS.                1.20:   CWLS log ASCII Standard -VERSION 1.20
 WRAP.                  NO:   One line per frame
~Well Information Block
#MNEM.UNIT       Data Type    Information
#---------    -------------   -------------------------------
 STRT.F           737.0000:   Starting Depth
 STOP.F            -6.7500:   Ending Depth
 STEP.F            -0.5000:   Level Spacing
 NULL.           -999.2500:   Absent Value
 COMP.             COMPANY:   FLUOR DANIEL (NPSOR), INC.
 WELL.                WELL:   28-1 X 11
 FLD .               FIELD:   N.P.R. #3
 LOC .            LOCATION:   11-38N-78W
 CNTY.              COUNTY:   Natrona
 STAT.               STATE:   Wyoming
 SRVC.     SERVICE COMPANY:   Western Atlas Logging Services
 LIC .      LICENSE NUMBER:   
 DATE.            LOG DATE:   16-December-1995
 API .          API NUMBER:   4902522745
~Curve Information Block
#MNEM.UNIT       API Codes    Curve Description
#---------    -------------   -------------------------------
 DEPT.F        0   1  0  1:   Depth
 CILD.MMHO     0 110 46  1:   Conductivity of Deep Induction
 GR  .API      0 310  1  1:   Gamma ray counts
 TEN .LBF      0 635 99  1:   Differential Tension
 RILM.OHMM     0 120 44  1:   Resistivity from CILM
 RILD.OHMM     0 120 46  1:   Resistivity from CILD
#  Curve Data
~A   DEPT        CILD        GR          TEN         RILM        RILD
# ...
   569.0000     54.2248     92.3541     29.2339     18.7194     18.4417
   568.5000     53.8623     94.4557     35.6688     18.8481     18.5659
   568.0000     53.7327     93.0300     38.2302     18.7606     18.6107
   567.5000     53.7185     90.7972     36.6082     18.5783     18.6156
   567.0000     53.5255     90.9715     36.4258     18.5190     18.6827
   566.5000     52.9532     93.2458     38.3034     18.6650     18.8846
   566.0000     51.8691     96.4470     41.0829     18.9185     19.2793
   565.5000     50.2114     97.0135     40.5479     19.2125     19.9158
   565.0000     48.1950     92.1793     36.5198     19.6505     20.7491
   564.5000     46.1443     85.5755     32.5154     20.3643     21.6712
   564.0000     44.2735     82.0765     31.2024     21.3541     22.5869
   563.5000     42.7094     81.5988     31.9649     22.5398     23.4141
   563.0000     41.4515     82.2425     33.7080     23.8402     24.1246
   562.5000     40.3033     83.7550     33.4399     25.2262     24.8119
   562.0000     39.2026     85.5035     31.7639     26.4708     25.5085
   561.5000     38.3292     85.6693     30.9322     27.0423     26.0897
   561.0000     38.0397     83.9258     30.0791     26.6023     26.2883
   560.5000     38.5819     82.4433     30.0742     25.5709     25.9189
   560.0000     39.7652     81.3283     32.3910     24.6447     25.1476
   559.5000     40.9494     80.6955     34.4436     24.1470     24.4203
   559.0000     41.4063     81.7381     34.5937     23.9963     24.1509
   558.5000     41.0210     84.7942     35.2720     24.0282     24.3778
   558.0000     40.0432     87.1963     36.4310     24.1542     24.9730
   557.5000     38.7875     87.0201     35.6310     24.3258     25.7815
   557.0000     37.5070     84.7264     31.3894     24.5631     26.6617
   556.5000     36.6773     81.7328     26.9434     24.9533     27.2648
   556.0000     36.8354     79.1012     25.3101     25.5399     27.1478
   555.5000     38.3363     78.0851     26.2102     26.0967     26.0849
   555.0000     41.3041     78.7584     28.0560     26.0619     24.2107
   554.5000     45.5778     81.0638     28.8762     24.9717     21.9405
   554.0000     50.7724     86.8176     27.3667     22.8548     19.6957
   553.5000     56.7232     95.7217     25.4373     20.0660     17.6295
   553.0000     63.4255    102.8406     24.3936     17.1382     15.7665
   552.5000     70.7575    107.2609     23.5591     14.6431     14.1328
   552.0000     78.1245    111.1331     23.0958     12.8731     12.8001
   551.5000     84.5309    111.8638     23.0851     11.7852     11.8300
   551.0000     89.2206    108.9070     23.9144     11.1898     11.2082
   550.5000     92.1079    106.3209     26.1742     10.8967     10.8568
   550.0000     93.5246    105.4226     26.3868     10.7651     10.6924
   549.5000     93.9826    104.2140     25.4324     10.7072     10.6403
   549.0000     93.9548    101.7885     25.6105     10.6923     10.6434
   548.5000     93.6226     97.9279     25.2439     10.7199     10.6812
   548.0000     92.8947     95.4500     23.4054     10.7933     10.7649
   547.5000     91.7878     97.3587     24.2929     10.9033     10.8947
   547.0000     90.4030    101.2910     26.0494     11.0390     11.0616
   546.5000     88.8725    103.8722     25.2104     11.1903     11.2521
   546.0000     87.3912    105.0373     23.0391     11.3416     11.4428
   545.5000     86.1009    105.5761     21.8432     11.4966     11.6143
   545.0000     85.0153    106.5644     21.8649     11.6592     11.7626
   544.5000     84.2419    108.0364     21.2402     11.7902     11.8706
   544.0000     83.9870    106.9044     20.1025     11.8414     11.9066
   543.5000     84.1506    103.5190     21.5665     11.8321     11.8835
   543.0000     84.5416    101.5694     25.5499     11.8010     11.8285
   542.5000     85.0661    101.5112     26.1415     11.7558     11.7556
   542.0000     85.5593    101.3716     22.7637     11.6839     11.6878
   541.5000     85.9343    102.8841     20.4265     11.5825     11.6368
   541.0000     86.3550    106.2054     19.3849     11.4789     11.5801
   540.5000     86.9000    109.0251     16.9754     11.3983     11.5075
   540.0000     87.3264    109.5150     15.5083     11.3387     11.4513
   539.5000     87.4212    108.5497     15.9991     11.3061     11.4389
   539.0000     87.2448    106.2652     14.8279     11.3246     11.4620
   538.5000     87.0020    102.5934     13.4124     11.3755     11.4940
   538.0000     86.7278     99.1116     16.3053     11.4187     11.5303
   537.5000     86.3337     97.8392     19.7003     11.4778     11.5830
   537.0000     85.8494     99.7487     17.3264     11.5770     11.6483
   536.5000     85.3688    103.1862     10.8891     11.6631     11.7139
   536.0000     84.9144    105.1137      6.9012     11.6835     11.7766
   535.5000     84.4246    102.8320      8.5976     11.6910     11.8449
   535.0000     83.8500     97.5191     13.0061     11.7572     11.9261
   534.5000     83.1743     94.1674     13.8793     11.8863     12.0229
   534.0000     82.3419     96.3912      9.9775     12.0423     12.1445
   533.5000     81.3870    101.8836      5.8935     12.1760     12.2870
   533.0000     80.5106    107.2010      6.3266     12.2729     12.4207
   532.5000     79.9424    108.5751     10.9257     12.3489     12.5090
   532.0000     79.6688    104.7909     13.4057     12.4125     12.5520
   531.5000     79.5617     99.8816     10.9010     12.4303     12.5689
   531.0000     79.4992     98.8188      9.1152     12.4290     12.5787
   530.5000     79.4941    100.3479     10.8781     12.4589     12.5796
   530.0000     79.5859    101.9433     12.5974     12.5082     12.5650
   529.5000     79.6442    102.5677     13.0830     12.5378     12.5558
   529.0000     79.4743    100.5663     13.4694     12.5556     12.5827
   528.5000     79.1216     95.9377     12.3363     12.5629     12.6388
   528.0000     78.7377     91.1758      8.2271     12.5624     12.7004
   527.5000     78.2507     89.7402      5.3954     12.5829     12.7794
   527.0000     77.6852     91.5265      6.4392     12.6548     12.8725
   526.5000     77.0951     95.4457      8.6937     12.7712     12.9710
   526.0000     76.3752    100.7275     11.6513     12.9128     13.0933
   525.5000     75.4906    103.9119     15.6221     13.0600     13.2467
   525.0000     74.7421    103.3766     15.9994     13.1927     13.3793
   524.5000     74.1524    102.6448     12.0332     13.3120     13.4857
   524.0000     73.4872    103.8497     10.7561     13.4330     13.6078
   523.5000     72.6774    105.0465     13.2208     13.5636     13.7594
   523.0000     71.8070    107.4592     13.2318     13.7018     13.9262
   522.5000     70.8998    109.5665      8.8401     13.8580     14.1044
   522.0000     69.9755    107.1938      4.7293     14.0441     14.2907
   521.5000     69.0662    101.5691      3.6286     14.2402     14.4789
   521.0000     68.3587     98.8987      3.7509     14.4074     14.6287
   520.5000     68.1220     98.9033      4.3429     14.5317     14.6795
   520.0000     68.3517     96.5930      6.4440     14.6193     14.6302
   519.5000     68.7460     94.2344      8.6827     14.6662     14.5463
   519.0000     69.0419     96.9353      8.1298     14.6484     14.4840
   518.5000     69.2436    100.3804      6.1479     14.5459     14.4418
   518.0000     69.4379     98.1705      5.8130     14.3742     14.4014
   517.5000     69.6139     95.0900      6.1982     14.2072     14.3649
   517.0000     69.6927     96.0614      4.6897     14.1349     14.3487
   516.5000     69.5832     99.3968      0.9400     14.1903     14.3713
   516.0000     69.2132    101.9134     -0.9443     14.3279     14.4481
   515.5000     68.6564    102.5972      1.0166     14.4818     14.5653
   515.0000     68.0384    101.2928      2.5089     14.6306     14.6976
   514.5000     67.1945     99.2448      0.4593     14.8208     14.8822
   514.0000     65.7458     97.7605     -0.7964     15.1159     15.2101
   513.5000     63.5085     97.2164      2.4769     15.5178     15.7459
