~Version Information
 VERS.                1.20:   CWLS log ASCII Standard -VERSION 1.20
 WRAP.                  NO:   One line per frame
~Well Information Block
#MNEM.UNIT       Data Type    Information
#---------    -------------   -------------------------------
 STRT.F           737.0000:   Starting Depth
 STOP.F            -6.7500:   Ending Depth
 STEP.F            -0.5000:   Level Spacing
 NULL.           -999.2500:   Absent Value
 COMP.             COMPANY:   FLUOR DANIEL (NPSOR), INC.
 WELL.                WELL:   28-1 X 11
 FLD .               FIELD:   N.P.R. #3
 LOC .            LOCATION:   11-38N-78W
 CNTY.              COUNTY:   Natrona
 STAT.               STATE:   Wyoming
 SRVC.     SERVICE COMPANY:   Western Atlas Logging Services
 LIC .      LICENSE NUMBER:   
 DATE.            LOG DATE:   16-December-1995
 API .          API NUMBER:   4902522745
~Curve Information Block
#MNEM.UNIT       API Codes    Curve Description
#---------    -------------   -------------------------------
 DEPT.F        0   1  0  1:   Depth
 CILD.MMHO     0 110 46  1:   Conductivity of Deep Induction
 GR  .API      0 310  1  1:   Gamma ray counts
 TEN .LBF      0 635 99  1:   Differential Tension
 RILM.OHMM     0 120 44  1:   Resistivity from CILM
 RILD.OHMM     0 120 46  1:   Resistivity from CILD
#  Curve Data
~A   DEPT        CILD        GR          TEN         RILM        RILD
# ...
   289.0000     93.1474    126.4284    -42.4926     10.9409     10.7357
   288.5000     94.5665    126.1379    -43.5940     10.7810     10.5746
   288.0000     96.0068    125.2034    -41.8704     10.6225     10.4159
   287.5000     97.4404    124.3483    -36.5652     10.4683     10.2627
   287.0000     99.2364    125.7227    -31.9466     10.2962     10.0770
   286.5000    101.5535    129.1133    -34.0047     10.1070      9.8470
   286.0000    104.0764    132.6320    -39.8312      9.9111      9.6083
   285.5000    106.4834    134.1395    -41.6666      9.7055      9.3911
   285.0000    108.6961    134.2480    -38.8668      9.4896      9.2000
   284.5000    110.7432    134.7502    -37.6385      9.2758      9.0299
   284.0000    112.7541    137.0539    -39.2898      9.0625      8.8689
   283.5000    114.6414    140.6683    -39.7333      8.8507      8.7229
   283.0000    116.1686    142.7850    -36.7982      8.6750      8.6082
   282.5000    117.2545    141.5813    -31.2085      8.5740      8.5285
   282.0000    117.8488    139.4217    -25.7716      8.5473      8.4854
   281.5000    118.0409    139.0677    -25.1634      8.5530      8.4716
   281.0000    118.0705    138.7267    -29.8613      8.5536      8.4695
   280.5000    117.9554    135.4021    -36.2425      8.5460      8.4778
   280.0000    117.5045    130.1178    -40.4512      8.5544      8.5103
   279.5000    116.7848    127.3389    -39.5835      8.5921      8.5628
   279.0000    116.0500    130.4967    -36.0595      8.6476      8.6170
   278.5000    115.4052    136.1320    -33.6415      8.6958      8.6651
   278.0000    114.8215    138.7245    -33.9535      8.7286      8.7092
   277.5000    114.4007    136.6504    -35.8777      8.7607      8.7412
   277.0000    114.2140    132.7614    -36.3935      8.7999      8.7555
   276.5000    114.2284    129.1188    -35.2626      8.8260      8.7544
   276.0000    114.3851    126.9612    -35.8006      8.8176      8.7424
   275.5000    114.7724    126.8514    -39.3368      8.7717      8.7129
   275.0000    115.4800    129.0523    -43.0968      8.6996      8.6595
   274.5000    116.4291    134.0619    -43.8416      8.6227      8.5889
   274.0000    117.4311    139.2534    -40.8932      8.5561      8.5156
   273.5000    118.5038    139.5412    -36.2654      8.4954      8.4385
   273.0000    119.8010    134.5880    -34.3314      8.4215      8.3472
   272.5000    121.2856    132.1996    -35.3791      8.3220      8.2450
   272.0000    122.8274    136.4089    -37.0416      8.2199      8.1415
   271.5000    124.2943    139.9860    -37.7123      8.1435      8.0454
   271.0000    125.5395    138.6597    -38.8805      8.0794      7.9656
   270.5000    126.5571    136.4048    -40.0465      7.9983      7.9016
   270.0000    127.3967    136.3437    -40.6260      7.9065      7.8495
   269.5000    127.9787    136.0548    -41.3498      7.8290      7.8138
   269.0000    128.1193    136.3879    -41.4592      7.7883      7.8052
   268.5000    127.6621    137.5239    -39.7113      7.7973      7.8332
   268.0000    126.6131    139.0747    -38.6209      7.8557      7.8981
   267.5000    125.1814    139.3562    -39.5954      7.9511      7.9884
   267.0000    123.6220    139.5405    -39.8955      8.0676      8.0892
   266.5000    122.1165    140.4602    -38.9387      8.1932      8.1889
   266.0000    120.5912    140.5225    -38.7338      8.3213      8.2925
   265.5000    118.8921    139.9996    -39.5411      8.4472      8.4110
   265.0000    117.1841    142.1060    -40.0941      8.5618      8.5336
   264.5000    115.7436    144.3103    -39.9257      8.6621      8.6398
   264.0000    114.5134    142.0637    -37.6175      8.7515      8.7326
   263.5000    113.4036    137.8075    -34.4244      8.8319      8.8181
   263.0000    112.5567    135.2139    -31.9704      8.9042      8.8844
   262.5000    112.1416    133.5472    -31.4550      8.9729      8.9173
   262.0000    112.1188    133.0204    -32.2156      9.0333      8.9191
   261.5000    112.3224    134.2613    -33.9343      9.0721      8.9029
   261.0000    112.5984    135.9668    -36.4106      9.0803      8.8811
   260.5000    112.9379    137.6244    -38.0899      9.0550      8.8544
   260.0000    113.4132    141.1828    -36.3651      8.9937      8.8173
   259.5000    113.9970    142.3745    -35.0329      8.9012      8.7722
   259.0000    114.6434    138.6940    -37.4735      8.8001      8.7227
   258.5000    115.4204    135.1181    -39.5939      8.7190      8.6640
   258.0000    116.3016    133.8866    -39.0455      8.6693      8.5983
   257.5000    117.0978    132.6416    -39.2178      8.6452      8.5399
   257.0000    117.6357    130.9002    -39.0528      8.6433      8.5008
   256.5000    117.7701    129.5386    -35.6081      8.6535      8.4911
   256.0000    117.5386    130.6146    -31.7661      8.6531      8.5078
   255.5000    117.3785    135.3586    -31.3848      8.6214      8.5194
   255.0000    117.6573    137.0889    -34.2427      8.5632      8.4993
   254.5000    118.1050    134.3979    -38.4300      8.5112      8.4670
   254.0000    118.2495    131.8127    -41.3464      8.5035      8.4567
   253.5000    118.0023    130.2511    -42.4395      8.5579      8.4744
   253.0000    117.4267    128.9649    -43.5845      8.6380      8.5159
   252.5000    116.7184    129.2329    -45.2336      8.6780      8.5676
   252.0000    116.2655    130.3895    -45.6390      8.6584      8.6010
   251.5000    116.1859    131.4120    -44.5761      8.6334      8.6069
   251.0000    116.2956    131.9313    -43.1001      8.6416      8.5988
   250.5000    116.4069    132.8945    -41.7813      8.6684      8.5906
   250.0000    116.2724    136.1602    -40.9658      8.6885      8.6005
   249.5000    115.7622    137.5049    -41.7548      8.7015      8.6384
   249.0000    115.0863    133.9779    -43.9880      8.7135      8.6891
   248.5000    114.3787    130.3437    -45.5951      8.7304      8.7429
   248.0000    113.6263    129.4214    -44.3125      8.7671      8.8008
   247.5000    112.9385    129.6750    -40.4256      8.8377      8.8544
   247.0000    112.3965    131.4543    -37.6614      8.9253      8.8971
   246.5000    112.0955    134.2158    -39.4353      8.9909      8.9210
   246.0000    112.1859    135.2084    -44.0518      9.0205      8.9138
   245.5000    112.5815    135.2579    -46.1956      9.0317      8.8825
   245.0000    112.9983    136.4116    -44.9625      9.0311      8.8497
   244.5000    113.2249    136.8140    -43.1654      9.0041      8.8320
   244.0000    113.2845    134.6889    -40.9844      8.9351      8.8273
   243.5000    113.5049    131.7933    -37.4369      8.8368      8.8102
   243.0000    114.2162    128.5450    -36.7702      8.7401      8.7553
   242.5000    115.2276    124.2027    -39.3282      8.6724      8.6785
   242.0000    116.0130    121.9196    -40.8026      8.6565      8.6197
   241.5000    116.2436    124.8933    -40.9368      8.7030      8.6026
   241.0000    115.8712    130.0661    -40.5153      8.7677      8.6303
   240.5000    115.2260    132.3647    -37.7541      8.7766      8.6786
   240.0000    114.8327    130.9677    -35.0966      8.7185      8.7083
   239.5000    114.8528    126.9693    -36.5061      8.6572      8.7068
   239.0000    114.8436    123.0022    -38.9528      8.6590      8.7075
   238.5000    114.3685    122.9910    -39.4319      8.7300      8.7437
   238.0000    113.5910    126.3244    -39.9038      8.8245      8.8035
   237.5000    113.1349    126.1454    -39.3047      8.8976      8.8390
   237.0000    113.3704    123.0731    -35.3556      8.9295      8.8206
   236.5000    114.2539    122.1109    -31.3064      8.9140      8.7524
   236.0000    115.7570    125.5485    -32.6923      8.8616      8.6388
   235.5000    117.7654    132.7187    -37.9853      8.7815      8.4915
   235.0000    119.9854    140.0624    -41.2180      8.6504      8.3343
   234.5000    122.2788    143.9556    -40.4125      8.4448      8.1780
   234.0000    124.7244    144.8446    -38.4001      8.1860      8.0177
   233.5000    127.1334    145.1452    -36.4804      7.9350      7.8658
