~Version Information
 VERS.                1.20:   CWLS log ASCII Standard -VERSION 1.20
 WRAP.                  NO:   One line per frame
~Well Information Block
#MNEM.UNIT       Data Type    Information
#---------    -------------   -------------------------------
 STRT.F           737.0000:   Starting Depth
 STOP.F            -6.7500:   Ending Depth
 STEP.F            -0.5000:   Level Spacing
 NULL.           -999.2500:   Absent Value
 COMP.             COMPANY:   FLUOR DANIEL (NPSOR), INC.
 WELL.                WELL:   28-1 X 11
 FLD .               FIELD:   N.P.R. #3
 LOC .            LOCATION:   11-38N-78W
 CNTY.              COUNTY:   Natrona
 STAT.               STATE:   Wyoming
 SRVC.     SERVICE COMPANY:   Western Atlas Logging Services
 LIC .      LICENSE NUMBER:   
 DATE.            LOG DATE:   16-December-1995
 API .          API NUMBER:   4902522745
~Curve Information Block
#MNEM.UNIT       API Codes    Curve Description
#---------    -------------   -------------------------------
 DEPT.F        0   1  0  1:   Depth
 CILD.MMHO     0 110 46  1:   Conductivity of Deep Induction
 GR  .API      0 310  1  1:   Gamma ray counts
 TEN .LBF      0 635 99  1:   Differential Tension
 RILM.OHMM     0 120 44  1:   Resistivity from CILM
 RILD.OHMM     0 120 46  1:   Resistivity from CILD
#  Curve Data
~A   DEPT        CILD        GR          TEN         RILM        RILD
# ...
   513.0000     60.7682     96.1553      8.1889     15.9830     16.4560
   512.5000     58.1637     92.1073     10.9025     16.4737     17.1928
   512.0000     56.2039     86.7568      8.6873     17.0195     17.7924
   511.5000     54.8344     83.0765      5.0935     17.7433     18.2367
   511.0000     53.6232     82.9213      2.1024     18.7435     18.6487
   510.5000     52.4324     87.3847      0.0424     19.8349     19.0722
   510.0000     51.5864     93.9998     -0.8943     20.5094     19.3849
   509.5000     51.4784     98.6781     -0.3071     20.3706     19.4256
   509.0000     52.2510    100.0207      0.7045     19.5543     19.1384
   508.5000     53.7876     99.5594      3.2382     18.5329     18.5916
   508.0000     55.7898     98.9895      6.4440     17.6597     17.9244
   507.5000     57.7921     98.7802      6.8512     17.0368     17.3034
   507.0000     59.4274     97.7435      3.2861     16.6156     16.8273
   506.5000     60.5787     96.6363     -1.4253     16.3215     16.5074
   506.0000     61.3354     97.0772     -3.9854     16.0986     16.3038
   505.5000     61.8515     98.3419     -3.5313     15.9143     16.1678
   505.0000     62.3120     98.5489     -2.7288     15.7584     16.0483
   504.5000     62.7610     96.5943     -1.9117     15.6538     15.9335
   504.0000     63.1063     93.6915      1.0806     15.6415     15.8463
   503.5000     63.1893     92.2378      3.5533     15.7105     15.8255
   503.0000     62.8656     92.8674      2.1353     15.8143     15.9070
   502.5000     62.1186     94.2000     -0.9251     15.9447     16.0982
   502.0000     61.1438     93.7378     -2.7511     16.0909     16.3549
   501.5000     60.0844     91.8541     -5.1963     16.2382     16.6432
   501.0000     58.9866     90.2264     -7.4039     16.4338     16.9530
   500.5000     57.9392     89.6292     -6.6216     16.7204     17.2595
   500.0000     57.0674     88.7388     -3.1052     17.0604     17.5231
   499.5000     56.3452     88.8516     -0.2672     17.3935     17.7477
   499.0000     55.6161     90.3152     -0.4477     17.6850     17.9804
   498.5000     54.7636     91.0571     -3.7506     17.9404     18.2603
   498.0000     53.7340     91.1330     -6.7390     18.2301     18.6102
   497.5000     52.6072     92.2009     -6.6746     18.5932     19.0088
   497.0000     51.6230     92.1021     -5.0538     18.9332     19.3712
   496.5000     51.0496     88.8782     -4.7601     19.1469     19.5888
   496.0000     50.9417     85.5903     -5.8093     19.2696     19.6303
   495.5000     51.2057     84.3747     -5.8777     19.4075     19.5291
   495.0000     51.6565     84.7974     -4.6595     19.5466     19.3586
   494.5000     52.0806     86.2737     -3.2553     19.5224     19.2010
   494.0000     52.3697     88.8825     -2.6569     19.2153     19.0950
   493.5000     52.5276     90.2959     -2.2347     18.7706     19.0376
   493.0000     52.5574     86.7460     -3.4072     18.4341     19.0268
   492.5000     52.4194     78.9887     -5.9478     18.3235     19.0769
   492.0000     52.1234     72.9578     -7.1480     18.4857     19.1852
   491.5000     51.6420     73.3076     -7.9861     18.9538     19.3641
   491.0000     50.9132     78.4708     -9.3803     19.6610     19.6413
   490.5000     49.9758     84.3035     -9.0371     20.4105     20.0097
   490.0000     49.0122     86.9884     -7.5247     20.9790     20.4031
   489.5000     48.3401     84.9221     -8.5693     21.1486     20.6867
   489.0000     48.2083     81.4342    -10.4865     20.9296     20.7433
   488.5000     48.4214     81.1501    -10.5942     20.7648     20.6520
   488.0000     48.4773     82.6901     -8.6483     20.9771     20.6282
   487.5000     48.2256     83.0213     -4.7360     21.2663     20.7359
   487.0000     47.9680     82.6647     -0.7460     21.2054     20.8472
   486.5000     47.9683     82.6981     -1.2041     20.9685     20.8471
   486.0000     48.0636     81.5174     -5.5016     20.9277     20.8058
   485.5000     47.8942     78.4271     -9.7512     21.0538     20.8794
   485.0000     47.3340     76.2031    -12.6261     21.0824     21.1264
   484.5000     46.4952     77.6310    -13.2407     21.0213     21.5076
   484.0000     45.5224     78.4774    -11.0175     21.1163     21.9672
   483.5000     44.4506     74.5385     -9.6252     21.4460     22.4969
   483.0000     43.2937     70.5029    -12.2381     21.9462     23.0980
   482.5000     42.1047     70.2369    -15.9945     22.7043     23.7503
   482.0000     41.0535     69.5139    -18.3296     23.7407     24.3585
   481.5000     40.6735     65.6046    -17.2966     24.5640     24.5860
   481.0000     41.6256     61.6764    -12.0396     24.5857     24.0237
   480.5000     43.9559     62.8951     -6.5432     23.9735     22.7501
   480.0000     47.1110     71.2370     -4.1883     23.1137     21.2265
   479.5000     51.0000     82.4257     -5.3223     21.7807     19.6078
   479.0000     56.1425     88.8936     -8.4381     19.6768     17.8118
   478.5000     62.7230     89.8351    -10.3486     17.2398     15.9431
   478.0000     70.0407     91.7205    -10.6994     15.1584     14.2774
   477.5000     76.9313     98.8419    -13.4572     13.6525     12.9986
   477.0000     82.6680    110.1718    -16.8366     12.5311     12.0966
   476.5000     87.4919    120.5556    -16.1113     11.5758     11.4296
   476.0000     92.0816    125.8882    -13.1403     10.7474     10.8599
   475.5000     96.5614    127.7872    -10.6954     10.1203     10.3561
   475.0000    100.4263    128.4026    -10.6668      9.7033      9.9575
   474.5000    103.2201    126.2574    -15.3607      9.4679      9.6880
   474.0000    104.6318    121.7579    -22.3635      9.3839      9.5573
   473.5000    104.7993    119.3676    -24.0791      9.4291      9.5420
   473.0000    104.0176    118.5783    -19.8820      9.5446      9.6138
   472.5000    103.0922    117.9627    -16.1595      9.6553      9.7001
   472.0000    103.9721    120.2060    -14.6406      9.6709      9.6180
   471.5000    109.2252    124.6862    -14.0849      9.4755      9.1554
   471.0000    120.6763    127.5003    -15.5791      8.9694      8.2866
   470.5000    138.2773    128.6303    -17.3569      8.1583      7.2318
   470.0000    158.6462    130.4287    -17.4185      7.2471      6.3033
   469.5000    175.6391    134.1010    -17.5018      6.4904      5.6935
   469.0000    184.4911    141.9092    -17.9977      5.9256      5.4203
   468.5000    186.9263    151.2898    -16.8391      5.3994      5.3497
   468.0000    187.7610    153.2438    -15.2070      4.8725      5.3259
   467.5000    189.1763    145.1144    -15.2692      4.5407      5.2861
   467.0000    187.9702    133.5758    -15.9213      4.6329      5.3200
   466.5000    178.6995    128.1981    -15.7697      5.2460      5.5960
   466.0000    161.0626    130.2202    -14.7779      6.3060      6.2088
   465.5000    142.0144    132.8773    -15.0362      7.5050      7.0415
   465.0000    127.8946    131.1662    -16.6015      8.3814      7.8189
   464.5000    120.6611    128.5249    -17.2508      8.7318      8.2877
   464.0000    119.1315    129.3820    -17.0742      8.6845      8.3941
   463.5000    120.8248    132.7323    -20.0339      8.4554      8.2764
   463.0000    123.1935    135.8990    -23.9202      8.1948      8.1173
   462.5000    125.0262    136.4558    -23.3398      7.9661      7.9983
   462.0000    126.2690    135.5609    -20.0690      7.7994      7.9196
   461.5000    126.9685    134.6924    -19.6283      7.7168      7.8760
   461.0000    126.9408    133.8878    -21.4131      7.7200      7.8777
   460.5000    126.3463    134.3535    -22.2510      7.7811      7.9148
   460.0000    125.8101    135.6441    -21.1270      7.8632      7.9485
   459.5000    125.7661    137.3505    -19.0360      7.9339      7.9513
   459.0000    126.2294    139.8971    -16.4099      7.9567      7.9221
   458.5000    126.8285    142.4159    -13.5197      7.9331      7.8847
   458.0000    127.2362    141.8794    -12.6401      7.8972      7.8594
   457.5000    127.3976    140.6107    -15.8371      7.8694      7.8494
