~Version Information
 VERS.                1.20:   CWLS log ASCII Standard -VERSION 1.20
 WRAP.                  NO:   One line per frame
~Well Information Block
#MNEM.UNIT       Data Type    Information
#---------    -------------   -------------------------------
 STRT.F           737.0000:   Starting Depth
 STOP.F            -6.7500:   Ending Depth
 STEP.F            -0.5000:   Level Spacing
 NULL.           -999.2500:   Absent Value
 COMP.             COMPANY:   FLUOR DANIEL (NPSOR), INC.
 WELL.                WELL:   28-1 X 11
 FLD .               FIELD:   N.P.R. #3
 LOC .            LOCATION:   11-38N-78W
 CNTY.              COUNTY:   Natrona
 STAT.               STATE:   Wyoming
 SRVC.     SERVICE COMPANY:   Western Atlas Logging Services
 LIC .      LICENSE NUMBER:   
 DATE.            LOG DATE:   16-December-1995
 API .          API NUMBER:   4902522745
~Curve Information Block
#MNEM.UNIT       API Codes    Curve Description
#---------    -------------   -------------------------------
 DEPT.F        0   1  0  1:   Depth
 CILD.MMHO     0 110 46  1:   Conductivity of Deep Induction
 GR  .API      0 310  1  1:   Gamma ray counts
 TEN .LBF      0 635 99  1:   Differential Tension
 RILM.OHMM     0 120 44  1:   Resistivity from CILM
 RILD.OHMM     0 120 46  1:   Resistivity from CILD
#  Curve Data
~A   DEPT        CILD        GR          TEN         RILM        RILD
# ...
   121.0000    139.1154    124.1834    -35.3763      7.1941      7.1883
   120.5000    141.3740    123.2365    -36.0556      7.0860      7.0734
   120.0000    143.3372    122.5912    -35.0146      7.0232      6.9766
   119.5000    144.8998    124.0927    -32.0387      6.9957      6.9013
   119.0000    146.2036    128.2811    -29.5380      6.9619      6.8398
   118.5000    147.4506    131.5898    -29.1556      6.8940      6.7819
   118.0000    148.7593    130.6977    -32.5783      6.7986      6.7223
   117.5000    150.0573    127.1266    -39.3230      6.6993      6.6641
   117.0000    150.9793    124.7309    -43.8971      6.6230      6.6234
   116.5000    151.1731    125.1810    -40.7074      6.5897      6.6149
   116.0000    150.6552    126.1515    -34.8642      6.5960      6.6377
   115.5000    149.6478    125.2619    -33.3597      6.6248      6.6824
   115.0000    148.3174    127.4250    -32.9485      6.6680      6.7423
   114.5000    146.8103    133.5006    -30.2417      6.7354      6.8115
   114.0000    145.3212    136.4703    -30.3670      6.8327      6.8813
   113.5000    143.8888    135.0352    -33.7486      6.9412      6.9498
   113.0000    142.5551    133.9474    -34.3482      7.0302      7.0148
   112.5000    141.7196    133.1010    -32.2577      7.0841      7.0562
   112.0000    141.8636    130.9579    -32.6158      7.1022      7.0490
   111.5000    142.9450    129.6170    -34.9521      7.0848      6.9957
   111.0000    144.5116    130.6829    -37.0551      7.0350      6.9199
   110.5000    146.2286    135.1611    -38.0250      6.9658      6.8386
   110.0000    147.8778    140.8221    -35.1860      6.8843      6.7623
   109.5000    149.2010    142.2905    -30.3496      6.7890      6.7024
   109.0000    150.1161    138.1001    -27.5994      6.6937      6.6615
   108.5000    150.6422    131.7930    -27.0632      6.6292      6.6382
   108.0000    150.6137    129.7191    -27.2081      6.6116      6.6395
   107.5000    150.0454    132.4738    -27.9203      6.6376      6.6646
   107.0000    148.9449    132.5105    -27.5217      6.7066      6.7139
   106.5000    146.9738    128.0963    -26.5993      6.8233      6.8039
   106.0000    143.8959    124.2825    -28.6660      6.9701      6.9495
   105.5000    139.6449    121.8315    -33.8016      7.1231      7.1610
   105.0000    133.7887    118.2741    -38.4626      7.3071      7.4745
   104.5000    126.3694    115.2972    -39.5426      7.5877      7.9133
   104.0000    118.3057    114.9924    -36.6046      7.9974      8.4527
   103.5000    110.3903    114.8622    -30.9465      8.5254      9.0588
   103.0000    102.7506    111.4080    -26.0601      9.2079      9.7323
   102.5000     95.3767    106.4297    -24.1975     10.1588     10.4847
   102.0000     87.9458    105.8670    -24.7788     11.3677     11.3706
   101.5000     80.8710    109.2513    -23.9702     12.5816     12.3654
   101.0000     75.2439    112.2017    -24.2514     13.4348     13.2901
   100.5000     71.5533    112.6777    -27.3411     13.8893     13.9756
   100.0000     69.4523    110.4416    -29.7942     14.1443     14.3984
    99.5000     68.2637    106.9193    -29.9162     14.3434     14.6491
    99.0000     67.3624    104.0797    -31.2042     14.5434     14.8451
    98.5000     66.4971    103.2765    -32.7545     14.7701     15.0382
    98.0000     65.6380    102.6199    -31.5977     15.0273     15.2351
    97.5000     64.7446    101.6679    -30.8407     15.2894     15.4453
    97.0000     63.8090    100.5893    -33.4246     15.5256     15.6718
    96.5000     62.8336    100.2184    -35.7262     15.7449     15.9150
    96.0000     61.8158     99.0549    -34.8395     15.9822     16.1771
    95.5000     61.0111     98.0724    -33.7876     16.2329     16.3905
    95.0000     60.5738    100.2852    -34.6291     16.4546     16.5088
    94.5000     60.1954    103.3604    -34.8374     16.6474     16.6125
    94.0000     59.6200    103.2257    -34.5293     16.8604     16.7729
    93.5000     59.0110    100.7905    -36.5030     17.0809     16.9460
    93.0000     58.6459     98.7688    -41.2275     17.1994     17.0515
    92.5000     58.6514     97.2894    -43.7693     17.1492     17.0499
    92.0000     58.9723     96.7811    -41.1594     17.0001     16.9571
    91.5000     59.4311     97.3051    -37.6422     16.8388     16.8262
    91.0000     59.8996     99.5097    -34.5135     16.6639     16.6946
    90.5000     60.3763    103.4291    -30.1337     16.4549     16.5628
    90.0000     60.9191    104.6510    -27.5513     16.2469     16.4152
    89.5000     61.5675    101.2842    -30.1968     16.0752     16.2423
    89.0000     62.2673     96.9535    -34.5470     15.9284     16.0598
    88.5000     62.9723     98.5894    -36.2410     15.7894     15.8800
    88.0000     63.6916    105.0124    -35.6945     15.6619     15.7007
    87.5000     64.3920    109.7603    -36.0522     15.5465     15.5299
    87.0000     65.0116    109.3885    -37.3338     15.4183     15.3819
    86.5000     65.5861    107.2773    -37.8297     15.2454     15.2471
    86.0000     66.1943    105.5523    -38.4263     15.0418     15.1070
    85.5000     66.8709    103.3945    -36.9062     14.8588     14.9542
    85.0000     67.5655    101.4234    -32.1613     14.7122     14.8005
    84.5000     68.1346    101.4502    -30.1642     14.5838     14.6768
    84.0000     68.5698    102.9364    -33.6201     14.4597     14.5837
    83.5000     69.0527    104.6781    -38.5071     14.3590     14.4817
    83.0000     69.7162    106.3121    -44.7587     14.2991     14.3439
    82.5000     70.4403    106.8202    -49.5140     14.2370     14.1964
    82.0000     71.1335    106.1329    -46.4991     14.1278     14.0581
    81.5000     71.8677    106.7106    -39.3301     13.9827     13.9145
    81.0000     72.6931    106.7948    -37.0237     13.8316     13.7565
    80.5000     73.5633    106.1984    -39.0434     13.6643     13.5937
    80.0000     74.4111    106.7245    -40.6486     13.4766     13.4388
    79.5000     75.2646    106.4657    -40.1773     13.2973     13.2865
    79.0000     76.1180    103.1672    -38.8564     13.1788     13.1375
    78.5000     76.8021    100.2989    -38.5437     13.1329     13.0205
    78.0000     77.0750    100.7115    -36.7211     13.1113     12.9744
    77.5000     76.9039    102.5717    -31.4775     13.0697     13.0032
    77.0000     76.4842    104.8273    -27.8136     13.0072     13.0746
    76.5000     76.1086    106.5710    -29.5883     12.9384     13.1391
    76.0000     76.1640    106.6718    -33.1703     12.8656     13.1296
    75.5000     77.0336    105.8985    -36.5713     12.7710     12.9813
    75.0000     78.9780    105.9887    -41.4336     12.5962     12.6618
    74.5000     82.0042    105.4000    -43.4131     12.2816     12.1945
    74.0000     85.8586    102.8927    -36.9068     11.8424     11.6471
    73.5000     90.0576    101.9422    -27.9417     11.3746     11.1040
    73.0000     94.0241    102.7275    -26.6448     10.9630     10.6356
    72.5000     97.5278    104.0877    -30.3219     10.5914     10.2535
    72.0000    101.4575    105.4640    -29.1998     10.1600      9.8563
    71.5000    107.9619    106.2588    -27.2426      9.5920      9.2625
    71.0000    119.3531    106.6123    -28.4504      8.9031      8.3785
    70.5000    136.9768    107.7389    -28.2326      8.1195      7.3005
    70.0000    159.3582    108.9526    -28.5654      7.2955      6.2752
    69.5000    182.0846    111.7830    -32.7546      6.5267      5.4920
    69.0000    198.9335    118.3188    -35.0042      5.8785      5.0268
    68.5000    207.7585    126.2564    -33.8028      5.3337      4.8133
    68.0000    212.7184    130.1515    -35.1461      4.8481      4.7011
    67.5000    216.4677    126.6190    -35.3638      4.4589      4.6196
    67.0000    214.2485    118.6676    -33.3954      4.2951      4.6675
    66.5000    202.0736    110.4143    -32.6039      4.4746      4.9487
    66.0000    181.1093    103.5243    -30.0080      5.0784      5.5215
    65.5000    155.6248     98.2381    -29.9132      6.0705      6.4257
