~Version Information
 VERS.                1.20:   CWLS log ASCII Standard -VERSION 1.20
 WRAP.                  NO:   One line per frame
~Well Information Block
#MNEM.UNIT       Data Type    Information
#---------    -------------   -------------------------------
 STRT.F           737.0000:   Starting Depth
 STOP.F            -6.7500:   Ending Depth
 STEP.F            -0.5000:   Level Spacing
 NULL.           -999.2500:   Absent Value
 COMP.             COMPANY:   FLUOR DANIEL (NPSOR), INC.
 WELL.                WELL:   28-1 X 11
 FLD .               FIELD:   N.P.R. #3
 LOC .            LOCATION:   11-38N-78W
 CNTY.              COUNTY:   Natrona
 STAT.               STATE:   Wyoming
 SRVC.     SERVICE COMPANY:   Western Atlas Logging Services
 LIC .      LICENSE NUMBER:   
 DATE.            LOG DATE:   16-December-1995
 API .          API NUMBER:   4902522745
~Curve Information Block
#MNEM.UNIT       API Codes    Curve Description
#---------    -------------   -------------------------------
 DEPT.F        0   1  0  1:   Depth
 CILD.MMHO     0 110 46  1:   Conductivity of Deep Induction
 GR  .API      0 310  1  1:   Gamma ray counts
 TEN .LBF      0 635 99  1:   Differential Tension
 RILM.OHMM     0 120 44  1:   Resistivity from CILM
 RILD.OHMM     0 120 46  1:   Resistivity from CILD
#  Curve Data
~A   DEPT        CILD        GR          TEN         RILM        RILD
# ...
   625.0000    140.3285    115.3699    102.3275      7.3954      7.1261
   624.5000    128.4809    114.7415    103.8510      8.0164      7.7833
   624.0000    120.6239    118.7593    107.5064      8.4115      8.2902
   623.5000    115.8650    122.0231    108.2247      8.6530      8.6307
   623.0000    112.7405    120.9196    106.3282      8.8325      8.8699
   622.5000    110.2130    117.4612    104.1776      9.0027      9.0733
   622.0000    107.8856    113.4752    102.5175      9.1820      9.2691
   621.5000    105.5400    110.7399    102.2531      9.3714      9.4751
   621.0000    103.1562    110.4098    101.7526      9.5567      9.6940
   620.5000    100.9180    111.4364    100.1861      9.7223      9.9090
   620.0000     99.1415    114.1758    100.2401      9.8683     10.0866
   619.5000     98.0207    116.3437     99.7225     10.0049     10.2019
   619.0000     97.4326    114.9289     95.2603     10.1361     10.2635
   618.5000     97.0397    113.3535     90.7326     10.2612     10.3051
   618.0000     96.4885    114.7988     91.9194     10.3760     10.3639
   617.5000     95.6882    113.0089     94.8431     10.4886     10.4506
   617.0000     94.8021    107.7461     95.9688     10.6037     10.5483
   616.5000     94.0431    106.3431     96.5008     10.7037     10.6334
   616.0000     93.3723    109.6358     96.8967     10.7789     10.7098
   615.5000     92.7263    112.0038     96.4837     10.8493     10.7844
   615.0000     92.1449    111.8947     96.6728     10.9250     10.8525
   614.5000     91.5634    110.7445     94.7977     10.9950     10.9214
   614.0000     90.9341    108.4744     89.2952     11.0521     10.9970
   613.5000     90.3840    106.2227     87.6616     11.1051     11.0639
   613.0000     89.9977    105.6552     89.6102     11.1612     11.1114
   612.5000     89.7711    104.8641     87.6997     11.2257     11.1394
   612.0000     89.6634    102.9604     83.7603     11.2878     11.1528
   611.5000     89.6265    103.4319     82.8325     11.3282     11.1574
   611.0000     89.6739    105.4609     83.6569     11.3407     11.1515
   610.5000     89.7963    105.5978     83.9082     11.3268     11.1363
   610.0000     89.9097    105.3857     83.5376     11.2801     11.1223
   609.5000     90.0509    107.3461     80.9866     11.2030     11.1048
   609.0000     90.3092    109.1016     80.6167     11.1198     11.0731
   608.5000     90.5158    110.0202     87.3743     11.0639     11.0478
   608.0000     90.4335    110.2171     93.2620     11.0588     11.0579
   607.5000     90.1033    107.8524     86.3397     11.1007     11.0984
   607.0000     89.6665    104.3973     73.9738     11.1730     11.1524
   606.5000     89.1641    102.5165     71.3822     11.2560     11.2153
   606.0000     88.6668    100.8938     75.6409     11.3348     11.2782
   605.5000     88.1773     99.8426     77.5639     11.4022     11.3408
   605.0000     87.6362    100.4075     73.2424     11.4553     11.4108
   604.5000     87.1405     99.6512     68.2468     11.4893     11.4757
   604.0000     86.7606     96.7230     68.7314     11.5076     11.5260
   603.5000     86.3891     95.7661     75.1069     11.5259     11.5755
   603.0000     85.9530     98.8757     79.9469     11.5585     11.6343
   602.5000     85.5242    103.6699     81.2218     11.6111     11.6926
   602.0000     85.1686    106.0909     77.3669     11.6779     11.7414
   601.5000     84.9466    105.1072     70.1366     11.7413     11.7721
   601.0000     84.8423    103.0832     68.3246     11.7938     11.7866
   600.5000     84.7385    102.4869     74.8568     11.8359     11.8010
   600.0000     84.6076    102.7075     78.1925     11.8518     11.8193
   599.5000     84.6082    102.0222     73.6977     11.8314     11.8192
   599.0000     84.7999    100.6134     69.1404     11.7966     11.7925
   598.5000     85.0418     98.9029     69.0093     11.7623     11.7589
   598.0000     85.2099     96.9271     68.5033     11.7347     11.7357
   597.5000     85.2536     94.9061     66.5565     11.7156     11.7297
   597.0000     85.1511     93.5226     64.1598     11.7039     11.7438
   596.5000     84.9654     91.7604     64.4764     11.7053     11.7695
   596.0000     84.7796     89.8020     65.3182     11.7352     11.7953
   595.5000     84.5451     89.5726     63.4287     11.7887     11.8280
   595.0000     84.1696     91.6724     57.7377     11.8519     11.8808
   594.5000     83.6757     94.4724     55.2355     11.9059     11.9509
   594.0000     83.1721     95.4457     58.2690     11.9577     12.0233
   593.5000     82.6843     94.1945     62.4140     12.0405     12.0942
   593.0000     82.1569     92.3592     64.9055     12.1535     12.1718
   592.5000     81.5214     91.3208     64.2900     12.2681     12.2667
   592.0000     80.7928     90.6867     61.1891     12.3793     12.3773
   591.5000     80.0651     90.2501     57.9155     12.4946     12.4898
   591.0000     79.4044     90.7771     56.9853     12.6035     12.5938
   590.5000     78.6770     91.5815     55.5960     12.7042     12.7102
   590.0000     77.8316     92.8289     53.8535     12.8107     12.8482
   589.5000     76.9798     94.8319     55.6259     12.9316     12.9904
   589.0000     76.1857     97.3640     56.9932     13.0541     13.1258
   588.5000     75.3923     98.6552     54.1866     13.1529     13.2639
   588.0000     74.6658     98.9822     52.1596     13.2190     13.3930
   587.5000     74.0522     99.7954     51.7390     13.2733     13.5040
   587.0000     73.4599     99.4757     50.6239     13.3483     13.6129
   586.5000     72.6753     97.0160     50.0959     13.4733     13.7598
   586.0000     71.5178     94.1674     51.8384     13.6648     13.9825
   585.5000     69.9939     92.3486     52.9013     13.9117     14.2870
   585.0000     68.3596     91.3704     53.2521     14.1795     14.6285
   584.5000     66.9091     91.2078     53.9298     14.4534     14.9457
   584.0000     65.8210     91.1491     56.6178     14.7498     15.1927
   583.5000     65.2488     90.5268     58.1821     15.0675     15.3260
   583.0000     65.2527     91.1579     55.9458     15.3466     15.3250
   582.5000     65.6944     94.5977     56.1340     15.4749     15.2220
   582.0000     66.3996     99.2398     57.9238     15.3680     15.0603
   581.5000     67.4059    102.1063     54.6889     15.0371     14.8355
   581.0000     68.7030    103.1704     50.4805     14.5662     14.5554
   580.5000     70.0878    103.7824     49.9654     14.0748     14.2678
   580.0000     71.2679    102.9024     48.9281     13.6721     14.0316
   579.5000     72.0631    102.4863     45.7985     13.4357     13.8767
   579.0000     72.3938    104.6709     47.1478     13.3898     13.8133
   578.5000     72.1962    106.7232     52.8781     13.5218     13.8512
   578.0000     71.4144    105.0174     55.5451     13.8099     14.0028
   577.5000     69.9954    101.9839     52.9468     14.2259     14.2866
   577.0000     68.1715    101.7947     51.9162     14.6567     14.6689
   576.5000     66.3915    103.5439     49.0449     14.9710     15.0622
   576.0000     64.9596    102.4017     43.2655     15.1821     15.3942
   575.5000     63.8383     97.5048     43.0642     15.3744     15.6646
   575.0000     62.9232     94.3210     45.9501     15.5755     15.8924
   574.5000     62.1074     94.4157     42.0943     15.8146     16.1011
   574.0000     61.2306     93.7738     36.6479     16.1120     16.3317
   573.5000     60.2294     90.4063     37.5242     16.3941     16.6032
   573.0000     59.1616     87.7382     42.3782     16.5907     16.9028
   572.5000     58.1157     89.2826     44.6550     16.7376     17.2070
   572.0000     57.2782     93.8516     41.3766     16.9270     17.4587
   571.5000     56.7160     96.3885     36.8196     17.2009     17.6317
   571.0000     56.2699     94.0191     38.5935     17.5024     17.7715
   570.5000     55.7641     90.0371     40.7349     17.7856     17.9327
   570.0000     55.2180     88.3166     35.2101     18.0875     18.1100
   569.5000     54.7051     89.3110     27.4530     18.4225     18.2798
