~Version Information
 VERS.                1.20:   CWLS log ASCII Standard -VERSION 1.20
 WRAP.                  NO:   One line per frame
~Well Information Block
#MNEM.UNIT       Data Type    Information
#---------    -------------   -------------------------------
 STRT.F           737.0000:   Starting Depth
 STOP.F            -6.7500:   Ending Depth
 STEP.F            -0.5000:   Level Spacing
 NULL.           -999.2500:   Absent Value
 COMP.             COMPANY:   FLUOR DANIEL (NPSOR), INC.
 WELL.                WELL:   28-1 X 11
 FLD .               FIELD:   N.P.R. #3
 LOC .            LOCATION:   11-38N-78W
 CNTY.              COUNTY:   Natrona
 STAT.               STATE:   Wyoming
 SRVC.     SERVICE COMPANY:   Western Atlas Logging Services
 LIC .      LICENSE NUMBER:   
 DATE.            LOG DATE:   16-December-1995
 API .          API NUMBER:   4902522745
~Curve Information Block
#MNEM.UNIT       API Codes    Curve Description
#---------    -------------   -------------------------------
 DEPT.F        0   1  0  1:   Depth
 CILD.MMHO     0 110 46  1:   Conductivity of Deep Induction
 GR  .API      0 310  1  1:   Gamma ray counts
 TEN .LBF      0 635 99  1:   Differential Tension
 RILM.OHMM     0 120 44  1:   Resistivity from CILM
 RILD.OHMM     0 120 46  1:   Resistivity from CILD
#  Curve Data
~A   DEPT        CILD        GR          TEN         RILM        RILD
# ...
   401.0000    199.8396    151.0518    -27.8977      4.7752      5.0040
   400.5000    194.2099    146.9376    -26.8809      4.9179      5.1491
   400.0000    187.9681    141.8808    -27.7654      5.1875      5.3201
   399.5000    180.4144    142.5650    -28.1420      5.5189      5.5428
   399.0000    173.0186    146.3497    -27.3652      5.7772      5.7797
   398.5000    168.4848    145.2011    -28.1768      5.8752      5.9353
   398.0000    168.9084    139.4449    -29.8665      5.8219      5.9204
   397.5000    175.3115    134.7509    -28.1991      5.6764      5.7041
   397.0000    188.1955    133.0623    -22.7188      5.4633      5.3136
   396.5000    206.8394    132.7953    -20.2047      5.1686      4.8347
   396.0000    228.7341    133.8329    -24.5104      4.8035      4.3719
   395.5000    252.8876    135.3206    -32.4880      4.3964      3.9543
   395.0000    283.0889    134.1050    -36.2724      3.9309      3.5325
   394.5000    319.0796    129.7111    -33.2682      3.4233      3.1340
   394.0000    357.7329    123.5444    -28.3772      2.9827      2.7954
   393.5000    391.9741    116.4967    -26.0046      2.6908      2.5512
   393.0000    413.6858    111.8936    -26.0842      2.5339      2.4173
   392.5000    419.7739    113.0803    -27.8736      2.4482      2.3822
   392.0000    414.0911    119.6635    -30.3042      2.4001      2.4149
   391.5000    400.9548    127.9822    -30.8681      2.4009      2.4940
   391.0000    381.2495    132.0524    -30.3707      2.4857      2.6230
   390.5000    354.6350    129.1605    -31.3525      2.6831      2.8198
   390.0000    321.3354    125.1251    -34.1158      3.0237      3.1120
   389.5000    283.5029    124.6979    -36.3749      3.5009      3.5273
   389.0000    246.3063    125.6306    -35.2336      4.0658      4.0600
   388.5000    216.0452    124.2998    -31.3149      4.6530      4.6287
   388.0000    192.0172    123.1070    -29.0720      5.1958      5.2079
   387.5000    173.7193    125.6371    -30.5711      5.6598      5.7564
   387.0000    159.8512    130.3761    -32.7204      6.0637      6.2558
   386.5000    149.5631    133.8939    -33.5238      6.4230      6.6861
   386.0000    142.0269    134.5292    -33.7092      6.7440      7.0409
   385.5000    136.4091    132.0763    -33.9117      7.0285      7.3309
   385.0000    131.9298    131.3447    -34.7127      7.2751      7.5798
   384.5000    128.4875    134.9694    -35.9555      7.4755      7.7829
   384.0000    126.3465    137.9578    -35.1323      7.6186      7.9147
   383.5000    125.4509    135.4844    -32.5438      7.7090      7.9712
   383.0000    125.3117    129.7690    -31.4013      7.7735      7.9801
   382.5000    125.3778    126.6050    -32.4871      7.8374      7.9759
   382.0000    125.2702    127.1053    -34.3961      7.9086      7.9827
   381.5000    124.8896    128.9304    -35.2092      7.9911      8.0071
   381.0000    124.2826    130.1200    -33.1907      8.0892      8.0462
   380.5000    123.5669    130.4413    -29.0070      8.1913      8.0928
   380.0000    122.7726    130.7244    -26.2395      8.2766      8.1451
   379.5000    121.9877    132.3817    -26.6219      8.3307      8.1975
   379.0000    121.4475    133.6487    -28.4708      8.3506      8.2340
   378.5000    121.3159    134.2640    -29.7241      8.3413      8.2429
   378.0000    121.5555    134.1982    -30.4439      8.3102      8.2267
   377.5000    122.0460    132.3950    -30.7037      8.2718      8.1936
   377.0000    122.6747    128.9527    -31.5169      8.2430      8.1516
   376.5000    123.3430    126.0784    -32.7143      8.2142      8.1075
   376.0000    124.0914    124.8256    -30.9953      8.1640      8.0586
   375.5000    124.9986    125.8125    -26.7878      8.0954      8.0001
   375.0000    125.9904    129.3306    -26.6381      8.0251      7.9371
   374.5000    126.9068    131.8482    -31.0219      7.9541      7.8798
   374.0000    127.5789    130.6134    -33.8022      7.8846      7.8383
   373.5000    128.0656    128.6566    -34.1996      7.8282      7.8085
   373.0000    128.8080    128.4355    -37.1774      7.7855      7.7635
   372.5000    130.1555    125.6195    -39.7677      7.7369      7.6831
   372.0000    131.9698    121.4006    -36.4997      7.6537      7.5775
   371.5000    134.0367    121.3488    -31.0719      7.5310      7.4606
   371.0000    136.2847    123.5746    -30.6803      7.3954      7.3376
   370.5000    138.6068    124.8962    -35.3669      7.2731      7.2147
   370.0000    140.8926    127.2603    -38.5023      7.1606      7.0976
   369.5000    143.3445    129.8466    -38.1091      7.0433      6.9762
   369.0000    146.5449    129.3291    -36.3783      6.9130      6.8238
   368.5000    151.3012    127.3563    -36.6100      6.7571      6.6093
   368.0000    158.4998    127.8855    -37.8273      6.5517      6.3092
   367.5000    168.9472    130.4447    -37.5543      6.2737      5.9190
   367.0000    181.7621    130.2431    -35.0390      5.9328      5.5017
   366.5000    193.8924    126.8649    -33.0324      5.5885      5.1575
   366.0000    202.2400    122.1499    -32.0930      5.2962      4.9446
   365.5000    206.3301    118.4091    -29.6033      5.0347      4.8466
   365.0000    207.8721    118.4137    -28.2689      4.7543      4.8106
   364.5000    208.4224    122.8928    -30.5488      4.5233      4.7979
   364.0000    207.5369    127.1009    -34.2256      4.4812      4.8184
   363.5000    202.8183    127.8977    -35.6322      4.7059      4.9305
   363.0000    193.0010    126.8482    -35.3763      5.1442      5.1813
   362.5000    180.2473    125.1594    -34.3588      5.6403      5.5479
   362.0000    168.0872    124.4311    -33.0486      6.0698      5.9493
   361.5000    158.6765    123.9526    -32.9226      6.3794      6.3021
   361.0000    152.4814    123.1284    -34.3576      6.5824      6.5582
   360.5000    148.4077    121.3791    -34.5446      6.7274      6.7382
   360.0000    145.1581    120.5850    -31.9533      6.8512      6.8890
   359.5000    142.2331    122.0211    -31.2866      6.9638      7.0307
   359.0000    139.7247    123.6039    -34.6602      7.0697      7.1569
   358.5000    137.6057    123.2925    -37.5235      7.1781      7.2671
   358.0000    135.8057    124.0407    -37.6333      7.2892      7.3635
   357.5000    134.3471    127.3352    -37.3033      7.3872      7.4434
   357.0000    133.3251    128.4508    -36.9358      7.4541      7.5005
   356.5000    132.9235    126.8070    -36.0330      7.4847      7.5231
   356.0000    133.2896    125.5892    -35.4883      7.4856      7.5025
   355.5000    134.2733    125.4586    -34.1902      7.4713      7.4475
   355.0000    135.4182    124.0601    -32.7070      7.4537      7.3845
   354.5000    136.4811    120.7332    -32.8772      7.4340      7.3270
   354.0000    137.7151    118.9688    -33.9017      7.3956      7.2614
   353.5000    139.8293    120.4812    -33.7513      7.3071      7.1516
   353.0000    143.5080    121.8349    -32.8091      7.1510      6.9683
   352.5000    148.5789    120.3661    -32.8116      6.9477      6.7304
   352.0000    153.7604    117.8096    -34.4119      6.7432      6.5036
   351.5000    157.7356    116.6422    -36.1279      6.5687      6.3397
   351.0000    160.0158    117.1979    -34.8017      6.4148      6.2494
   350.5000    160.7783    120.3576    -30.6528      6.2609      6.2197
   350.0000    160.5030    124.4828    -27.4527      6.1318      6.2304
   349.5000    159.5258    126.6178    -29.7994      6.0882      6.2686
   349.0000    157.4058    126.1441    -35.8372      6.1774      6.3530
   348.5000    153.4940    126.4864    -39.2416      6.4045      6.5149
   348.0000    148.0857    126.4574    -39.2517      6.7321      6.7528
   347.5000    142.2839    123.8235    -39.6232      7.0866      7.0282
   347.0000    137.1287    121.3628    -39.4493      7.3876      7.2924
   346.5000    133.2063    121.2073    -39.0000      7.5904      7.5072
   346.0000    130.5576    121.8026    -40.0453      7.7109      7.6595
   345.5000    128.7411    123.0161    -40.0407      7.7958      7.7675
