~Version Information
 VERS.                1.20:   CWLS log ASCII Standard -VERSION 1.20
 WRAP.                  NO:   One line per frame
~Well Information Block
#MNEM.UNIT       Data Type    Information
#---------    -------------   -------------------------------
 STRT.F           737.0000:   Starting Depth
 STOP.F            -6.7500:   Ending Depth
 STEP.F            -0.5000:   Level Spacing
 NULL.           -999.2500:   Absent Value
 COMP.             COMPANY:   FLUOR DANIEL (NPSOR), INC.
 WELL.                WELL:   28-1 X 11
 FLD .               FIELD:   N.P.R. #3
 LOC .            LOCATION:   11-38N-78W
 CNTY.              COUNTY:   Natrona
 STAT.               STATE:   Wyoming
 SRVC.     SERVICE COMPANY:   Western Atlas Logging Services
 LIC .      LICENSE NUMBER:   
 DATE.            LOG DATE:   16-December-1995
 API .          API NUMBER:   4902522745
~Curve Information Block
#MNEM.UNIT       API Codes    Curve Description
#---------    -------------   -------------------------------
 DEPT.F        0   1  0  1:   Depth
 CILD.MMHO     0 110 46  1:   Conductivity of Deep Induction
 GR  .API      0 310  1  1:   Gamma ray counts
 TEN .LBF      0 635 99  1:   Differential Tension
 RILM.OHMM     0 120 44  1:   Resistivity from CILM
 RILD.OHMM     0 120 46  1:   Resistivity from CILD
#  Curve Data
~A   DEPT        CILD        GR          TEN         RILM        RILD
# ...
   233.0000    128.9159    142.7859    -37.2777      7.7567      7.7570
   232.5000    129.4802    140.1823    -41.2271      7.6820      7.7232
   232.0000    128.6784    140.5511    -44.4135      7.7006      7.7713
   231.5000    126.7693    142.2144    -43.9130      7.7904      7.8883
   231.0000    124.1463    142.5330    -40.4650      7.9414      8.0550
   230.5000    121.2853    142.3483    -36.9025      8.1496      8.2450
   230.0000    118.4965    142.3424    -36.8220      8.4020      8.4391
   229.5000    115.7960    142.1212    -38.9836      8.6697      8.6359
   229.0000    113.1922    141.3577    -41.2839      8.9123      8.8345
   228.5000    110.9008    138.7020    -43.4988      9.1012      9.0171
   228.0000    109.0836    137.4659    -43.8788      9.2317      9.1673
   227.5000    107.6921    140.9918    -41.5605      9.3176      9.2857
   227.0000    106.5787    145.0281    -40.0114      9.3716      9.3827
   226.5000    105.6369    145.9271    -41.0380      9.4088      9.4664
   226.0000    104.9074    143.8359    -43.7480      9.4545      9.5322
   225.5000    104.4142    141.1145    -46.3527      9.5267      9.5772
   225.0000    104.1017    139.5261    -47.2997      9.6099      9.6060
   224.5000    103.9639    139.6910    -45.0113      9.6675      9.6187
   224.0000    103.9585    140.3340    -39.8388      9.6873      9.6192
   223.5000    103.9558    140.1245    -36.8175      9.6813      9.6195
   223.0000    103.9987    138.2187    -38.3489      9.6550      9.6155
   222.5000    104.2024    134.4548    -39.7320      9.6132      9.5967
   222.0000    104.3745    132.4812    -39.0821      9.5821      9.5809
   221.5000    104.2945    133.0964    -39.8318      9.5892      9.5882
   221.0000    103.9212    133.6155    -41.1259      9.6336      9.6227
   220.5000    103.3092    134.1635    -40.9359      9.6985      9.6797
   220.0000    102.5296    135.2360    -40.1121      9.7796      9.7533
   219.5000    101.6864    135.2119    -38.8585      9.8776      9.8342
   219.0000    100.8812    134.4640    -36.0708      9.9755      9.9126
   218.5000    100.1639    135.8797    -32.6823     10.0556      9.9836
   218.0000     99.5840    137.3741    -33.1117     10.1181     10.0418
   217.5000     99.1720    136.8104    -38.0072     10.1623     10.0835
   217.0000     98.9192    136.0982    -39.9946     10.1839     10.1093
   216.5000     98.6507    134.9297    -35.8833     10.1957     10.1368
   216.0000     98.1770    131.8034    -33.4820     10.2222     10.1857
   215.5000     97.4525    129.7318    -36.7232     10.2743     10.2614
   215.0000     96.5117    129.9518    -41.4406     10.3435     10.3614
   214.5000     95.4036    130.7015    -43.2533     10.4171     10.4818
   214.0000     94.1962    131.4845    -41.8137     10.5050     10.6161
   213.5000     93.0651    132.7839    -40.1130     10.6225     10.7452
   213.0000     92.1896    132.2705    -40.5995     10.7567     10.8472
   212.5000     91.6138    131.9861    -42.9830     10.8783     10.9154
   212.0000     91.3121    133.2253    -44.5373     10.9822     10.9514
   211.5000     91.2117    132.9928    -41.9351     11.0717     10.9635
   211.0000     91.2908    130.5689    -38.6746     11.1124     10.9540
   210.5000     91.6256    129.7353    -41.4818     11.0497     10.9140
   210.0000     92.3408    129.8506    -45.2516     10.8864     10.8295
   209.5000     93.3969    129.0512    -43.2295     10.7002     10.7070
   209.0000     94.6146    127.7966    -39.1492     10.5554     10.5692
   208.5000     95.8542    125.6593    -37.8715     10.4417     10.4325
   208.0000     97.1376    125.0191    -39.5399     10.3228     10.2947
   207.5000     98.5037    129.9606    -42.2309     10.1973     10.1519
   207.0000     99.9371    135.3766    -42.9592     10.0800     10.0063
   206.5000    101.5833    135.1102    -41.1234      9.9546      9.8441
   206.0000    103.4578    134.1723    -37.7614      9.7983      9.6658
   205.5000    105.5102    137.0363    -35.1647      9.6170      9.4778
   205.0000    107.7286    138.3773    -35.1088      9.4298      9.2826
   204.5000    109.9770    135.8709    -35.0890      9.2437      9.0928
   204.0000    111.8837    135.3645    -34.6739      9.0557      8.9379
   203.5000    113.3182    138.5255    -37.6336      8.8776      8.8247
   203.0000    114.5174    140.7463    -41.8701      8.7360      8.7323
   202.5000    115.4843    140.7429    -42.4978      8.6454      8.6592
   202.0000    116.0280    140.3188    -41.2116      8.5984      8.6186
   201.5000    116.2739    139.0832    -40.7907      8.5818      8.6004
   201.0000    116.5311    137.4595    -41.0018      8.5821      8.5814
   200.5000    116.9634    137.4189    -41.1536      8.5853      8.5497
   200.0000    117.6132    136.6490    -41.0862      8.5807      8.5024
   199.5000    118.5016    134.5187    -39.1056      8.5575      8.4387
   199.0000    119.5236    134.6025    -38.7823      8.4984      8.3666
   198.5000    120.5433    138.0098    -42.1278      8.3987      8.2958
   198.0000    121.6038    139.2299    -44.5025      8.2792      8.2234
   197.5000    122.8453    137.0478    -43.2411      8.1638      8.1403
   197.0000    124.2435    135.8793    -41.4046      8.0657      8.0487
   196.5000    125.5681    137.9209    -41.8430      7.9938      7.9638
   196.0000    126.5777    140.1778    -42.7933      7.9523      7.9003
   195.5000    127.2119    139.7299    -42.0811      7.9275      7.8609
   195.0000    127.7345    136.0462    -39.4612      7.8903      7.8287
   194.5000    128.5274    131.4514    -38.2195      7.8211      7.7804
   194.0000    129.6418    129.9356    -38.6773      7.7406      7.7136
   193.5000    130.7422    132.3882    -38.7749      7.6915      7.6486
   193.0000    131.4936    135.6501    -39.3050      7.6874      7.6049
   192.5000    131.8799    136.2766    -42.2645      7.6917      7.5827
   192.0000    132.1944    135.9054    -43.9944      7.6597      7.5646
   191.5000    132.6335    136.3759    -40.8380      7.5960      7.5396
   191.0000    133.1797    135.7201    -37.0669      7.5399      7.5087
   190.5000    133.7474    134.1254    -37.0984      7.5110      7.4768
   190.0000    134.3128    133.1271    -36.5741      7.5000      7.4453
   189.5000    134.7435    131.7475    -34.6806      7.4937      7.4215
   189.0000    134.9105    130.1234    -37.5400      7.4857      7.4123
   188.5000    134.8578    131.0570    -43.6040      7.4730      7.4152
   188.0000    134.8056    134.0513    -44.4473      7.4561      7.4181
   187.5000    134.9240    135.2813    -40.3320      7.4428      7.4116
   187.0000    135.0955    132.5388    -39.1059      7.4401      7.4022
   186.5000    135.0657    128.6350    -41.5681      7.4474      7.4038
   186.0000    134.6757    128.8625    -43.3423      7.4638      7.4252
   185.5000    133.9823    132.2884    -41.3467      7.4906      7.4637
   185.0000    133.1543    133.7402    -39.8586      7.5204      7.5101
   184.5000    132.2747    133.2595    -41.5587      7.5506      7.5600
   184.0000    131.3007    134.1429    -44.9826      7.5924      7.6161
   183.5000    130.2497    135.3518    -46.2133      7.6575      7.6776
   183.0000    129.0981    133.3804    -44.8146      7.7399      7.7460
   182.5000    127.8032    127.6290    -42.6665      7.8269      7.8245
   182.0000    126.5288    122.2811    -41.6975      7.9110      7.9033
   181.5000    125.4562    121.3710    -41.5251      7.9891      7.9709
   181.0000    124.5892    122.5743    -41.0307      8.0473      8.0264
   180.5000    124.0950    123.8114    -40.9530      8.0665      8.0583
   180.0000    124.1350    128.4123    -42.6408      8.0501      8.0557
   179.5000    124.5890    133.4653    -46.1816      8.0241      8.0264
   179.0000    125.1383    133.3902    -47.9448      8.0067      7.9912
   178.5000    125.4632    129.5465    -44.9271      7.9981      7.9705
   178.0000    125.4337    126.6003    -39.6723      7.9924      7.9723
   177.5000    125.3752    126.9792    -36.5250      7.9790      7.9761
