~Version Information
 VERS.                1.20:   CWLS log ASCII Standard -VERSION 1.20
 WRAP.                  NO:   One line per frame
~Well Information Block
#MNEM.UNIT       Data Type    Information
#---------    -------------   -------------------------------
 STRT.F           737.0000:   Starting Depth
 STOP.F            -6.7500:   Ending Depth
 STEP.F            -0.5000:   Level Spacing
 NULL.           -999.2500:   Absent Value
 COMP.             COMPANY:   FLUOR DANIEL (NPSOR), INC.
 WELL.                WELL:   28-1 X 11
 FLD .               FIELD:   N.P.R. #3
 LOC .            LOCATION:   11-38N-78W
 CNTY.              COUNTY:   Natrona
 STAT.               STATE:   Wyoming
 SRVC.     SERVICE COMPANY:   Western Atlas Logging Services
 LIC .      LICENSE NUMBER:   
 DATE.            LOG DATE:   16-December-1995
 API .          API NUMBER:   4902522745
~Curve Information Block
#MNEM.UNIT       API Codes    Curve Description
#---------    -------------   -------------------------------
 DEPT.F        0   1  0  1:   Depth
 CILD.MMHO     0 110 46  1:   Conductivity of Deep Induction
 GR  .API      0 310  1  1:   Gamma ray counts
 TEN .LBF      0 635 99  1:   Differential Tension
 RILM.OHMM     0 120 44  1:   Resistivity from CILM
 RILD.OHMM     0 120 46  1:   Resistivity from CILD
#  Curve Data
~A   DEPT        CILD        GR          TEN         RILM        RILD
# ...
   457.0000    127.5306    141.1684    -22.5307      7.8501      7.8413
   456.5000    127.8382    138.7423    -27.0129      7.8381      7.8224
   456.0000    128.5532    133.0797    -24.9505      7.8212      7.7789
   455.5000    129.8210    129.9146    -19.7088      7.7681      7.7029
   455.0000    131.6674    132.2566    -17.4713      7.6703      7.5949
   454.5000    134.2925    136.2280    -16.6237      7.5491      7.4464
   454.0000    137.9028    137.9481    -15.9112      7.4088      7.2515
   453.5000    142.5765    136.5660    -19.0671      7.2253      7.0138
   453.0000    148.3300    137.0545    -22.6386      6.9890      6.7417
   452.5000    155.2650    139.8137    -21.4098      6.7203      6.4406
   452.0000    163.7981    140.5717    -18.5592      6.4248      6.1051
   451.5000    174.4384    140.0376    -18.4812      6.0743      5.7327
   451.0000    186.6044    140.2684    -20.0958      5.6779      5.3589
   450.5000    197.5731    141.1901    -21.7605      5.3318      5.0614
   450.0000    203.9185    145.7490    -22.3385      5.1207      4.9039
   449.5000    204.6591    152.4569    -22.6862      5.0093      4.8862
   449.0000    202.1225    156.3168    -23.5430      4.8910      4.9475
   448.5000    199.3969    155.1020    -24.2005      4.7671      5.0151
   448.0000    196.9924    149.1709    -22.8149      4.7756      5.0763
   447.5000    192.2528    142.7145    -20.4500      5.0281      5.2015
   447.0000    183.3499    141.6621    -19.5212      5.4795      5.4541
   446.5000    172.2635    144.6967    -20.7333      5.9830      5.8051
   446.0000    162.3521    145.2835    -21.0496      6.3805      6.1594
   445.5000    155.3745    142.1368    -20.8102      6.6023      6.4361
   445.0000    152.3824    140.6215    -21.8407      6.6487      6.5624
   444.5000    154.1236    143.4946    -22.8884      6.5691      6.4883
   444.0000    160.2992    146.5808    -23.8318      6.4096      6.2383
   443.5000    170.1890    148.4669    -25.3306      6.1699      5.8758
   443.0000    182.2274    150.6017    -26.7372      5.8581      5.4876
   442.5000    192.8350    150.0802    -27.9956      5.5496      5.1858
   442.0000    198.7016    145.5274    -28.5154      5.3091      5.0327
   441.5000    200.1601    142.1599    -26.5972      5.0906      4.9960
   441.0000    200.2122    143.1560    -23.5067      4.8152      4.9947
   440.5000    201.4531    145.6228    -22.5258      4.5586      4.9639
   440.0000    203.4910    148.3103    -24.5010      4.5007      4.9142
   439.5000    202.5963    151.1792    -26.5716      4.7341      4.9359
   439.0000    196.2804    152.7388    -26.8848      5.1816      5.0948
   438.5000    186.7795    152.7000    -27.4073      5.6308      5.3539
   438.0000    177.4690    154.3262    -28.6246      5.9245      5.6348
   437.5000    169.9390    158.4951    -26.0879      6.0472      5.8845
   437.0000    165.1529    159.1138    -20.6753      6.0482      6.0550
   436.5000    163.0350    154.6273    -19.0067      5.9896      6.1337
   436.0000    161.9795    150.4222    -22.1168      5.9670      6.1736
   435.5000    160.2247    150.0843    -24.1264      6.0849      6.2412
   435.0000    156.6284    153.0500    -23.1221      6.3633      6.3845
   434.5000    151.2416    156.5117    -21.0770      6.6963      6.6119
   434.0000    145.8284    155.8535    -19.1723      6.9477      6.8574
   433.5000    142.0001    150.1312    -19.2074      7.0839      7.0422
   433.0000    139.9982    144.4679    -21.7614      7.1449      7.1430
   432.5000    139.5142    142.7053    -24.6379      7.1659      7.1677
   432.0000    140.0025    143.5740    -25.8222      7.1730      7.1427
   431.5000    140.6127    144.5797    -26.0311      7.1833      7.1117
   431.0000    140.8570    146.8940    -26.1937      7.1905      7.0994
   430.5000    140.8081    150.0445    -27.1627      7.1775      7.1019
   430.0000    140.6159    149.5084    -27.5860      7.1561      7.1116
   429.5000    140.3615    145.9183    -26.0665      7.1522      7.1245
   429.0000    140.0414    145.8417    -23.7708      7.1727      7.1407
   428.5000    139.5349    149.2479    -21.6751      7.2089      7.1667
   428.0000    138.8270    151.7527    -20.7668      7.2534      7.2032
   427.5000    138.1277    152.5997    -21.5052      7.2942      7.2397
   427.0000    137.4701    150.9760    -22.0131      7.3226      7.2743
   426.5000    136.7692    146.7265    -21.9271      7.3395      7.3116
   426.0000    136.1836    145.6900    -23.0577      7.3485      7.3430
   425.5000    136.0655    148.8354    -24.9255      7.3488      7.3494
   425.0000    136.5986    150.4609    -26.0998      7.3319      7.3207
   424.5000    137.7072    149.2651    -27.6211      7.2878      7.2618
   424.0000    139.0309    147.7418    -30.3329      7.2218      7.1926
   423.5000    140.1936    145.4875    -31.6614      7.1615      7.1330
   423.0000    141.1312    144.1680    -31.4775      7.1206      7.0856
   422.5000    142.2467    145.2560    -32.3102      7.0713      7.0300
   422.0000    144.3864    146.5991    -32.7134      6.9766      6.9259
   421.5000    148.5838    145.9877    -32.3803      6.8289      6.7302
   421.0000    155.5856    143.5006    -33.7760      6.6378      6.4273
   420.5000    165.5466    140.0635    -33.1422      6.3936      6.0406
   420.0000    177.3568    139.1381    -26.8174      6.0831      5.6384
   419.5000    188.4990    140.4653    -22.3540      5.7409      5.3051
   419.0000    196.7158    140.9947    -24.2960      5.4219      5.0835
   418.5000    201.9105    140.2662    -26.2001      5.1253      4.9527
   418.0000    205.5589    141.4724    -25.4260      4.8290      4.8648
   417.5000    208.3796    144.8909    -26.4160      4.5991      4.7989
   417.0000    209.2245    148.3961    -28.8432      4.5477      4.7796
   416.5000    205.9042    148.1322    -29.2669      4.7233      4.8566
   416.0000    197.7289    142.6196    -28.5837      5.0714      5.0574
   415.5000    186.8115    135.2577    -30.3493      5.4617      5.3530
   415.0000    176.2081    131.9760    -33.3816      5.8022      5.6751
   414.5000    167.5556    133.9242    -34.0340      6.0610      5.9682
   414.0000    161.1402    138.0073    -29.9266      6.2548      6.2058
   413.5000    156.4391    140.6906    -25.6057      6.4088      6.3923
   413.0000    152.4604    141.1174    -25.8722      6.5422      6.5591
   412.5000    148.7023    141.2413    -28.5495      6.6682      6.7248
   412.0000    145.2354    141.6920    -29.8842      6.7953      6.8854
   411.5000    142.0744    140.9763    -29.5841      6.9240      7.0386
   411.0000    139.0562    138.8714    -29.4538      7.0544      7.1913
   410.5000    136.3947    138.6669    -29.2312      7.1818      7.3317
   410.0000    134.7266    140.5206    -27.8017      7.2872      7.4224
   409.5000    134.5513    140.1068    -26.9553      7.3460      7.4321
   409.0000    135.9712    138.6781    -28.9189      7.3498      7.3545
   408.5000    138.8130    140.2588    -31.0835      7.2991      7.2039
   408.0000    142.9129    142.3509    -30.8864      7.1781      6.9973
   407.5000    148.1016    143.1440    -29.7213      6.9796      6.7521
   407.0000    154.1016    145.2820    -29.7701      6.7333      6.4892
   406.5000    160.7712    147.8008    -30.1084      6.4722      6.2200
   406.0000    168.5728    150.9310    -31.0743      6.1896      5.9322
   405.5000    177.7519    154.0195    -32.6844      5.8695      5.6258
   405.0000    187.6458    152.5619    -33.0236      5.5482      5.3292
   404.5000    197.0326    145.5584    -30.6192      5.2912      5.0753
   404.0000    204.9794    140.0064    -26.9955      5.1032      4.8785
   403.5000    210.8546    138.6890    -25.1134      4.9268      4.7426
   403.0000    214.0366    140.8024    -25.9942      4.7541      4.6721
   402.5000    214.1619    145.0837    -28.2790      4.6560      4.6694
   402.0000    211.1769    149.0796    -29.8827      4.6610      4.7354
   401.5000    205.8210    151.4436    -29.6792      4.7113      4.8586
