~Version Information
 VERS.                1.20:   CWLS log ASCII Standard -VERSION 1.20
 WRAP.                  NO:   One line per frame
~Well Information Block
#MNEM.UNIT       Data Type    Information
#---------    -------------   -------------------------------
 STRT.F           737.0000:   Starting Depth
 STOP.F            -6.7500:   Ending Depth
 STEP.F            -0.5000:   Level Spacing
 NULL.           -999.2500:   Absent Value
 COMP.             COMPANY:   FLUOR DANIEL (NPSOR), INC.
 WELL.                WELL:   28-1 X 11
 FLD .               FIELD:   N.P.R. #3
 LOC .            LOCATION:   11-38N-78W
 CNTY.              COUNTY:   Natrona
 STAT.               STATE:   Wyoming
 SRVC.     SERVICE COMPANY:   Western Atlas Logging Services
 LIC .      LICENSE NUMBER:   
 DATE.            LOG DATE:   16-December-1995
 API .          API NUMBER:   4902522745
~Curve Information Block
#MNEM.UNIT       API Codes    Curve Description
#---------    -------------   -------------------------------
 DEPT.F        0   1  0  1:   Depth
 CILD.MMHO     0 110 46  1:   Conductivity of Deep Induction
 GR  .API      0 310  1  1:   Gamma ray counts
 TEN .LBF      0 635 99  1:   Differential Tension
 RILM.OHMM     0 120 44  1:   Resistivity from CILM
 RILD.OHMM     0 120 46  1:   Resistivity from CILD
#  Curve Data
~A   DEPT        CILD        GR          TEN         RILM        RILD
   737.0000      0.0000      0.0000   -250.0000      0.2000      0.2000
   736.5000      0.0000      0.0000   -250.0000      0.2000      0.2000
   736.0000      0.0000      0.0000   -250.0000      0.2000      0.2000
   735.5000      0.0000      0.0000   -250.0000      0.2000      0.2000
   735.0000      0.0000      0.0000   -250.0000      0.2000      0.2000
   734.5000      0.0000      0.0000   -250.0000      0.2000      0.2000
   734.0000      0.0000      0.0000   -250.0000      0.2000      0.2000
   733.5000      0.0000      0.0000   -250.0000      0.2000      0.2000
   733.0000      0.0000      0.0000   -250.0000      0.2000      0.2000
   732.5000      0.0000      0.0000   -250.0000      0.2000      0.2000
   732.0000      0.0000      0.0000   -250.0000      0.2000      0.2000
   731.5000      0.0000      0.0000   -250.0000      0.2000      0.2000
   731.0000      0.0000      0.0000   -250.0000      0.2000      0.2000
   730.5000      0.0000      0.0000   -250.0000      0.2000      0.2000
   730.0000      0.0000      0.0000   -250.0000      0.2000      0.2000
   729.5000      0.0000      0.0000   -250.0000      0.2000      0.2000
   729.0000      0.0000      0.0000   -250.0000      0.2000      0.2000
   728.5000      0.0000      0.0000   -250.0000      0.2000      0.2000
   728.0000      0.0000      0.0000   -250.0000      0.2000      0.2000
   727.5000      0.0000      0.0000   -250.0000      0.2000      0.2000
   727.0000      0.0000      0.0000   -188.4802      0.2000      0.2000
   726.5000      0.0000      0.0000   -177.9302      0.2000      0.2000
   726.0000      0.0000      0.0000   -167.0714      0.2000      0.2000
   725.5000      0.0000      0.0000   -157.2805      0.2000      0.2000
   725.0000      0.0000      0.0000   -144.0323      0.2000      0.2000
   724.5000      0.0000      0.0000   -130.6824      0.2000      0.2000
   724.0000      0.0000      0.0000   -126.1791      0.2000      0.2000
   723.5000      0.0000      0.0000   -129.2090      0.2000      0.2000
   723.0000      0.0000      0.0000   -128.8262      0.2000      0.2000
   722.5000      0.0000      0.0000   -120.5854      0.2000      0.2000
   722.0000      0.0000      0.0000   -106.4459      0.2000      0.2000
   721.5000      0.0000      0.0000    -88.5162      0.2000      0.2000
   721.0000      0.0000      0.0000    -71.9492      7.7133      0.2000
   720.5000      0.0000      0.0000    -41.4248      7.7191      0.2000
   720.0000      0.0000      0.0000     55.6171      7.7228      0.2000
   719.5000      0.0000      0.0000    215.7518      7.7262      0.2000
   719.0000      0.0000      0.0000    346.9155      7.7270      0.2000
   718.5000      0.0000      0.0000    393.8406      7.7269      0.2000
   718.0000      0.0000      0.0000    395.1270      7.7263      0.2000
   717.5000      0.0000      0.0000    393.0542      7.7215      0.2000
   717.0000      0.0000      0.0000    394.6628      7.7163      0.2000
   716.5000      0.0000      0.0000    398.0803      7.7167      0.2000
   716.0000      0.0000      0.0000    397.5935      7.7204      0.2000
   715.5000      0.0000      0.0000    389.1938      7.7211      0.2000
   715.0000      0.0000      0.0000    380.0513      7.7176      0.2000
   714.5000      0.0000      0.0000    377.4465      7.7151      0.2000
   714.0000      0.0000      0.0000    379.3767      7.7209      0.2000
   713.5000      0.0000      0.0000    376.3193      7.7385      0.2000
   713.0000      0.0000      0.0000    369.0188      7.7631      0.2000
   712.5000      0.0000      0.0000    366.5410      7.7900      0.2000
   712.0000      0.0000      0.0000    365.1655      7.8177      0.2000
   711.5000      0.0000      0.0000    355.8896      7.8452      0.2000
   711.0000    132.4869      0.0000    349.8491      7.8589      7.5479
   710.5000    132.4665      0.0000    353.5107      7.8379      7.5491
   710.0000    132.5883      0.0000    354.9590      7.7782      7.5421
   709.5000    132.8059      0.0000    352.0999      7.6994      7.5298
   709.0000    133.0961      0.0000    351.1106      7.6165      7.5134
   708.5000    133.4084      0.0000    349.3545      7.5373      7.4958
   708.0000    133.7443      0.0000    349.0618      7.4843      7.4770
   707.5000    133.9397      0.0000    352.9182      7.4912      7.4660
   707.0000    133.5665      0.0000    349.6563      7.5631      7.4869
   706.5000    132.6144      0.0000    338.2617      7.6646      7.5407
   706.0000    131.6516      0.0000    328.5793      7.7512      7.5958
   705.5000    131.0396      0.0000    325.5620      7.8003      7.6313
   705.0000    130.7356      0.0000    324.2463      7.8105      7.6490
   704.5000    130.6191      0.0000    319.9456      7.7973      7.6558
   704.0000    130.2894      0.0000    315.4148      7.7812      7.6752
   703.5000    129.1834    116.5670    315.2336      7.7709      7.7409
   703.0000    127.2997    117.4186    315.9563      7.7664      7.8555
   702.5000    125.2602    115.0091    310.8381      7.7830      7.9834
   702.0000    123.7348    114.7174    301.8914      7.8312      8.0818
   701.5000    123.1564    118.5901    297.9912      7.8783      8.1198
   701.0000    123.6401    121.3551    302.4443      7.8763      8.0880
   700.5000    125.1420    119.0459    307.0852      7.8175      7.9909
   700.0000    127.4106    116.4928    306.1101      7.7242      7.8486
   699.5000    129.9336    117.7415    302.2842      7.6143      7.6962
   699.0000    132.7247    119.0609    298.2458      7.4849      7.5344
   698.5000    137.0917    117.1786    298.5232      7.3047      7.2944
   698.0000    145.6584    115.9250    304.4243      7.0114      6.8654
   697.5000    162.2463    118.8581    306.5857      6.5315      6.1635
   697.0000    190.4862    123.1325    300.0962      5.8549      5.2497
   696.5000    229.5238    124.0301    293.1299      5.1003      4.3568
   696.0000    276.2480    122.0644    290.3794      4.3784      3.6199
   695.5000    323.8184    121.0288    289.5627      3.7487      3.0882
   695.0000    364.0974    122.2113    287.1658      3.2065      2.7465
   694.5000    393.1731    126.2595    283.9595      2.7658      2.5434
   694.0000    411.3066    130.5711    281.4448      2.4434      2.4313
   693.5000    418.8984    131.6137    277.5625      2.2408      2.3872
   693.0000    414.1726    129.9320    273.8354      2.1763      2.4145
   692.5000    395.9065    129.2821    274.9724      2.2684      2.5258
   692.0000    363.6296    129.1971    277.3787      2.5554      2.7501
   691.5000    318.4341    127.9670    275.2368      3.0511      3.1404
   691.0000    267.3521    128.6028    271.0046      3.7667      3.7404
   690.5000    222.6063    130.0494    268.2495      4.6323      4.4922
   690.0000    188.3965    128.9060    265.4688      5.4939      5.3080
   689.5000    164.0559    124.9606    261.4722      6.2089      6.0955
   689.0000    148.0390    121.8109    257.6155      6.7372      6.7550
   688.5000    137.3069    121.3261    257.0479      7.1295      7.2830
   688.0000    129.4159    122.1550    259.0405      7.4647      7.7270
   687.5000    123.0832    122.0866    260.2241      7.7932      8.1246
   687.0000    117.5130    121.3611    259.2449      8.1229      8.5097
   686.5000    112.4602    121.8403    256.3628      8.4442      8.8920
   686.0000    108.4174    123.2486    253.6166      8.7373      9.2236
   685.5000    106.0445    125.7596    253.1613      8.9755      9.4300
   685.0000    105.5747    127.9386    253.0356      9.1391      9.4720
   684.5000    106.6187    127.5990    250.6164      9.2331      9.3792
   684.0000    108.2855    124.9188    249.2887      9.2865      9.2348
   683.5000    109.7742    121.5002    250.0374      9.3231      9.1096
   683.0000    110.6447    120.9667    248.6857      9.3366      9.0379
   682.5000    110.7984    124.3808    242.9246      9.3190      9.0254
   682.0000    110.4165    128.5813    236.7327      9.2864      9.0566
   681.5000    109.7192    131.2764    233.2960      9.2650      9.1142
