~Version Information
 VERS.                1.20:   CWLS log ASCII Standard -VERSION 1.20
 WRAP.                  NO:   One line per frame
~Well Information Block
#MNEM.UNIT       Data Type    Information
#---------    -------------   -------------------------------
 STRT.F           737.0000:   Starting Depth
 STOP.F            -6.7500:   Ending Depth
 STEP.F            -0.5000:   Level Spacing
 NULL.           -999.2500:   Absent Value
 COMP.             COMPANY:   FLUOR DANIEL (NPSOR), INC.
 WELL.                WELL:   28-1 X 11
 FLD .               FIELD:   N.P.R. #3
 LOC .            LOCATION:   11-38N-78W
 CNTY.              COUNTY:   Natrona
 STAT.               STATE:   Wyoming
 SRVC.     SERVICE COMPANY:   Western Atlas Logging Services
 LIC .      LICENSE NUMBER:   
 DATE.            LOG DATE:   16-December-1995
 API .          API NUMBER:   4902522745
~Curve Information Block
#MNEM.UNIT       API Codes    Curve Description
#---------    -------------   -------------------------------
 DEPT.F        0   1  0  1:   Depth
 CILD.MMHO     0 110 46  1:   Conductivity of Deep Induction
 GR  .API      0 310  1  1:   Gamma ray counts
 TEN .LBF      0 635 99  1:   Differential Tension
 RILM.OHMM     0 120 44  1:   Resistivity from CILM
 RILD.OHMM     0 120 46  1:   Resistivity from CILD
#  Curve Data
~A   DEPT        CILD        GR          TEN         RILM        RILD
# ...
   681.0000    108.8947    131.3271    232.5981      9.2729      9.1832
   680.5000    108.1728    128.9565    232.7427      9.3152      9.2445
   680.0000    107.8002    126.1767    232.2675      9.3791      9.2764
   679.5000    107.7022    124.9829    229.2560      9.4375      9.2849
   679.0000    107.6772    124.4408    225.4078      9.4653      9.2870
   678.5000    107.8201    124.1929    224.0017      9.4532      9.2747
   678.0000    108.3473    124.1067    224.0889      9.4147      9.2296
   677.5000    109.2885    124.4389    220.8571      9.3556      9.1501
   677.0000    110.7946    126.1052    216.5295      9.2493      9.0257
   676.5000    113.3362    128.6792    217.1270      9.0700      8.8233
   676.0000    117.4065    132.4757    220.3966      8.8183      8.5174
   675.5000    123.3479    136.8195    219.7817      8.4940      8.1071
   675.0000    131.1894    138.6784    216.5463      8.0866      7.6226
   674.5000    139.9422    136.9516    215.1314      7.6280      7.1458
   674.0000    147.4248    136.1737    215.2979      7.2058      6.7831
   673.5000    152.0245    137.6807    214.6827      6.8772      6.5779
   673.0000    154.2040    140.0829    213.0263      6.5954      6.4849
   672.5000    155.5000    140.7317    211.7053      6.3073      6.4309
   672.0000    156.7764    136.3270    210.3844      6.0927      6.3785
   671.5000    157.2570    128.6426    209.0385      6.1057      6.3590
   671.0000    154.8951    124.1945    206.6878      6.3973      6.4560
   670.5000    149.1427    124.0708    205.7636      6.8487      6.7050
   670.0000    142.2300    124.5391    207.2380      7.2603      7.0309
   669.5000    136.5910    126.8071    208.8935      7.5185      7.3211
   669.0000    132.9369    130.5246    208.3418      7.6372      7.5224
   668.5000    131.0786    132.0837    205.2860      7.6817      7.6290
   668.0000    130.2351    132.0847    200.6482      7.7110      7.6784
   667.5000    129.3510    132.6467    196.4056      7.7456      7.7309
   667.0000    128.0369    132.1963    195.2314      7.7906      7.8103
   666.5000    126.5051    128.8086    195.9243      7.8577      7.9048
   666.0000    124.8264    124.3618    196.5584      7.9522      8.0111
   665.5000    122.9400    121.8470    196.0316      8.0666      8.1341
   665.0000    120.9015    123.9520    193.3315      8.1949      8.2712
   664.5000    118.8781    127.8417    188.2005      8.3436      8.4120
   664.0000    117.0974    127.0198    183.6453      8.5115      8.5399
   663.5000    115.6627    121.5910    181.6342      8.6775      8.6458
   663.0000    114.5760    118.6557    181.2532      8.8161      8.7278
   662.5000    113.8233    120.1222    181.8705      8.9216      8.7856
   662.0000    113.3700    121.7152    182.4689      8.9963      8.8207
   661.5000    113.0248    121.8516    181.9108      9.0347      8.8476
   661.0000    112.6769    122.3636    180.6807      9.0334      8.8749
   660.5000    112.3219    125.3957    180.6841      9.0062      8.9030
   660.0000    112.0111    129.5284    180.6661      8.9808      8.9277
   659.5000    111.6197    129.7386    178.0605      8.9856      8.9590
   659.0000    110.8559    125.6944    173.5184      9.0356      9.0207
   658.5000    109.6979    122.4538    170.2854      9.1319      9.1159
   658.0000    108.3881    121.5318    170.7418      9.2634      9.2261
   657.5000    107.0184    120.5672    173.4915      9.4127      9.3442
   657.0000    105.5137    120.2977    174.6860      9.5611      9.4774
   656.5000    103.9959    121.3390    173.9936      9.6881      9.6158
   656.0000    102.6343    123.0497    172.5671      9.7937      9.7433
   655.5000    101.4546    122.9676    168.9727      9.8994      9.8566
   655.0000    100.3147    120.8581    163.2598     10.0160      9.9686
   654.5000     99.1062    119.8041    159.3411     10.1293     10.0902
   654.0000     97.6989    122.3577    159.2432     10.2363     10.2355
   653.5000     96.1968    125.3937    160.3525     10.3564     10.3954
   653.0000     94.7536    123.6683    160.9271     10.5148     10.5537
   652.5000     93.3045    117.7737    162.5128     10.7088     10.7176
   652.0000     91.7983    112.6052    164.4737     10.9083     10.8935
   651.5000     90.4099    110.7641    163.2070     11.0947     11.0607
   651.0000     89.2829    111.3599    160.8636     11.2696     11.2004
   650.5000     88.4211    111.9854    160.3894     11.4232     11.3095
   650.0000     87.7773    110.9168    156.7672     11.5288     11.3925
   649.5000     87.2870    110.4839    149.7260     11.5864     11.4565
   649.0000     86.9377    113.3485    146.3542     11.6283     11.5025
   648.5000     86.6619    117.6651    146.8959     11.6640     11.5391
   648.0000     86.2878    121.0473    146.8962     11.6749     11.5891
   647.5000     85.7955    122.2938    146.9051     11.6635     11.6556
   647.0000     85.3338    120.3387    147.7401     11.6603     11.7187
   646.5000     84.9774    116.5322    147.4166     11.6865     11.7678
   646.0000     84.7385    114.4886    145.9617     11.7458     11.8010
   645.5000     84.6785    115.0892    146.7526     11.8405     11.8094
   645.0000     84.7305    115.7196    148.5511     11.9575     11.8021
   644.5000     84.6605    116.1657    147.2903     12.0511     11.8119
   644.0000     84.4228    120.0821    142.8214     12.0683     11.8451
   643.5000     84.2851    124.9681    140.6706     11.9928     11.8645
   643.0000     84.5488    123.5723    141.7216     11.8597     11.8275
   642.5000     85.1833    118.3782    140.4677     11.7341     11.7394
   642.0000     85.9131    115.5667    136.2407     11.6629     11.6397
   641.5000     86.5236    115.0909    133.7178     11.6408     11.5575
   641.0000     87.0068    116.0983    134.7365     11.6252     11.4934
   640.5000     87.4626    120.1916    134.7566     11.5754     11.4335
   640.0000     88.0695    126.3622    131.8881     11.4800     11.3547
   639.5000     89.0062    131.3309    128.8448     11.3552     11.2352
   639.0000     90.2382    131.9291    127.8401     11.2267     11.0818
   638.5000     91.5593    127.7483    127.8673     11.1037     10.9219
   638.0000     92.7619    121.5087    127.2783     10.9716     10.7803
   637.5000     93.8059    117.7021    125.2806     10.8109     10.6603
   637.0000     94.7934    118.2392    122.6347     10.6149     10.5493
   636.5000     95.9684    120.9100    121.6008     10.4029     10.4201
   636.0000     97.5253    122.5435    122.2928     10.2128     10.2537
   635.5000     99.3885    122.0844    123.1700     10.0503     10.0615
   635.0000    101.3916    120.7017    124.2137      9.8681      9.8628
   634.5000    103.4735    119.7480    123.9901      9.6401      9.6643
   634.0000    105.6169    119.8704    121.0273      9.4020      9.4682
   633.5000    107.5657    118.4799    117.8956      9.2236      9.2966
   633.0000    108.9208    115.3483    114.7553      9.1485      9.1810
   632.5000    109.6743    112.9598    111.4588      9.1419      9.1179
   632.0000    110.9358    112.4942    110.8586      9.1003      9.0142
   631.5000    114.6774    113.1668    113.2913      8.9326      8.7201
   631.0000    122.7036    114.6064    114.8654      8.6000      8.1497
   630.5000    135.7476    116.7232    114.6882      8.0770      7.3666
   630.0000    152.1825    120.8871    113.9849      7.4163      6.5711
   629.5000    167.6592    129.8409    113.1553      6.7772      5.9645
   629.0000    178.0999    140.7881    113.6286      6.2493      5.6148
   628.5000    183.3323    145.8923    115.1570      5.7607      5.4546
   628.0000    186.1077    144.8262    115.2150      5.2558      5.3732
   627.5000    188.5680    141.7003    114.1880      4.8605      5.3031
   627.0000    189.5185    136.4032    114.7901      4.7721      5.2765
   626.5000    184.7190    129.4874    116.2142      5.0867      5.4136
   626.0000    172.2390    124.3028    113.6780      5.7428      5.8059
   625.5000    155.6949    120.0276    107.0654      6.5843      6.4228
