~VERSION INFORMATION
 VERS.               2.10:   CWLS LOG ASCII STANDARD - VERSION 2.10
 WRAP.                 NO:   ONE LINE PER DEPTH STEP
~WELL INFORMATION
#MNEM.UNIT      DATA TYPE    INFORMATION
#----------   ------------   ------------------------------
 STRT.F         3538.2156:   START DEPTH
 STOP.F         5482.3540:   STOP DEPTH
 STEP.F            0.5000:   STEP LENGTH
 NULL.          -999.2500:   NO VALUE
 COMP. Fenix & Scisson,Inc.:   COMPANY
 WELL.        44-1 TPX 10:   WELL
 FLD .           N.P.R. 3:   FIELD
 LOC . 10-38N-78W-NATRONA-WY:   LOCATION
 STAT.                 WY:   STATE
 COUN.            Natrona:   COUNTY
 SRVC.      Dresser Atlas:   SERVICE COMPANY
 DATE.                   :   LOGDATE
 APIN.         4902510439:   API NUMBER
~CURVE INFORMATION
#MNEM.UNIT       API CODE    CURVE DESCRIPTION
#----------   ------------   ------------------------------
 DEPT.F                  :
 GR  .API    06 310 01 00:   Gamma Ray
 PORA.None               :   Porosity
 DT  .us/f   60 520 00 00:   Delta t
~PARAMETER INFORMATION
#MNEM.UNIT          VALUE    DESCRIPTION
#----------   ------------   ------------------------------
 EKB .F         5240.0000:   Kelly bushing
 EGL .F         5230.0000:   Ground level
 EDF .F            0.0000:   Drilling floor
 EPD .F           10.0000:   Permanent datum
 TD  .F         2250.0000:   Total depth
 NRUN.             1.0000:   Number of Runs
#--RUN 1---   ------------   The following are for Run 1---
 RUN .             1.0000:   Run 1
 DATE.mm/dd/yyyy 12-17-1977:   Date Logged
 DD  .ft             5471:   Depth Driller
 DL  .ft             5471:   Depth Logger
 BLI .ft             5461:   Bottom Log Interval
 TLI .ft             3550:   Top Log Interval
 CSS .inch          8.625:   Casing Size
 CTD1.ft             3023:   Casing Driller 1
 CTL1.ft              n/a:   Casing Logger 1
 BS  .inch          7.875:   Bit Size
 DFT .                kcl:   Type Fluid In Hole
 DFD .lb/gal          9.5:   Mud Weight
 DFV .sec              38:   Viscosity
 DFPH.               11.0:   pH
 DFL .cc              8.4:   Fluid Loss
 WSS .            mud pit:   Source Of Sample
 RM  .ohmm           .385:   Rm
 EMT .F                78:   Rm Meas. Temp.
 RMF .ohmm            .22:   Rmf
 MFT .F                70:   Rmf Meas. Temp.
 RMC .ohmm             .8:   Rmc
 MCST.F                70:   Rmc Meas. Temp.
 MFSS.               meas:   Source Rmf.
 MCSS.               meas:   Source Rmc.
 RMB .ohmm            .16:   Rm. At BHT
 BHT .F               176:   BHT.
 TCS .hh:mm        10 hrs:   Time Circ. Stopped
 MRT .F               176:   Maximum Recorded Temp.
 LUN .               6134:   Logging Unit Number
 LUL .           Gillette:   Logging Unit Location
 ENGI.              Hoyer:   Recorded By
 WITN.      Mr. Harington:   Witnessed By
 DGBY.              Burke:   Digitized By
~A  DEPTH       GR       PORA         DT
# ...
 5085.2160   240.9572     5.8525    59.5877
 5085.7160   235.2441     5.3088    59.0405
 5086.2160   233.7543     5.1556    58.7290
 5086.7160   234.0043     5.2183    58.8803
 5087.2160   232.0179     5.7132    59.4974
 5087.7160   230.0316     6.5920    60.5797
 5088.2160   228.7908     7.6906    61.5069
 5088.7160   226.0591     7.9077    62.0466
 5089.2160   220.5907     7.6004    62.0436
 5089.7160   210.8382     7.0459    61.4940
 5090.2160   201.0857     5.5426    59.7112
 5090.7160   182.8342     2.9227    57.3976
 5091.2160   177.8665     0.5581    54.2013
 5091.7160   178.1161     0.0132    52.1828
 5092.2160   180.6018     0.0142    51.4046
 5092.7160   184.3297    -0.1699    51.4016
 5093.2160   185.3248    -0.1071    51.0110
 5093.7160   186.5685    -0.1372    51.0080
 5094.2160   193.0293    -0.0742    51.1601
 5094.7160   200.9808     0.3281    51.6990
 5095.2160   203.7150     2.4448    54.4866
 5095.7160   205.4553     4.8000    56.1833
 5096.2160   206.2018     5.9178    59.2153
 5096.7160   201.9794     5.5794    59.5159
 5097.2160   199.9931     4.2224    58.2726
 5097.7160   208.6902     3.4697    57.1068
 5098.2160   211.6467     4.5655    56.4844
 5098.7160   218.6865     5.6614    58.3411
 5099.2160   225.7262     6.9738    60.8962
 5099.7160   232.7660     7.2216    61.3583
 5100.2160   238.0417     7.7168    61.7518
 5100.7160   238.7595     7.9342    62.2043
 5101.2160   233.0467     8.2134    62.5889
 5101.7160   228.0789     8.3690    62.9735
 5102.2160   222.1174     7.6914    63.1263
 5102.7160   212.5943     6.1678    61.1846
 5103.2160   202.2042     3.9288    59.8493
 5103.7160   191.8140     2.2635    57.7066
 5104.2160   184.8552     1.0920    55.5640
 5104.7160   183.1173     0.7847    53.4204
 5105.2160   185.1523     0.9218    52.7196
 5105.7160   194.0517     2.9174    53.1811
 5106.2160   205.9784     5.0183    54.4959
 5106.7160   212.8446     7.6148    58.1639
 5107.2160   221.1969    10.1436    63.0042
 5107.7160   228.5908    11.8116    66.1705
 5108.2160   230.3311    12.8624    68.7470
 5108.7160   230.8289    13.0183    69.6742
 5109.2160   229.0913    12.7850    69.4386
 5109.7160   228.0916    10.7063    67.1876
 5110.2160   225.5402     9.6582    65.1691
 5110.7160   221.3933     7.8215    62.6079
 5111.2160   214.6864     5.2166    60.0838
 5111.7160   206.7373     3.6747    58.0275
 5112.2160   203.7572     3.0279    56.4742
 5112.7160   204.2552     3.4613    56.0068
 5113.2160   212.4552     5.1911    60.7304
 5113.7160   214.4440     5.2850    69.9620
 5114.2160   212.7064     6.3546    80.4154
 5114.7160   209.2293     6.5840    82.0403
 5115.2160   206.2491     5.1659    81.5722
 5115.7160   207.9895     2.5077    76.9180
 5116.2160   210.2267    -0.0168    65.2309
 5116.7160   212.2155     0.0463    65.0516
 5117.2160   212.9620    -0.3533    65.4361
 5117.7160   212.4666    -0.2593    64.0371
 5118.2160   212.2191     0.3284    64.1891
 5118.7160   214.7050     1.4409    65.3489
 5119.2160   220.1721    12.3063    68.7567
 5119.7160   223.4031    11.6599    67.6322
 5120.2160   225.6403    10.6118    64.3668
 5120.7160   228.8713     4.7387    59.9181
 5121.2160   234.4908     2.7694    55.4107
 5121.7160   236.8241     4.1821    55.8728
 5122.2160   236.3284     5.9282    59.1256
 5122.7160   239.5597     6.5755    60.7505
 5123.2160   245.5236     6.5856    60.4359
 5123.7160   249.9969     6.8871    60.9192
 5124.2160   257.2030     7.1045    61.4384
 5124.7160   257.7011     8.0627    63.0633
 5125.2160   254.2244     8.6813    63.6037
 5125.7160   250.0020     8.4974    63.3674
 5126.2160   242.5498     8.0976    62.7443
 5126.7160   233.0488     7.2957    62.1211
 5127.2160   219.5537     4.8597    59.4246
 5127.7160   205.2865     4.0586    57.3081
 5128.2160   204.2936     3.0106    56.3749
 5128.7160   208.0218     3.0736    55.9068
 5129.2160   225.9112     3.6614    56.2139
 5129.7160   231.6267     4.2635    57.0636
 5130.2160   231.6565     5.3311    58.2234
 5130.7160   231.6291     6.1966    59.3099
 5131.2160   234.4766     6.6301    60.2681
 5131.7160   235.6067     6.7858    60.8493
 5132.2160   231.8815     6.6019    60.6913
 5132.7160   227.4106     5.5230    60.1456
 5133.2160   217.9708     4.7481    59.3674
 5133.7160   212.7546     4.3431    57.7365
 5134.2160   203.0664     4.1076    57.5785
 5134.7160   199.2935     3.2448    57.3207
 5135.2160   195.1188     2.3819    56.0989
 5135.7160   187.9150     1.2722    54.6230
 5136.2160   184.6864     0.2858    52.7595
 5136.7160   184.1904    -0.0214    51.6713
 5137.2160   193.3845    -0.2382    51.1256
 5137.7160   201.8329     0.0124    51.2002
 5138.2160   213.4657     1.2336    51.7541
 5138.7160   226.4590     2.9472    54.6818
 5139.2160   239.4523     4.9725    57.3671
 5139.7160   252.2728     7.3040    61.5425
 5140.2160   254.7584     8.9388    63.8973
 5140.7160   249.0453     7.8602    63.6618
 5141.2160   242.3385     6.6396    61.2557
 5141.7160   239.6068     4.9048    59.2372
 5142.2160   232.1879     3.4102    56.3659
 5142.7160   220.6788     2.3931    54.2699
 5143.2160   205.0055     0.1820    52.5432
 5143.7160   193.1521     0.3994    51.7826
 5144.2160   193.8987     0.5551    52.0904
 5144.7160   195.2404     0.7416    52.5517
 5145.2160   195.8890     0.9281    52.4720
 5145.7160   193.4057     1.2690    52.9333
 5146.2160   187.4442     3.0821    54.7908
 5146.7160   186.6997     5.9823    57.8929
 5147.2160   188.6888     7.4768    60.9627
 5147.7160   188.9384     6.4355    61.2159
 5148.2160   188.0451     0.6895    58.0227
 5148.7160   180.9908    -1.5985    53.3424
 5149.2160   179.7498    -1.2828    49.5761
 5149.7160   179.0054    -0.7567    50.2184
 5150.2160   179.7522    -0.4776    50.5028
 5150.7160   182.4863    -0.1368    50.8091
 5151.2160   184.9720     0.2041    51.2712
 5151.7160   189.9668     0.4832    51.6558
 5152.2160   195.5171     1.0401    52.0404
 5152.7160   201.0674     2.5485    53.8203
 5153.2160   206.6178     5.0001    57.1629
 5153.7160   215.7859     7.4517    61.1164
 5154.2160   221.0045     9.8302    65.3612
 5154.7160   225.2293    10.3062    65.8235
 5155.2160   220.2615     8.9807    64.1149
 5155.7160   210.9758     5.6456    59.9990
 5156.2160   200.7904     2.3785    56.7167
 5156.7160   190.6425     1.3304    53.8729
 5157.2160   184.9871     0.8997    53.0171
 5157.7160   183.0007     0.6503    52.6265
 5158.2160   182.0079     0.4398    52.2275
 5158.7160   181.7606     0.3482    51.9221
 5159.2160   183.2528     0.2878    51.9974
 5159.7160   185.4900     0.4129    51.6843
 5160.2160   187.7272     0.7229    52.2232
 5160.7160   189.8884     1.5267    52.6853
 5161.2160   198.6616     2.4849    54.4653
 5161.7160   201.8927     2.8353    55.3234
 5162.2160   202.8876     3.1978    55.6996
 5162.7160   207.6093     3.3226    56.0059
 5163.2160   214.0204     3.6326    56.3130
 5163.7160   223.1451     4.4055    57.0852
 5164.2160   232.2699     5.8465    60.0279
 5164.7160   241.3946     6.7232    61.4203
 5165.2160   246.6217     7.4036    61.8824
 5165.7160   246.8711     7.5901    62.2774
 5166.2160   246.8233     7.6841    62.2632
 5166.7160   248.1337     7.6237    62.0277
 5167.2160   246.6269     7.4974    61.8696
 5167.7160   246.8765     7.5338    62.2542
 5168.2160   250.6044     7.3421    61.8636
 5168.7160   248.1212     6.8887    61.1630
 5169.2160   247.1286     6.5502    60.8498
 5169.7160   247.1298     7.4160    63.0167
 5170.2160   244.6102     8.2504    62.9362
 5170.7160   232.9450     7.4496    62.1580
 5171.2160   218.5650     5.9077    59.0542
 5171.7160   207.1349     4.9405    58.0434
 5172.2160   212.0170     4.3929    57.6528
 5172.7160   228.0106     4.7084    57.4948
 5173.2160   237.9456     5.7591    58.5365
 5173.7160   228.5061     5.9762    59.5811
 5174.2160   215.0196     4.5923    58.4153
 5174.7160   201.6765     2.9465    56.0092
 5175.2160   196.7085     1.1351    53.4481
 5175.7160   200.4367     0.8275    52.8249
