~VERSION INFORMATION
 VERS.               2.10:   CWLS LOG ASCII STANDARD - VERSION 2.10
 WRAP.                 NO:   ONE LINE PER DEPTH STEP
~WELL INFORMATION
#MNEM.UNIT      DATA TYPE    INFORMATION
#----------   ------------   ------------------------------
 STRT.F         3538.2156:   START DEPTH
 STOP.F         5482.3540:   STOP DEPTH
 STEP.F            0.5000:   STEP LENGTH
 NULL.          -999.2500:   NO VALUE
 COMP. Fenix & Scisson,Inc.:   COMPANY
 WELL.        44-1 TPX 10:   WELL
 FLD .           N.P.R. 3:   FIELD
 LOC . 10-38N-78W-NATRONA-WY:   LOCATION
 STAT.                 WY:   STATE
 COUN.            Natrona:   COUNTY
 SRVC.      Dresser Atlas:   SERVICE COMPANY
 DATE.                   :   LOGDATE
 APIN.         4902510439:   API NUMBER
~CURVE INFORMATION
#MNEM.UNIT       API CODE    CURVE DESCRIPTION
#----------   ------------   ------------------------------
 DEPT.F                  :
 GR  .API    06 310 01 00:   Gamma Ray
 PORA.None               :   Porosity
 DT  .us/f   60 520 00 00:   Delta t
~PARAMETER INFORMATION
#MNEM.UNIT          VALUE    DESCRIPTION
#----------   ------------   ------------------------------
 EKB .F         5240.0000:   Kelly bushing
 EGL .F         5230.0000:   Ground level
 EDF .F            0.0000:   Drilling floor
 EPD .F           10.0000:   Permanent datum
 TD  .F         2250.0000:   Total depth
 NRUN.             1.0000:   Number of Runs
#--RUN 1---   ------------   The following are for Run 1---
 RUN .             1.0000:   Run 1
 DATE.mm/dd/yyyy 12-17-1977:   Date Logged
 DD  .ft             5471:   Depth Driller
 DL  .ft             5471:   Depth Logger
 BLI .ft             5461:   Bottom Log Interval
 TLI .ft             3550:   Top Log Interval
 CSS .inch          8.625:   Casing Size
 CTD1.ft             3023:   Casing Driller 1
 CTL1.ft              n/a:   Casing Logger 1
 BS  .inch          7.875:   Bit Size
 DFT .                kcl:   Type Fluid In Hole
 DFD .lb/gal          9.5:   Mud Weight
 DFV .sec              38:   Viscosity
 DFPH.               11.0:   pH
 DFL .cc              8.4:   Fluid Loss
 WSS .            mud pit:   Source Of Sample
 RM  .ohmm           .385:   Rm
 EMT .F                78:   Rm Meas. Temp.
 RMF .ohmm            .22:   Rmf
 MFT .F                70:   Rmf Meas. Temp.
 RMC .ohmm             .8:   Rmc
 MCST.F                70:   Rmc Meas. Temp.
 MFSS.               meas:   Source Rmf.
 MCSS.               meas:   Source Rmc.
 RMB .ohmm            .16:   Rm. At BHT
 BHT .F               176:   BHT.
 TCS .hh:mm        10 hrs:   Time Circ. Stopped
 MRT .F               176:   Maximum Recorded Temp.
 LUN .               6134:   Logging Unit Number
 LUL .           Gillette:   Logging Unit Location
 ENGI.              Hoyer:   Recorded By
 WITN.      Mr. Harington:   Witnessed By
 DGBY.              Burke:   Digitized By
~A  DEPTH       GR       PORA         DT
# ...
 4994.2160   282.4561     8.2283    63.2618
 4994.7160   280.9679     8.2602    62.9478
 4995.2160   280.7212     8.2615    62.9441
 4995.7160   282.9603     8.2931    62.7845
 4996.2160   285.9441     8.2018    62.5481
 4996.7160   289.9216     8.0794    62.6229
 4997.2160   290.1725     7.8953    62.6182
 4997.7160   288.8495     7.8346    62.3819
 4998.2160   283.7126     7.7739    62.2231
 4998.7160   275.0250     7.8411    62.3010
 4999.2160   272.7914     8.0541    62.6022
 4999.7160   269.0671     8.3106    63.2186
 5000.2160   257.1436     8.8585    63.7584
 5000.7160   253.6665     7.9337    61.6617
 5001.2160   242.2391     9.0804    64.1590
 5001.7160   240.9978     9.3555    64.4469
 5002.2160   246.4651     8.9864    63.7454
 5002.7160   253.2273     8.7403    63.5881
 5003.2160   260.5425     8.8342    63.7402
 5003.7160   268.8293     9.2056    64.1240
 5004.2160   271.5634     9.7622    65.2063
 5004.7160   274.2976    10.0411    65.5134
 5005.2160   274.5469    10.1965    65.6654
 5005.7160   267.8404    10.1051    65.4291
 5006.2160   264.8602     9.8284    65.0385
 5006.7160   265.3583     9.5825    64.6479
 5007.2160   264.3657     9.3675    64.5674
 5007.7160   262.1312     9.2760    64.3318
 5008.2160   260.3930     9.2743    64.5613
 5008.7160   261.3883     9.6089    65.1010
 5009.2160   261.1407    10.1843    65.8823
 5009.7160   261.3907    10.6385    66.1802
 5010.2160   262.8826     9.7753    65.0912
 5010.7160   264.1260     8.7270    63.6153
 5011.2160   264.3757     8.4500    63.3030
 5011.7160   265.6194     9.9019    65.2372
 5012.2160   269.5958     9.8412    65.2420
 5012.7160   271.8330     9.5159    64.6833
 5013.2160   273.0764     8.8868    64.0401
 5013.7160   273.5746     8.8878    63.8291
 5014.2160   272.8304     8.5185    63.3610
 5014.7160   269.3534     8.3032    63.1575
 5015.2160   265.5750     8.3351    63.1227
 5015.7160   261.9890     8.1178    62.9532
 5016.2160   260.1644     8.2140    63.0384
 5016.7160   263.8926     8.2462    62.8029
 5017.2160   265.8814     8.2779    62.8781
 5017.7160   265.1370     8.7730    63.1069
 5018.2160   265.1385     9.5148    63.5691
 5018.7160   265.6366     9.5464    64.4188
 5019.2160   273.3443     8.5909    63.2529
 5019.7160   274.5831     9.3327    64.2570
 5020.2160   273.0936     9.1155    63.7888
 5020.7160   271.6045     7.8842    61.8479
 5021.2160   267.3820     7.9164    62.1557
 5021.7160   265.8926     8.1335    62.4620
 5022.2160   265.8938     8.4740    62.8466
 5022.7160   262.1683     8.9689    63.1537
 5023.2160   257.9459     9.4020    63.9479
 5023.7160   255.4421     9.9630    65.7826
 5024.2160   258.4455    10.3612    66.0129
 5024.7160   261.6765    10.3005    65.9316
 5025.2160   264.1622    10.0855    65.3084
 5025.7160   264.4119     9.4075    64.4527
 5026.2160   263.9159     8.2666    63.1319
 5026.7160   266.6503     8.6997    63.8269
 5027.2160   269.1360     9.4724    64.7538
 5027.7160   266.1135     7.6524    61.8818
 5028.2160   264.1290     7.7772    62.1114
 5028.7160   267.4008     7.7165    62.1084
 5029.2160   269.3895     7.4704    61.8728
 5029.7160   268.3969     7.5026    61.9473
 5030.2160   265.4168     7.5653    62.0219
 5030.7160   260.2006     7.6898    62.0332
 5031.2160   258.2142     7.9734    62.9453
 5031.7160   256.2263     8.4329    62.9423
 5032.2160   254.8954     8.5574    63.4827
 5032.7160   252.5039     8.5585    63.4790
 5033.2160   251.2628     8.4361    63.1659
 5033.7160   251.0153     8.0667    62.7753
 5034.2160   251.5137     7.6974    62.3072
 5034.7160   252.5087     7.6670    61.9166
 5035.2160   253.7521     7.8265    62.3004
 5035.7160   253.0080     7.7625    62.1424
 5036.2160   251.2495     6.7142    60.2014
 5036.7160   248.7871     5.6967    59.4232
 5037.2160   244.3163     7.1793    60.6605
 5037.7160   240.0939     6.9025    61.2107
 5038.2160   242.0827     6.8393    60.8870
 5038.7160   243.5745     6.9663    61.2811
 5039.2160   242.0851     6.7516    61.1128
 5039.7160   239.6018     6.0119    60.2571
 5040.2160   235.0887     5.1796    59.2464
 5040.7160   225.4969     4.9338    58.4682
 5041.2160   217.9908     4.6879    58.0000
 5041.7160   216.5013     4.1951    57.3769
 5042.2160   210.7883     3.9492    56.6735
 5042.7160   203.4247     3.0754    55.9501
 5043.2160   193.1021     1.8837    54.5764
 5043.7160   187.6864    -0.1214    50.8525
 5044.2160   185.7000     0.2808    51.0821
 5044.7160   184.2102     0.6214    51.6992
 5045.2160   184.2117     0.8385    52.0063
 5045.7160   183.9645     1.0556    52.1583
 5046.2160   185.0345     1.4694    52.6262
 5046.7160   190.4268     1.9527    53.6244
 5047.2160   197.1361     2.0158    54.0098
 5047.7160   199.1249     2.5415    54.4711
 5048.2160   208.3187     3.0364    55.3208
 5048.7160   223.3378     4.3029    56.4806
 5049.2160   240.3708     4.7977    57.5629
 5049.7160   244.3471     5.0457    58.1800
 5050.2160   245.8390     5.1739    58.4869
 5050.7160   246.3374     5.0786    58.6389
 5051.2160   248.0778     5.3269    58.5584
 5051.7160   249.3212     4.9267    58.9430
 5052.2160   249.5708     4.6808    58.0865
 5052.7160   250.0689     4.9288    58.1618
 5053.2160   251.3124     5.2693    58.7007
 5053.7160   251.0651     6.1811    60.2480
 5054.2160   249.0612     5.0248    60.7109
 5054.7160   248.3346     4.8406    58.2265
 5055.2160   247.5905     3.9772    57.5849
 5055.7160   249.5796     4.0402    57.4446
 5056.2160   248.5870     4.0413    57.3641
 5056.7160   245.1100     3.9497    57.2835
 5057.2160   245.8565     3.8582    57.2030
 5057.7160   248.0937     3.8248    57.0450
 5058.2160   251.0989     3.6754    56.8094
 5058.7160   252.3198     3.4603    56.4963
 5059.2160   254.3088     3.5849    56.2607
 5059.7160   254.0613     3.7402    56.4121
 5060.2160   253.5656     4.0499    56.7191
 5060.7160   254.3124     4.2979    57.0262
 5061.2160   254.5621     4.4561    57.4883
 5061.7160   254.3148     4.7323    58.1055
 5062.2160   254.5645     5.0420    58.5676
 5062.7160   254.5932     5.8541    59.3445
 5063.2160   258.0455     6.6491    60.0722
 5063.7160   261.2765     6.7736    60.8834
 5064.2160   262.2715     6.7747    61.1130
 5064.7160   260.5336     6.6831    60.9549
 5065.2160   258.5472     6.5296    60.7969
 5065.7160   257.5546     6.5000    60.6388
 5066.2160   256.5620     6.7200    61.0234
 5066.7160   256.3148     6.9653    61.4855
 5067.2160   256.5645     6.9353    61.2492
 5067.7160   256.3172     7.0292    61.3237
 5068.2160   256.5669     6.8450    61.2432
 5068.7160   256.0712     6.8149    61.0077
 5069.2160   258.3087     6.6928    61.0829
 5069.7160   261.2913     6.6938    60.9241
 5070.2160   260.7956     6.8836    60.9194
 5070.7160   261.0528     7.0046    61.1507
 5071.2160   261.8284     6.7587    60.9144
 5071.7160   263.2837     6.7600    60.6788
 5072.2160   261.7945     6.6993    60.7541
 5072.7160   260.5535     6.7004    60.7503
 5073.2160   258.0702     6.8249    60.7473
 5073.7160   258.5683     7.0127    60.8219
 5074.2160   260.1547     7.2593    61.1289
 5074.7160   256.3347     7.5381    61.4476
 5075.2160   257.6331     7.8170    61.9749
 5075.7160   258.5735     7.7563    62.2819
 5076.2160   257.8293     7.2635    61.8913
 5076.7160   256.8367     7.0793    61.5007
 5077.2160   257.5833     7.2965    61.4202
 5077.7160   259.8205     7.5444    61.7273
 5078.2160   261.3124     7.6692    61.9568
 5078.7160   258.5807     7.8245    62.1857
 5079.2160   257.3396     8.1034    62.4152
 5079.7160   257.5896     8.8760    62.7998
 5080.2160   259.8268     9.4326    63.6495
 5080.7160   258.3374     9.5880    64.3442
 5081.2160   259.8289     9.1835    64.4963
 5081.7160   259.3333     8.6644    64.1056
 5082.2160   257.0987     8.0790    63.2190
 5082.7160   254.3670     7.5245    62.0058
 5083.2160   254.6167     7.1861    61.2276
 5083.7160   253.2659     6.7859    60.5270
 5084.2160   249.6505     6.3548    59.9813
 5084.7160   245.4281     6.1398    59.8233
