~VERSION INFORMATION
 VERS.               2.10:   CWLS LOG ASCII STANDARD - VERSION 2.10
 WRAP.                 NO:   ONE LINE PER DEPTH STEP
~WELL INFORMATION
#MNEM.UNIT      DATA TYPE    INFORMATION
#----------   ------------   ------------------------------
 STRT.F         3538.2156:   START DEPTH
 STOP.F         5482.3540:   STOP DEPTH
 STEP.F            0.5000:   STEP LENGTH
 NULL.          -999.2500:   NO VALUE
 COMP. Fenix & Scisson,Inc.:   COMPANY
 WELL.        44-1 TPX 10:   WELL
 FLD .           N.P.R. 3:   FIELD
 LOC . 10-38N-78W-NATRONA-WY:   LOCATION
 STAT.                 WY:   STATE
 COUN.            Natrona:   COUNTY
 SRVC.      Dresser Atlas:   SERVICE COMPANY
 DATE.                   :   LOGDATE
 APIN.         4902510439:   API NUMBER
~CURVE INFORMATION
#MNEM.UNIT       API CODE    CURVE DESCRIPTION
#----------   ------------   ------------------------------
 DEPT.F                  :
 GR  .API    06 310 01 00:   Gamma Ray
 PORA.None               :   Porosity
 DT  .us/f   60 520 00 00:   Delta t
~PARAMETER INFORMATION
#MNEM.UNIT          VALUE    DESCRIPTION
#----------   ------------   ------------------------------
 EKB .F         5240.0000:   Kelly bushing
 EGL .F         5230.0000:   Ground level
 EDF .F            0.0000:   Drilling floor
 EPD .F           10.0000:   Permanent datum
 TD  .F         2250.0000:   Total depth
 NRUN.             1.0000:   Number of Runs
#--RUN 1---   ------------   The following are for Run 1---
 RUN .             1.0000:   Run 1
 DATE.mm/dd/yyyy 12-17-1977:   Date Logged
 DD  .ft             5471:   Depth Driller
 DL  .ft             5471:   Depth Logger
 BLI .ft             5461:   Bottom Log Interval
 TLI .ft             3550:   Top Log Interval
 CSS .inch          8.625:   Casing Size
 CTD1.ft             3023:   Casing Driller 1
 CTL1.ft              n/a:   Casing Logger 1
 BS  .inch          7.875:   Bit Size
 DFT .                kcl:   Type Fluid In Hole
 DFD .lb/gal          9.5:   Mud Weight
 DFV .sec              38:   Viscosity
 DFPH.               11.0:   pH
 DFL .cc              8.4:   Fluid Loss
 WSS .            mud pit:   Source Of Sample
 RM  .ohmm           .385:   Rm
 EMT .F                78:   Rm Meas. Temp.
 RMF .ohmm            .22:   Rmf
 MFT .F                70:   Rmf Meas. Temp.
 RMC .ohmm             .8:   Rmc
 MCST.F                70:   Rmc Meas. Temp.
 MFSS.               meas:   Source Rmf.
 MCSS.               meas:   Source Rmc.
 RMB .ohmm            .16:   Rm. At BHT
 BHT .F               176:   BHT.
 TCS .hh:mm        10 hrs:   Time Circ. Stopped
 MRT .F               176:   Maximum Recorded Temp.
 LUN .               6134:   Logging Unit Number
 LUL .           Gillette:   Logging Unit Location
 ENGI.              Hoyer:   Recorded By
 WITN.      Mr. Harington:   Witnessed By
 DGBY.              Burke:   Digitized By
~A  DEPTH       GR       PORA         DT
# ...
 3811.2160   266.4190    18.0953    76.3035
 3811.7160   272.8968    17.6630    75.6866
 3812.2160   281.6093    18.8677    79.4130
 3812.7160   284.1083    21.7891    82.4407
 3813.2160   283.3738    24.7367    85.3997
 3813.7160   283.1435    25.7561    87.0290
 3814.2160   275.9530    28.1964    89.6642
 3814.7160   267.7687    29.9880    93.0795
 3815.2160   263.5596  -999.2500    94.4017
 3815.7160   251.1440  -999.2500    97.4293
 3816.2160   246.0178  -999.2500    96.7360
 3816.7160   230.1272  -999.2500    88.6998
 3817.2160   204.1954  -999.2500    78.8200
 3817.7160   198.5428  -999.2500    69.2718
 3818.2160   194.5794  -999.2500    68.0725
 3818.7160   195.5913  -999.2500    72.8831
 3819.2160   196.8481  -999.2500    77.3061
 3819.7160   197.3595  -999.2500    77.6195
 3820.2160   196.8770  -999.2500    75.7634
 3820.7160   195.6493  -999.2500    77.7068
 3821.2160   196.9060    26.1200    80.7932
 3821.7160   200.2940    24.3680    85.3897
 3822.2160   206.9065    28.5380    87.8758
 3822.7160   219.9808    28.7234    90.7484
 3823.2160   233.0550  -999.2500    94.6287
 3823.7160   246.9546  -999.2500    93.4681
 3824.2160   258.3618  -999.2500    95.0002
 3824.7160   255.3586  -999.2500   104.7393
 3825.2160   245.7236  -999.2500   119.4613
 3825.7160   241.7630  -999.2500   123.2796
 3826.2160   238.5477  -999.2500   114.9666
 3826.7160   237.8132  -999.2500   113.8857
 3827.2160   237.8313  -999.2500   108.9288
 3827.7160   236.5999  -999.2500   108.4670
 3828.2160   237.3924  -999.2500   110.0229
 3828.7160   236.8800  -999.2500   106.1513
 3829.2160   237.1439  -999.2500   101.7691
 3829.7160   234.9260  -999.2500    96.8530
 3830.2160   231.9591    30.0224    92.8315
 3830.7160   229.9860    28.7599    91.6129
 3831.2160   230.2490    27.1810    88.2651
 3831.7160   231.5057    25.3981    85.2488
 3832.2160   233.0109    23.4438    83.5478
 3832.7160   237.9943    22.7644    82.6219
 3833.2160   242.2968    22.5791    83.0914
 3833.7160   246.0835    23.4691    84.3361
 3834.2160   249.7184    25.2975    86.2010
 3834.7160   253.9565    25.6683    87.4457
 3835.2160   263.0424    23.5206    82.4888
 3835.7160   276.3470    22.6724    84.7424
 3836.2160   279.8397    24.7194    90.4832
 3836.7160   275.8791    27.9161    92.0380
 3837.2160   271.1730  -999.2500    92.8950
 3837.7160   270.9355  -999.2500    92.6669
 3838.2160   272.1958    28.0383    90.6558
 3838.7160   274.4463    26.9665    88.9383
 3839.2160   279.4681    27.0593    89.2703
 3839.7160   285.6590    27.9185    91.6002
 3840.2160   290.1456    29.4070    92.5349
 3840.7160   292.3961  -999.2500    93.6245
 3841.2160   292.4106  -999.2500    93.5514
 3841.7160   292.6735  -999.2500    92.8581
 3842.2160   296.9116    29.3148    91.9322
 3842.7160   300.1559    29.1913    91.6265
 3843.2160   298.1828    29.9637    93.4150
 3843.7160   296.9551  -999.2500    95.3573
 3844.2160   298.7123  -999.2500    96.7571
 3844.7160   301.2113  -999.2500    96.4514
 3845.2160   303.4618  -999.2500    95.4480
 3845.7160   305.4639  -999.2500    92.5842
 3846.2160   305.7268    28.3871    90.4956
 3846.7160   304.9959    27.8332    89.6309
 3847.2160   304.5135    26.0727    88.0248
 3847.7160   302.5326    24.8034    85.0059
 3848.2160   301.4886    22.9841    83.1498
 3848.7160   298.3495    21.9858    81.9139
 3849.2160   292.1528    21.5327    81.0656
 3849.7160   286.5180    21.5328    80.8363
 3850.2160   272.5600    21.5637    81.0785
 3850.7160   263.8733    21.4712    81.0012
 3851.2160   258.1735    21.4095    81.1618
 3851.7160   256.9457    21.4714    81.2429
 3852.2160   256.2149    21.5951    81.3250
 3852.7160   255.7325    21.5977    81.5629
 3853.2160   256.2475    21.7807    81.7998
 3853.7160   260.9825    22.0588    81.7256
 3854.2160   262.9845    22.1516    81.8861
 3854.7160   264.4897    22.2752    82.0455
 3855.2160   266.4918    22.3680    82.1274
 3855.7160   266.7547    22.5535    82.5194
 3856.2160   265.0301    23.0169    83.2478
 3856.7160   263.5287    23.5997    84.9324
 3857.2160   264.8142    24.7850    86.0995
 3857.7160   268.0586    25.6427    86.8016
 3858.2160   270.0606    25.7664    86.9610
 3858.7160   271.3173    25.4576    86.5778
 3859.2160   273.8163    25.3905    86.1171
 3859.7160   277.8059    25.1181    85.8889
 3860.2160   279.3111    25.2727    86.3758
 3860.7160   276.5927    25.3345    86.2089
 3861.2160   275.8618    25.3037    86.2908
 3861.7160   276.3732    25.4583    86.3727
 3862.2160   273.6584    25.5511    86.7636
 3862.7160   268.8178    25.5512    86.6904
 3863.2160   263.0030    25.4895    86.6959
 3863.7160   261.5267    25.5514    86.6228
 3864.2160   261.7903    25.3354    86.2395
 3864.7160   263.5469    25.2428    86.4001
 3865.2160   263.5614    25.3356    86.5595
 3865.7160   266.8057    25.3975    86.4078
 3866.2160   262.8451    25.5520    86.7233
 3866.7160   260.8720    25.5508    87.1153
 3867.2160   263.1225    26.4225    87.8173
 3867.7160   263.8823    26.5717    88.1318
 3868.2160   261.5811    26.7880    88.3001
 3868.7160   257.9522    27.0661    88.6068
 3869.2160   260.2027    27.2825    89.2313
 3869.7160   266.4284    28.7343    91.1556
 3870.2160   268.4305  -999.2500    95.1984
 3870.7160   267.9480  -999.2500    99.2411
 3871.2160   266.9651  -999.2500   103.2839
 3871.7160   268.2255  -999.2500   107.3267
 3872.2160   267.7431  -999.2500   112.2041
 3872.7160   266.5153  -999.2500   112.9826
 3873.2160   270.7570  -999.2500   111.1276
 3873.7160   270.2710  -999.2500   105.5983
 3874.2160   268.3015  -999.2500   100.5155
 3874.7160   264.5893  -999.2500    97.4202
 3875.2160   257.6473  -999.2500    95.7967
 3875.7160   249.3275  -999.2500    92.1008
 3876.2160   243.2675    30.0022    87.7450
 3876.7160   241.2945    23.1452    83.3892
 3877.2160   238.8245    20.5198    78.2180
 3877.7160   234.9755    19.2625    76.6720
 3878.2160   231.1528    17.9564    76.3663
 3878.7160   229.1797    17.8020    76.1994
 3879.2160   228.9458    17.2153    74.3607
 3879.7160   226.4626    15.7019    73.0473
 3880.2160   221.7698    15.1151    72.3529
 3880.7160   228.4960    14.8483    73.3661
 3881.2160   229.2558    15.8258    74.8434
 3881.7160   232.5001    17.5088    75.7780
 3882.2160   232.7630    18.5133    77.1002
 3882.7160   232.5291    18.2945    76.5401
 3883.2160   230.5560    17.4031    74.7070
 3883.7160   223.6139    16.1044    73.3160
 3884.2160   229.0576    15.3940    72.9317
 3884.7160   235.3236    15.4868    73.4023
 3885.2160   241.0356    15.8576    73.7168
 3885.7160   247.1851    16.5990    75.8142
 3886.2160   253.5025    18.4245    77.6015
 3886.7160   254.7592    20.8309    79.4054
 3887.2160   254.4963    21.7268    81.4098
 3887.7160   243.6117    21.8504    81.2592
 3888.2160   242.3803    19.7193    79.9457
 3888.7160   242.8953    19.1943    78.0896
 3889.2160   242.6578    18.5149    77.1638
 3889.7160   242.9243    18.4532    76.7795
 3890.2160   243.6805    18.1754    77.0343
 3890.7160   240.7173    17.8048    76.1583
 3891.2160   238.4868    17.1563    75.3995
 3891.7160   237.2680    17.0637    75.3252
 3892.2160   238.7768    17.1565    75.4858
 3892.7160   243.5118    17.2802    75.9553
 3893.2160   246.0107    17.5895    76.0361
 3893.7160   246.5221    17.1549    74.3361
 3894.2160   246.7850    15.7052    73.3328
 3894.7160   244.0666    15.3964    73.0271
 3895.2160   242.8387    15.5819    73.5752
 3895.7160   244.2402    15.8600    74.4323
 3896.2160   250.5733    17.0648    75.2894
 3896.7160   252.8239    18.4306    77.6193
 3897.2160   257.0620    20.6658    79.8718
 3897.7160   259.8094    24.1385    83.0305
 3898.2160   262.0599    25.8683    86.7030
 3898.7160   260.0868    25.7758    87.0939
 3899.2160   256.3746    23.7103    84.3617
 3899.7160   255.1468    21.7548    80.7883
 3900.2160   253.1738    19.5367    78.5549
 3900.7160   254.1856    19.0118    77.7334
 3901.2160   254.6970    19.1663    78.1254
 3901.7160   254.4595    19.5062    78.4398
