~VERSION INFORMATION
 VERS.               2.10:   CWLS LOG ASCII STANDARD - VERSION 2.10
 WRAP.                 NO:   ONE LINE PER DEPTH STEP
~WELL INFORMATION
#MNEM.UNIT      DATA TYPE    INFORMATION
#----------   ------------   ------------------------------
 STRT.F         3538.2156:   START DEPTH
 STOP.F         5482.3540:   STOP DEPTH
 STEP.F            0.5000:   STEP LENGTH
 NULL.          -999.2500:   NO VALUE
 COMP. Fenix & Scisson,Inc.:   COMPANY
 WELL.        44-1 TPX 10:   WELL
 FLD .           N.P.R. 3:   FIELD
 LOC . 10-38N-78W-NATRONA-WY:   LOCATION
 STAT.                 WY:   STATE
 COUN.            Natrona:   COUNTY
 SRVC.      Dresser Atlas:   SERVICE COMPANY
 DATE.                   :   LOGDATE
 APIN.         4902510439:   API NUMBER
~CURVE INFORMATION
#MNEM.UNIT       API CODE    CURVE DESCRIPTION
#----------   ------------   ------------------------------
 DEPT.F                  :
 GR  .API    06 310 01 00:   Gamma Ray
 PORA.None               :   Porosity
 DT  .us/f   60 520 00 00:   Delta t
~PARAMETER INFORMATION
#MNEM.UNIT          VALUE    DESCRIPTION
#----------   ------------   ------------------------------
 EKB .F         5240.0000:   Kelly bushing
 EGL .F         5230.0000:   Ground level
 EDF .F            0.0000:   Drilling floor
 EPD .F           10.0000:   Permanent datum
 TD  .F         2250.0000:   Total depth
 NRUN.             1.0000:   Number of Runs
#--RUN 1---   ------------   The following are for Run 1---
 RUN .             1.0000:   Run 1
 DATE.mm/dd/yyyy 12-17-1977:   Date Logged
 DD  .ft             5471:   Depth Driller
 DL  .ft             5471:   Depth Logger
 BLI .ft             5461:   Bottom Log Interval
 TLI .ft             3550:   Top Log Interval
 CSS .inch          8.625:   Casing Size
 CTD1.ft             3023:   Casing Driller 1
 CTL1.ft              n/a:   Casing Logger 1
 BS  .inch          7.875:   Bit Size
 DFT .                kcl:   Type Fluid In Hole
 DFD .lb/gal          9.5:   Mud Weight
 DFV .sec              38:   Viscosity
 DFPH.               11.0:   pH
 DFL .cc              8.4:   Fluid Loss
 WSS .            mud pit:   Source Of Sample
 RM  .ohmm           .385:   Rm
 EMT .F                78:   Rm Meas. Temp.
 RMF .ohmm            .22:   Rmf
 MFT .F                70:   Rmf Meas. Temp.
 RMC .ohmm             .8:   Rmc
 MCST.F                70:   Rmc Meas. Temp.
 MFSS.               meas:   Source Rmf.
 MCSS.               meas:   Source Rmc.
 RMB .ohmm            .16:   Rm. At BHT
 BHT .F               176:   BHT.
 TCS .hh:mm        10 hrs:   Time Circ. Stopped
 MRT .F               176:   Maximum Recorded Temp.
 LUN .               6134:   Logging Unit Number
 LUL .           Gillette:   Logging Unit Location
 ENGI.              Hoyer:   Recorded By
 WITN.      Mr. Harington:   Witnessed By
 DGBY.              Burke:   Digitized By
~A  DEPTH       GR       PORA         DT
# ...
 4357.2160   207.8599    18.2374    75.6841
 4357.7160   200.2969    20.4151    78.2258
 4358.2160   200.5564    22.6107    80.7674
 4358.7160   201.5635    22.9503    83.1298
 4359.2160   203.3135    23.2281    83.6762
 4359.7160   205.3119    23.3206    83.5985
 4360.2160   205.3227    23.1968    83.2961
 4360.7160   207.3212    23.0731    83.0682
 4361.2160   206.8351    22.9493    82.9935
 4361.7160   205.6036    22.8565    83.0757
 4362.2160   208.8797    22.5783    82.5368
 4362.7160   209.3521    22.0146    81.6879
 4363.2160   208.8661    21.1212    81.0715
 4363.7160   209.1281    21.2495    80.7652
 4364.2160   210.1327    21.6509    81.0799
 4364.7160   210.3920    21.9904    81.6263
 4365.2160   214.6265    22.0521    81.8626
 4365.7160   215.6311    22.1754    81.9439
 4366.2160   216.4020    22.2679    82.1027
 4366.7160   217.8915    22.2677    82.2615
 4367.2160   218.3992    22.1130    82.0327
 4367.7160   221.8884    21.3097    81.3923
 4368.2160   226.6197    19.6296    80.3019
 4368.7160   229.1150    16.8910    76.9572
 4369.2160   228.1321    14.1524    73.6125
 4369.7160   228.3914    12.7221    69.9594
 4370.2160   229.3961    12.0732    68.4903
 4370.7160   228.9100    12.2893    68.5716
 4371.2160   225.1968    12.8760    68.8857
 4371.7160   219.9167    13.4009    69.7827
 4372.2160   213.7908    14.1729    71.2969
 4372.7160   212.3110    15.6602    73.3162
 4373.2160   212.8187    17.6697    75.1601
 4373.7160   213.5749    19.6793    77.4757
 4374.2160   214.0827    21.1837    79.9166
 4374.7160   214.8362    21.3997    80.9281
 4375.2160   212.6137    21.3995    80.8544
 4375.7160   212.3761    21.5561    80.9605
 4376.2160   214.1288    21.4918    81.3270
 4376.7160   215.8787    20.9356    80.7115
 4377.2160   216.6349    19.9161    79.9401
 4377.7160   216.1489    19.4835    79.0911
 4378.2160   213.5708    19.2053    78.1646
 4378.7160   210.2894    18.8654    77.9358
 4379.2160   207.4839    18.6181    77.5475
 4379.7160   207.9944    18.5252    77.0141
 4380.2160   208.2918    18.6485    77.0953
 4380.7160   209.0099    18.9263    77.5642
 4381.2160   210.2632    19.1115    77.8780
 4381.7160   209.2827    18.9260    77.7268
 4382.2160   207.3060    18.1536    76.8778
 4382.7160   206.8199    17.2267    75.7188
 4383.2160   205.8343    17.2274    75.0960
 4383.7160   205.8479    17.4882    75.2621
 4384.2160   208.0947    18.0910    76.1961
 4384.7160   209.3478    19.4808    77.9828
 4385.2160   210.3526    19.5733    78.9943
 4385.7160   210.1148    19.3260    78.7655
 4386.2160   209.8772    19.0169    78.1491
 4386.7160   206.9094    18.2445    77.2226
 4387.2160   204.4358    17.3733    76.0465
 4387.7160   205.6889    17.0086    75.4481
 4388.2160   208.6811    16.8848    75.0643
 4388.7160   210.4311    17.0391    74.9130
 4389.2160   211.2370    17.5640    75.2268
 4389.7160   214.4306    17.9036    76.1608
 4390.2160   214.1912    18.3976    76.7847
 4390.7160   213.1840    18.4901    77.1761
 4391.2160   212.4738    18.1677    76.8488
 4391.7160   214.4749    17.9955    76.6410
 4392.2160   213.2435    18.4586    76.9557
 4392.7160   209.5277    19.5002    78.4324
 4393.2160   206.3087    20.7296    79.7539
 4393.7160   208.8040    21.4541    81.0755
 4394.2160   210.8024    21.3304    81.1640
 4394.7160   210.8133    19.8167    80.0646
 4395.2160   209.3362    18.2721    77.5493
 4395.7160   207.6079    16.8511    74.8899
 4396.2160   205.8796    16.0718    74.1185
 4396.7160   204.6482    15.9241    73.7337
 4397.2160   204.6590    16.1092    73.7384
 4397.7160   204.7119    16.3870    73.8972
 4398.2160   203.4385    16.8192    74.5986
 4398.7160   201.9587    17.8074    75.7846
 4399.2160   202.9633    18.5177    77.0102
 4399.7160   201.7319    18.9808    77.6341
 4400.2160   202.9884    19.1042    78.0256
 4400.7160   203.7428    18.9495    77.5676
 4401.2160   201.5188    18.7640    77.4168
 4401.7160   202.0307    18.3314    76.9587
 4402.2160   202.5397    17.9914    76.4979
 4402.7160   202.5128    17.9295    76.2724
 4403.2160   201.5730    18.2999    76.2780
 4403.7160   201.8335    18.7027    77.2914
 4404.2160   201.5940    19.4584    78.7700
 4404.7160   201.1122    19.6135    78.8531
 4405.2160   200.6243    19.4599    78.3951
 4405.7160   199.3967    19.0899    77.8581
 4406.2160   199.4092    18.8436    77.6298
 4406.7160   199.9184    18.9083    77.7919
 4407.2160   201.6723    18.9379    78.0301
 4407.7160   201.9298    18.6916    77.8808
 4408.2160   201.6934    18.5377    77.4988
 4408.7160   204.6898    18.6004    77.5045
 4409.2160   208.6770    18.9409    77.8338
 4409.7160   211.6704    19.4359    78.6025
 4410.2160   213.6700    20.5486    80.3911
 4410.7160   215.1727    21.3406    81.8696
 4411.2160   214.6879    22.3649    83.5807
 4411.7160   214.7029    23.3926    83.9725
 4412.2160   214.9634    23.2630    83.7471
 4412.7160   216.7146    22.2852    81.7372
 4413.2160   222.1925    20.4448    79.2622
 4413.7160   223.9767    19.3707    78.4152
 4414.2160   218.5003    19.2574    78.4998
 4414.7160   212.3611    20.2200    80.1334
 4415.2160   209.3244    21.5944    81.9220
 4415.7160   208.8365    22.9688    83.7106
 4416.2160   210.3423    23.3378    83.7937
 4416.7160   212.3419    23.2458    83.7205
 4417.2160   213.0963    23.2159    83.4950
 4417.7160   210.1299    23.0620    83.3423
 4418.2160   209.8935    23.0938    83.5891
 4418.7160   208.8470    23.3417    83.8998
 4419.2160   206.1939    23.4969    84.0602
 4419.7160   206.4544    23.7447    84.1448
 4420.2160   207.5168    23.7349    84.3041
 4420.7160   209.9897    23.1904    83.2259
 4421.2160   212.4627    21.7394    82.2238
 4421.7160   214.9356    21.2460    80.7566
 4422.2160   217.4085    20.1039    79.8320
 4422.7160   219.8815    19.8266    79.1359
 4423.2160   222.3544    19.5803    78.8881
 4423.7160   223.6946    19.2413    78.2225
 4424.2160   224.4550    18.6792    76.6003
 4424.7160   225.2124    17.6179    75.1331
 4425.2160   224.9760    16.6502    74.1310
 4425.7160   223.7458    15.9083    73.5926
 4426.2160   220.2796    16.4653    73.7547
 4426.7160   216.3165    17.2277    74.9231
 4427.2160   212.8502    18.0695    76.0213
 4427.7160   210.6060    18.9078    76.9743
 4428.2160   210.1414    18.8777    77.7322
 4428.7160   211.6471    18.9093    77.7379
 4429.2160   211.4077    18.6320    77.8196
 4429.7160   211.1713    18.3548    77.2052
 4430.2160   212.1801    18.1702    76.9797
 4430.7160   213.6828    17.8534    76.4427
 4431.2160   216.6763    17.3688    75.9832
 4431.7160   217.2091    16.6409    74.7353
 4432.2160   222.1692    14.4199    73.0241
 4432.7160   223.1750    12.4987    69.4053
 4433.2160   220.7026    10.6598    66.3436
 4433.7160   214.7519     7.9827    63.2818
 4434.2160   205.7584     6.7114    59.6625
 4434.7160   195.9020     4.4496    56.3348
 4435.2160   190.4402     2.8576    55.0226
 4435.7160   189.6806     1.4375    52.7802
 4436.2160   189.2220     0.4807    51.7781
 4436.7160   190.7278    -0.1981    51.0086
 4437.2160   192.2305    -0.4463    50.4715
 4437.7160   193.4848    -0.5673    50.6358
 4438.2160   192.9999    -0.2883    51.2887
 4438.7160   193.0120     0.1448    52.0404
 4439.2160   192.2787     0.6707    52.4337
 4439.7160   192.0122     1.0112    52.8269
 4440.2160   188.3306     1.5679    53.6853
 4440.7160   188.0912     1.4451    53.4584
 4441.2160   186.3671     1.0736    53.2315
 4441.7160   184.8885     0.4535    52.4620
 4442.2160   185.3974     0.3354    51.8475
 4442.7160   186.9001     1.0159    52.9570
 4443.2160   188.6529     1.2020    53.1780
 4443.7160   189.6911     1.3880    53.4938
 4444.2160   190.4175     1.2961    53.4994
 4444.7160   190.4296     0.7409    53.0400
 4445.2160   190.9385     0.5236    52.5030
 4445.7160   190.2052     0.3671    52.3522
 4446.2160   189.4689     0.2491    52.2816
 4446.7160   191.2231     0.1879    52.1322
 4447.2160   192.2290     0.0962    51.9054
 4447.7160   192.2414     0.0969    51.6785
