~VERSION INFORMATION
 VERS.               2.10:   CWLS LOG ASCII STANDARD - VERSION 2.10
 WRAP.                 NO:   ONE LINE PER DEPTH STEP
~WELL INFORMATION
#MNEM.UNIT      DATA TYPE    INFORMATION
#----------   ------------   ------------------------------
 STRT.F         3538.2156:   START DEPTH
 STOP.F         5482.3540:   STOP DEPTH
 STEP.F            0.5000:   STEP LENGTH
 NULL.          -999.2500:   NO VALUE
 COMP. Fenix & Scisson,Inc.:   COMPANY
 WELL.        44-1 TPX 10:   WELL
 FLD .           N.P.R. 3:   FIELD
 LOC . 10-38N-78W-NATRONA-WY:   LOCATION
 STAT.                 WY:   STATE
 COUN.            Natrona:   COUNTY
 SRVC.      Dresser Atlas:   SERVICE COMPANY
 DATE.                   :   LOGDATE
 APIN.         4902510439:   API NUMBER
~CURVE INFORMATION
#MNEM.UNIT       API CODE    CURVE DESCRIPTION
#----------   ------------   ------------------------------
 DEPT.F                  :
 GR  .API    06 310 01 00:   Gamma Ray
 PORA.None               :   Porosity
 DT  .us/f   60 520 00 00:   Delta t
~PARAMETER INFORMATION
#MNEM.UNIT          VALUE    DESCRIPTION
#----------   ------------   ------------------------------
 EKB .F         5240.0000:   Kelly bushing
 EGL .F         5230.0000:   Ground level
 EDF .F            0.0000:   Drilling floor
 EPD .F           10.0000:   Permanent datum
 TD  .F         2250.0000:   Total depth
 NRUN.             1.0000:   Number of Runs
#--RUN 1---   ------------   The following are for Run 1---
 RUN .             1.0000:   Run 1
 DATE.mm/dd/yyyy 12-17-1977:   Date Logged
 DD  .ft             5471:   Depth Driller
 DL  .ft             5471:   Depth Logger
 BLI .ft             5461:   Bottom Log Interval
 TLI .ft             3550:   Top Log Interval
 CSS .inch          8.625:   Casing Size
 CTD1.ft             3023:   Casing Driller 1
 CTL1.ft              n/a:   Casing Logger 1
 BS  .inch          7.875:   Bit Size
 DFT .                kcl:   Type Fluid In Hole
 DFD .lb/gal          9.5:   Mud Weight
 DFV .sec              38:   Viscosity
 DFPH.               11.0:   pH
 DFL .cc              8.4:   Fluid Loss
 WSS .            mud pit:   Source Of Sample
 RM  .ohmm           .385:   Rm
 EMT .F                78:   Rm Meas. Temp.
 RMF .ohmm            .22:   Rmf
 MFT .F                70:   Rmf Meas. Temp.
 RMC .ohmm             .8:   Rmc
 MCST.F                70:   Rmc Meas. Temp.
 MFSS.               meas:   Source Rmf.
 MCSS.               meas:   Source Rmc.
 RMB .ohmm            .16:   Rm. At BHT
 BHT .F               176:   BHT.
 TCS .hh:mm        10 hrs:   Time Circ. Stopped
 MRT .F               176:   Maximum Recorded Temp.
 LUN .               6134:   Logging Unit Number
 LUL .           Gillette:   Logging Unit Location
 ENGI.              Hoyer:   Recorded By
 WITN.      Mr. Harington:   Witnessed By
 DGBY.              Burke:   Digitized By
~A  DEPTH       GR       PORA         DT
# ...
 4903.2160   254.5964     6.8589    60.5596
 4903.7160   260.6400     7.0143    60.8655
 4904.2160   269.5865     7.2314    61.1732
 4904.7160   270.0858     7.6832    61.5857
 4905.2160   272.8212     8.3937    64.1063
 4905.7160   272.3267     9.1041    64.7227
 4906.2160   270.3415     9.6740    64.7974
 4906.7160   267.3403     9.2121    64.7152
 4907.2160   260.2627     8.6885    64.5564
 4907.7160   252.2127     7.7053    63.9042
 4908.2160   246.0039     6.9012    61.9123
 4908.7160   241.5343     6.0972    60.2807
 4909.2160   241.7851     5.4821    59.4242
 4909.7160   240.2969     5.4530    59.1104
 4910.2160   237.3179     5.2074    59.1066
 4910.7160   236.5741     5.0233    58.7928
 4911.2160   235.2438     4.8700    58.4781
 4911.7160   233.3506     4.5624    58.0764
 4912.2160   233.8499     4.7487    57.9288
 4912.7160   235.3430     4.8452    58.3117
 4913.2160   239.3206     4.8761    58.2305
 4913.7160   244.2919     5.1010    58.5368
 4914.2160   249.7602     5.9568    59.2307
 4914.7160   258.3525     6.8349    60.3394
 4915.2160   266.1313     7.8982    62.1693
 4915.7160   278.5877     9.1698    63.9993
 4916.2160   279.3354    10.4646    65.3388
 4916.7160   274.8658    11.1166    66.2653
 4917.2160   272.3837    10.8707    66.6500
 4917.7160   270.6128    10.5940    66.4903
 4918.2160   266.0230     9.5456    65.6339
 4918.7160   259.4723     8.4973    64.0022
 4919.2160   257.7356     7.7885    62.6620
 4919.7160   256.9921     7.2340    61.7457
 4920.2160   260.4734     6.7001    61.0443
 4920.7160   262.4633     6.5570    60.8855
 4921.2160   259.9813     6.6201    60.6492
 4921.7160   255.5101     6.6829    60.7229
 4922.2160   256.2006     6.8074    60.8742
 4922.7160   260.9829     7.0245    61.1835
 4923.2160   261.4822     7.3341    61.5000
 4923.7160   263.4722     7.5821    61.7923
 4924.2160   264.2199     7.6758    62.0211
 4924.7160   262.4832     7.5227    62.0958
 4925.2160   261.9541     7.4618    61.8585
 4925.7160   262.0000     7.5248    61.9323
 4926.2160   260.9998     7.6493    62.0836
 4926.7160   265.4748     7.7738    62.2418
 4927.2160   267.7133     7.8675    62.5412
 4927.7160   269.9517     7.9920    62.6925
 4928.2160   273.6808     8.3396    63.1529
 4928.7160   276.6646     9.0180    64.0018
 4929.2160   275.4248     9.8125    64.9283
 4929.7160   272.6942    10.3729    65.7773
 4930.2160   269.9053    10.7752    66.2387
 4930.7160   263.7556    10.7454    66.3124
 4931.2160   257.7953    10.5923    66.2302
 4931.7160   250.5927    10.0996    65.6838
 4932.2160   246.8684     6.6747    62.1917
 4932.7160   244.1379     6.1202    60.6376
 4933.2160   243.8913     5.8743    59.8586
 4933.7160   243.8943     5.8134    59.6223
 4934.2160   242.9029     5.7838    59.4634
 4934.7160   243.4458     5.3836    59.3038
 4935.2160   244.3984     5.2615    59.0675
 4935.7160   241.4201     5.0156    58.9087
 4936.2160   239.1864     4.7080    58.5948
 4936.7160   238.1945     4.3384    58.1260
 4937.2160   238.4459     4.4015    57.5796
 4937.7160   239.1937     4.5877    57.6534
 4938.2160   243.2470     4.8665    57.9781
 4938.7160   255.0978     6.4034    59.8930
 4939.2160   266.9486     8.2639    61.4952
 4939.7160   273.4893     9.3144    63.8386
 4940.2160   273.4922     9.9944    65.3078
 4940.7160   272.5009     9.8720    65.0715
 4941.2160   265.5468     9.4718    64.3700
 4941.7160   263.0641     9.1025    63.9012
 4942.2160   260.3342     8.7332    63.7424
 4942.7160   254.3739     8.2013    63.2735
 4943.2160   248.6620     7.4491    62.2993
 4943.7160   245.9315     6.2675    60.2418
 4944.2160   245.6106     5.4352    59.3853
 4944.7160   244.6947     4.9424    58.6839
 4945.2160   245.1940     5.0978    58.4476
 4945.7160   247.6809     5.1914    58.5223
 4946.2160   245.9441     5.1616    58.4401
 4946.7160   243.4621     5.0040    58.3567
 4947.2160   240.9800     4.6084    57.9552
 4947.7160   240.7340     4.5166    57.6527
 4948.2160   242.5368     4.7957    57.8815
 4948.7160   248.9382     5.3831    58.8080
 4949.2160   256.8909     6.2445    59.7345
 4949.7160   264.3211     7.6644    60.5059
 4950.2160   272.7963     9.0842    62.0525
 4950.7160   273.0466    10.1715    63.8501
 4951.2160   268.5775     9.8330    65.4559
 4951.7160   264.8094     9.0316    63.6683
 4952.2160   261.1292     8.0450    62.6568
 4952.7160   261.8769     7.5522    62.1104
 4953.2160   261.8793     7.3681    61.7190
 4953.7160   264.6472     7.4617    61.7153
 4954.2160   262.6301     7.4321    61.7890
 4954.7160   259.1542     7.2480    61.4646
 4955.2160   258.9076     7.0330    61.3155
 4955.7160   258.4137     7.0029    61.2342
 4956.2160   261.1490     7.0660    61.2304
 4956.7160   265.6235     7.3756    61.3042
 4957.2160   267.1166     7.5952    61.6105
 4957.7160   268.8582     7.9427    61.9944
 4958.2160   268.1152     8.0889    62.4599
 4958.7160   267.8692     8.1517    62.7611
 4959.2160   268.3691     7.9367    62.6799
 4959.7160   270.1106     7.7832    62.5986
 4960.2160   271.8522     7.7533    62.5173
 4960.7160   272.8484     7.7855    62.2810
 4961.2160   269.1241     7.6930    62.1997
 4961.7160   267.1389     7.5716    62.0409
 4962.2160   268.1357     7.6346    62.0371
 4962.7160   270.3741     7.8208    62.1110
 4963.2160   273.3579     8.0379    62.5714
 4963.7160   277.5840     8.7797    63.1103
 4964.2160   282.5553     9.2129    63.8042
 4964.7160   284.5447     9.4300    64.4206
 4965.2160   281.3179     9.3973    64.4945
 4965.7160   272.5744     8.8574    63.9432
 4966.2160   265.6705     7.3963    63.0280
 4966.7160   266.4189     6.9344    61.4589
 4967.2160   265.4275     6.7192    60.9900
 4967.7160   263.4424     6.7822    61.0638
 4968.2160   260.4634     6.7213    61.0601
 4968.7160   260.9627     6.7843    60.9013
 4969.2160   261.7104     6.6603    60.8975
 4969.7160   261.4533     6.4731    60.6547
 4970.2160   259.9406     6.4790    60.4249
 4970.7160   258.9848     6.4184    60.4202
 4971.2160   261.2238     6.2651    60.1839
 4971.7160   265.6983     6.4822    60.2586
 4972.2160   265.9485     6.6684    60.5640
 4972.7160   265.2056     6.9164    61.4905
 4973.2160   269.6807     7.4767    61.9520
 4973.7160   270.9253     7.8540    62.4235
 4974.2160   270.4308     8.0926    62.5645
 4974.7160   274.1605     8.1554    62.5598
 4975.2160   277.6412     8.1256    62.4785
 4975.7160   277.3952     8.0646    62.5532
 4976.2160   279.1367     8.2511    63.0136
 4976.7160   280.6298     8.6843    63.6300
 4977.2160   278.6446     9.0595    64.0959
 4977.7160   276.6595     9.2111    63.9317
 4978.2160   269.5894     8.8111    63.3853
 4978.7160   262.7517     7.9789    62.6063
 4979.2160   263.0025     7.3935    61.6724
 4979.7160   263.7503     6.7773    60.9709
 4980.2160   264.7465     6.8709    60.8006
 4980.7160   267.2505     6.9954    60.8859
 4981.2160   267.7327     7.0582    61.1232
 4981.7160   267.2382     7.0284    61.2660
 4982.2160   269.7256     7.0914    61.3398
 4982.7160   269.4796     7.1542    61.3351
 4983.2160   270.7242     7.3095    61.4864
 4983.7160   273.9565     7.6192    61.6386
 4984.2160   274.4558     7.8981    62.0990
 4984.7160   273.9597     8.1152    62.5627
 4985.2160   273.4669     8.0853    62.7892
 4985.7160   277.9419     8.0816    62.7070
 4986.2160   279.9319     7.9331    62.7032
 4986.7160   280.4306     7.8110    62.4669
 4987.2160   278.9429     7.6268    62.2306
 4987.7160   273.2310     7.3192    61.9943
 4988.2160   273.2335     7.2583    61.7580
 4988.7160   278.9501     7.3831    61.6767
 4989.2160   278.6304     7.7609    61.9046
 4989.7160   273.2413     8.6327    62.2109
 4990.2160   273.4922     9.5159    63.3057
 4990.7160   272.7486    10.5396    65.5370
 4991.2160   272.0063    11.0306    66.9347
 4991.7160   272.5056    11.0931    66.6139
 4992.2160   274.9925     9.9833    65.3698
 4992.7160   276.9825     9.0276    64.4358
 4993.2160   279.4880     8.4113    63.8119
 4993.7160   280.4662     8.1961    63.2655
