~VERSION INFORMATION
 VERS.               2.10:   CWLS LOG ASCII STANDARD - VERSION 2.10
 WRAP.                 NO:   ONE LINE PER DEPTH STEP
~WELL INFORMATION
#MNEM.UNIT      DATA TYPE    INFORMATION
#----------   ------------   ------------------------------
 STRT.F         3538.2156:   START DEPTH
 STOP.F         5482.3540:   STOP DEPTH
 STEP.F            0.5000:   STEP LENGTH
 NULL.          -999.2500:   NO VALUE
 COMP. Fenix & Scisson,Inc.:   COMPANY
 WELL.        44-1 TPX 10:   WELL
 FLD .           N.P.R. 3:   FIELD
 LOC . 10-38N-78W-NATRONA-WY:   LOCATION
 STAT.                 WY:   STATE
 COUN.            Natrona:   COUNTY
 SRVC.      Dresser Atlas:   SERVICE COMPANY
 DATE.                   :   LOGDATE
 APIN.         4902510439:   API NUMBER
~CURVE INFORMATION
#MNEM.UNIT       API CODE    CURVE DESCRIPTION
#----------   ------------   ------------------------------
 DEPT.F                  :
 GR  .API    06 310 01 00:   Gamma Ray
 PORA.None               :   Porosity
 DT  .us/f   60 520 00 00:   Delta t
~PARAMETER INFORMATION
#MNEM.UNIT          VALUE    DESCRIPTION
#----------   ------------   ------------------------------
 EKB .F         5240.0000:   Kelly bushing
 EGL .F         5230.0000:   Ground level
 EDF .F            0.0000:   Drilling floor
 EPD .F           10.0000:   Permanent datum
 TD  .F         2250.0000:   Total depth
 NRUN.             1.0000:   Number of Runs
#--RUN 1---   ------------   The following are for Run 1---
 RUN .             1.0000:   Run 1
 DATE.mm/dd/yyyy 12-17-1977:   Date Logged
 DD  .ft             5471:   Depth Driller
 DL  .ft             5471:   Depth Logger
 BLI .ft             5461:   Bottom Log Interval
 TLI .ft             3550:   Top Log Interval
 CSS .inch          8.625:   Casing Size
 CTD1.ft             3023:   Casing Driller 1
 CTL1.ft              n/a:   Casing Logger 1
 BS  .inch          7.875:   Bit Size
 DFT .                kcl:   Type Fluid In Hole
 DFD .lb/gal          9.5:   Mud Weight
 DFV .sec              38:   Viscosity
 DFPH.               11.0:   pH
 DFL .cc              8.4:   Fluid Loss
 WSS .            mud pit:   Source Of Sample
 RM  .ohmm           .385:   Rm
 EMT .F                78:   Rm Meas. Temp.
 RMF .ohmm            .22:   Rmf
 MFT .F                70:   Rmf Meas. Temp.
 RMC .ohmm             .8:   Rmc
 MCST.F                70:   Rmc Meas. Temp.
 MFSS.               meas:   Source Rmf.
 MCSS.               meas:   Source Rmc.
 RMB .ohmm            .16:   Rm. At BHT
 BHT .F               176:   BHT.
 TCS .hh:mm        10 hrs:   Time Circ. Stopped
 MRT .F               176:   Maximum Recorded Temp.
 LUN .               6134:   Logging Unit Number
 LUL .           Gillette:   Logging Unit Location
 ENGI.              Hoyer:   Recorded By
 WITN.      Mr. Harington:   Witnessed By
 DGBY.              Burke:   Digitized By
~A  DEPTH       GR       PORA         DT
# ...
 5358.2160   193.5404     5.0642    59.2493
 5358.7160   192.7950     4.9107    58.7042
 5359.2160   191.5528     5.0043    58.3163
 5359.7160   191.5528     5.0365    58.6250
 5360.2160   188.4334     4.9449    58.1584
 5360.7160   186.0870     5.1003    58.2345
 5361.2160   186.3354     3.5689    58.3107
 5361.7160   187.3292     3.7814    57.3011
 5362.2160   188.0745     4.2085    55.9044
 5362.7160   186.5838     4.5799    57.2210
 5363.2160   184.8447     3.9541    58.1495
 5363.7160   184.3454     5.1994    57.1404
 5364.2160   186.1724     5.8177    58.1673
 5364.7160   187.3292     4.9462    59.1139
 5365.2160   189.5652     5.8142    57.8339
 5365.7160   191.8012     6.5309    59.2275
 5366.2160   193.5404     6.5937    60.0788
 5366.7160   192.7950     6.0085    60.5425
 5367.2160   188.5714     5.4884    60.3082
 5367.7160   189.3202     4.6353    59.5316
 5368.2160   186.8323     4.1908    58.0573
 5368.7160   187.5776     3.7597    57.2807
 5369.2160   188.8199     3.6370    57.2018
 5369.7160   189.0683     3.8544    56.6578
 5370.2160   188.5714     3.8863    56.8122
 5370.7160   189.5652     3.5787    56.7991
 5371.2160   187.8261     3.5489    56.8086
 5371.7160   188.3230     3.4882    56.2642
 5372.2160   194.6446     3.6130    56.3403
 5372.7160   196.0248     4.1387    56.3389
 5373.2160   197.5155     4.3558    56.8026
 5373.7160   198.5093     4.6655    57.4213
 5374.2160   199.7516     4.7591    57.6525
 5374.7160   204.9689     4.2801    58.1158
 5375.2160   206.8112     2.9887    57.8044
 5375.7160   208.1988     4.5773    56.9502
 5376.2160   204.8835     4.2080    55.5538
 5376.7160   197.0186     1.5926    57.6455
 5377.2160   198.7578    -0.4294    56.7135
 5377.7160   192.0497    -1.2806    53.8438
 5378.2160   189.5652    -1.5969    49.9370
 5378.7160   189.2836    -3.5636    49.4221
 5379.2160   187.5776    -3.8412    45.6226
 5379.7160   191.0559    -3.5933    46.0084
 5380.2160   194.2857    -3.6231    46.4721
 5380.7160   198.2609    -3.4983    46.3932
 5381.2160   199.5031    -3.4358    46.5468
 5381.7160   196.5217    -3.6814    46.5454
 5382.2160   193.2919    -3.6804    46.4455
 5382.7160   191.7837    -3.6144    45.9996
 5383.2160   192.0497    -2.7213    46.3083
 5383.7160   193.5404    -1.6708    46.9270
 5384.2160   195.2795    -0.7130    48.4760
 5384.7160   196.7702     0.3066    49.5599
 5385.2160   190.8074     0.9866    51.3736
 5385.7160   183.6025     2.8088    52.3622
 5386.2160   180.6211     3.2420    54.9041
 5386.7160   182.8571     5.6196    55.4454
 5387.2160   182.3602     1.9256    59.1649
 5387.7160   186.0870    -0.9214    56.5966
 5388.2160   191.0559    -2.5562    51.4100
 5388.7160   190.0621    -2.4008    50.2458
 5389.2160   185.0932    -2.3380    47.4537
 5389.7160   183.8509    -2.0901    47.9953
 5390.2160   182.6087    -2.0915    48.3036
 5390.7160   181.3665    -2.1825    48.4583
 5391.2160   184.5963    -2.3030    48.4446
 5391.7160   188.8199    -2.1782    47.9889
 5392.2160   188.8199    -0.3761    48.3751
 5392.7160   189.0683     3.3353    49.6140
 5393.2160   190.5590     5.7622    53.5677
 5393.7160   192.2981     5.9743    59.3281
 5394.2160   190.3106     6.9391    65.0885
 5394.7160   188.8023     8.4994    70.8489
 5395.2160   187.8261    10.3450    75.8862
 5395.7160   187.5776    15.4846    69.8179
 5396.2160   185.0932    12.0760    70.5159
 5396.7160   183.3540    14.2610    67.2767
 5397.2160   184.5963    15.8582    72.3973
 5397.7160   183.8509    16.4672    74.2929
 5398.2160   187.0807    17.5578    75.1021
 5398.7160   187.3292    16.5715    75.6433
 5399.2160   186.8323    16.4488    74.7113
 5399.7160   188.3230    17.4377    74.7874
 5400.2160   186.8340    17.6548    75.5612
 5400.7160   186.3411    17.4090    75.7924
 5401.2160   187.8368    16.9814    75.3258
 5401.7160   185.8532    17.1080    75.5570
 5402.2160   185.1109    17.2031    75.5548
 5402.7160   186.8550    17.0513    74.9016
 5403.2160   187.8528    16.1896    73.3819
 5403.7160   188.8532    14.0195    70.4347
 5404.2160   189.8822    11.6212    68.1077
 5404.7160   191.3441    11.4130    67.2536
 5405.2160   191.8450    13.2989    67.7948
 5405.7160   192.0975    14.9681    70.1965
 5406.2160   191.8521    15.1866    71.0017
 5406.7160   191.6086    14.6645    72.7515
 5407.2160   190.6189    13.8028    71.9749
 5407.7160   189.6291    13.6201    70.8882
 5408.2160   190.4578    12.6967    70.0341
 5408.7160   190.6319    11.9893    68.4048
 5409.2160   190.3865    11.6524    68.0158
 5409.7160   190.1420    11.9782    67.9342
 5410.2160   190.6439    12.8887    68.3893
 5410.7160   191.3933    14.0060    70.7244
 5411.2160   193.4219    14.3789    71.4210
 5411.7160   192.8920    14.4123    71.3421
 5412.2160   194.6362    14.4765    71.5732
 5412.7160   193.6464    13.8926    70.9513
 5413.2160   193.1525    13.1850    70.3298
 5413.7160   193.6544    12.4016    69.0086
 5414.2160   193.6584    11.4313    67.0396
 5414.7160   194.9047    10.2609    65.9066
 5415.2160   198.8838     9.4594    64.9749
 5415.7160   198.8507     9.2166    64.6635
 5416.2160   195.9115     9.7129    64.4298
 5416.7160   194.1764     9.9321    64.9707
 5417.2160   195.9195    10.6444    65.8220
 5417.7160   200.1471    11.2332    66.9906
 5418.2160   203.1325    12.1306    67.4468
 5418.7160   209.8446    13.0897    69.0733
 5419.2160   209.8859    11.5497    67.5215
 5419.7160   203.3193    11.7065    67.8301
 5420.2160   200.9135    12.2337    68.1387
 5420.7160   198.6805    12.2362    68.6799
 5421.2160   200.9216    12.0213    68.5235
 5421.7160   202.9122    11.7474    67.9019
 5422.2160   201.4265    12.3061    68.5207
 5422.7160   203.4181    12.5247    68.5248
 5423.2160   203.4098     9.8107    67.1225
 5423.7160   208.6732    10.3734    66.3455
 5424.2160   208.1516     9.9707    65.7240
 5424.7160   202.4413     9.7257    65.5675
 5425.2160   203.9360     9.8523    65.4114
 5425.7160   205.1823    10.1017    65.7973
 5426.2160   208.6646    10.1660    65.7183
 5426.7160   206.6810    10.1068    65.7212
 5427.2160   204.6974    10.2327    65.7930
 5427.7160   209.9899    10.2661    65.9467
 5428.2160   208.1847    10.3921    66.0228
 5428.7160   205.9517    11.6687    66.4861
 5429.2160   212.9132    13.8233    69.0242
 5429.7160   210.4328    13.4130    77.5049
 5430.2160   206.9585    12.9111    72.3566
 5430.7160   207.7303    10.4666    68.4983
 5431.2160   205.6986    12.9385    69.5797
 5431.7160   199.1470    13.4312    71.9038
 5432.2160   197.2851    12.8197    69.3446
 5432.7160   197.0417    13.0080    69.6565
 5433.2160   196.0519    13.2883    69.9616
 5433.7160   195.8065    13.2599    69.8048
 5434.2160   198.5444    12.5526    69.0282
 5434.7160   198.3000    12.2109    68.8718
 5435.2160   193.8174    11.4240    68.0952
 5435.7160   193.3391    10.6472    67.0085
 5436.2160   195.0832    10.3411    66.3869
 5436.7160   197.8202    10.8065    66.2305
 5437.2160   197.5757    11.4572    67.1393
 5437.7160   196.5859    12.3542    69.2506
 5438.2160   199.3219     9.3324    65.5283
 5438.7160   197.5753     9.6016    65.1701
 5439.2160   195.6042    10.0164    65.4497
 5439.7160   200.3297     9.8338    65.3690
 5440.2160   201.8234    10.0221    65.5227
 5440.7160   198.8470    10.2092    65.8314
 5441.2160   200.5902     9.9037    65.5195
 5441.7160   203.5756    10.3685    65.9057
 5442.2160   204.3998    10.2785    65.8268
 5442.7160   216.9997    10.6520    65.9030
 5443.2160   209.5248    11.1175    67.0657
 5443.7160   210.0522    11.6138    67.9156
 5444.2160   208.8140    11.6472    67.5263
 5444.7160   210.0603    11.7479    67.9900
 5445.2160   209.8158    12.2611    68.9188
 5445.7160   210.0683    12.6430    69.2275
 5446.2160   211.8114    12.9542    69.3814
 5446.7160   215.0453    12.0617    68.9921
 5447.2160   213.4975    12.1059    68.2930
 5447.7160   214.8058    12.7766    69.5319
 5448.2160   210.8347    12.5939    68.9875
 5448.7160   211.0872    12.1643    68.6760
