~VERSION INFORMATION
 VERS.               2.10:   CWLS LOG ASCII STANDARD - VERSION 2.10
 WRAP.                 NO:   ONE LINE PER DEPTH STEP
~WELL INFORMATION
#MNEM.UNIT      DATA TYPE    INFORMATION
#----------   ------------   ------------------------------
 STRT.F         3538.2156:   START DEPTH
 STOP.F         5482.3540:   STOP DEPTH
 STEP.F            0.5000:   STEP LENGTH
 NULL.          -999.2500:   NO VALUE
 COMP. Fenix & Scisson,Inc.:   COMPANY
 WELL.        44-1 TPX 10:   WELL
 FLD .           N.P.R. 3:   FIELD
 LOC . 10-38N-78W-NATRONA-WY:   LOCATION
 STAT.                 WY:   STATE
 COUN.            Natrona:   COUNTY
 SRVC.      Dresser Atlas:   SERVICE COMPANY
 DATE.                   :   LOGDATE
 APIN.         4902510439:   API NUMBER
~CURVE INFORMATION
#MNEM.UNIT       API CODE    CURVE DESCRIPTION
#----------   ------------   ------------------------------
 DEPT.F                  :
 GR  .API    06 310 01 00:   Gamma Ray
 PORA.None               :   Porosity
 DT  .us/f   60 520 00 00:   Delta t
~PARAMETER INFORMATION
#MNEM.UNIT          VALUE    DESCRIPTION
#----------   ------------   ------------------------------
 EKB .F         5240.0000:   Kelly bushing
 EGL .F         5230.0000:   Ground level
 EDF .F            0.0000:   Drilling floor
 EPD .F           10.0000:   Permanent datum
 TD  .F         2250.0000:   Total depth
 NRUN.             1.0000:   Number of Runs
#--RUN 1---   ------------   The following are for Run 1---
 RUN .             1.0000:   Run 1
 DATE.mm/dd/yyyy 12-17-1977:   Date Logged
 DD  .ft             5471:   Depth Driller
 DL  .ft             5471:   Depth Logger
 BLI .ft             5461:   Bottom Log Interval
 TLI .ft             3550:   Top Log Interval
 CSS .inch          8.625:   Casing Size
 CTD1.ft             3023:   Casing Driller 1
 CTL1.ft              n/a:   Casing Logger 1
 BS  .inch          7.875:   Bit Size
 DFT .                kcl:   Type Fluid In Hole
 DFD .lb/gal          9.5:   Mud Weight
 DFV .sec              38:   Viscosity
 DFPH.               11.0:   pH
 DFL .cc              8.4:   Fluid Loss
 WSS .            mud pit:   Source Of Sample
 RM  .ohmm           .385:   Rm
 EMT .F                78:   Rm Meas. Temp.
 RMF .ohmm            .22:   Rmf
 MFT .F                70:   Rmf Meas. Temp.
 RMC .ohmm             .8:   Rmc
 MCST.F                70:   Rmc Meas. Temp.
 MFSS.               meas:   Source Rmf.
 MCSS.               meas:   Source Rmc.
 RMB .ohmm            .16:   Rm. At BHT
 BHT .F               176:   BHT.
 TCS .hh:mm        10 hrs:   Time Circ. Stopped
 MRT .F               176:   Maximum Recorded Temp.
 LUN .               6134:   Logging Unit Number
 LUL .           Gillette:   Logging Unit Location
 ENGI.              Hoyer:   Recorded By
 WITN.      Mr. Harington:   Witnessed By
 DGBY.              Burke:   Digitized By
~A  DEPTH       GR       PORA         DT
# ...
 4630.2160   253.7994     8.8402    63.8821
 4630.7160   250.8361     8.5019    63.6465
 4631.2160   248.1213     8.2870    63.3334
 4631.7160   248.3878     8.0105    63.0979
 4632.2160   247.4122     7.6104    62.9175
 4632.7160   241.4546     6.9596    62.1609
 4633.2160   239.7117     6.6471    61.4602
 4633.7160   240.5145     6.4415    60.8371
 4634.2160   241.0295     6.4736    60.5240
 4634.7160   245.0228     7.0612    60.3660
 4635.2160   249.2645     7.2783    61.1382
 4635.7160   253.7546     7.7425    62.0801
 4636.2160   257.7479     7.8672    62.5268
 4636.7160   254.7846     7.6218    62.4463
 4637.2160   250.5791     7.4378    62.0557
 4637.7160   251.5956     7.4699    61.9751
 4638.2160   253.1043     7.9957    62.1272
 4638.7160   257.0351     9.1389    63.2094
 4639.2160   265.4914     9.2327    63.8302
 4639.7160   272.5375     9.1105    64.2112
 4640.2160   268.8289     8.7413    64.1299
 4640.7160   264.1266     8.0014    63.5068
 4641.2160   259.6633     7.2761    62.6511
 4641.7160   253.1637     6.5538    61.6403
 4642.2160   245.3034     6.2463    60.7071
 4642.7160   242.0917     6.1546    60.1614
 4643.2160   239.6208     6.1252    59.9258
 4643.7160   242.6248     6.4660    59.8454
 4644.2160   250.3447     6.7773    60.2292
 4644.7160   251.3992     6.8789    60.7689
 4645.2160   251.0828     7.0563    61.0759
 4645.7160   251.1447     7.1192    61.3062
 4646.2160   255.3906     7.3674    61.3025
 4646.7160   259.6323     7.8315    61.3834
 4647.2160   261.3896     8.2648    62.1485
 4647.7160   265.3828     9.3771    62.9207
 4648.2160   271.3637    10.3864    65.1657
 4648.7160   273.8663    11.4476    66.2480
 4649.2160   282.3316    11.7574    67.7954
 4649.7160   285.0826    11.4808    67.1722
 4650.2160   273.3976    10.6487    66.5383
 4650.7160   267.6187     9.7674    65.3694
 4651.2160   257.5406     9.1185    63.5966
 4651.7160   250.4655     7.7205    62.4308
 4652.2160   248.9014     7.2588    61.6526
 4652.7160   251.1600     6.9513    61.2620
 4653.2160   256.3955     6.8599    60.9489
 4653.7160   256.6620     6.9229    60.9459
 4654.2160   259.6615     7.1092    61.1072
 4654.7160   265.3939     7.4808    61.9469
 4655.2160   269.1387     8.8495    63.6494
 4655.7160   276.4147    10.1671    64.8867
 4656.2160   280.0450    11.4638    67.2093
 4656.7160   284.1044    12.8872    68.6791
 4657.2160   284.6194    12.8884    69.1413
 4657.7160   288.6127    12.8587    69.6034
 4658.2160   290.8668    12.3352    69.4446
 4658.7160   288.3959    12.1513    68.8214
 4659.2160   288.9154    12.0904    68.5083
 4659.7160   288.6851    11.9993    68.3503
 4660.2160   287.7094    12.1240    68.2698
 4660.7160   286.2368    12.3169    68.5769
 4661.2160   288.7439    12.4660    68.7289
 4661.7160   288.0167    12.3131    68.6359
 4662.2160   284.0596    12.0674    67.6369
 4662.7160   283.3324    11.5130    66.8587
 4663.2160   282.6006    10.8044    66.3131
 4663.7160   275.1699    10.5895    66.1550
 4664.2160   272.9520    10.9611    66.3846
 4664.7160   278.4922    12.0730    67.1568
 4665.2160   286.4088    13.0625    67.7380
 4665.7160   289.0593    13.6192    69.9407
 4666.2160   292.9032    13.8056    70.4029
 4666.7160   296.3995    13.6216    70.5556
 4667.2160   297.6599    13.2525    70.1643
 4667.7160   294.7011    12.8833    69.5411
 4668.2160   286.0236    12.4215    68.8405
 4668.7160   283.8011    12.1122    68.2948
 4669.2160   284.0722    11.9877    68.2136
 4669.7160   284.3388    12.0551    68.2881
 4670.2160   286.0960    12.0563    68.2076
 4670.7160   284.0696    11.5328    67.8170
 4671.2160   279.4272    10.3303    66.1085
 4671.7160   270.0043     9.1828    64.0125
 4672.2160   264.3081     7.8945    62.8443
 4672.7160   262.8310     7.5562    62.0570
 4673.2160   258.1331     7.5263    61.8322
 4673.7160   257.6355     7.5895    61.7517
 4674.2160   259.4539     7.7450    61.7487
 4674.7160   264.0092     8.4147    62.7535
 4675.2160   272.3716     9.3180    64.4559
 4675.7160   273.3835     9.9204    65.0731
 4676.2160   276.1345    10.6822    66.0079
 4676.7160   278.8855    10.5909    66.2299
 4677.2160   272.6924    10.0982    65.6835
 4677.7160   269.7292     9.7291    65.2153
 4678.2160   269.7536     9.6991    64.5922
 4678.7160   266.8979     9.5154    64.4349
 4679.2160   263.5768     9.4858    64.5155
 4679.7160   261.1105     9.0115    64.1072
 4680.2160   258.1472     8.3312    63.1066
 4680.7160   256.6701     7.6510    62.1733
 4681.2160   257.1896     7.1759    61.4727
 4681.7160   256.7063     7.2391    61.6247
 4682.2160   263.1886     7.6549    62.2419
 4682.7160   264.6975     8.1699    62.9365
 4683.2160   265.2840     8.5983    63.6312
 4683.7160   266.7257     9.0340    64.2687
 4684.2160   273.9488     9.3748    65.1749
 4684.7160   274.7122     9.9932    65.7145
 4685.2160   276.2210    10.0867    65.5565
 4685.7160   271.2701     9.5267    65.2434
 4686.2160   266.3193     8.9584    64.0001
 4686.7160   263.8528     8.1773    62.6792
 4687.2160   263.6226     7.9004    62.2887
 4687.7160   267.6204     8.3340    63.4477
 4688.2160   274.3520     9.2303    65.2276
 4688.7160   279.8679    10.8432    67.7828
 4689.2160   284.0722    12.6586    69.0976
 4689.7160   284.8357    13.9870    70.5675
 4690.2160   284.8538    14.2373    71.4172
 4690.7160   288.1017    14.3342    71.7296
 4691.2160   289.8589    14.8551    72.2639
 4691.7160   288.5094    15.0415    72.3384
 4692.2160   287.9076    15.0118    72.1021
 4692.7160   288.1741    14.9204    71.4015
 4693.2160   283.2278    13.9648    70.1581
 4693.7160   277.0347    12.8597    68.2263
 4694.2160   272.5808    10.6234    66.1518
 4694.7160   260.4265     8.6599    64.0773
 4695.2160   250.5067     7.4574    62.0028
 4695.7160   249.0341     6.6870    60.6758
 4696.2160   245.3255     6.0401    59.9841
 4696.7160   242.8592     5.8234    59.5160
 4697.2160   238.1201     5.6623    59.1254
 4697.7160   234.4527     5.4575    58.8898
 4698.2160   231.4849     5.2427    58.7318
 4698.7160   231.7560     5.1510    58.7288
 4699.2160   232.0225     5.0908    58.6483
 4699.7160   233.5313     5.1536    58.9121
 4700.2160   236.9079     5.5254    60.5020
 4700.7160   242.0257     6.7613    61.1192
 4701.2160   242.2983     7.1058    61.4262
 4701.7160   239.5895     7.2890    61.2682
 4702.2160   240.8558     7.0434    60.6450
 4702.7160   246.0259     6.5201    60.4095
 4703.2160   251.5637     6.5523    60.8170
 4703.7160   257.1015     6.8314    61.7206
 4704.2160   263.1156     7.6058    62.3377
 4704.7160   271.0465     8.9276    63.5750
 4705.2160   273.5550     9.7507    64.8123
 4705.7160   273.8216    10.0778    65.5070
 4706.2160   272.6034    10.1097    65.5883
 4706.7160   270.6399     9.9262    65.3459
 4707.2160   269.4278     9.7732    65.2647
 4707.7160   269.7096     9.5894    65.1842
 4708.2160   266.7007     9.2512    64.5611
 4708.7160   262.3012     8.5780    63.6278
 4709.2160   255.1203     7.6493    62.0744
 4709.7160   252.9084     6.9716    61.1412
 4710.2160   252.9325     6.6643    60.8281
 4710.7160   254.1989     6.5419    60.8250
 4711.2160   255.7136     6.5127    60.7439
 4711.7160   254.9924     6.4832    60.7409
 4712.2160   252.7633     6.4845    60.7379
 4712.7160   253.0591     6.4862    60.6573
 4713.2160   256.0645     6.6110    60.8876
 4713.7160   258.3246     6.8901    61.5041
 4714.2160   257.8518     7.3544    61.8111
 4714.7160   255.6399     7.4175    61.8857
 4715.2160   251.1920     7.2645    61.4943
 4715.7160   249.4769     6.9545    61.0262
 4716.2160   247.9962     6.6047    60.5581
 4716.7160   246.3014     6.4970    60.4783
 4717.2160   244.3379     6.5912    60.6297
 4717.7160   243.3682     6.3457    60.3886
 4718.2160   242.1501     6.2232    60.1577
 4718.7160   240.4350     6.2249    60.2330
 4719.2160   242.4467     6.1028    60.0742
 4719.7160   243.7131     5.9464    59.9162
 4720.2160   242.7434     5.8894    59.7581
 4720.7160   247.6971     6.0145    59.7551
