~VERSION INFORMATION
 VERS.               2.10:   CWLS LOG ASCII STANDARD - VERSION 2.10
 WRAP.                 NO:   ONE LINE PER DEPTH STEP
~WELL INFORMATION
#MNEM.UNIT      DATA TYPE    INFORMATION
#----------   ------------   ------------------------------
 STRT.F         3538.2156:   START DEPTH
 STOP.F         5482.3540:   STOP DEPTH
 STEP.F            0.5000:   STEP LENGTH
 NULL.          -999.2500:   NO VALUE
 COMP. Fenix & Scisson,Inc.:   COMPANY
 WELL.        44-1 TPX 10:   WELL
 FLD .           N.P.R. 3:   FIELD
 LOC . 10-38N-78W-NATRONA-WY:   LOCATION
 STAT.                 WY:   STATE
 COUN.            Natrona:   COUNTY
 SRVC.      Dresser Atlas:   SERVICE COMPANY
 DATE.                   :   LOGDATE
 APIN.         4902510439:   API NUMBER
~CURVE INFORMATION
#MNEM.UNIT       API CODE    CURVE DESCRIPTION
#----------   ------------   ------------------------------
 DEPT.F                  :
 GR  .API    06 310 01 00:   Gamma Ray
 PORA.None               :   Porosity
 DT  .us/f   60 520 00 00:   Delta t
~PARAMETER INFORMATION
#MNEM.UNIT          VALUE    DESCRIPTION
#----------   ------------   ------------------------------
 EKB .F         5240.0000:   Kelly bushing
 EGL .F         5230.0000:   Ground level
 EDF .F            0.0000:   Drilling floor
 EPD .F           10.0000:   Permanent datum
 TD  .F         2250.0000:   Total depth
 NRUN.             1.0000:   Number of Runs
#--RUN 1---   ------------   The following are for Run 1---
 RUN .             1.0000:   Run 1
 DATE.mm/dd/yyyy 12-17-1977:   Date Logged
 DD  .ft             5471:   Depth Driller
 DL  .ft             5471:   Depth Logger
 BLI .ft             5461:   Bottom Log Interval
 TLI .ft             3550:   Top Log Interval
 CSS .inch          8.625:   Casing Size
 CTD1.ft             3023:   Casing Driller 1
 CTL1.ft              n/a:   Casing Logger 1
 BS  .inch          7.875:   Bit Size
 DFT .                kcl:   Type Fluid In Hole
 DFD .lb/gal          9.5:   Mud Weight
 DFV .sec              38:   Viscosity
 DFPH.               11.0:   pH
 DFL .cc              8.4:   Fluid Loss
 WSS .            mud pit:   Source Of Sample
 RM  .ohmm           .385:   Rm
 EMT .F                78:   Rm Meas. Temp.
 RMF .ohmm            .22:   Rmf
 MFT .F                70:   Rmf Meas. Temp.
 RMC .ohmm             .8:   Rmc
 MCST.F                70:   Rmc Meas. Temp.
 MFSS.               meas:   Source Rmf.
 MCSS.               meas:   Source Rmc.
 RMB .ohmm            .16:   Rm. At BHT
 BHT .F               176:   BHT.
 TCS .hh:mm        10 hrs:   Time Circ. Stopped
 MRT .F               176:   Maximum Recorded Temp.
 LUN .               6134:   Logging Unit Number
 LUL .           Gillette:   Logging Unit Location
 ENGI.              Hoyer:   Recorded By
 WITN.      Mr. Harington:   Witnessed By
 DGBY.              Burke:   Digitized By
~A  DEPTH       GR       PORA         DT
# ...
 4175.2160   214.5407    13.7378    70.5930
 4175.7160   218.2795    13.6456    70.5975
 4176.2160   222.6206    13.8008    70.7578
 4176.7160   228.5228    13.6469    70.6071
 4177.2160   231.2617    13.7711    70.4553
 4177.7160   231.9953    14.2435    71.7010
 4178.2160   237.2247    14.6975    71.8604
 4178.7160   239.7212    15.1938    72.3299
 4179.2160   239.9787    15.7504    73.3420
 4179.7160   238.5031    15.6584    72.5711
 4180.2160   237.5209    14.1454    71.3105
 4180.7160   237.7818    13.5195    70.3328
 4181.2160   240.3238    13.2510    69.9496
 4181.7160   242.5294    13.0663    69.7203
 4182.2160   243.0384    13.3140    69.9582
 4182.7160   241.8052    13.4073    70.1176
 4183.2160   242.0687    13.5005    70.1995
 4183.7160   242.0808    13.7482    70.6689
 4184.2160   243.0866    14.1813    71.7585
 4184.7160   241.8564    14.8414    72.4728
 4185.2160   241.8687    15.4799    72.9311
 4185.7160   239.6475    15.5732    73.0905
 4186.2160   239.6596    15.3885    72.9387
 4186.7160   239.4232    15.3891    72.8655
 4187.2160   235.2748    15.1734    72.8709
 4187.7160   228.6118    14.4018    72.1001
 4188.2160   221.9487    13.5891    71.4067
 4188.7160   218.1069    12.6081    70.2483
 4189.2160   216.8767    11.9634    68.2246
 4189.7160   215.1497    12.2730    68.1640
 4190.2160   215.4102    12.9275    69.4097
 4190.7160   216.1675    13.7046    70.5768
 4191.2160   215.4343    14.3445    71.2788
 4191.7160   209.7185    14.2833    71.0506
 4192.2160   207.4740    13.8515    70.2022
 4192.7160   209.2623    13.0799    69.3539
 4193.2160   210.7650    12.5554    68.6605
 4193.7160   212.7646    12.1544    68.3548
 4194.2160   215.2611    12.0624    68.2816
 4194.7160   214.2794    12.3795    68.5196
 4195.2160   211.3101    12.4960    68.7565
 4195.7160   209.8309    12.3732    68.6822
 4196.2160   208.8497    12.2193    68.6091
 4196.7160   213.3368    11.9728    68.3033
 4197.2160   212.6035    11.8188    67.8436
 4197.7160   214.6032    11.7269    67.6928
 4198.2160   217.0997    11.6040    67.5421
 4198.7160   220.0931    11.3575    67.3915
 4199.2160   222.0927    11.8524    67.7070
 4199.7160   225.3346    12.1001    68.4090
 4200.2160   232.4139    13.0122    69.2131
 4200.7160   235.5480    14.0468    70.0444
 4201.2160   235.8085    13.9544    70.7473
 4201.7160   237.5597    13.5223    70.3299
 4202.2160   238.8140    13.2446    69.8231
 4202.7160   239.8168    13.3532    70.0604
 4203.2160   246.5572    14.8164    70.9944
 4203.7160   248.3108    17.0804    73.8664
 4204.2160   249.3190    19.3444    75.8069
 4204.7160   258.0291    21.6084    79.2842
 4205.2160   259.7827    24.2427    82.7615
 4205.7160   253.6805    25.0152    85.8200
 4206.2160   251.8613    24.7684    85.6688
 4206.7160   255.8546    24.7687    85.5165
 4207.2160   262.0802    25.3024    85.8313
 4207.7160   263.5853    26.7505    86.6878
 4208.2160   264.3451    28.1986    88.9562
 4208.7160   266.3471    29.6467    91.0599
 4209.2160   268.3558  -999.2500    92.8241
 4209.7160   268.3642  -999.2500    95.1099
 4210.2160   268.3817  -999.2500    97.9473
 4210.7160   272.8682  -999.2500   100.1219
 4211.2160   273.1311  -999.2500    99.2606
 4211.7160   272.8971  -999.2500    94.6264
 4212.2160   272.4111    29.7179    92.6922
 4212.7160   274.1683  -999.2500    92.6175
 4213.2160   278.6850  -999.2500    93.9401
 4213.7160   279.6630  -999.2500    94.7965
 4214.2160   275.9544  -999.2500    95.1104
 4214.7160   274.4745  -999.2500    94.9591
 4215.2160   276.2317  -999.2500    94.3362
 4215.7160   275.2488  -999.2500    93.8689
 4216.2160   274.5215    30.1799    93.6535
 4216.7160   271.5546    28.5176    93.0371
 4217.2160   265.8326    26.8563    90.3277
 4217.7160   259.4108    25.1949    86.8376
 4218.2160   251.4749    22.1455    82.8910
 4218.7160   242.4295    18.6725    78.9444
 4219.2160   237.5944    15.2690    74.9977
 4219.7160   238.1022    13.9350    71.9270
 4220.2160   234.1451    13.5956    70.8939
 4220.7160   232.9173    13.4723    70.1999
 4221.2160   231.6895    13.2873    69.8152
 4221.7160   229.2195    12.9169    69.5873
 4222.2160   230.2277    12.7318    69.2025
 4222.7160   231.2538    12.7940    69.2848
 4223.2160   231.7473    12.8896    69.3660
 4223.7160   231.7654    13.1136    69.6089
 4224.2160   232.7736    13.4436    69.9172
 4224.7160   235.7695    13.7219    70.4635
 4225.2160   238.7653    13.8457    70.8549
 4225.7160   240.7673    14.0314    71.0137
 4226.2160   241.0570    14.0934    71.0950
 4226.7160   240.5478    14.1864    71.3313
 4227.2160   246.7770    14.5892    71.6451
 4227.7160   251.7604    15.0604    72.3565
 4228.2160   250.7811    15.4538    73.4088
 4228.7160   247.5621    16.4425    74.3706
 4229.2160   247.8250    16.8443    74.7619
 4229.7160   244.8581    16.9373    74.9982
 4230.2160   244.8762    17.0303    75.1570
 4230.7160   248.3692    17.1232    75.1608
 4231.2160   249.8777    17.0926    75.1646
 4231.7160   250.3854    17.0930    75.3239
 4232.2160   247.9154    17.3095    75.7339
 4232.7160   248.6788    17.9585    76.3396
 4233.2160   249.4386    18.5328    76.7309
 4233.7160   251.6891    19.3490    77.5874
 4234.2160   251.9520    19.4451    78.5214
 4234.7160   250.9201    19.7415    78.9128
 4235.2160   248.5062    20.4311    79.7693
 4235.7160   252.2474    21.2036    80.4707
 4236.2160   254.2494    22.0687    81.7929
 4236.7160   255.0092    22.7177    82.5719
 4237.2160   254.7716    22.9033    83.0408
 4237.7160   258.0195    22.8418    83.1996
 4238.2160   258.3092    22.4694    82.8157
 4238.7160   258.0484    22.2111    82.1979
 4239.2160   258.8082    21.9162    81.8827
 4239.7160   258.0773    21.7620    81.6642
 4240.2160   258.5887    21.7314    81.5905
 4240.7160   258.1062    21.9480    81.9053
 4241.2160   260.8572    22.4116    82.2191
 4241.7160   261.3686    22.9061    82.7655
 4242.2160   258.8986    23.5043    83.3894
 4242.7160   260.6855    23.9871    84.3234
 4243.2160   261.4156    24.4699    85.3571
 4243.7160   260.9331    24.9527    86.2698
 4244.2160   258.7115    25.4405    86.7387
 4244.7160   258.9744    25.8732    86.9751
 4245.2160   257.9951    25.9662    87.2889
 4245.7160   260.7425    25.9665    87.2927
 4246.2160   263.4899    26.0903    87.2180
 4246.7160   262.2448    26.1889    87.3777
 4247.2160   262.0281    26.3999    87.6277
 4247.7160   264.2822    26.4002    88.0055
 4248.2160   264.0482    26.4005    88.0101
 4248.7160   261.5746    26.4934    87.9354
 4249.2160   262.8348    26.7100    88.3277
 4249.7160   263.5911    27.1118    88.7966
 4250.2160   262.6151    27.5754    89.6530
 4250.7160   262.1329    28.3170    90.2770
 4251.2160   265.1323    28.4101    90.4358
 4251.7160   267.3828    28.3176    90.4397
 4252.2160   266.6519    28.2871    90.4442
 4252.7160   263.1881    28.4110    90.6805
 4253.2160   261.9603    28.7202    90.9944
 4253.7160   264.2108    29.2456    91.3082
 4254.2160   268.2004    29.5547    91.5446
 4254.7160   269.2089  -999.2500    92.4785
 4255.2160   271.7112  -999.2500    93.4125
 4255.7160   274.2101  -999.2500    93.8114
 4256.2160   272.1718  -999.2500    94.0412
 4256.7160   266.0415  -999.2500    94.5100
 4257.2160   265.3070  -999.2500    95.2115
 4257.7160   268.0580  -999.2500    95.7579
 4258.2160   266.8266  -999.2500    95.6066
 4258.7160   266.8446  -999.2500    95.0677
 4259.2160   267.1075  -999.2500    94.6064
 4259.7160   268.3643  -999.2500    94.2181
 4260.2160   268.1303  -999.2500    94.1488
 4260.7160   266.9061  -999.2500    94.1535
 4261.2160   264.4361  -999.2500    93.8472
 4261.7160   263.2083  -999.2500    93.1533
 4262.2160   261.4836    29.9078    91.9167
 4262.7160   258.2682    29.4673    90.6027
 4263.2160   256.0467    28.1700    89.4436
 4263.7160   256.5580    27.1205    88.9809
 4264.2160   259.5543    27.0899    88.8310
 4264.7160   259.5719    27.5578    89.3783
 4265.2160   260.3317    27.9863    90.0023
 4265.7160   262.5822    28.6043    90.5487
