~VERSION INFORMATION
 VERS.               2.10:   CWLS LOG ASCII STANDARD - VERSION 2.10
 WRAP.                 NO:   ONE LINE PER DEPTH STEP
~WELL INFORMATION
#MNEM.UNIT      DATA TYPE    INFORMATION
#----------   ------------   ------------------------------
 STRT.F         3538.2156:   START DEPTH
 STOP.F         5482.3540:   STOP DEPTH
 STEP.F            0.5000:   STEP LENGTH
 NULL.          -999.2500:   NO VALUE
 COMP. Fenix & Scisson,Inc.:   COMPANY
 WELL.        44-1 TPX 10:   WELL
 FLD .           N.P.R. 3:   FIELD
 LOC . 10-38N-78W-NATRONA-WY:   LOCATION
 STAT.                 WY:   STATE
 COUN.            Natrona:   COUNTY
 SRVC.      Dresser Atlas:   SERVICE COMPANY
 DATE.                   :   LOGDATE
 APIN.         4902510439:   API NUMBER
~CURVE INFORMATION
#MNEM.UNIT       API CODE    CURVE DESCRIPTION
#----------   ------------   ------------------------------
 DEPT.F                  :
 GR  .API    06 310 01 00:   Gamma Ray
 PORA.None               :   Porosity
 DT  .us/f   60 520 00 00:   Delta t
~PARAMETER INFORMATION
#MNEM.UNIT          VALUE    DESCRIPTION
#----------   ------------   ------------------------------
 EKB .F         5240.0000:   Kelly bushing
 EGL .F         5230.0000:   Ground level
 EDF .F            0.0000:   Drilling floor
 EPD .F           10.0000:   Permanent datum
 TD  .F         2250.0000:   Total depth
 NRUN.             1.0000:   Number of Runs
#--RUN 1---   ------------   The following are for Run 1---
 RUN .             1.0000:   Run 1
 DATE.mm/dd/yyyy 12-17-1977:   Date Logged
 DD  .ft             5471:   Depth Driller
 DL  .ft             5471:   Depth Logger
 BLI .ft             5461:   Bottom Log Interval
 TLI .ft             3550:   Top Log Interval
 CSS .inch          8.625:   Casing Size
 CTD1.ft             3023:   Casing Driller 1
 CTL1.ft              n/a:   Casing Logger 1
 BS  .inch          7.875:   Bit Size
 DFT .                kcl:   Type Fluid In Hole
 DFD .lb/gal          9.5:   Mud Weight
 DFV .sec              38:   Viscosity
 DFPH.               11.0:   pH
 DFL .cc              8.4:   Fluid Loss
 WSS .            mud pit:   Source Of Sample
 RM  .ohmm           .385:   Rm
 EMT .F                78:   Rm Meas. Temp.
 RMF .ohmm            .22:   Rmf
 MFT .F                70:   Rmf Meas. Temp.
 RMC .ohmm             .8:   Rmc
 MCST.F                70:   Rmc Meas. Temp.
 MFSS.               meas:   Source Rmf.
 MCSS.               meas:   Source Rmc.
 RMB .ohmm            .16:   Rm. At BHT
 BHT .F               176:   BHT.
 TCS .hh:mm        10 hrs:   Time Circ. Stopped
 MRT .F               176:   Maximum Recorded Temp.
 LUN .               6134:   Logging Unit Number
 LUL .           Gillette:   Logging Unit Location
 ENGI.              Hoyer:   Recorded By
 WITN.      Mr. Harington:   Witnessed By
 DGBY.              Burke:   Digitized By
~A  DEPTH       GR       PORA         DT
# ...
 5267.2160   258.8867     4.5281    57.9934
 5267.7160   268.0829     4.6218    57.8354
 5268.2160   269.0803     4.9932    58.4525
 5268.7160   288.7503     5.4787    59.9224
 5269.2160   293.8020     6.2667    60.6946
 5269.7160   288.9675     7.0547    61.4667
 5270.2160   289.9648     7.8060    62.0064
 5270.7160   292.9499     7.7432    62.3910
 5271.2160   292.7050     8.0862    62.7756
 5271.7160   291.7148     8.1181    62.6168
 5272.2160   287.4948     7.9645    62.7695
 5272.7160   288.3253     8.0582    62.5332
 5273.2160   279.8011     7.7817    62.3752
 5273.7160   277.0718     7.6284    62.0621
 5274.2160   272.1064     7.1824    61.6715
 5274.7160   267.8865     6.4441    60.4892
 5275.2160   262.6727     5.7059    59.4942
 5275.7160   256.4651     5.0710    58.8710
 5276.2160   252.7420     4.9794    58.4029
 5276.7160   256.5959     5.2274    58.6332
 5277.2160   262.9365     5.2904    58.7070
 5277.7160   262.6908     5.7236    58.9373
 5278.2160   262.1984     5.8787    59.7862
 5278.7160   255.6222     4.9534    57.9020
 5279.2160   239.2766     3.3928    56.1360
 5279.7160   222.9310     1.8321    53.8075
 5280.2160   206.5854     0.7904    52.7967
 5280.7160   190.2116     1.6559    52.9487
 5281.2160   181.4747     2.5845    53.7209
 5281.7160   184.4606     3.0179    54.8807
 5282.2160   184.9611     3.6037    56.1955
 5282.7160   190.1821     3.2674    56.5026
 5283.2160   191.1795     1.8158    54.6384
 5283.7160   190.9345     1.4156    54.0152
 5284.2160   192.9274     0.5525    52.7719
 5284.7160   195.4812     0.3372    51.9162
 5285.2160   198.8967     0.5854    52.0690
 5285.7160   211.3226     0.7099    52.4535
 5286.2160   216.5437     0.7143    52.3723
 5286.7160   216.5473     0.5577    52.0591
 5287.2160   206.3645     0.5281    52.3655
 5287.7160   199.6601     0.6526    52.3625
 5288.2160   201.4200     1.1167    52.9021
 5288.7160   202.6886     3.2471    54.9154
 5289.2160   203.3976     0.7483    52.5088
 5289.7160   199.6754     1.1650    52.5538
 5290.2160   203.9026     1.9872    53.6648
 5290.7160   206.6392     3.4881    56.3750
 5291.2160   230.4937     5.1973    58.2324
 5291.7160   246.8939     6.4020    59.7798
 5292.2160   265.9944     6.9278    61.3272
 5292.7160   283.1762     7.0523    61.3242
 5293.2160   286.4097     7.3928    61.9413
 5293.7160   291.6307     7.5482    62.1167
 5294.2160   293.6219     7.5509    61.9346
 5294.7160   294.8677     7.5525    61.8548
 5295.2160   290.3993     7.4899    61.9293
 5295.7160   290.9102     7.5526    62.3131
 5296.2160   290.4065     7.5228    62.0776
 5296.7160   289.1688     7.4310    61.7645
 5297.2160   287.6808     7.5867    61.9964
 5297.7160   297.1263     7.5566    62.1579
 5298.2160   298.8682     7.8357    62.5307
 5298.7160   282.0915     8.1145    62.6052
 5299.2160   270.8017     8.2393    62.9115
 5299.7160   277.5134     8.6724    63.5286
 5300.2160   281.7391     9.5994    64.0689
 5300.7160   286.7081    10.3103    64.6877
 5301.2160   294.1615    10.8360    66.1591
 5301.7160   295.2325    10.8988    66.3129
 5302.2160   291.9255    10.5238    66.0788
 5302.7160   282.7329     9.7181    65.5892
 5303.2160   268.8199     8.9934    63.2074
 5303.7160   265.5901     8.2686    62.3533
 5304.2160   271.8012     7.5093    61.6542
 5304.7160   270.9619     7.6647    61.3427
 5305.2160   275.5809     8.7768    62.3491
 5305.7160   277.5155     9.3643    63.7430
 5306.2160   291.1801    10.5690    64.4417
 5306.7160   295.1553    11.3725    66.2748
 5307.2160   292.1739    11.8753    67.4594
 5307.7160   287.9503    11.9922    67.6134
 5308.2160   292.1739    12.1167    67.7666
 5308.7160   299.3789    12.3029    68.2304
 5309.2160   299.3461    12.5509    68.6165
 5309.7160   291.3157    12.9223    69.1578
 5310.2160   279.7516    14.1887    69.8794
 5310.7160   280.7453    15.3282    71.1701
 5311.2160   276.0248    18.5429    74.0970
 5311.7160   264.3478    18.3896    77.0592
 5312.2160   266.0869    13.0820    69.5379
 5312.7160   257.6397    12.7091    69.1489
 5313.2160   250.4348    12.8065    68.7602
 5313.7160   242.7329    14.6626    71.7042
 5314.2160   235.5280    17.7003    71.9357
 5314.7160   221.1180    20.7380    76.5219
 5315.2160   223.6025    19.9349    79.8132
 5315.7160   225.0932    22.6476    95.8250
 5316.2160   223.7940    27.2228   104.4104
 5316.7160   216.1491    28.5857    93.4391
 5317.2160   214.4099    29.5435    92.2367
 5317.7160   222.8571    25.0659    86.4395
 5318.2160   227.5776    11.1814    70.9259
 5318.7160   231.5528    11.5528    66.3979
 5319.2160   234.5342    10.5045    66.8046
 5319.7160   231.0559     7.2892    63.1595
 5320.2160   224.5963     5.9389    59.5922
 5320.7160   224.0994     5.7545    59.2807
 5321.2160   221.8634     6.1570    59.4343
 5321.7160   220.6211     5.9420    59.6658
 5322.2160   216.8944     4.6467    58.7338
 5322.7160   212.4224     3.8147    57.7247
 5323.2160   197.7640     1.5318    55.9436
 5323.7160   194.5342     1.6563    53.3804
 5324.2160   187.0531     1.3487    53.4569
 5324.7160   188.8199     0.6087    52.8350
 5325.2160   193.0435     0.7952    52.0583
 5325.7160   194.0373     0.8022    52.3674
 5326.2160   196.7702     0.7358    52.5207
 5326.7160   199.5031     0.8912    52.2867
 5327.2160   193.2919     1.8490    52.7948
 5327.7160   192.7926     2.2513    54.1440
 5328.2160   194.3712     2.3758    54.4527
 5328.7160   197.5155     2.5621    54.7613
 5329.2160   199.7516     2.4644    54.9153
 5329.7160   197.2671     2.6261    54.6810
 5330.2160   206.2112     2.7815    54.8346
 5330.7160   211.9255     3.5233    55.2983
 5331.2160   213.2022     3.7710    56.0718
 5331.7160   207.8909     2.7229    55.2952
 5332.2160   193.3472     2.6313    55.0612
 5332.7160   186.8323     2.1077    54.8272
 5333.2160   186.8323     2.3868    54.1281
 5333.7160   186.0870     2.2335    54.7469
 5334.2160   192.2981     2.0185    54.5129
 5334.7160   190.8074     2.0501    54.1239
 5335.2160   190.7039     1.8043    54.0446
 5335.7160   195.7764     2.0833    53.8107
 5336.2160   197.2671     2.0778    54.1194
 5336.7160   194.5342     1.9620    54.3508
 5337.2160   193.0435     2.1176    54.0390
 5337.7160   190.0621     2.2730    54.4252
 5338.2160   187.0807     1.8419    55.0455
 5338.7160   188.0745     1.5034    54.3683
 5339.2160   193.7888     1.9675    53.3354
 5339.7160   198.7578     2.4315    53.7991
 5340.2160   201.5477     2.5562    54.6504
 5340.7160   205.4658     3.1437    54.7265
 5341.2160   207.2050     3.9472    55.2677
 5341.7160   206.7081     3.2075    57.1268
 5342.2160   204.4720     3.1159    55.9541
 5342.7160   201.7391     3.1796    55.8058
 5343.2160   200.0000     2.9602    55.9594
 5343.7160   198.0124     2.5329    55.8030
 5344.2160   193.7612     2.3176    55.1039
 5344.7160   192.0497     2.0720    54.7149
 5345.2160   188.3230     1.8570    54.4034
 5345.7160   187.5776     1.4568    54.2469
 5346.2160   186.8323     0.9949    53.3707
 5346.7160   192.0497     0.6873    52.8484
 5347.2160   193.5404     1.1274    52.4594
 5347.7160   195.2830     1.7275    53.3882
 5348.2160   196.8530     3.0673    54.6271
 5348.7160   197.5155     3.9206    55.4009
 5349.2160   193.0435     4.5818    56.4848
 5349.7160   190.5590     5.6632    57.7237
 5350.2160   189.3168     8.6888    58.7503
 5350.7160   187.5776     4.0912    62.4879
 5351.2160   184.8447     4.2774    59.6116
 5351.7160   187.3292     4.9574    57.3304
 5352.2160   188.3230     5.2070    58.2592
 5352.7160   187.5776     5.6801    58.7225
 5353.2160   187.8261     6.2263    59.2638
 5353.7160   188.5714     4.9619    59.8050
 5354.2160   188.3230     2.2468    58.9050
 5354.7160   188.0745     5.2110    56.3665
 5355.2160   185.5901     5.7058    56.0022
 5355.7160   186.8358     6.7871    59.4115
 5356.2160   186.3354     5.7289    60.8830
 5356.7160   189.8137     6.0485    59.0214
 5357.2160   190.5590     6.2038    60.0273
 5357.7160   191.8012     5.5570    59.9484
