~VERSION INFORMATION
 VERS.               2.10:   CWLS LOG ASCII STANDARD - VERSION 2.10
 WRAP.                 NO:   ONE LINE PER DEPTH STEP
~WELL INFORMATION
#MNEM.UNIT      DATA TYPE    INFORMATION
#----------   ------------   ------------------------------
 STRT.F         3538.2156:   START DEPTH
 STOP.F         5482.3540:   STOP DEPTH
 STEP.F            0.5000:   STEP LENGTH
 NULL.          -999.2500:   NO VALUE
 COMP. Fenix & Scisson,Inc.:   COMPANY
 WELL.        44-1 TPX 10:   WELL
 FLD .           N.P.R. 3:   FIELD
 LOC . 10-38N-78W-NATRONA-WY:   LOCATION
 STAT.                 WY:   STATE
 COUN.            Natrona:   COUNTY
 SRVC.      Dresser Atlas:   SERVICE COMPANY
 DATE.                   :   LOGDATE
 APIN.         4902510439:   API NUMBER
~CURVE INFORMATION
#MNEM.UNIT       API CODE    CURVE DESCRIPTION
#----------   ------------   ------------------------------
 DEPT.F                  :
 GR  .API    06 310 01 00:   Gamma Ray
 PORA.None               :   Porosity
 DT  .us/f   60 520 00 00:   Delta t
~PARAMETER INFORMATION
#MNEM.UNIT          VALUE    DESCRIPTION
#----------   ------------   ------------------------------
 EKB .F         5240.0000:   Kelly bushing
 EGL .F         5230.0000:   Ground level
 EDF .F            0.0000:   Drilling floor
 EPD .F           10.0000:   Permanent datum
 TD  .F         2250.0000:   Total depth
 NRUN.             1.0000:   Number of Runs
#--RUN 1---   ------------   The following are for Run 1---
 RUN .             1.0000:   Run 1
 DATE.mm/dd/yyyy 12-17-1977:   Date Logged
 DD  .ft             5471:   Depth Driller
 DL  .ft             5471:   Depth Logger
 BLI .ft             5461:   Bottom Log Interval
 TLI .ft             3550:   Top Log Interval
 CSS .inch          8.625:   Casing Size
 CTD1.ft             3023:   Casing Driller 1
 CTL1.ft              n/a:   Casing Logger 1
 BS  .inch          7.875:   Bit Size
 DFT .                kcl:   Type Fluid In Hole
 DFD .lb/gal          9.5:   Mud Weight
 DFV .sec              38:   Viscosity
 DFPH.               11.0:   pH
 DFL .cc              8.4:   Fluid Loss
 WSS .            mud pit:   Source Of Sample
 RM  .ohmm           .385:   Rm
 EMT .F                78:   Rm Meas. Temp.
 RMF .ohmm            .22:   Rmf
 MFT .F                70:   Rmf Meas. Temp.
 RMC .ohmm             .8:   Rmc
 MCST.F                70:   Rmc Meas. Temp.
 MFSS.               meas:   Source Rmf.
 MCSS.               meas:   Source Rmc.
 RMB .ohmm            .16:   Rm. At BHT
 BHT .F               176:   BHT.
 TCS .hh:mm        10 hrs:   Time Circ. Stopped
 MRT .F               176:   Maximum Recorded Temp.
 LUN .               6134:   Logging Unit Number
 LUL .           Gillette:   Logging Unit Location
 ENGI.              Hoyer:   Recorded By
 WITN.      Mr. Harington:   Witnessed By
 DGBY.              Burke:   Digitized By
~A  DEPTH       GR       PORA         DT
# ...
 4266.2160   263.0935    29.0371    91.0175
 4266.7160   264.5987    29.2227    91.4089
 4267.2160   263.8673    29.1612    91.5122
 4267.7160   262.6400    28.6673    90.0986
 4268.2160   262.0476    27.6174    89.4047
 4268.7160   256.7098    27.6143    89.4094
 4269.2160   254.4882    27.4945    89.1806
 4269.7160   253.5053    27.6184    89.4944
 4270.2160   251.5358    25.7654    88.9556
 4270.7160   249.0658    24.2522    87.0213
 4271.2160   247.0927    23.6186    84.3119
 4271.7160   245.6164    22.6186    82.6103
 4272.2160   245.9349    21.8747    81.9074
 4272.7160   244.4067    21.3392    81.0683
 4273.2160   241.1913    20.3310    80.0613
 4273.7160   235.7758    18.5085    76.7937
 4274.2160   228.4378    16.2534    73.5261
 4274.7160   224.8360    13.9983    70.2585
 4275.2160   226.5932    11.7145    68.1240
 4275.7160   224.1196    11.4676    67.4472
 4276.2160   226.3737    11.2826    66.9868
 4276.7160   226.8850    11.0666    66.9905
 4277.2160   226.8994    10.7890    66.5292
 4277.7160   230.8891    10.1716    65.3702
 4278.2160   230.6549     9.6103    64.5987
 4278.7160   231.1998     9.4000    64.5210
 4279.2160   232.9200     9.6474    65.3205
 4279.7160   230.9469    10.3995    66.2389
 4280.2160   234.9401    11.9168    68.3357
 4280.7160   236.4453    13.4341    69.8123
 4281.2160   236.4597    15.0541    71.8316
 4281.7160   237.4679    15.2705    72.6880
 4282.2160   239.4700    14.9620    71.9941
 4282.7160   240.9930    13.8503    70.5250
 4283.2160   241.9834    10.8545    68.0764
 4283.7160   240.7592    10.7930    66.1139
 4284.2160   237.7923    10.4227    65.6535
 4284.7160   236.3124     9.6495    64.3395
 4285.2160   236.0784     8.5040    62.7928
 4285.7160   234.6022     7.3966    61.9439
 4286.2160   238.5954     6.9336    61.2500
 4286.7160   237.7769     7.2737    61.5638
 4287.2160   233.9075     7.8917    62.8854
 4287.7160   232.6761     8.1700    62.8893
 4288.2160   232.9390     8.3248    63.2815
 4288.7160   235.6900     8.5722    63.3627
 4289.2160   238.9342     8.7024    63.6766
 4289.7160   242.1785     9.1906    64.0679
 4290.2160   245.9197     9.2836    64.2267
 4290.7160   249.1973     9.1603    64.1530
 4291.2160   250.9211     9.1915    64.0792
 4291.7160   249.9418     9.1300    64.0055
 4292.2160   249.4557     8.8523    63.6226
 4292.7160   250.9645     8.5129    63.0062
 4293.2160   252.4696     7.7079    62.3123
 4293.7160   252.7325     7.6486    61.9275
 4294.2160   254.7346     7.8343    62.2423
 4294.7160   256.4884     7.8346    62.3236
 4295.2160   254.7671     7.6496    62.1723
 4295.7160   249.8126     7.6499    62.0210
 4296.2160   249.3302     7.8046    62.4354
 4296.7160   246.8602     8.1756    63.1148
 4297.2160   244.3901     8.7010    63.4286
 4297.7160   245.3984     9.1646    63.9750
 4298.2160   245.6613     9.1636    63.9788
 4298.7160   244.4162     9.3839    64.4476
 4299.2160   244.1995     9.3817    64.4514
 4299.7160   243.2991     9.3203    64.3001
 4300.2160   240.9983     9.1282    64.2953
 4300.7160   241.2603     9.1657    63.8435
 4301.2160   244.7494     9.1655    64.1573
 4301.7160   245.7540     9.1653    64.1611
 4302.2160   240.2991     9.1652    64.0088
 4302.7160   230.6214     9.1341    63.8575
 4303.2160   231.3776     9.1030    64.2498
 4303.7160   233.3760     9.1028    64.2536
 4304.2160   233.1357     9.2001    64.1798
 4304.7160   231.6585     9.5966    64.5721
 4305.2160   231.4184    10.0288    65.2736
 4305.7160   231.6802    10.7391    65.7424
 4306.2160   226.4764    11.6038    66.7539
 4306.7160   221.5183    11.6963    67.6104
 4307.2160   222.0260    11.6343    67.6211
 4307.7160   221.2915    11.0699    67.0693
 4308.2160   217.5757    10.6454    66.4460
 4308.7160   215.3186    10.5526    66.1535
 4309.2160   218.8396    10.6451    66.3898
 4309.7160   220.4599    11.1391    67.0912
 4310.2160   222.3396    11.4478    67.3276
 4310.7160   221.6051    11.5403    67.4863
 4311.2160   222.6124    11.6018    67.6451
 4311.7160   224.3597    11.3173    67.3291
 4312.2160   221.6403    10.7983    66.4908
 4312.7160   221.8996    10.3657    65.7969
 4313.2160   222.4073     9.9022    65.3355
 4313.7160   223.4673     9.6858    64.8742
 4314.2160   224.9162     9.5930    64.7219
 4314.7160   228.1569     9.5928    64.6490
 4315.2160   230.4038     9.6239    64.6529
 4315.7160   230.1634     9.6099    64.6566
 4316.2160   229.4317     9.2524    64.1962
 4316.7160   227.7030     9.2213    64.1215
 4317.2160   228.2111     9.0358    64.0477
 4317.7160   232.1971     9.1901    64.2850
 4318.2160   232.4591     9.0663    63.9777
 4318.7160   235.2029     8.8808    63.7499
 4319.2160   239.6858     9.0059    63.9087
 4319.7160   242.1811     9.2510    64.2318
 4320.2160   243.6826     9.5288    64.6923
 4320.7160   247.1717     9.4669    64.7736
 4321.2160   248.4248     9.3123    64.4672
 4321.7160   252.7770     9.3430    64.4710
 4322.2160   259.1324     9.4663    64.4748
 4322.7160   259.3890     9.6823    64.7886
 4323.2160   255.6759     9.8057    65.1024
 4323.7160   252.9538     9.6510    65.0287
 4324.2160   250.7286     9.5273    64.8783
 4324.7160   251.9790     9.3109    64.5720
 4325.2160   252.2410     9.1563    64.3432
 4325.7160   253.4943     9.1252    64.1135
 4326.2160   253.2565     9.4030    64.5833
 4326.7160   256.4998     9.8047    65.1297
 4327.2160   258.2498     9.9628    65.4435
 4327.7160   257.5153     9.6804    65.0191
 4328.2160   246.5954     8.9080    63.9016
 4328.7160   243.3764     8.2592    62.9751
 4329.2160   242.1423     8.1664    62.6688
 4329.7160   245.6342     8.7530    63.1376
 4330.2160   249.8686     9.3088    64.1491
 4330.7160   252.1155     9.4939    64.6180
 4331.2160   253.1201     9.3393    64.6218
 4331.7160   247.6678     8.8140    64.0838
 4332.2160   245.6911     8.1343    63.4674
 4332.7160   242.9690     7.9487    62.9285
 4333.2160   240.4927     7.7941    62.4672
 4333.7160   242.2454     7.6704    62.1609
 4334.2160   243.0015     7.7937    62.1521
 4334.7160   247.2360     8.5647    62.6335
 4335.2160   257.0345     9.5547    64.0407
 4335.7160   261.6703    10.5438    65.6646
 4336.2160   262.4238    10.7891    66.2127
 4336.7160   259.7045    10.4491    66.0481
 4337.2160   252.7588     9.7385    64.9791
 4337.7160   249.0429     9.6148    64.6718
 4338.2160   246.5693     9.8617    64.9866
 4338.7160   244.8410    10.0160    65.0679
 4339.2160   246.1098     9.9849    64.9166
 4339.7160   245.3623     9.7653    64.4552
 4340.2160   240.6526     8.7489    63.5180
 4340.7160   243.3964     8.4398    62.9899
 4341.2160   247.3824     8.4088    62.9946
 4341.7160   250.1262     8.4704    63.2309
 4342.2160   250.1370     8.6864    63.4672
 4342.7160   246.9181     8.5318    63.1609
 4343.2160   239.9455     8.3154    62.9321
 4343.7160   238.9894     8.1775    62.9358
 4344.2160   237.7608     7.8516    62.5466
 4344.7160   235.5356     7.7897    62.3232
 4345.2160   234.5526     7.8821    62.3279
 4345.7160   236.3026     7.9746    62.5642
 4346.2160   240.2886     8.3142    63.0331
 4346.7160   241.2932     8.6229    63.4244
 4347.2160   240.5588     8.7462    63.6607
 4347.7160   240.4891     8.6802    63.6645
 4348.2160   237.6018     8.6223    63.5132
 4348.7160   235.6251     8.8383    63.8280
 4349.2160   232.6545     8.8691    63.8317
 4349.7160   226.4542     8.8688    63.8355
 4350.2160   221.9930     8.9613    63.9168
 4350.7160   220.9118     9.3627    64.2306
 4351.2160   222.5172     9.9621    64.7770
 4351.7160   221.7043    10.3811    65.2459
 4352.2160   220.0488    10.8001    65.7444
 4352.7160   221.3046    11.2769    66.4171
 4353.2160   223.3030    11.5856    66.8860
 4353.7160   223.8108    11.9252    67.4324
 4354.2160   226.5545    12.7021    68.1338
 4354.7160   231.2859    13.7472    69.5329
 4355.2160   235.2861    14.0250    70.7770
 4355.7160   238.2644    14.1484    71.0908
 4356.2160   234.3025    14.4262    71.4283
 4356.7160   222.3898    16.0597    73.3473
