~VERSION INFORMATION
 VERS.               2.10:   CWLS LOG ASCII STANDARD - VERSION 2.10
 WRAP.                 NO:   ONE LINE PER DEPTH STEP
~WELL INFORMATION
#MNEM.UNIT      DATA TYPE    INFORMATION
#----------   ------------   ------------------------------
 STRT.F         3538.2156:   START DEPTH
 STOP.F         5482.3540:   STOP DEPTH
 STEP.F            0.5000:   STEP LENGTH
 NULL.          -999.2500:   NO VALUE
 COMP. Fenix & Scisson,Inc.:   COMPANY
 WELL.        44-1 TPX 10:   WELL
 FLD .           N.P.R. 3:   FIELD
 LOC . 10-38N-78W-NATRONA-WY:   LOCATION
 STAT.                 WY:   STATE
 COUN.            Natrona:   COUNTY
 SRVC.      Dresser Atlas:   SERVICE COMPANY
 DATE.                   :   LOGDATE
 APIN.         4902510439:   API NUMBER
~CURVE INFORMATION
#MNEM.UNIT       API CODE    CURVE DESCRIPTION
#----------   ------------   ------------------------------
 DEPT.F                  :
 GR  .API    06 310 01 00:   Gamma Ray
 PORA.None               :   Porosity
 DT  .us/f   60 520 00 00:   Delta t
~PARAMETER INFORMATION
#MNEM.UNIT          VALUE    DESCRIPTION
#----------   ------------   ------------------------------
 EKB .F         5240.0000:   Kelly bushing
 EGL .F         5230.0000:   Ground level
 EDF .F            0.0000:   Drilling floor
 EPD .F           10.0000:   Permanent datum
 TD  .F         2250.0000:   Total depth
 NRUN.             1.0000:   Number of Runs
#--RUN 1---   ------------   The following are for Run 1---
 RUN .             1.0000:   Run 1
 DATE.mm/dd/yyyy 12-17-1977:   Date Logged
 DD  .ft             5471:   Depth Driller
 DL  .ft             5471:   Depth Logger
 BLI .ft             5461:   Bottom Log Interval
 TLI .ft             3550:   Top Log Interval
 CSS .inch          8.625:   Casing Size
 CTD1.ft             3023:   Casing Driller 1
 CTL1.ft              n/a:   Casing Logger 1
 BS  .inch          7.875:   Bit Size
 DFT .                kcl:   Type Fluid In Hole
 DFD .lb/gal          9.5:   Mud Weight
 DFV .sec              38:   Viscosity
 DFPH.               11.0:   pH
 DFL .cc              8.4:   Fluid Loss
 WSS .            mud pit:   Source Of Sample
 RM  .ohmm           .385:   Rm
 EMT .F                78:   Rm Meas. Temp.
 RMF .ohmm            .22:   Rmf
 MFT .F                70:   Rmf Meas. Temp.
 RMC .ohmm             .8:   Rmc
 MCST.F                70:   Rmc Meas. Temp.
 MFSS.               meas:   Source Rmf.
 MCSS.               meas:   Source Rmc.
 RMB .ohmm            .16:   Rm. At BHT
 BHT .F               176:   BHT.
 TCS .hh:mm        10 hrs:   Time Circ. Stopped
 MRT .F               176:   Maximum Recorded Temp.
 LUN .               6134:   Logging Unit Number
 LUL .           Gillette:   Logging Unit Location
 ENGI.              Hoyer:   Recorded By
 WITN.      Mr. Harington:   Witnessed By
 DGBY.              Burke:   Digitized By
~A  DEPTH       GR       PORA         DT
 3538.2160     3.3008  -999.2500  -999.2500
 3538.7160     1.8598  -999.2500  -999.2500
 3539.2160     3.6880  -999.2500  -999.2500
 3539.7160     6.4681  -999.2500  -999.2500
 3540.2160     7.2264  -999.2500  -999.2500
 3540.7160     7.8139  -999.2500  -999.2500
 3541.2160    11.5450  -999.2500  -999.2500
 3541.7160    26.9245  -999.2500  -999.2500
 3542.2160    34.0442  -999.2500  -999.2500
 3542.7160    44.5258  -999.2500    95.4770
 3543.2160    52.4490  -999.2500    95.9374
 3543.7160    48.9052  -999.2500    96.0878
 3544.2160    47.4878  -999.2500    96.6258
 3544.7160    56.1885  -999.2500    97.0164
 3545.2160    54.2040  -999.2500    97.3904
 3545.7160    49.7370  -999.2500    97.3083
 3546.2160    44.0267  -999.2500    96.6834
 3546.7160    32.1053  -999.2500    95.1284
 3547.2160    22.0841  -999.2500    93.2632
 3547.7160  -999.2500  -999.2500    93.4911
 3548.2160   331.9932  -999.2500    95.0242
 3548.7160   327.2778  -999.2500    97.2790
 3549.2160   631.3798  -999.2500   102.8794
 3549.7160   617.7203  -999.2500   113.1758
 3550.2160   617.7106  -999.2500   123.4721
 3550.7160   636.0285  -999.2500   129.3537
 3551.2160  -999.2500  -999.2500   125.2231
 3551.7160    14.5110  -999.2500   112.2707
 3552.2160    29.2483    28.6023    99.3182
 3552.7160    41.8450    27.3060    89.3106
 3553.2160    41.3521    28.9416    92.3517
 3553.7160    35.8903  -999.2500    94.9051
 3554.2160    31.9192  -999.2500    95.5206
 3554.7160    25.4636  -999.2500    94.8183
 3555.2160    21.7410  -999.2500    93.9609
 3555.7160    22.2420    29.3063    92.0182
 3556.2160    21.1614  -999.2500    92.2428
 3556.7160    19.5171  -999.2500    93.6356
 3557.2160    17.7830  -999.2500    93.5534
 3557.7160    16.5438  -999.2500    93.0836
 3558.2160    15.3066  -999.2500    92.8464
 3558.7160    14.0674  -999.2500    92.8417
 3559.2160    15.5622  -999.2500    93.4572
 3559.7160    12.0890  -999.2500    95.6339
 3560.2160     7.8694  -999.2500    95.9273
 3560.7160     3.8983  -999.2500    96.0013
 3561.2160     1.6500  -999.2500    94.6001
 3561.7160     0.6370  -999.2500    93.3551
 3562.2160  -999.2500  -999.2500    93.1080
 3562.7160  -999.2500    29.3509    92.7993
 3563.2160   315.4713    28.8555    91.3254
 3563.7160   315.2269    29.0088    91.2423
 3564.2160   316.9711    29.4706    91.0050
 3564.7160   317.2236    29.8709    92.1631
 3565.2160   316.4823    29.7759    92.4697
 3565.7160   318.7224    29.5243    91.8437
 3566.2160     0.2168    29.4346    91.9941
 3566.7160     5.9361    29.8041    92.2983
 3567.2160     7.4298  -999.2500    92.4487
 3567.7160     0.4784  -999.2500    93.0642
 3568.2160   310.5435  -999.2500    96.6254
 3568.7160   298.6231  -999.2500    98.0936
 3569.2160   289.6830  -999.2500   103.1278
 3569.7160   285.4604  -999.2500   102.0011
 3570.2160   282.4614  -999.2500   100.0185
 3570.7160   281.9933    29.9797    92.1863
 3571.2160   284.4828    27.0294    86.6741
 3571.7160   291.6918    23.0250    83.3361
 3572.2160   297.6586    22.9645    82.8663
 3572.7160   302.1347    23.9023    84.4883
 3573.2160   302.6357    27.0849    86.4216
 3573.7160   301.1490    29.5705    87.8898
 3574.2160   295.6872    28.7662    91.9162
 3574.7160   284.0143    26.9735    91.6014
 3575.2160   281.2854    24.0070    88.1084
 3575.7160   284.6907    23.8516    84.3826
 3576.2160   287.7541    24.3446    85.0758
 3576.7160   288.5035    22.5828    82.5118
 3577.2160   288.2581    24.1566    84.2901
 3577.7160   287.0209    29.9314    86.1659
 3578.2160   286.0302  -999.2500    89.4745
 3578.7160   289.0166  -999.2500    93.7740
 3579.2160   293.4927  -999.2500    97.2148
 3579.7160   297.9688  -999.2500   109.6143
 3580.2160   305.9231  -999.2500   113.8732
 3580.7160   301.4177  -999.2500   122.4732
 3581.2160   294.6199  -999.2500   120.6856
 3581.7160   289.0419  -999.2500   112.4316
 3582.2160   286.5614  -999.2500   105.7271
 3582.7160   287.5593    30.0120    99.0227
 3583.2160   289.0540    26.6746    88.6506
 3583.7160   291.0456    26.1792    87.7157
 3584.2160   292.7888    25.4984    87.4785
 3584.7160   294.5320    25.8147    86.5357
 3585.2160   293.7906  -999.2500    87.2354
 3585.7160   290.0541  -999.2500    95.3703
 3586.2160   288.0240  -999.2500    96.4509
 3586.7160   283.1206  -999.2500    98.3842
 3587.2160   281.1371  -999.2500   103.3667
 3587.7160   275.9237  -999.2500   109.2275
 3588.2160   280.6483  -999.2500   112.0585
 3588.7160   281.8945  -999.2500   114.7221
 3589.2160   285.1284  -999.2500   111.8480
 3589.7160   293.3312  -999.2500   111.2232
 3590.2160   297.8073  -999.2500   109.6681
 3590.7160   300.0474  -999.2500   105.0898
 3591.2160   299.7866  -999.2500   100.5890
 3591.7160   302.7683  -999.2500    98.2036
 3592.2160   307.5139    29.4633    92.5165
 3592.7160   316.4621    29.7293    91.8916
 3593.2160  -999.2500    29.8947    93.0498
 3593.7160  -999.2500    29.8962    94.3629
 3594.2160     8.8962    29.8977   101.6450
 3594.7160    21.1787    29.8992   102.1067
 3595.2160    25.7798    29.9007   102.7210
 3595.7160    31.0212    29.9022   101.7074
 3596.2160    22.2607    29.9036    99.7647
 3596.7160  -999.2500    29.9051    99.1411
 3597.2160  -999.2500    29.9066    98.6701
 3597.7160   299.3607    29.9081    98.6654
 3598.2160   298.1225    29.9096    98.2731
 3598.7160   295.8895    29.9111    99.8964
 3599.2160   297.6337    29.9126    99.8142
 3599.7160   295.8986    29.9141   100.2735
 3600.2160   293.3633    29.9155   100.8114
 3600.7160   290.6953    29.9170   103.8300
 3601.2160   288.9615    29.9185   104.8331
 3601.7160   291.2048    29.9200   105.1385
 3602.2160   290.7151    29.9215   104.1249
 3602.7160   293.2086    29.9230   101.1745
 3603.2160   293.2159    29.9245    97.6814
 3603.7160   292.2290    29.9260    94.9636
 3604.2160   285.0936    29.9274    95.5802
 3604.7160   278.8294    29.9289    93.0162
 3605.2160   266.2124    29.9304    90.5838
 3605.7160   242.5961    29.9319    87.2668
 3606.2160   220.4666    29.9334    82.7685
 3606.7160   215.5049    29.9349    80.5158
 3607.2160   206.8164    29.9364    79.9684
 3607.7160   193.6560    29.9379    78.0258
 3608.2160   189.1911    29.9393    78.1023
 3608.7160   186.2170    29.9408    78.2490
 3609.2160   186.2544    29.9423    78.0106
 3609.7160   189.4631    29.9438    77.9284
 3610.2160   191.7063    29.9453    77.7699
 3610.7160   193.7005    29.9468    77.9977
 3611.2160   194.7015    29.9483    77.6818
 3611.7160   196.4661    29.9497    77.4446
 3612.2160   205.9142    29.9512    76.1900
 3612.7160   217.7301    29.9527    75.8837
 3613.2160   230.7467    29.9542    76.1116
 3613.7160   243.7633    29.9557    76.8046
 3614.2160   256.7799    29.9572    79.5906
 3614.7160   271.5247    29.9587    84.1315
 3615.2160   276.2524    29.9602    89.8130
 3615.7160   271.5392    29.9616    96.5641
 3616.2160   264.7619    29.9631    95.6947
 3616.7160   257.4648    29.9646    92.3567
 3617.2160   252.1831    29.9661    88.2444
 3617.7160   251.4450    29.9676    83.1526
 3618.2160   247.9740    29.9691    78.3109
 3618.7160   246.9874    29.9706    78.6163
 3619.2160   246.4976    29.9721    79.5419
 3619.7160   248.7934    29.9735    81.3977
 3620.2160   256.2035    29.9750    84.4275
 3620.7160   263.7193    29.9765    86.5828
 3621.2160   276.7250    29.9780    80.7646
 3621.7160   290.5114    29.9795    90.2167
 3622.2160   293.7485    29.9810    85.5614
 3622.7160   294.2526    29.9825    90.0533
 3623.2160   287.0548    29.9840    84.1576
 3623.7160   278.8633    29.9854    88.1844
 3624.2160   264.9575    29.9869    99.9215
 3624.7160   259.9958    29.9884   107.6326
 3625.2160   254.9500    29.9899   107.7845
 3625.7160   257.7760    29.9914   106.9265
 3626.2160   259.5206    29.9929   102.3486
 3626.7160   256.2998    29.9944   102.8095
 3627.2160   250.5927    29.9958   100.4759
 3627.7160   248.3639    29.9973    98.5753
 3628.2160   248.3394    29.9988    94.2429
 3628.7160   250.1175    28.5183    90.6532
