~VERSION INFORMATION
 VERS.               2.10:   CWLS LOG ASCII STANDARD - VERSION 2.10
 WRAP.                 NO:   ONE LINE PER DEPTH STEP
~WELL INFORMATION
#MNEM.UNIT      DATA TYPE    INFORMATION
#----------   ------------   ------------------------------
 STRT.F         3538.2156:   START DEPTH
 STOP.F         5482.3540:   STOP DEPTH
 STEP.F            0.5000:   STEP LENGTH
 NULL.          -999.2500:   NO VALUE
 COMP. Fenix & Scisson,Inc.:   COMPANY
 WELL.        44-1 TPX 10:   WELL
 FLD .           N.P.R. 3:   FIELD
 LOC . 10-38N-78W-NATRONA-WY:   LOCATION
 STAT.                 WY:   STATE
 COUN.            Natrona:   COUNTY
 SRVC.      Dresser Atlas:   SERVICE COMPANY
 DATE.                   :   LOGDATE
 APIN.         4902510439:   API NUMBER
~CURVE INFORMATION
#MNEM.UNIT       API CODE    CURVE DESCRIPTION
#----------   ------------   ------------------------------
 DEPT.F                  :
 GR  .API    06 310 01 00:   Gamma Ray
 PORA.None               :   Porosity
 DT  .us/f   60 520 00 00:   Delta t
~PARAMETER INFORMATION
#MNEM.UNIT          VALUE    DESCRIPTION
#----------   ------------   ------------------------------
 EKB .F         5240.0000:   Kelly bushing
 EGL .F         5230.0000:   Ground level
 EDF .F            0.0000:   Drilling floor
 EPD .F           10.0000:   Permanent datum
 TD  .F         2250.0000:   Total depth
 NRUN.             1.0000:   Number of Runs
#--RUN 1---   ------------   The following are for Run 1---
 RUN .             1.0000:   Run 1
 DATE.mm/dd/yyyy 12-17-1977:   Date Logged
 DD  .ft             5471:   Depth Driller
 DL  .ft             5471:   Depth Logger
 BLI .ft             5461:   Bottom Log Interval
 TLI .ft             3550:   Top Log Interval
 CSS .inch          8.625:   Casing Size
 CTD1.ft             3023:   Casing Driller 1
 CTL1.ft              n/a:   Casing Logger 1
 BS  .inch          7.875:   Bit Size
 DFT .                kcl:   Type Fluid In Hole
 DFD .lb/gal          9.5:   Mud Weight
 DFV .sec              38:   Viscosity
 DFPH.               11.0:   pH
 DFL .cc              8.4:   Fluid Loss
 WSS .            mud pit:   Source Of Sample
 RM  .ohmm           .385:   Rm
 EMT .F                78:   Rm Meas. Temp.
 RMF .ohmm            .22:   Rmf
 MFT .F                70:   Rmf Meas. Temp.
 RMC .ohmm             .8:   Rmc
 MCST.F                70:   Rmc Meas. Temp.
 MFSS.               meas:   Source Rmf.
 MCSS.               meas:   Source Rmc.
 RMB .ohmm            .16:   Rm. At BHT
 BHT .F               176:   BHT.
 TCS .hh:mm        10 hrs:   Time Circ. Stopped
 MRT .F               176:   Maximum Recorded Temp.
 LUN .               6134:   Logging Unit Number
 LUL .           Gillette:   Logging Unit Location
 ENGI.              Hoyer:   Recorded By
 WITN.      Mr. Harington:   Witnessed By
 DGBY.              Burke:   Digitized By
~A  DEPTH       GR       PORA         DT
# ...
 3629.2160   251.1499    26.8481    88.2134
 3629.7160   251.6226    27.5881    89.5270
 3630.2160   251.3814    26.8750    84.7166
 3630.7160   254.8687    23.6632    84.3258
 3631.2160   258.8511    25.0212    89.8244
 3631.7160   262.8335    27.9346    99.0347
 3632.2160   263.3376  -999.2500   108.7559
 3632.7160   261.8151  -999.2500   109.1141
 3633.2160   258.8800  -999.2500   105.4654
 3633.7160   258.8890  -999.2500    98.9376
 3634.2160   259.6416  -999.2500    96.9305
 3634.7160   261.6364  -999.2500    99.9655
 3635.2160   262.3889  -999.2500   106.5274
 3635.7160   262.1459  -999.2500   110.7156
 3636.2160   260.9127  -999.2500   105.2123
 3636.7160   259.9261  -999.2500    98.6906
 3637.2160   261.6728  -999.2500    96.8260
 3637.7160   261.6815  -999.2500    96.2802
 3638.2160   264.4217  -999.2500    97.5927
 3638.7160   263.9320  -999.2500    98.0547
 3639.2160   264.6846  -999.2500    96.1114
 3639.7160   267.1763  -999.2500    94.2215
 3640.2160   266.6866  -999.2500    94.9391
 3640.7160   266.4354  -999.2500    94.4698
 3641.2160   267.4467  -999.2500    94.0015
 3641.7160   266.9586  -999.2500    97.5621
 3642.2160   265.7217  -999.2500    98.1006
 3642.7160   265.7307  -999.2500    99.2591
 3643.2160   263.7504  -999.2500   101.5805
 3643.7160   265.9937  -999.2500    97.8984
 3644.2160   267.4915  -999.2500    97.5400
 3644.7160   266.2305  -999.2500    96.0629
 3645.2160   265.7669  -999.2500    95.8272
 3645.7160   263.5399  -999.2500    98.8148
 3646.2160   262.3048  -999.2500   102.3495
 3646.7160   262.3121  -999.2500   105.8907
 3647.2160   267.2883  -999.2500   107.2828
 3647.7160   271.2707  -999.2500   106.4249
 3648.2160   272.7685  -999.2500   105.3328
 3648.7160   273.7697  -999.2500   105.7187
 3649.2160   276.7599  -999.2500   102.9228
 3649.7160   280.9908  -999.2500   101.4457
 3650.2160   280.1955  -999.2500    99.2709
 3650.7160   277.5276  -999.2500    95.0031
 3651.2160   275.2988  -999.2500    94.2237
 3651.7160   273.0699  -999.2500    92.8242
 3652.2160   271.8350    28.3428    90.6311
 3652.7160   271.0968    27.7237    89.8689
 3653.2160   274.0854    26.6107    88.3919
 3653.7160   283.0368    27.2892    88.5427
 3654.2160   285.3748    27.5973    89.7012
 3654.7160   287.0264    27.0709    89.0769
 3655.2160   282.8118    28.1214    91.5323
 3655.7160   279.0923  -999.2500    99.7661
 3656.2160   277.6070  -999.2500    92.3965
 3656.7160   277.8627  -999.2500    90.0667
 3657.2160   275.8842  -999.2500    90.9927
 3657.7160   274.3885  -999.2500    94.3218
 3658.2160   274.5466  -999.2500    96.2556
 3658.7160   276.4027  -999.2500   100.8247
 3659.2160   272.1882  -999.2500   104.9290
 3659.7160   265.4873  -999.2500   105.4685
 3660.2160   263.7536  -999.2500    96.9610
 3660.7160   264.2577  -999.2500    89.4503
 3661.2160   263.6947  -999.2500    81.9396
 3661.7160   268.5172  -999.2500    75.4498
 3662.2160   272.6327  -999.2500    78.3913
 3662.7160   273.7312  -999.2500    80.4026
 3663.2160   276.7198  -999.2500    80.8709
 3663.7160   281.6960  -999.2500    82.0210
 3664.2160   284.4361  -999.2500    84.1874
 3664.7160   282.2073  -999.2500    86.1556
 3665.2160   279.9785  -999.2500    89.4494
 3665.7160   277.9681  -999.2500    92.7015
 3666.2160   274.4436  -999.2500    96.9608
 3666.7160   267.8281  -999.2500    98.1194
 3667.2160   266.0944  -999.2500   100.8284
 3667.7160   268.3394  -999.2500    99.8164
 3668.2160   268.8417  -999.2500    95.9361
 3668.7160   268.1036  -999.2500    96.3186
 3669.2160   267.3673  -999.2500    97.6322
 3669.7160   266.8777  -999.2500   100.7287
 3670.2160   268.8743  -999.2500   102.9726
 3670.7160   269.1299  -999.2500   106.3017
 3671.2160   269.8825  -999.2500   107.8478
 3671.7160   269.3928  -999.2500   107.9987
 3672.2160   267.4125  -999.2500   105.4353
 3672.7160   268.1650  -999.2500   102.7179
 3673.2160   271.8990  -999.2500   100.6206
 3673.7160   274.4404  -999.2500   101.1590
 3674.2160   275.3917  -999.2500    97.5859
 3674.7160   273.1647  -999.2500    95.5419
 3675.2160   272.6750  -999.2500    95.2866
 3675.7160   271.1916  -999.2500    99.5136
 3676.2160   272.1926  -999.2500    99.5093
 3676.7160   270.9576  -999.2500    99.1175
 3677.2160   270.7162  -999.2500    99.1047
 3677.7160   270.7438  -999.2500    99.6587
 3678.2160   272.7202  -999.2500   102.7780
 3678.7160   277.4479  -999.2500   105.1528
 3679.2160   276.2129  -999.2500   104.3997
 3679.7160   270.7543  -999.2500   101.2614
 3680.2160   267.7802  -999.2500   103.0401
 3680.7160   268.0358  -999.2500   104.0447
 3681.2160   266.5523  -999.2500   103.0317
 3681.7160   266.5597  -999.2500   100.3918
 3682.2160   266.0699  -999.2500    95.8139
 3682.7160   266.5758  -999.2500    94.5694
 3683.2160   272.2973  -999.2500    98.7502
 3683.7160   272.7997  -999.2500   102.7770
 3684.2160   274.0509  -999.2500    99.6720
 3684.7160   275.5488  -999.2500    98.9711
 3685.2160   275.2927  -999.2500    96.9503
 3685.7160   277.8260  -999.2500    96.2485
 3686.2160   278.3052  -999.2500    97.0194
 3686.7160   275.3311  -999.2500   100.6979
 3687.2160   271.6116  -999.2500   101.1970
 3687.7160   270.8717  -999.2500   100.4941
 3688.2160   275.3528  -999.2500    99.4821
 3688.7160   282.3165  -999.2500    99.4004
 3689.2160   286.5473  -999.2500    99.4747
 3689.7160   287.5486  -999.2500    98.9268
 3690.2160   287.5574  -999.2500    96.4334
 3690.7160   289.5522    29.9893    91.6801
 3691.2160   290.5532    28.1380    89.6880
 3691.7160   292.5480    27.6396    90.3506
 3692.2160   294.5428    29.4298    92.7883
 3692.7160   296.7860  -999.2500    95.5267
 3693.2160   303.2529  -999.2500    97.4241
 3693.7160   301.6372  -999.2500    96.1010
 3694.2160   291.0952  -999.2500    92.3339
 3694.7160   292.5931    28.0666    87.5647
 3695.2160   294.0911    25.8394    85.9326
 3695.7160   294.5952    24.6964    85.5418
 3696.2160   294.6024    25.0660    88.0947
 3696.7160   296.1003    26.8874    88.5556
 3697.2160   299.1091    27.1965    89.0940
 3697.7160   300.8352    27.4502    89.6406
 3698.2160   298.6082    27.9959    90.1698
 3698.7160   297.6199    28.5818    90.8633
 3699.2160   298.6227    28.6425    91.3242
 3699.7160   301.8597    28.9812    91.8626
 3700.2160   302.1148    29.7215    92.5560
 3700.7160   300.1345    29.9367    93.1720
 3701.2160   301.3858  -999.2500    93.4778
 3701.7160   300.6477  -999.2500    93.9377
 3702.2160   297.4251  -999.2500    94.4761
 3702.7160   292.4634  -999.2500    95.2471
 3703.2160   290.2346  -999.2500    95.4765
 3703.7160   288.9996  -999.2500    95.1611
 3704.2160   287.2351  -999.2500    94.1491
 3704.7160   281.0646  -999.2500    91.1965
 3705.2160   271.3835  -999.2500    86.2501
 3705.7160   265.1053  -999.2500    81.3037
 3706.2160   260.7141  -999.2500    75.9142
 3706.7160   256.9946  -999.2500    74.6696
 3707.2160   258.3446  -999.2500    75.5181
 3707.7160   271.2298  -999.2500    78.8472
 3708.2160   285.1019  -999.2500    85.0875
 3708.7160   298.8723  -999.2500    96.8364
 3709.2160   300.5115  -999.2500    97.6708
 3709.7160   301.7610  -999.2500    98.9079
 3710.2160   304.5012  -999.2500    98.1274
 3710.7160   303.5146  -999.2500    96.4953
 3711.2160   301.7809  -999.2500    96.0260
 3711.7160   302.7838  -999.2500    95.7892
 3712.2160   301.5488  -999.2500    96.0175
 3712.7160   297.3324  -999.2500    97.7964
 3713.2160   297.6128  -999.2500    98.1768
 3713.7160   302.5661  -999.2500    98.4798
 3714.2160   304.0641  -999.2500    98.8602
 3714.7160   304.8167  -999.2500    99.0081
 3715.2160   306.0643  -999.2500    98.1700
 3715.7160   302.8436  -999.2500    95.8137
 3716.2160   297.3849  -999.2500    93.7911
 3716.7160   292.1748    29.6873    92.3111
 3717.2160   287.7020  -999.2500    92.6140
 3717.7160   285.3496  -999.2500    94.0797
 3718.2160   281.2667  -999.2500    94.4602
 3718.7160   277.5472  -999.2500    94.2961
 3719.2160   275.3185  -999.2500    93.0973
 3719.7160   275.5742    29.9954    92.7315
