~VERSION INFORMATION
 VERS.               2.10:   CWLS LOG ASCII STANDARD - VERSION 2.10
 WRAP.                 NO:   ONE LINE PER DEPTH STEP
~WELL INFORMATION
#MNEM.UNIT      DATA TYPE    INFORMATION
#----------   ------------   ------------------------------
 STRT.F         3538.2156:   START DEPTH
 STOP.F         5482.3540:   STOP DEPTH
 STEP.F            0.5000:   STEP LENGTH
 NULL.          -999.2500:   NO VALUE
 COMP. Fenix & Scisson,Inc.:   COMPANY
 WELL.        44-1 TPX 10:   WELL
 FLD .           N.P.R. 3:   FIELD
 LOC . 10-38N-78W-NATRONA-WY:   LOCATION
 STAT.                 WY:   STATE
 COUN.            Natrona:   COUNTY
 SRVC.      Dresser Atlas:   SERVICE COMPANY
 DATE.                   :   LOGDATE
 APIN.         4902510439:   API NUMBER
~CURVE INFORMATION
#MNEM.UNIT       API CODE    CURVE DESCRIPTION
#----------   ------------   ------------------------------
 DEPT.F                  :
 GR  .API    06 310 01 00:   Gamma Ray
 PORA.None               :   Porosity
 DT  .us/f   60 520 00 00:   Delta t
~PARAMETER INFORMATION
#MNEM.UNIT          VALUE    DESCRIPTION
#----------   ------------   ------------------------------
 EKB .F         5240.0000:   Kelly bushing
 EGL .F         5230.0000:   Ground level
 EDF .F            0.0000:   Drilling floor
 EPD .F           10.0000:   Permanent datum
 TD  .F         2250.0000:   Total depth
 NRUN.             1.0000:   Number of Runs
#--RUN 1---   ------------   The following are for Run 1---
 RUN .             1.0000:   Run 1
 DATE.mm/dd/yyyy 12-17-1977:   Date Logged
 DD  .ft             5471:   Depth Driller
 DL  .ft             5471:   Depth Logger
 BLI .ft             5461:   Bottom Log Interval
 TLI .ft             3550:   Top Log Interval
 CSS .inch          8.625:   Casing Size
 CTD1.ft             3023:   Casing Driller 1
 CTL1.ft              n/a:   Casing Logger 1
 BS  .inch          7.875:   Bit Size
 DFT .                kcl:   Type Fluid In Hole
 DFD .lb/gal          9.5:   Mud Weight
 DFV .sec              38:   Viscosity
 DFPH.               11.0:   pH
 DFL .cc              8.4:   Fluid Loss
 WSS .            mud pit:   Source Of Sample
 RM  .ohmm           .385:   Rm
 EMT .F                78:   Rm Meas. Temp.
 RMF .ohmm            .22:   Rmf
 MFT .F                70:   Rmf Meas. Temp.
 RMC .ohmm             .8:   Rmc
 MCST.F                70:   Rmc Meas. Temp.
 MFSS.               meas:   Source Rmf.
 MCSS.               meas:   Source Rmc.
 RMB .ohmm            .16:   Rm. At BHT
 BHT .F               176:   BHT.
 TCS .hh:mm        10 hrs:   Time Circ. Stopped
 MRT .F               176:   Maximum Recorded Temp.
 LUN .               6134:   Logging Unit Number
 LUL .           Gillette:   Logging Unit Location
 ENGI.              Hoyer:   Recorded By
 WITN.      Mr. Harington:   Witnessed By
 DGBY.              Burke:   Digitized By
~A  DEPTH       GR       PORA         DT
# ...
 4721.2160   252.9549     6.1702    60.2173
 4721.7160   258.7421     6.6345    61.5797
 4722.2160   264.7071     7.6589    63.3113
 4722.7160   269.2033     8.8099    64.2385
 4723.2160   274.9720     9.9721    65.2433
 4723.7160   276.4625    10.2204    65.7829
 4724.2160   274.7475    10.4686    66.4001
 4724.7160   274.5171    11.0255    67.4048
 4725.2160   277.7770    11.7367    68.0277
 4725.7160   278.5465    12.1112    68.3291
 4726.2160   278.0737    11.9558    67.7827
 4726.7160   272.3835    10.6300    65.6091
 4727.2160   261.5970     9.6128    64.0557
 4727.7160   257.2764     8.5339    63.2775
 4728.2160   258.3003     8.3497    63.3521
 4728.7160   263.7903     8.5675    63.6612
 4729.2160   264.3053     8.7906    64.1336
 4729.7160   263.0871     9.1878    64.7377
 4730.2160   267.0924     9.5286    65.3548
 4730.7160   267.6216    10.0855    65.5851
 4731.2160   263.8646    10.1482    65.5039
 4731.7160   259.9658     9.7487    64.9582
 4732.2160   254.0271     9.1945    64.1025
 4732.7160   252.5605     8.1973    62.4538
 4733.2160   248.6095     7.0678    61.6927
 4733.7160   243.1677     6.5444    60.9145
 4734.2160   245.4279     6.1136    60.1363
 4734.7160   249.4271     6.0496    60.0558
 4735.2160   251.6877     6.3335    60.3628
 4735.7160   250.7236     6.5594    60.8250
 4736.2160   249.5055     6.9527    61.2919
 4736.7160   249.7780     7.1392    61.5166
 4737.2160   252.0381     7.5109    61.7455
 4737.7160   257.0029     8.0061    62.9052
 4738.2160   265.2561     8.9080    64.2976
 4738.7160   268.2615     9.9971    65.8450
 4739.2160   270.5217    11.1275    66.8497
 4739.7160   272.5333    11.2832    67.0793
 4740.2160   267.5725    10.5747    66.3326
 4740.7160   259.1740     9.8535    64.6694
 4741.2160   250.9967     8.5097    63.4261
 4741.7160   247.7850     8.1406    62.9580
 4742.2160   250.2996     8.1111    62.8775
 4742.7160   253.0566     8.0466    62.3319
 4743.2160   254.0745     7.7438    61.8638
 4743.7160   254.5955     7.4673    61.7832
 4744.2160   253.6258     7.4066    61.7020
 4744.7160   253.6505     7.3157    61.5439
 4745.2160   250.6987     7.0701    61.2309
 4745.7160   247.7414     6.7628    60.8403
 4746.2160   244.7842     6.6092    60.6047
 4746.7160   245.3052     6.4569    60.6793
 4747.2160   248.3106     6.9524    61.3989
 4747.7160   251.0677     7.4324    62.1651
 4748.2160   253.5762     8.0904    62.9313
 4748.7160   255.8554     8.7483    63.6975
 4749.2160   257.8541     9.3343    64.4617
 4749.7160   259.6173     9.5826    65.0788
 4750.2160   264.3619    10.0616    65.6185
 4750.7160   268.3611    10.5424    66.0031
 4751.2160   271.8635    10.8215    66.2326
 4751.7160   271.6392    10.8846    66.5397
 4752.2160   267.4397    10.7933    66.5308
 4752.7160   264.1722    10.4243    66.0678
 4753.2160   261.7796     9.7466    65.3672
 4753.7160   261.0523     9.6839    65.1316
 4754.2160   262.0702     9.5027    64.9736
 4754.7160   260.6036     9.1646    64.3504
 4755.2160   260.1308     8.7955    63.8048
 4755.7160   259.6581     8.6731    63.7242
 4756.2160   259.4397     8.7056    63.8763
 4756.7160   259.2041     8.8304    63.8726
 4757.2160   259.2405     8.8626    63.5595
 4757.7160   257.2820     8.6945    62.8588
 4758.2160   252.3372     7.9104    62.1581
 4758.7160   249.3799     7.1351    61.5350
 4759.2160   247.1680     7.0166    61.1444
 4759.7160   243.4654     7.1723    61.3053
 4760.2160   246.7533     7.3588    61.7578
 4760.7160   252.4527     7.8231    62.2199
 4761.2160   255.4672     7.8862    62.2952
 4761.7160   253.2553     7.4554    61.9038
 4762.2160   250.5464     7.3642    61.7458
 4762.7160   251.5643     7.3038    61.8204
 4763.2160   255.5636     7.3980    62.3697
 4763.7160   259.6712     8.0464    63.9841
 4764.2160   266.0526     9.0827    65.2989
 4764.7160   269.8034    10.1189    66.3812
 4765.2160   273.3058    10.9838    67.0759
 4765.7160   275.8144    11.6333    67.6930
 4766.2160   280.5590    11.9124    68.2327
 4766.7160   279.8377    11.9755    67.9943
 4767.2160   277.2469    11.6282    67.1953
 4767.7160   273.8810    10.4970    66.3625
 4768.2160   269.7277    10.2514    65.8944
 4768.7160   268.0067    10.3454    66.1239
 4769.2160   270.5213    10.5628    66.5085
 4769.7160   272.0360    10.7184    66.4280
 4770.2160   271.3148    10.6246    66.3449
 4770.7160   271.3399    10.7845    66.6625
 4771.2160   271.6114    11.0006    67.1159
 4771.7160   270.1449    11.3723    67.7331
 4772.2160   270.6719    11.7440    67.8083
 4772.7160   270.9444    11.9614    68.0379
 4773.2160   272.2108    11.8389    68.0342
 4773.7160   273.9740    11.9949    68.1087
 4774.2160   273.7496    12.2747    68.4975
 4774.7160   274.8071    12.4784    69.3422
 4775.2160   277.0337    13.2030    69.8044
 4775.7160   282.0267    13.1426    69.8014
 4776.2160   282.5417    12.8970    69.4108
 4776.7160   280.0874    12.4369    68.6326
 4777.2160   274.1487    11.7642    67.5443
 4777.7160   274.9182    11.2654    67.3086
 4778.2160   276.9300    11.2973    66.6747
 4778.7160   277.2024    10.6201    65.4415
 4779.2160   269.2822     9.8848    64.5083
 4779.7160   267.0643     9.2031    64.1177
 4780.2160   268.3367     9.0498    64.5023
 4780.7160   271.3421     9.7115    66.2047
 4781.2160   274.5960    10.5099    67.1320
 4781.7160   274.3710    11.1839    67.1289
 4782.2160   271.1616    11.1895    65.5748
 4782.7160   265.5626     9.7925    64.0214
 4783.2160   257.0587     8.4412    63.0882
 4783.7160   253.3561     7.9796    62.4651
 4784.2160   250.3988     7.6414    62.0745
 4784.7160   242.4726     7.1798    61.5288
 4785.2160   240.2607     6.4387    60.3531
 4785.7160   240.2190     6.0620    59.8167
 4786.2160   239.0667     5.8875    59.7369
 4786.7160   238.0970     6.1670    60.0432
 4787.2160   239.1209     6.2918    60.1960
 4787.7160   237.6543     6.2931    60.2705
 4788.2160   238.6722     6.3562    60.4218
 4788.7160   238.9447     6.5736    60.6514
 4789.2160   241.7018     7.0160    61.2107
 4789.7160   243.7135     7.5022    61.9632
 4790.2160   244.9798     7.1027    61.5719
 4790.7160   241.0047     6.8571    61.1813
 4791.2160   235.0961     6.7038    60.8682
 4791.7160   235.6171     6.5820    60.7877
 4792.2160   236.8835     6.5833    60.7071
 4792.7160   235.4169     6.3625    60.3043
 4793.2160   234.4472     6.0308    59.6926
 4793.7160   234.4713     5.4766    59.1470
 4794.2160   232.2594     5.1693    58.6789
 4794.7160   232.0350     4.9546    58.3658
 4795.2160   235.2950     5.0794    58.4411
 4795.7160   240.0396     5.4511    58.6699
 4796.2160   244.9687     6.1939    59.6836
 4796.7160   250.8476     6.9126    60.9027
 4797.2160   256.7266     8.2332    62.1217
 4797.7160   262.6055     9.0988    63.3408
 4798.2160   268.4845     9.7483    64.7007
 4798.7160   272.2343    10.2743    65.8673
 4799.2160   273.0033    10.8621    66.5546
 4799.7160   271.0458    11.0795    66.1640
 4800.2160   267.5827    10.0800    65.0758
 4800.7160   267.1114     8.2738    63.5218
 4801.2160   264.6474     7.9357    62.6657
 4801.7160   264.4245     8.0605    62.5856
 4802.2160   264.1914     8.6791    63.6666
 4802.7160   264.7138     9.6347    64.8265
 4803.2160   267.7156     9.7282    64.8225
 4803.7160   266.4939     9.7291    65.0509
 4804.2160   263.7814     9.6961    64.8925
 4804.7160   263.5447     9.2990    64.0364
 4805.2160   262.7060     8.7222    63.0253
 4805.7160   254.3504     7.9924    62.0916
 4806.2160   244.4730     7.2955    61.1580
 4806.7160   242.2316     6.4293    60.5345
 4807.2160   239.0661     6.0522    59.6737
 4807.7160   238.0877     5.6935    59.1987
 4808.2160   240.1008     5.4783    58.8955
 4808.7160   241.1151     5.4173    58.9697
 4809.2160   243.8684     5.5418    59.2772
 4809.7160   248.3609     5.8822    59.5830
 4810.2160   251.1765     8.1672    62.7579
 4810.7160   253.6243     7.9829    62.4445
 4811.2160   252.6459     7.5209    61.8209
 4811.7160   249.4416     7.0897    61.4227
