~VERSION INFORMATION
 VERS.               2.10:   CWLS LOG ASCII STANDARD - VERSION 2.10
 WRAP.                 NO:   ONE LINE PER DEPTH STEP
~WELL INFORMATION
#MNEM.UNIT      DATA TYPE    INFORMATION
#----------   ------------   ------------------------------
 STRT.F         3538.2156:   START DEPTH
 STOP.F         5482.3540:   STOP DEPTH
 STEP.F            0.5000:   STEP LENGTH
 NULL.          -999.2500:   NO VALUE
 COMP. Fenix & Scisson,Inc.:   COMPANY
 WELL.        44-1 TPX 10:   WELL
 FLD .           N.P.R. 3:   FIELD
 LOC . 10-38N-78W-NATRONA-WY:   LOCATION
 STAT.                 WY:   STATE
 COUN.            Natrona:   COUNTY
 SRVC.      Dresser Atlas:   SERVICE COMPANY
 DATE.                   :   LOGDATE
 APIN.         4902510439:   API NUMBER
~CURVE INFORMATION
#MNEM.UNIT       API CODE    CURVE DESCRIPTION
#----------   ------------   ------------------------------
 DEPT.F                  :
 GR  .API    06 310 01 00:   Gamma Ray
 PORA.None               :   Porosity
 DT  .us/f   60 520 00 00:   Delta t
~PARAMETER INFORMATION
#MNEM.UNIT          VALUE    DESCRIPTION
#----------   ------------   ------------------------------
 EKB .F         5240.0000:   Kelly bushing
 EGL .F         5230.0000:   Ground level
 EDF .F            0.0000:   Drilling floor
 EPD .F           10.0000:   Permanent datum
 TD  .F         2250.0000:   Total depth
 NRUN.             1.0000:   Number of Runs
#--RUN 1---   ------------   The following are for Run 1---
 RUN .             1.0000:   Run 1
 DATE.mm/dd/yyyy 12-17-1977:   Date Logged
 DD  .ft             5471:   Depth Driller
 DL  .ft             5471:   Depth Logger
 BLI .ft             5461:   Bottom Log Interval
 TLI .ft             3550:   Top Log Interval
 CSS .inch          8.625:   Casing Size
 CTD1.ft             3023:   Casing Driller 1
 CTL1.ft              n/a:   Casing Logger 1
 BS  .inch          7.875:   Bit Size
 DFT .                kcl:   Type Fluid In Hole
 DFD .lb/gal          9.5:   Mud Weight
 DFV .sec              38:   Viscosity
 DFPH.               11.0:   pH
 DFL .cc              8.4:   Fluid Loss
 WSS .            mud pit:   Source Of Sample
 RM  .ohmm           .385:   Rm
 EMT .F                78:   Rm Meas. Temp.
 RMF .ohmm            .22:   Rmf
 MFT .F                70:   Rmf Meas. Temp.
 RMC .ohmm             .8:   Rmc
 MCST.F                70:   Rmc Meas. Temp.
 MFSS.               meas:   Source Rmf.
 MCSS.               meas:   Source Rmc.
 RMB .ohmm            .16:   Rm. At BHT
 BHT .F               176:   BHT.
 TCS .hh:mm        10 hrs:   Time Circ. Stopped
 MRT .F               176:   Maximum Recorded Temp.
 LUN .               6134:   Logging Unit Number
 LUL .           Gillette:   Logging Unit Location
 ENGI.              Hoyer:   Recorded By
 WITN.      Mr. Harington:   Witnessed By
 DGBY.              Burke:   Digitized By
~A  DEPTH       GR       PORA         DT
# ...
 4539.2160   301.3378    17.1660    74.5732
 4539.7160   298.3745    17.3209    75.0436
 4540.2160   297.8164    17.6071    75.2814
 4540.7160   292.2041    17.6602    75.4505
 4541.2160   289.2408    17.3514    75.6033
 4541.7160   285.2838    16.3320    75.5298
 4542.2160   276.9025    14.2282    75.1487
 4542.7160   264.7855    11.8440    73.2160
 4543.2160   256.2698     9.0116    69.4978
 4543.7160   256.2879     8.3938    65.7618
 4544.2160   257.5675     8.9498    63.0772
 4544.7160   259.1349     9.6911    62.9917
 4545.2160   257.0921     9.7838    64.4055
 4545.7160   246.9945     9.2587    64.6433
 4546.2160   233.7757     8.2085    63.7972
 4546.7160   230.3156     7.1488    62.3295
 4547.2160   228.8385     6.6332    61.1720
 4547.7160   230.1033     6.5405    60.4796
 4548.2160   232.3575     6.8185    60.4060
 4548.7160   233.1209     7.1892    60.5676
 4549.2160   232.8906     7.3127    60.8844
 4549.7160   232.9087     7.4054    61.3764
 4550.2160   233.4242     7.4363    61.5924
 4550.7160   232.7010     7.3713    61.5202
 4551.2160   233.4644     7.2201    61.5254
 4551.7160   237.2093     7.3127    61.3743
 4552.2160   241.0266     7.6525    61.3021
 4552.7160   252.2103     8.3909    61.5412
 4553.2160   263.3940     9.8911    61.8676
 4553.7160   275.5425    11.3913    63.4135
 4554.2160   277.7967    12.7181    66.4255
 4554.7160   274.7157    13.2124    68.9278
 4555.2160   273.3608    13.3359    69.4757
 4555.7160   273.8803    13.4004    69.6360
 4556.2160   273.8984    13.9414    69.7188
 4556.7160   268.2038    14.1390    70.3442
 4557.2160   264.9921    12.5224    71.0471
 4557.7160   260.7866    10.3074    69.5651
 4558.2160   255.0904     8.0849    66.8343
 4558.7160   248.4004     7.6182    64.1035
 4559.2160   246.9279     7.5290    61.9997
 4559.7160   246.4491     7.6525    61.5398
 4560.2160   246.1927     7.7761    61.7001
 4560.7160   244.7507     7.9305    62.0227
 4561.2160   242.5328     7.8996    62.2546
 4561.7160   238.5757     7.7143    62.1810
 4562.2160   234.6141     7.6212    62.0312
 4562.7160   234.8852     7.6868    61.7277
 4563.2160   235.4002     7.7143    62.0430
 4563.7160   236.1637     7.7452    62.2033
 4564.2160   236.1817     7.8069    62.1311
 4564.7160   234.7092     7.8378    62.2915
 4565.2160   233.4851     7.8069    62.2979
 4565.7160   233.7516     7.6525    62.1481
 4566.2160   233.2728     7.5598    61.9984
 4566.7160   235.0346     7.4018    61.8486
 4567.2160   237.0403     7.2201    61.6213
 4567.7160   237.8037     7.0965    61.4713
 4568.2160   236.0826     7.1892    61.3217
 4568.7160   235.5817     7.2201    61.4047
 4569.2160   239.6017     7.2819    61.4110
 4569.7160   243.9057     7.4672    61.4163
 4570.2160   249.2314     7.8378    61.4991
 4570.7160   255.5581     8.8370    62.0469
 4571.2160   265.4864     9.9961    63.3700
 4571.7160   274.5820    11.6839    64.6156
 4572.2160   280.7056    12.5069    66.1228
 4572.7160   283.2082    12.6255    68.2708
 4573.2160   274.5306    11.9151    68.6637
 4573.7160   267.6690     9.8986    68.0488
 4574.2160   257.6754     8.4106    63.9455
 4574.7160   255.2091     7.4054    62.2453
 4575.2160   251.7489     7.3436    61.5529
 4575.7160   249.2826     7.3127    61.4806
 4576.2160   246.0709     7.0656    61.5634
 4576.7160   245.3434     6.8185    61.1049
 4577.2160   244.8648     6.7259    60.9538
 4577.7160   242.8999     6.8185    60.8040
 4578.2160   244.9056     6.8803    60.8881
 4578.7160   246.4144     6.9421    60.9708
 4579.2160   247.1778     7.0039    61.2086
 4579.7160   245.9537     7.1583    61.3729
 4580.2160   249.6985     7.4054    61.5306
 4580.7160   255.1824     7.8687    61.7684
 4581.2160   262.3321     8.9469    62.3938
 4581.7160   269.6786    10.2650    63.4843
 4582.2160   277.0251    11.5832    64.8074
 4582.7160   284.3575    12.9013    66.8135
 4583.2160   285.8341    14.2317    68.9724
 4583.7160   285.1108    15.0965    71.0256
 4584.2160   281.8990    15.3127    72.1161
 4584.7160   276.4513    14.7259    72.7415
 4585.2160   271.5883    13.0832    72.1266
 4585.7160   263.8189    11.2238    67.9458
 4586.2160   255.8875     9.3645    65.5111
 4586.7160   253.6696     7.6525    63.0739
 4587.2160   253.9362     7.3436    61.6838
 4587.7160   254.6951     7.2201    61.2239
 4588.2160   252.4817     7.3233    60.9191
 4588.7160   252.9967     7.9614    61.3120
 4589.2160   256.6978     8.7954    61.8599
 4589.7160   261.1909     9.5810    62.9575
 4590.2160   265.8819    11.1838    64.8848
 4590.7160   272.2041    12.4766    66.9932
 4591.2160   275.4520    12.9653    69.1690
 4591.7160   277.9546    12.3475    69.5605
 4592.2160   276.7305    11.2664    68.7919
 4592.7160   270.7858    10.0618    67.4793
 4593.2160   265.8350     9.7838    65.1590
 4593.7160   267.3438    11.6371    65.4229
 4594.2160   271.3370    12.0386    67.4964
 4594.7160   267.7399    11.6222    68.1205
 4595.2160   255.5867    10.1853    66.8092
 4595.7160   241.4147     8.6811    63.0161
 4596.2160   232.9047     6.5714    61.0833
 4596.7160   232.4259     6.4788    60.4684
 4597.2160   232.4440     6.6023    60.3186
 4597.7160   232.2136     6.7568    60.4886
 4598.2160   231.7238     6.8497    60.7956
 4598.7160   232.9952     6.9772    60.9559
 4599.2160   233.2663     7.1583    61.1937
 4599.7160   236.0173     7.2819    61.4315
 4600.2160   236.0354     7.3436    61.4331
 4600.7160   236.0535     7.2201    61.3518
 4601.2160   237.0654     7.1892    61.3488
 4601.7160   239.3195     7.3127    61.5010
 4602.2160   240.1051     7.4367    61.5754
 4602.7160   240.1011     7.5993    61.8148
 4603.2160   240.8645     7.8069    62.1888
 4603.7160   240.3857     7.9305    62.3416
 4604.2160   246.3711     7.7761    62.4161
 4604.7160   249.8675     7.7452    62.1798
 4605.2160   252.1216     7.6982    62.2551
 4605.7160   253.8788     7.7612    62.1738
 4606.2160   254.3938     7.9784    62.2544
 4606.7160   255.1573     8.2265    62.7097
 4607.2160   254.6785     8.3203    63.0168
 4607.7160   258.9247     8.1981    63.1688
 4608.2160   257.7006     7.9524    62.8557
 4608.7160   256.4765     8.0771    62.6202
 4609.2160   256.9915     8.1094    62.6948
 4609.7160   258.5003     7.9871    62.6917
 4610.2160   257.2761     7.8337    62.8567
 4610.7160   252.3253     7.8352    62.4524
 4611.2160   253.0964     7.8053    62.2944
 4611.7160   254.1642     7.6525    62.4472
 4612.2160   257.1046     7.6228    62.2884
 4612.7160   258.1120     7.5005    61.9753
 4613.2160   256.1425     7.3450    62.1273
 4613.7160   256.9105     7.3178    61.8142
 4614.2160   255.9348     7.5662    61.7330
 4614.7160   254.2093     8.0970    61.8083
 4615.2160   253.4718     9.8833    62.5022
 4615.7160   255.6232    10.1314    64.8248
 4616.2160   260.2316    11.4906    66.4497
 4616.7160   260.7459     9.7256    66.8550
 4617.2160   259.5262    10.3680    64.7846
 4617.7160   256.3145    12.9080    67.2926
 4618.2160   253.1028    14.4814    70.6230
 4618.7160   249.3942    11.3456    72.4804
 4619.2160   250.6545     8.4734    65.6557
 4619.7160   254.6478     8.0734    62.8620
 4620.2160   256.4051     8.2906    63.0916
 4620.7160   252.4525     7.8909    63.1661
 4621.2160   249.2408     7.6051    62.7513
 4621.7160   245.5799     7.2174    62.1516
 4622.2160   237.8485     6.8297    61.6835
 4622.7160   229.4194     6.3203    60.9053
 4623.2160   228.4392     6.0381    60.2046
 4623.7160   230.6978     5.6452    59.8140
 4624.2160   231.4613     5.5535    59.5785
 4624.7160   230.9825     5.7402    59.2653
 4625.2160   232.2473     6.1735    59.7268
 4625.7160   232.5139     6.8537    60.5765
 4626.2160   234.2711     7.1019    61.3487
 4626.7160   239.7111     7.3500    61.5782
 4627.2160   245.2827     7.6598    61.9628
 4627.7160   248.0602     7.8850    62.1924
 4628.2160   248.5051     8.1479    62.6630
 4628.7160   252.8372     8.4108    63.2709
 4629.2160   256.7400     8.6834    63.6555
 4629.7160   253.0314     8.8698    63.8851
