~VERSION INFORMATION
 VERS.               2.10:   CWLS LOG ASCII STANDARD - VERSION 2.10
 WRAP.                 NO:   ONE LINE PER DEPTH STEP
~WELL INFORMATION
#MNEM.UNIT      DATA TYPE    INFORMATION
#----------   ------------   ------------------------------
 STRT.F         3538.2156:   START DEPTH
 STOP.F         5482.3540:   STOP DEPTH
 STEP.F            0.5000:   STEP LENGTH
 NULL.          -999.2500:   NO VALUE
 COMP. Fenix & Scisson,Inc.:   COMPANY
 WELL.        44-1 TPX 10:   WELL
 FLD .           N.P.R. 3:   FIELD
 LOC . 10-38N-78W-NATRONA-WY:   LOCATION
 STAT.                 WY:   STATE
 COUN.            Natrona:   COUNTY
 SRVC.      Dresser Atlas:   SERVICE COMPANY
 DATE.                   :   LOGDATE
 APIN.         4902510439:   API NUMBER
~CURVE INFORMATION
#MNEM.UNIT       API CODE    CURVE DESCRIPTION
#----------   ------------   ------------------------------
 DEPT.F                  :
 GR  .API    06 310 01 00:   Gamma Ray
 PORA.None               :   Porosity
 DT  .us/f   60 520 00 00:   Delta t
~PARAMETER INFORMATION
#MNEM.UNIT          VALUE    DESCRIPTION
#----------   ------------   ------------------------------
 EKB .F         5240.0000:   Kelly bushing
 EGL .F         5230.0000:   Ground level
 EDF .F            0.0000:   Drilling floor
 EPD .F           10.0000:   Permanent datum
 TD  .F         2250.0000:   Total depth
 NRUN.             1.0000:   Number of Runs
#--RUN 1---   ------------   The following are for Run 1---
 RUN .             1.0000:   Run 1
 DATE.mm/dd/yyyy 12-17-1977:   Date Logged
 DD  .ft             5471:   Depth Driller
 DL  .ft             5471:   Depth Logger
 BLI .ft             5461:   Bottom Log Interval
 TLI .ft             3550:   Top Log Interval
 CSS .inch          8.625:   Casing Size
 CTD1.ft             3023:   Casing Driller 1
 CTL1.ft              n/a:   Casing Logger 1
 BS  .inch          7.875:   Bit Size
 DFT .                kcl:   Type Fluid In Hole
 DFD .lb/gal          9.5:   Mud Weight
 DFV .sec              38:   Viscosity
 DFPH.               11.0:   pH
 DFL .cc              8.4:   Fluid Loss
 WSS .            mud pit:   Source Of Sample
 RM  .ohmm           .385:   Rm
 EMT .F                78:   Rm Meas. Temp.
 RMF .ohmm            .22:   Rmf
 MFT .F                70:   Rmf Meas. Temp.
 RMC .ohmm             .8:   Rmc
 MCST.F                70:   Rmc Meas. Temp.
 MFSS.               meas:   Source Rmf.
 MCSS.               meas:   Source Rmc.
 RMB .ohmm            .16:   Rm. At BHT
 BHT .F               176:   BHT.
 TCS .hh:mm        10 hrs:   Time Circ. Stopped
 MRT .F               176:   Maximum Recorded Temp.
 LUN .               6134:   Logging Unit Number
 LUL .           Gillette:   Logging Unit Location
 ENGI.              Hoyer:   Recorded By
 WITN.      Mr. Harington:   Witnessed By
 DGBY.              Burke:   Digitized By
~A  DEPTH       GR       PORA         DT
# ...
 3902.2160   255.2229    19.9387    78.5993
 3902.7160   256.0100    20.4423    79.0688
 3903.2160   257.2334    22.3268    82.6391
 3903.7160   256.2529    22.6052    82.9544
 3904.2160   251.0487    22.5129    81.8552
 3904.7160   249.3228    21.8955    80.7928
 3905.2160   249.3361    20.7760    80.4096
 3905.7160   251.3369    20.6917    80.9566
 3906.2160   254.3315    21.4334    81.5812
 3906.7160   258.3377    21.8662    81.7406
 3907.2160   258.0880    21.7740    79.7295
 3907.7160   252.8839    20.9403    78.8036
 3908.2160   246.6860    19.1237    77.0511
 3908.7160   245.9506    17.6979    76.1779
 3909.2160   245.9671    17.6056    76.2598
 3909.7160   246.7257    17.6060    76.2641
 3910.2160   248.9750    17.5754    76.1899
 3910.7160   249.0060    17.6377    76.2729
 3911.2160   250.2471    17.7616    76.5874
 3911.7160   249.5150    17.9473    76.9794
 3912.2160   249.0280    18.1021    77.0613
 3912.7160   249.5415    18.3496    76.6780
 3913.2160   245.5763    18.0411    76.7610
 3913.7160   249.8164    18.1651    77.1530
 3914.2160   254.3017    18.5670    77.7776
 3914.7160   255.8059    19.0925    78.4796
 3915.2160   255.5705    19.7415    79.1045
 3915.7160   256.8293    19.8345    79.1864
 3916.2160   262.3083    19.9894    79.5009
 3916.7160   264.3092    20.3006    79.8154
 3917.2160   265.0678    20.4843    79.8997
 3917.7160   265.3295    20.7319    80.3255
 3918.2160   264.3489    21.2922    82.0002
 3918.7160   265.1078    22.6694    83.5549
 3919.2160   262.6396    23.5129    84.2570
 3919.7160   261.6558    23.8840    84.5714
 3920.2160   260.6786    23.5446    83.1802
 3920.7160   260.9402    22.8848    82.3312
 3921.2160   261.6988    21.5994    81.7127
 3921.7160   261.4636    21.3836    81.2298
 3922.2160   261.4769    20.9207    80.7155
 3922.7160   261.4904    20.9176    80.7968
 3923.2160   258.5253    21.2353    81.5758
 3923.7160   260.7746    22.0992    82.5098
 3924.2160   261.2848    23.9574    84.1414
 3924.7160   260.5526    25.6176    86.3157
 3925.2160   256.0939    25.0311    85.9187
 3925.7160   252.5800    22.4505    84.0277
 3926.2160   248.1700    19.2110    77.0069
 3926.7160   239.9496    15.9716    69.5097
 3927.2160   236.5228    12.7322    68.2730
 3927.7160   242.4988    12.9249    69.3621
 3928.2160   247.2326    14.7633    73.6821
 3928.7160   247.9879    16.6763    75.1846
 3929.2160   242.2901    17.1269    74.8007
 3929.7160   241.0578    16.1388    73.8742
 3930.2160   245.5464    15.8303    73.7220
 3930.7160   247.8135    16.1396    75.4322
 3931.2160   248.3092    17.0975    76.0561
 3931.7160   246.5833    17.9010    76.0609
 3932.2160   245.8479    17.6233    75.4173
 3932.7160   246.8582    16.9601    74.7505
 3933.2160   250.1013    16.5122    74.4432
 3933.7160   251.1084    16.6052    74.7580
 3934.2160   249.6309    16.8527    74.7617
 3934.7160   242.6353    16.6060    74.2228
 3935.2160   239.9713    16.0813    73.3739
 3935.7160   236.2578    15.5257    72.4474
 3936.2160   231.1996    14.6914    72.1411
 3936.7160   224.6062    14.7279    72.1458
 3937.2160   218.3801    14.8782    72.1496
 3937.7160   216.6448    15.0948    72.3083
 3938.2160   215.4534    15.2496    72.3896
 3938.7160   217.7060    15.2808    72.4709
 3939.2160   217.9677    15.0342    71.3894
 3939.7160   220.2170    14.6330    70.1528
 3940.2160   223.2116    13.7678    69.3553
 3940.7160   227.4484    12.6260    68.4549
 3941.2160   231.5499    12.1631    68.5372
 3941.7160   239.2668    12.2870    68.4634
 3942.2160   247.3673    12.0713    68.1571
 3942.7160   255.0824    10.9288    66.6104
 3943.2160   252.8596    10.2187    65.8390
 3943.7160   241.9412     9.8485    64.2149
 3944.2160   234.5010     8.3470    62.4958
 3944.7160   234.0171     7.5635    62.1294
 3945.2160   237.2982     7.7492    63.2968
 3945.7160   240.0071     8.4677    65.5332
 3946.2160   240.7685    10.4354    68.6895
 3946.7160   239.2911    12.8701    70.9825
 3947.2160   240.0497    14.6697    71.7615
 3947.7160   239.5660    14.6391    71.3776
 3948.2160   239.3275    14.4234    70.2446
 3948.7160   240.1131    12.5705    68.9055
 3949.2160   240.6138    11.7987    67.9015
 3949.7160   243.4225    11.3975    67.5167
 3950.2160   252.3064    11.6141    68.1416
 3950.7160   253.5619    12.5255    70.3159
 3951.2160   264.0099    14.5184    71.9475
 3951.7160   269.4890    16.8684    74.0443
 3952.2160   277.2041    19.7798    78.6452
 3952.7160   278.4596    22.6912    83.3039
 3953.2160   278.2034    25.2176    86.8472
 3953.7160   274.0343    25.6090    86.9276
 3954.2160   267.6070    22.1191    84.5292
 3954.7160   259.6340    20.3280    77.4011
 3955.2160   257.1628    17.1469    74.4592
 3955.7160   253.4493    15.4176    72.5249
 3956.2160   245.1991    14.1824    70.7884
 3956.7160   235.9008    11.7118    66.5644
 3957.2160   225.1682     9.3434    62.7697
 3957.7160   224.9297     7.6972    62.0749
 3958.2160   227.1823     7.7284    62.7772
 3958.7160   231.9161     9.3967    65.3262
 3959.2160   241.9499    12.2289    72.1976
 3959.7160   254.2613    15.4856    78.3702
 3960.2160   263.7850    18.7422    80.1569
 3960.7160   258.8047    20.6723    79.1529
 3961.2160   249.8739    19.4064    77.5975
 3961.7160   245.6635    18.5110    76.5011
 3962.2160   244.4345    17.8627    76.2194
 3962.7160   243.7024    17.3380    75.6805
 3963.2160   240.9827    15.4404    73.4362
 3963.7160   237.7662    14.0382    71.0369
 3964.2160   234.3844    12.6359    68.4050
 3964.7160   226.8643    11.6562    68.3162
 3965.2160   224.1447    13.2937    69.7492
 3965.7160   224.9032    15.1550    72.7979
 3966.2160   225.4134    17.2172    75.7853
 3966.7160   225.6751    15.9820    72.8433
 3967.2160   228.4212    15.6118    73.3122
 3967.7160   228.9314    16.3306    74.7113
 3968.2160   224.8577    18.5161    76.4980
 3968.7160   205.3576    18.9489    77.4320
 3969.2160   203.1349    18.9492    77.7459
 3969.7160   202.1543    18.7025    77.4040
 3970.2160   203.9067    17.1090    73.3357
 3970.7160   206.7583    15.4724    71.9441
 3971.2160   215.3651    14.0087    71.0176
 3971.7160   219.1050    13.7620    70.5563
 3972.2160   236.0127    13.8241    70.6375
 3972.7160   243.4794    13.9859    70.7188
 3973.2160   244.9833    14.5045    70.9618
 3973.7160   244.7481    14.5049    71.5911
 3974.2160   242.7738    14.6597    71.8938
 3974.7160   243.7986    14.9998    72.2852
 3975.2160   244.5394    15.6180    72.9866
 3975.7160   245.3013    16.3168    74.6183
 3976.2160   248.2959    17.1988    75.3972
 3976.7160   249.0512    17.5341    75.9510
 3977.2160   242.1113    16.3299    75.3225
 3977.7160   238.6005    14.2095    71.6822
 3978.2160   232.1378    11.8250    67.8510
 3978.7160   225.6751     9.4404    62.8661
 3979.2160   219.2124     7.0558    58.3668
 3979.7160   212.3661     4.6712    57.2853
 3980.2160   211.3855     3.9152    56.9780
 3980.7160   209.4112     4.2587    57.5253
 3981.2160   204.1618     4.4412    57.6841
 3981.7160   199.7107     4.5342    57.9980
 3982.2160   201.7524     5.0288    58.7769
 3982.7160   203.7532     5.8322    59.8880
 3983.2160   205.2571     6.9983    61.3981
 3983.7160   206.7611     7.9334    62.9738
 3984.2160   209.7557     9.4473    64.7619
 3984.7160   210.5143    10.1890    65.9284
 3985.2160   213.7716    10.6836    66.9399
 3985.7160   215.2613    11.0546    68.0290
 3986.2160   212.5449    11.8581    68.5754
 3986.7160   212.8066    12.2291    68.9723
 3987.2160   209.8385    12.3222    68.7389
 3987.7160   209.8518    11.9829    67.5023
 3988.2160   211.3557    11.0566    66.8084
 3988.7160   213.8534    10.7481    66.4246
 3989.2160   215.8543    10.4087    66.3499
 3989.7160   216.7277    10.6871    66.4321
 3990.2160   225.8219    11.5214    67.7537
 3990.7160   231.3010    12.0170    68.7096
 3991.2160   238.0224    13.4608    70.5502
 3991.7160   246.3490    15.6549    73.7597
 3992.2160   256.6835    17.8490    76.9691
 3992.7160   261.4173    20.0431    80.2537
