~VERSION INFORMATION
 VERS.               2.10:   CWLS LOG ASCII STANDARD - VERSION 2.10
 WRAP.                 NO:   ONE LINE PER DEPTH STEP
~WELL INFORMATION
#MNEM.UNIT      DATA TYPE    INFORMATION
#----------   ------------   ------------------------------
 STRT.F         3538.2156:   START DEPTH
 STOP.F         5482.3540:   STOP DEPTH
 STEP.F            0.5000:   STEP LENGTH
 NULL.          -999.2500:   NO VALUE
 COMP. Fenix & Scisson,Inc.:   COMPANY
 WELL.        44-1 TPX 10:   WELL
 FLD .           N.P.R. 3:   FIELD
 LOC . 10-38N-78W-NATRONA-WY:   LOCATION
 STAT.                 WY:   STATE
 COUN.            Natrona:   COUNTY
 SRVC.      Dresser Atlas:   SERVICE COMPANY
 DATE.                   :   LOGDATE
 APIN.         4902510439:   API NUMBER
~CURVE INFORMATION
#MNEM.UNIT       API CODE    CURVE DESCRIPTION
#----------   ------------   ------------------------------
 DEPT.F                  :
 GR  .API    06 310 01 00:   Gamma Ray
 PORA.None               :   Porosity
 DT  .us/f   60 520 00 00:   Delta t
~PARAMETER INFORMATION
#MNEM.UNIT          VALUE    DESCRIPTION
#----------   ------------   ------------------------------
 EKB .F         5240.0000:   Kelly bushing
 EGL .F         5230.0000:   Ground level
 EDF .F            0.0000:   Drilling floor
 EPD .F           10.0000:   Permanent datum
 TD  .F         2250.0000:   Total depth
 NRUN.             1.0000:   Number of Runs
#--RUN 1---   ------------   The following are for Run 1---
 RUN .             1.0000:   Run 1
 DATE.mm/dd/yyyy 12-17-1977:   Date Logged
 DD  .ft             5471:   Depth Driller
 DL  .ft             5471:   Depth Logger
 BLI .ft             5461:   Bottom Log Interval
 TLI .ft             3550:   Top Log Interval
 CSS .inch          8.625:   Casing Size
 CTD1.ft             3023:   Casing Driller 1
 CTL1.ft              n/a:   Casing Logger 1
 BS  .inch          7.875:   Bit Size
 DFT .                kcl:   Type Fluid In Hole
 DFD .lb/gal          9.5:   Mud Weight
 DFV .sec              38:   Viscosity
 DFPH.               11.0:   pH
 DFL .cc              8.4:   Fluid Loss
 WSS .            mud pit:   Source Of Sample
 RM  .ohmm           .385:   Rm
 EMT .F                78:   Rm Meas. Temp.
 RMF .ohmm            .22:   Rmf
 MFT .F                70:   Rmf Meas. Temp.
 RMC .ohmm             .8:   Rmc
 MCST.F                70:   Rmc Meas. Temp.
 MFSS.               meas:   Source Rmf.
 MCSS.               meas:   Source Rmc.
 RMB .ohmm            .16:   Rm. At BHT
 BHT .F               176:   BHT.
 TCS .hh:mm        10 hrs:   Time Circ. Stopped
 MRT .F               176:   Maximum Recorded Temp.
 LUN .               6134:   Logging Unit Number
 LUL .           Gillette:   Logging Unit Location
 ENGI.              Hoyer:   Recorded By
 WITN.      Mr. Harington:   Witnessed By
 DGBY.              Burke:   Digitized By
~A  DEPTH       GR       PORA         DT
# ...
 3993.2160   264.6603    21.4388    81.2696
 3993.7160   265.6674    21.2539    81.0370
 3994.2160   267.1713    20.0805    78.8696
 3994.7160   271.1950    19.5558    78.5633
 3995.2160   276.5115    19.5871    79.1882
 3995.7160   283.8603    20.1434    80.0446
 3996.2160   288.5941    22.3008    82.9774
 3996.7160   290.0980    25.5911    86.1788
 3997.2160   290.8566    28.1143    88.5143
 3997.7160   289.6276    28.2376    90.1611
 3998.2160   287.2130    27.8673    89.9093
 3998.7160   280.9666    27.6824    89.5255
 3999.2160   274.5132    27.6211    89.5292
 3999.7160   273.7811    27.3126    89.1454
 4000.2160   274.2916    26.6023    88.6066
 4000.7160   273.8109    26.2624    88.2224
 4001.2160   273.5724    25.8298    87.8382
 4001.7160   274.0825    25.1502    86.9114
 4002.2160   268.1363    24.1308    85.3644
 4002.7160   260.9446    22.5710    83.4166
 4003.2160   260.2121    21.9066    82.4002
 4003.7160   259.9772    21.6285    81.8086
 4004.2160   257.6306    21.2577    81.0377
 4004.7160   252.5537    19.7374    78.5604
 4005.2160   251.3247    18.1251    76.2382
 4005.7160   250.8378    16.4246    74.5362
 4006.2160   257.3139    16.7785    75.2373
 4006.7160   262.0477    17.9350    76.9480
 4007.2160   265.0423    19.6476    79.1093
 4007.7160   265.8040    21.5040    81.2173
 4008.2160   265.4625    22.3379    82.3834
 4008.7160   259.6195    22.0906    82.5410
 4009.2160   258.1421    21.4401    81.2274
 4009.7160   255.4224    21.1496    80.8432
 4010.2160   254.4385    20.9166    80.5241
 4010.7160   255.6973    21.5342    81.3926
 4011.2160   257.2013    23.1094    83.3799
 4011.7160   255.9602    23.4799    84.0359
 4012.2160   252.4987    23.5416    83.3416
 4012.7160   246.2542    22.5530    81.4845
 4013.2160   239.6167    20.4358    78.7131
 4013.7160   234.1641    17.4496    75.0822
 4014.2160   231.6928    14.1820    71.4552
 4014.7160   234.3094    12.0506    68.2428
 4015.2160   237.9339    11.5786    67.5485
 4015.7160   238.9409    12.1431    69.0248
 4016.2160   239.4510    12.9839    69.4158
 4016.7160   234.4953    13.0695    69.4967
 4017.2160   233.2630    13.1929    69.8102
 4017.7160   233.3092    13.4708    70.4337
 4018.2160   234.2866    14.1502    70.9098
 4018.7160   234.0188    14.0574    70.9831
 4019.2160   233.5678    13.7484    70.3672
 4019.7160   237.8079    13.4086    70.0605
 4020.2160   239.5603    13.3158    70.2964
 4020.7160   242.0526    14.1187    71.1525
 4021.2160   248.3056    15.7498    72.3187
 4021.7160   254.5587    17.7511    75.3796
 4022.2160   259.2428    19.7400    77.7639
 4022.7160   260.9952    20.9445    80.6243
 4023.2160   260.7600    21.8093    81.5579
 4023.7160   256.5496    22.1180    81.8714
 4024.2160   254.5753    22.2724    82.0298
 4024.7160   253.0979    22.2105    81.8006
 4025.2160   252.8068    21.8362    81.2614
 4025.7160   248.4072    21.3217    80.5671
 4026.2160   247.1782    20.6657    79.9475
 4026.7160   246.4428    20.0412    78.4386
 4027.2160   246.7078    18.7511    76.9347
 4027.7160   249.7024    17.5457    75.3877
 4028.2160   253.1939    16.5881    74.2283
 4028.7160   252.4618    16.0320    73.7666
 4029.2160   252.9724    15.9701    74.0025
 4029.7160   250.2556    16.2313    74.3160
 4030.2160   250.7657    16.3096    74.2400
 4030.7160   251.2758    16.6801    74.9023
 4031.2160   254.0220    18.1569    78.4355
 4031.7160   257.9213    20.6413    81.5397
 4032.2160   262.3899    23.2143    83.0159
 4032.7160   266.7347    26.0277    86.6319
 4033.2160   267.4933    28.5123    90.5424
 4033.7160   268.2520    28.8232    90.9333
 4034.2160   268.2652    28.9110    90.7042
 4034.7160   268.2784    28.5711    89.9324
 4035.2160   267.5464    28.0150    89.7031
 4035.7160   266.5658    27.8604    89.7066
 4036.2160   268.3215    27.7059    89.5549
 4036.7160   267.0925    27.6749    89.6367
 4037.2160   266.6055    27.7366    89.7167
 4037.7160   266.6221    27.4132    89.2559
 4038.2160   268.8713    26.9641    88.7941
 4038.7160   270.1594    26.8404    88.5649
 4039.2160   267.6556    26.9021    88.5683
 4039.7160   265.8709    27.1800    88.8818
 4040.2160   264.7040    27.9852    89.8292
 4040.7160   263.2266    28.6006    90.7490
 4041.2160   261.9976    28.0227    89.7455
 4041.7160   262.5078    27.0666    88.2760
 4042.2160   262.7694    26.0365    87.5042
 4042.7160   261.5405    26.2526    87.4293
 4043.2160   261.5537    26.9012    87.8211
 4043.7160   258.5199    27.5497    88.8322
 4044.2160   255.6208    28.0129    89.8437
 4044.7160   254.3918    28.0776    90.1569
 4045.2160   252.9143    27.5176    89.7735
 4045.7160   250.1913    27.4471    89.1567
 4046.2160   249.7077    27.2711    88.7725
 4046.7160   248.7036    26.5915    88.6975
 4047.2160   249.2407    25.0427    87.3839
 4047.7160   250.2842    23.1708    83.7439
 4048.2160   250.7611    21.5736    82.0418
 4048.7160   253.7557    20.9076    80.7274
 4049.2160   256.7503    21.3090    81.3518
 4049.7160   260.2418    22.3425    82.5955
 4050.2160   261.7458    23.6976    84.2268
 4050.7160   262.7528    25.0527    85.6535
 4051.2160   262.2371    26.4079    87.3660
 4051.7160   259.7588    27.9803    89.0785
 4052.2160   260.5598    28.2273    90.2871
 4052.7160   259.3308    27.8565    89.5928
 4053.2160   259.3441    27.2678    89.1311
 4053.7160   257.8666    27.0223    88.9019
 4054.2160   256.1385    27.6399    89.0768
 4054.7160   255.1580    29.0298    90.3824
 4055.2160   257.1621    29.8636    92.0912
 4055.7160   257.9207  -999.2500    93.4900
 4056.2160   254.9526  -999.2500    93.2608
 4056.7160   253.9720    29.6859    92.4115
 4057.2160   254.7339    28.9948    91.6397
 4057.7160   259.7162    28.4803    91.0229
 4058.2160   260.9716    27.8243    90.3995
 4058.7160   260.9849    27.5771    89.7003
 4059.2160   260.2495    27.6079    89.5602
 4059.7160   262.2536    28.0711    89.9520
 4060.2160   262.5153    28.5343    90.2655
 4060.7160   263.2739    29.1211    91.5867
 4061.2160   262.2966    29.5260    91.9002
 4061.7160   262.0614    29.8004    92.1361
 4062.2160   259.0933    29.6149    92.1395
 4062.7160   259.3517    28.9970    91.5144
 4063.2160   260.3620    28.5336    90.9843
 4063.7160   259.1330    28.0702    90.5226
 4064.2160   256.6618    27.9156    89.9058
 4064.7160   255.1844    27.8479    89.9867
 4065.2160   253.4585    28.1316    90.1452
 4065.7160   252.4813    27.9319    89.7609
 4066.2160   252.2461    26.9576    88.9891
 4066.7160   253.0047    26.6795    88.4445
 4067.2160   254.0117    26.8647    88.2207
 4067.7160   256.7578    27.0499    88.6901
 4068.2160   256.5226    26.6792    88.6159
 4068.7160   257.5297    25.7525    86.9139
 4069.2160   253.0742    24.5476    84.9793
 4069.7160   250.1061    23.3428    83.6649
 4070.2160   247.6315    22.8795    83.2806
 4070.7160   247.8965    22.6631    83.0515
 4071.2160   249.1520    22.4159    82.8107
 4071.7160   248.6680    21.7054    82.0513
 4072.2160   247.6878    21.6435    81.4337
 4072.7160   247.7738    21.4272    81.2054
 4073.2160   248.9599    21.1455    80.7437
 4073.7160   249.2182    20.5834    80.2819
 4074.2160   244.8674    20.1913    79.4326
 4074.7160   244.2710    20.0676    79.2802
 4075.2160   245.5619    20.1602    80.1625
 4075.7160   245.7985    21.2720    81.2266
 4076.2160   247.3024    22.7545    82.5478
 4076.7160   247.5641    23.4031    83.7140
 4077.2160   247.8258    23.2459    83.9499
 4077.7160   251.8142    22.3243    82.8680
 4078.2160   254.8088    21.1457    80.1582
 4078.7160   254.3252    20.2829    79.3864
 4079.2160   254.8672    20.0357    78.9247
 4079.7160   257.8332    19.8194    79.0840
 4080.2160   259.3371    20.4370    80.1726
 4080.7160   259.8473    22.9724    82.5947
 4081.2160   259.6088    26.3561    85.5038
 4081.7160   259.6253    28.3535    90.0280
 4082.2160   259.6385    27.9114    90.3407
 4082.7160   256.6613    26.1507    88.8720
 4083.2160   256.4352    23.3166    85.3095
 4083.7160   257.1938    20.0964    82.3241
