~VERSION INFORMATION
 VERS.               2.10:   CWLS LOG ASCII STANDARD - VERSION 2.10
 WRAP.                 NO:   ONE LINE PER DEPTH STEP
~WELL INFORMATION
#MNEM.UNIT      DATA TYPE    INFORMATION
#----------   ------------   ------------------------------
 STRT.F         3538.2156:   START DEPTH
 STOP.F         5485.2939:   STOP DEPTH
 STEP.F            0.5000:   STEP LENGTH
 NULL.          -999.2500:   NO VALUE
 COMP. Fenix & Scisson,Inc.:   COMPANY
 WELL.        44-1 TPX 10:   WELL
 FLD .           N.P.R. 3:   FIELD
 LOC . 10-38N-78W-NATRONA-WY:   LOCATION
 STAT.                 WY:   STATE
 COUN.            Natrona:   COUNTY
 SRVC.      Dresser Atlas:   SERVICE COMPANY
 DATE.                   :   LOGDATE
 APIN.         4902510439:   API NUMBER
~CURVE INFORMATION
#MNEM.UNIT       API CODE    CURVE DESCRIPTION
#----------   ------------   ------------------------------
 DEPT.F                  :
 GR  .API    06 310 01 00:   Gamma Ray
 LLS .ohmm   11 220 06 00:   Dual Laterolog, shallow
 LLD .ohmm   11 220 04 00:   Dual Laterolog, Deep
~PARAMETER INFORMATION
#MNEM.UNIT          VALUE    DESCRIPTION
#----------   ------------   ------------------------------
 EKB .F         5240.0000:   Kelly bushing
 EGL .F         5230.0000:   Ground level
 EDF .F            0.0000:   Drilling floor
 EPD .F           10.0000:   Permanent datum
 TD  .F         2250.0000:   Total depth
 NRUN.             1.0000:   Number of Runs
#--RUN 1---   ------------   The following are for Run 1---
 RUN .             1.0000:   Run 1
 DATE.mm/dd/yyyy 12-17-1977:   Date Logged
 DD  .ft             5471:   Depth Driller
 DL  .ft             5471:   Depth Logger
 BLI .ft             5461:   Bottom Log Interval
 TLI .ft             3550:   Top Log Interval
 CSS .inch          8.625:   Casing Size
 CTD1.ft             3023:   Casing Driller 1
 CTL1.ft              n/a:   Casing Logger 1
 BS  .inch          7.875:   Bit Size
 DFT .                kcl:   Type Fluid In Hole
 DFD .lb/gal          9.5:   Mud Weight
 DFV .sec              38:   Viscosity
 DFPH.               11.0:   pH
 DFL .cc              8.4:   Fluid Loss
 WSS .            mud pit:   Source Of Sample
 RM  .ohmm           .385:   Rm
 EMT .F                78:   Rm Meas. Temp.
 RMF .ohmm            .22:   Rmf
 MFT .F                70:   Rmf Meas. Temp.
 RMC .ohmm             .8:   Rmc
 MCST.F                70:   Rmc Meas. Temp.
 MFSS.               meas:   Source Rmf.
 MCSS.               meas:   Source Rmc.
 RMB .ohmm            .16:   Rm. At BHT
 BHT .F               176:   BHT.
 TCS .hh:mm        10 hrs:   Time Circ. Stopped
 MRT .F               176:   Maximum Recorded Temp.
 LUN .               6134:   Logging Unit Number
 LUL .           Gillette:   Logging Unit Location
 ENGI.              Hoyer:   Recorded By
 WITN.      Mr. Harington:   Witnessed By
 DGBY.              Burke:   Digitized By
~A  DEPTH       GR        LLS        LLD
 3538.2160     3.3008  -999.2500  -999.2500
 3538.7160     1.8598  -999.2500  -999.2500
 3539.2160     3.6880  -999.2500  -999.2500
 3539.7160     6.4681  -999.2500  -999.2500
 3540.2160     7.2264  -999.2500     4.6760
 3540.7160     7.8139     7.0888     5.9923
 3541.2160    11.5450     8.2903     8.7920
 3541.7160    26.9245     9.9045    10.1976
 3542.2160    32.3354    10.2651    10.8589
 3542.7160    32.0601     9.8339    10.3031
 3543.2160    29.6343     8.9461     9.4066
 3543.7160    33.1643     8.4787     8.9376
 3544.2160    32.9631     8.6639     8.8499
 3544.7160    39.7330     8.9794     9.1724
 3545.2160    42.2669     8.9815     9.4929
 3545.7160    36.8465     8.6699     9.3466
 3546.2160    36.1506     8.0770     8.6928
 3546.7160    36.6970     7.5247     8.2561
 3547.2160    35.5042     7.5841     8.1903
 3547.7160    27.3550     8.0831     8.4888
 3548.2160    21.6902     8.6189     9.0392
 3548.7160    20.0005     8.9328     9.2886
 3549.2160    11.6028     8.2044     8.8886
 3549.7160    -0.0248     6.9356     8.0346
 3550.2160   148.5838     5.4486     6.2362
 3550.7160   144.4221     3.9616     4.3562
 3551.2160   138.0119     2.9723     3.3067
 3551.7160   140.2974     2.9101     3.3778
 3552.2160   156.4960     3.1254     3.7165
 3552.7160  -999.2500     4.1016     4.7494
 3553.2160  -999.2500     6.1310     6.0881
 3553.7160  -133.5698     9.7510    12.1247
 3554.2160  -130.3280    11.6495    11.9379
 3554.7160  -135.0365     9.0219     9.6110
 3555.2160  -138.0059     7.7729     8.9552
 3555.7160  -141.4722     7.5568     9.0208
 3556.2160  -147.9201     7.8058     9.4493
 3556.7160  -147.2107     9.0951    11.3876
 3557.2160  -140.9364     9.3595    11.5193
 3557.7160  -136.9493     8.8443    10.7293
 3558.2160  -135.6951     8.4170    10.1944
 3558.7160  -139.6583     8.4790     9.9515
 3559.2160  -142.6277     8.4208     9.8826
 3559.7160  -146.8393     8.1868     9.6613
 3560.2160  -156.5168     7.6152     9.1595
 3560.7160  -155.5110     6.8577     8.0764
 3561.2160  -160.0142     6.3431     7.4582
 3561.7160   154.5761     6.4813     7.2911
 3562.2160   153.5972     6.0811     7.1175
 3562.7160   148.6403     6.3478     7.5901
 3563.2160   146.6617     6.6259     8.4954
 3563.7160   149.1611     6.6747     8.7298
 3564.2160   150.9122     7.0210     8.9792
 3564.7160   151.1727     7.3242     9.2975
 3565.2160   151.6845     7.2739     9.3520
 3565.7160   155.6716     6.9723     9.2079
 3566.2160   158.9134     6.8268     9.0661
 3566.7160  -156.1077     6.7320     9.1192
 3567.2160  -156.3411     6.5915     9.1057
 3567.7160  -156.8261     6.2730     8.9672
 3568.2160  -158.3052     5.8027     8.7538
 3568.7160   154.9991     5.0011     7.7236
 3569.2160   146.6594     4.0475     5.2352
 3569.7160   139.3739     3.5060     4.8123
 3570.2160   135.6592     3.5068     4.2257
 3570.7160   130.4538     3.6345     4.0437
 3571.2160   123.7576     3.8755     4.0674
 3571.7160   121.0364     4.3432     4.6841
 3572.2160   122.5395     4.9722     6.5851
 3572.7160   123.0512     5.3028     7.4764
 3573.2160   130.0197     5.3409     7.7379
 3573.7160   138.9758     4.9057     7.2698
 3574.2160   141.2238     4.2567     6.2419
 3574.7160   136.7637     4.1381     5.9731
 3575.2160   134.2912     4.2285     5.7979
 3575.7160   134.0288     4.7053     5.8736
 3576.2160   131.5852     5.6214     7.7445
 3576.7160   133.0879     5.9941     9.8542
 3577.2160   133.5968     5.8598    10.4214
 3577.7160   132.1180     5.1291    10.3963
 3578.2160   131.6331     4.1453     8.7096
 3578.7160   131.6451     3.6484     7.4367
 3579.2160   131.6575     3.1883     6.2601
 3579.7160   131.9205     2.9914     5.3452
 3580.2160   134.6774     2.8267     4.8317
 3580.7160   142.6266     2.6711     4.3057
 3581.2160   148.7794     2.6340     3.9739
 3581.7160   150.1040     2.6748     3.7779
 3582.2160   137.1997     2.8700     3.8056
 3582.7160   135.4696     3.2624     3.8828
 3583.2160   135.7300     3.5790     4.0472
 3583.7160   134.2543     3.8163     4.7615
 3584.2160   131.0364     4.0119     6.9862
 3584.7160   130.0546     4.0178     7.5460
 3585.2160   132.8025     3.9290     8.1593
 3585.7160   130.8269     3.6300     8.7411
 3586.2160   128.8513     3.4217     7.5818
 3586.7160   127.6210     2.6979     5.8565
 3587.2160   125.8939     2.4430     5.1451
 3587.7160   124.1380     2.3250     4.6178
 3588.2160   116.7283     2.2603     4.3193
 3588.7160   115.7435     2.1359     4.0867
 3589.2160   118.4914     2.1212     3.9893
 3589.7160   122.4785     2.1369     4.0186
 3590.2160   125.9687     2.1543     4.0710
 3590.7160   132.9372     2.1840     4.1536
 3591.2160   139.1606     2.3622     4.2987
 3591.7160   141.6598     2.5188     4.5127
 3592.2160   145.1500     2.6105     4.8482
 3592.7160   147.1496     2.7055     5.2725
 3593.2160   148.1554     2.7062     5.6545
 3593.7160   151.1487     2.6876     5.8105
 3594.2160    -7.8475     2.4128     5.4427
 3594.7160  -314.5280     2.0772     4.3278
 3595.2160  -310.6778     1.8853     3.8567
 3595.7160  -310.2735     1.8857     3.7702
 3596.2160  -312.6382     1.9823     3.8262
 3596.7160  -318.3404     2.1440     4.1908
 3597.2160   139.3074     2.2862     4.6907
 3597.7160   127.8939     2.4551     5.2130
 3598.2160   120.9495     2.5445     5.4337
 3598.7160   121.5835     2.5815     5.4575
 3599.2160   126.6910     2.5278     5.2301
 3599.7160   127.6968     2.4575     4.9694
 3600.2160   123.2369     2.4234     4.6188
 3600.7160   124.7396     2.3729     4.4928
 3601.2160   122.0188     2.3234     4.4805
 3601.7160   119.0495     2.3240     4.5781
 3602.2160   120.3038     2.3413     4.8060
 3602.7160   122.5545     2.4789     5.1176
 3603.2160   121.4790     2.6061     5.4494
 3603.7160   122.5791     2.7987     5.6801
 3604.2160   120.6036     2.9844     5.6728
 3604.7160   116.3921     3.1823     5.7553
 3605.2160   108.3477     3.4474     5.9141
 3605.7160    95.5467     3.9129     6.3426
 3606.2160    81.7957     4.4165     8.0258
 3606.7160    66.9353     5.5064    11.2212
 3607.2160    52.0749     7.1510    14.3476
 3607.7160    39.7716    13.4047    26.6167
 3608.2160    25.2985    20.3093    38.7567
 3608.7160    21.3354    41.5265    29.7391
 3609.2160    20.8501    65.3906    30.7780
 3609.7160    21.6080    64.9443    14.5711
 3610.2160    22.6141    58.3305    13.2654
 3610.7160    24.5725    52.1526    14.0048
 3611.2160    29.1007    42.4346    14.7235
 3611.7160    32.0941    35.5363    15.7810
 3612.2160    41.2988    33.3431    14.9123
 3612.7160    54.2301    32.1874    14.0436
 3613.2160    62.4409    33.3603    13.9751
 3613.7160    71.8940    35.3211    23.4970
 3614.2160    91.0365    34.8163    44.9679
 3614.7160   100.5279    28.5558    32.9947
 3615.2160   105.9705    22.4563    34.0217
 3615.7160   107.9672    14.7530    27.3172
 3616.2160   106.2431    12.8016    23.5277
 3616.7160   101.5347    13.0808    23.8285
 3617.2160    95.3356    13.4944    26.7640
 3617.7160    89.3850    15.1948    26.8900
 3618.2160    84.4281    14.2570    26.2154
 3618.7160    83.9432    13.2824    25.7612
 3619.2160    84.2041    13.3806    26.8084
 3619.7160    85.2127    14.4723    29.6209
 3620.2160    89.1999    16.8060    32.4779
 3620.7160    96.0687    16.8013    33.7867
 3621.2160   109.0391    15.6622    31.8122
 3621.7160   122.0094    14.4882    26.9177
 3622.2160   129.9946    12.9879    21.5147
 3622.7160   128.2675    11.2834    19.2720
 3623.2160   129.0250     9.6699    15.2943
 3623.7160   125.9633     8.8818    13.6920
 3624.2160   116.4856     8.1578    12.0407
 3624.7160   106.6739     5.5635     5.5055
 3625.2160    96.0308     3.1051     4.1864
 3625.7160    92.0677     2.7721     3.8860
 3626.2160    92.0869     2.8527     3.9014
 3626.7160    92.0568     2.9990     4.0022
 3627.2160    89.8710     3.1796     4.2862
 3627.7160    89.8830     3.3781     4.5153
 3628.2160    91.3858     3.5767     4.7647
 3628.7160    91.3979     3.7753     5.1731
