~VERSION INFORMATION
 VERS.               1.20:   CWLS LOG ASCII STANDARD - VERSION 1.20
 WRAP.                 NO:   ONE LINE PER DEPTH STEP
~WELL INFORMATION
#MNEM.UNIT      DATA TYPE    INFORMATION
#----------   ------------   ------------------------------
 STRT.F         3541.0000:   START DEPTH
 STOP.F         5482.5000:   STOP DEPTH
 STEP.F            0.5000:   STEP LENGTH
 NULL.          -999.2500:   NO VALUE
 COMP.            COMPANY:   Fenix & Scisson, Inc.
 WELL.               WELL:   44-1 TPX 10
 FLD .              FIELD:   N.P.R. 3
 LOC .           LOCATION:   10-38N-78W-NATRONA-WY
 STAT.              STATE:   WY
 COUN.             COUNTY:   Natrona
 SRVC.    SERVICE COMPANY:   Dresser Atlas
 DATE.            LOGDATE:   12/17/1977
~CURVE INFORMATION
#MNEM.UNIT       API CODE    CURVE DESCRIPTION
#----------   ------------   ------------------------------
 DEPT.F                  :
 DPHI.none   42 890 12 00:   Den. Porosity, Ss [%]
 CALI.inches 42 280 00 00:   Caliper
 GR  .GAPI   42 310 00 00:   Gamma Ray
~PARAMETER INFORMATION
#MNEM.UNIT          VALUE    DESCRIPTION
#----------   ------------   ------------------------------
 EKB .F         5240.0000:   Kelly bushing
 EGL .F         5230.0000:   Ground level
 EDF .F            0.0000:   Drilling floor
 EPD .F           10.0000:   Permanent datum
 TD  .F         1932.0000:   Total depth
 DATE.mm/dd/yyyy 12/17/1977:   Date Logged
 DD  .ft             5471:   Depth Driller
 DL  .ft             5471:   Depth Logger
 BLI .ft             5469:   Bottom Log Interval
 TLI .ft             3550:   Top Log Interval
 CSS .inch          8.625:   Casing Size
 CTD1.ft             3023:   Casing Driller 1
 BS  .inch          7.875:   Bit Size
 DFT .                KCL:   Type Fluid In Hole
 DFD .lb/gal          9.5:   Mud Weight
 DFV .sec              38:   Viscosity
 DFPH.               11.0:   pH
 DFL .cc              8.4:   Fluid Loss
 WSS .            Mud Pit:   Source Of Sample
 RM  .ohmm           .385:   Rm
 EMT .F                78:   Rm Meas. Temp.
 RMF .ohmm            .22:   Rmf
 MFT .F                70:   Rmf Meas. Temp.
 RMC .ohmm             .8:   Rmc
 MCST.F                70:   Rmc Meas. Temp.
 MFSS.               meas:   Source Rmf.
 MCSS.               meas:   Source Rmc.
 RMB .ohmm            .16:   Rm. At BHT
 BHT .F               176:   BHT.
 TCS .hh:mm        19 hrs:   Time Circ. Stopped
 MRT .F               176:   Maximum Recorded Temp.
 LUN .               6134:   Logging Unit Number
 LUL .           Gillette:   Logging Unit Location
 ENGI.              Hoyer:   Recorded By
 WITN.     Mr. Harrington:   Witnessed By
 DGBY.              Burke:   Digitized By
~A  DEPTH     DPHI       CALI         GR
# ...
 3905.0000     4.8010    11.1112   248.5472
 3905.5000     3.6089    11.1270   253.0368
 3906.0000     3.2545    11.1428   251.3034
 3906.5000     3.0683    11.1430   252.0584
 3907.0000     2.9132    11.1277   255.6895
 3907.5000     3.5687    11.1279   254.6349
 3908.0000     4.2104    11.1437   249.8016
 3908.5000     4.1096    11.1750   244.8761
 3909.0000     3.4526    11.2064   243.1378
 3909.5000     3.7449    11.2533   240.6332
 3910.0000     4.1155    11.2535   242.6642
 3910.5000     3.7870    11.2537   243.4177
 3911.0000     3.0015    11.2540   243.1788
 3911.5000     3.3409    11.2542   242.6875
 3912.0000     4.1293    11.2831   244.6887
 3912.5000     4.2980    11.3318   247.9320
 3913.0000     3.0881    11.3482   253.1660
 3913.5000     3.5042    11.3329   248.4466
 3914.0000     4.4200    11.3487   247.6774
 3914.5000     3.7084    11.3645   245.9163
 3915.0000     2.4948    11.3958   248.7230
 3915.5000     1.9145    11.4116   250.3381
 3916.0000     2.5219    11.4274   252.9701
 3916.5000     3.2092    11.4276   252.9786
 3917.0000     2.9392    11.4112   253.9824
 3917.5000     2.4685    11.3170   255.7327
 3918.0000     1.9424    11.2572   260.9817
 3918.5000     1.6946    11.2205   259.9798
 3919.0000     2.0857    11.1333   259.7395
 3919.5000     2.5701    11.1179   260.9942
 3920.0000     2.9294    11.1337   261.7471
 3920.5000     4.0108    11.1340   262.0065
 3921.0000     4.7556    11.1342   259.7755
 3921.5000     5.0297    11.1344   257.7933
 3922.0000     4.6890    11.1347   253.0739
 3922.5000     3.2667    11.1349   247.8569
 3923.0000     3.4205    11.1351   249.6754
 3923.5000     3.1418    11.1354   248.6224
 3924.0000     3.4194    11.1095   247.6356
 3924.5000     3.2952    11.0457   247.1443
 3925.0000     3.5733    10.9961   249.8920
 3925.5000     4.1088    10.9642   258.1120
 3926.0000     4.4064    10.8387   257.8695
 3926.5000     4.5097    10.7593   257.6313
 3927.0000     4.3395    10.6549   255.5798
 3927.5000     4.0647    10.5930   246.1245
 3928.0000     5.1769    10.5212   236.6691
 3928.5000     5.3021    10.4418   227.8073
 3929.0000     5.9564    10.4070   225.8229
 3929.5000     6.2263    10.4228   235.1760
 3930.0000     5.1437    10.4386   245.7487
 3930.5000     5.0195    10.4578   246.5015
 3931.0000     4.7717    10.5479   244.5215
 3931.5000     5.0394    10.5326   242.0417
 3932.0000     5.0178    10.5173   243.7922
 3932.5000     5.0630    10.5175   245.2955
 3933.0000     5.6693    10.5177   244.4642
 3933.5000     6.5925    10.5024   242.3264
 3934.0000     6.9012    10.5026   243.8258
 3934.5000     6.8009    10.5029   244.0831
 3935.0000     6.4982    10.5187   241.8521
 3935.5000     6.3431    10.5189   246.0928
 3936.0000     5.6307    10.5036   243.7520
 3936.5000     6.1039    10.5038   238.2826
 3937.0000     6.9904    10.5040   233.6787
 3937.5000     7.1446    10.5198   228.7105
 3938.0000     7.4221    10.5201   227.9725
 3938.5000     8.2871    10.5203   216.2858
 3939.0000     8.9666    10.5206   213.7728
 3939.5000     9.5940    10.5052   212.5681
 3940.0000    10.8459    10.4433   214.3205
 3940.5000    12.3084    10.4435   216.3197
 3941.0000    12.2094    10.4281   215.8305
 3941.5000    10.5215    10.4439   217.4660
 3942.0000     9.5814    10.4597   219.2727
 3942.5000     8.7153    10.4600   222.6093
 3943.0000     8.2835    10.4629   228.8842
 3943.5000     7.2613    10.5227   243.9931
 3944.0000     5.1279    10.5229   250.4709
 3944.5000     2.3443    10.5231   244.0201
 3945.0000     0.1108    10.5233   236.2673
 3945.5000     0.3965    10.5236   230.7992
 3946.0000     0.1487    10.5393   232.5913
 3946.5000    -0.1301    10.5551   233.8439
 3947.0000     0.9584    10.5554   236.7110
 3947.5000     1.2290    10.5556   239.0864
 3948.0000     2.7740    10.5558   238.8460
 3948.5000     3.7006    10.5561   238.8541
 3949.0000     5.0016    10.5563   240.6048
 3949.5000     5.8944    10.5721   242.1199
 3950.0000     4.6421    10.5723   239.7373
 3950.5000     4.2091    10.5726   235.6556
 3951.0000     3.0487    10.5261   233.6735
 3951.5000     2.2303    10.5731   232.8105
 3952.0000     1.1002    10.6044   237.5998
 3952.5000     1.4520    10.6201   252.1689
 3953.0000     1.9648    10.6204   266.7379
 3953.5000     1.8355    10.6206   277.5098
 3954.0000     2.4395    10.6052   272.5437
 3954.5000     3.1552    10.6055   268.0732
 3955.0000     3.7244    10.5902   263.9822
 3955.5000     2.5491    10.5728   258.5410
 3956.0000     2.7483    10.5130   247.9795
 3956.5000     4.0427    10.4296   241.6251
 3957.0000     4.2562    10.3268   238.5058
 3957.5000     4.1234    10.1870   235.8907
 3958.0000     2.8737    10.1251   230.5601
 3958.5000     1.5605    10.0942   228.0802
 3959.0000     0.2474    10.0944   223.9760
 3959.5000     0.6925    10.0622   222.3739
 3960.0000     2.1982    10.0327   231.0059
 3960.5000     3.7039    10.0485   248.9181
 3961.0000     4.3358    10.0798   264.4544
 3961.5000     4.0591    10.1422   262.9698
 3962.0000     4.8032    10.2824   255.7621
 3962.5000     5.4470    10.3760   254.5243
 3963.0000     5.6009    10.3607   253.0419
 3963.5000     5.7916    10.2831   246.8296
 3964.0000     5.4119    10.2655   243.6032
 3964.5000     4.0677    10.2017   239.2478
 3965.0000     4.3313    10.1594   232.0626
 3965.5000     4.1762    10.1285   224.8775
 3966.0000     4.3611    10.1288   220.2481
 3966.5000     4.0822    10.1446   217.5194
 3967.0000     2.6487    10.1448   222.0069
 3967.5000     1.8865    10.2068   223.5085
 3968.0000     2.9833    10.3008   224.2655
 3968.5000     4.5427    10.3477   227.0111
 3969.0000     5.3159    10.3997   227.2663
 3969.5000     7.2617    10.4881   223.7599
 3970.0000     9.5187    10.5438   213.7140
 3970.5000    10.3034    10.6130   203.6681
 3971.0000    10.0740    10.6443   198.4390
 3971.5000     9.1771    10.6601   200.1893
 3972.0000     7.7330    10.6603   201.6908
 3972.5000     6.3259    10.6450   206.4271
 3973.0000     5.6871    10.6453   211.4118
 3973.5000     4.8161    10.6455   217.6416
 3974.0000     4.2137    10.6613   233.0778
 3974.5000     3.2385    10.6615   239.3071
 3975.0000     3.6705    10.6890   239.0669
 3975.5000     4.1339    10.7242   237.8310
 3976.0000     4.0715    10.7711   236.8441
 3976.5000     4.0391    10.7541   237.1036
 3977.0000     3.6281    10.7404   239.1167
 3977.5000     3.1424    10.7718   244.4772
 3978.0000     3.4509    10.7876   245.8382
 3978.5000     2.9371    10.8034   243.2431
 3979.0000     1.5024    10.8503   238.1413
 3979.5000    -0.3064    10.8378   234.0610
 3980.0000    -3.8774    10.7885   225.9675
 3980.5000    -2.5178    10.6774   217.0165
 3981.0000    -0.2995    10.4624   215.4872
 3981.5000     1.6233    10.4470   211.5612
 3982.0000     1.7464    10.4784   210.0753
 3982.5000     1.0966    10.4786   207.0992
 3983.0000     1.0651    10.4944   203.8707
 3983.5000     0.6936    10.5894   201.6418
 3984.0000     0.7177    10.6848   200.6549
 3984.5000     1.7743    10.7284   203.1517
 3985.0000     3.1648    10.7512   205.3997
 3985.5000     3.3808    10.7911   204.6619
 3986.0000     3.0709    10.8535   204.6723
 3986.5000     2.8541    10.8693   205.1770
 3987.0000     3.4717    10.8695   205.2926
 3987.5000     4.6958    10.8542   207.4349
 3988.0000     6.4071    10.8544   210.1805
 3988.5000     6.7158    10.8392   211.1843
 3989.0000     4.6740    10.8115   211.4416
 3989.5000     3.1288    10.6685   210.7036
 3990.0000     3.0046    10.6532   209.3682
 3990.5000     3.1361    10.6068   208.0365
 3991.0000     3.8798    10.5448   210.7311
 3991.5000     3.9303    10.4828   214.8407
 3992.0000     4.1153    10.4830   220.2038
 3992.5000     3.8364    10.4833   224.1936
 3993.0000     2.8157    10.4679   240.3757
 3993.5000     2.7226    10.4838   256.2933
 3994.0000     3.8656    10.5307   261.0464
 3994.5000     3.9578    10.5511   260.5572
 3995.0000     3.5535    10.4845   261.8119
 3995.5000     2.6792    10.4380   263.0646
