~VERSION INFORMATION
 VERS.               2.10:   CWLS LOG ASCII STANDARD - VERSION 2.10
 WRAP.                 NO:   ONE LINE PER DEPTH STEP
~WELL INFORMATION
#MNEM.UNIT      DATA TYPE    INFORMATION
#----------   ------------   ------------------------------
 STRT.F         3538.2156:   START DEPTH
 STOP.F         5485.2939:   STOP DEPTH
 STEP.F            0.5000:   STEP LENGTH
 NULL.          -999.2500:   NO VALUE
 COMP. Fenix & Scisson,Inc.:   COMPANY
 WELL.        44-1 TPX 10:   WELL
 FLD .           N.P.R. 3:   FIELD
 LOC . 10-38N-78W-NATRONA-WY:   LOCATION
 STAT.                 WY:   STATE
 COUN.            Natrona:   COUNTY
 SRVC.      Dresser Atlas:   SERVICE COMPANY
 DATE.                   :   LOGDATE
 APIN.         4902510439:   API NUMBER
~CURVE INFORMATION
#MNEM.UNIT       API CODE    CURVE DESCRIPTION
#----------   ------------   ------------------------------
 DEPT.F                  :
 GR  .API    06 310 01 00:   Gamma Ray
 LLS .ohmm   11 220 06 00:   Dual Laterolog, shallow
 LLD .ohmm   11 220 04 00:   Dual Laterolog, Deep
~PARAMETER INFORMATION
#MNEM.UNIT          VALUE    DESCRIPTION
#----------   ------------   ------------------------------
 EKB .F         5240.0000:   Kelly bushing
 EGL .F         5230.0000:   Ground level
 EDF .F            0.0000:   Drilling floor
 EPD .F           10.0000:   Permanent datum
 TD  .F         2250.0000:   Total depth
 NRUN.             1.0000:   Number of Runs
#--RUN 1---   ------------   The following are for Run 1---
 RUN .             1.0000:   Run 1
 DATE.mm/dd/yyyy 12-17-1977:   Date Logged
 DD  .ft             5471:   Depth Driller
 DL  .ft             5471:   Depth Logger
 BLI .ft             5461:   Bottom Log Interval
 TLI .ft             3550:   Top Log Interval
 CSS .inch          8.625:   Casing Size
 CTD1.ft             3023:   Casing Driller 1
 CTL1.ft              n/a:   Casing Logger 1
 BS  .inch          7.875:   Bit Size
 DFT .                kcl:   Type Fluid In Hole
 DFD .lb/gal          9.5:   Mud Weight
 DFV .sec              38:   Viscosity
 DFPH.               11.0:   pH
 DFL .cc              8.4:   Fluid Loss
 WSS .            mud pit:   Source Of Sample
 RM  .ohmm           .385:   Rm
 EMT .F                78:   Rm Meas. Temp.
 RMF .ohmm            .22:   Rmf
 MFT .F                70:   Rmf Meas. Temp.
 RMC .ohmm             .8:   Rmc
 MCST.F                70:   Rmc Meas. Temp.
 MFSS.               meas:   Source Rmf.
 MCSS.               meas:   Source Rmc.
 RMB .ohmm            .16:   Rm. At BHT
 BHT .F               176:   BHT.
 TCS .hh:mm        10 hrs:   Time Circ. Stopped
 MRT .F               176:   Maximum Recorded Temp.
 LUN .               6134:   Logging Unit Number
 LUL .           Gillette:   Logging Unit Location
 ENGI.              Hoyer:   Recorded By
 WITN.      Mr. Harington:   Witnessed By
 DGBY.              Burke:   Digitized By
~A  DEPTH       GR        LLS        LLD
# ...
 4539.2160   117.8693    17.8498    15.7195
 4539.7160   115.3953    17.0043    14.9602
 4540.2160   115.4019    16.7662    14.8583
 4540.7160   113.8466    16.6507    14.9684
 4541.2160   116.6554    16.7743    14.7610
 4541.7160   112.8799    16.7779    14.8715
 4542.2160   105.0922    17.4043    15.7465
 4542.7160    93.0139    19.3583    17.3999
 4543.2160    82.4508    24.1588    23.7489
 4543.7160    79.4807    31.8981    31.8686
 4544.2160    80.9757    34.2648    33.5045
 4544.7160    84.9512    31.6857    33.0404
 4545.2160    90.7047    29.3022    28.8720
 4545.7160    89.4312    28.0601    27.2807
 4546.2160    79.2673    28.2899    27.8786
 4546.7160    69.1033    31.7146    30.8532
 4547.2160    65.3890    37.6998    36.3833
 4547.7160    63.6591    44.6838    44.7050
 4548.2160    64.1619    50.4421    53.3148
 4548.7160    65.4299    51.5436    56.4518
 4549.2160    70.3783    48.0074    56.0057
 4549.7160    70.8810    46.0072    52.6087
 4550.2160    72.6240    45.3656    50.7847
 4550.7160    74.8632    45.3753    49.3738
 4551.2160    78.5907    45.7387    48.6865
 4551.7160    82.8143    48.4054    49.7535
 4552.2160    87.2860    50.1726    51.2035
 4552.7160    93.7497    49.1216    50.4974
 4553.2160   112.6032    43.2366    44.7588
 4553.7160   118.8114    33.9085    38.3854
 4554.2160   121.5450    25.5111    30.8452
 4554.7160   113.1191    23.7609    22.9556
 4555.2160   109.9009    22.7709    20.9340
 4555.7160   111.6440    22.6140    20.3525
 4556.2160   108.3582    21.6730    19.9296
 4556.7160   104.9611    20.7700    18.6990
 4557.2160   100.2545    20.7744    18.7042
 4557.7160    85.8735    22.6347    20.5809
 4558.2160    82.9017    26.6732    26.7834
 4558.7160    80.6774    31.6614    32.9858
 4559.2160    75.9708    36.2450    39.0423
 4559.7160    75.2333    42.4245    41.2497
 4560.2160    77.2260    41.2407    40.1037
 4560.7160    74.5039    38.6861    37.3607
 4561.2160    69.5493    37.6046    36.3203
 4561.7160    64.8427    37.0821    35.3137
 4562.2160    63.3609    36.5651    35.0730
 4562.7160    62.8386    36.8366    35.5877
 4563.2160    65.6078    36.5828    35.3428
 4563.7160    67.3499    36.5907    35.1019
 4564.2160    66.6137    36.5985    35.1139
 4564.7160    66.3706    36.6064    35.6268
 4565.2160    67.1231    36.8762    36.1471
 4565.7160    68.3683    37.4418    36.4433
 4566.2160    68.8727    38.5063    37.2131
 4566.7160    70.8638    39.6286    38.5709
 4567.2160    68.8859    41.0754    40.2635
 4567.7160    68.3980    42.5750    41.4367
 4568.2160    67.1626    43.1957    42.6442
 4568.7160    68.9073    43.5141    43.2689
 4569.2160    71.1465    43.8351    43.5882
 4569.7160    75.1221    43.8465    43.6027
 4570.2160    78.3535    43.5444    42.6910
 4570.7160    83.7426    42.0287    41.2136
 4571.2160    93.0890    38.0448    38.4082
 4571.7160   102.4369    33.4704    33.9513
 4572.2160   109.3893    30.1837    29.4944
 4572.7160   113.1168    26.8199    23.1928
 4573.2160   110.1466    23.9577    21.0005
 4573.7160    99.2385    24.4809    20.8560
 4574.2160    86.8318    26.8638    25.6422
 4574.7160    83.8718    30.2073    31.3011
 4575.2160    82.6398    34.9888    34.8346
 4575.7160    83.8867    36.5256    35.3436
 4576.2160    83.8933    37.8592    35.6078
 4576.7160    82.4115    39.5221    37.4357
 4577.2160    82.6662    41.2581    39.3575
 4577.7160    82.9208    41.5623    41.3778
 4578.2160    82.8763    42.1703    42.5836
 4578.7160    80.2053    42.4789    43.8264
 4579.2160    82.1981    42.1862    44.4645
 4579.7160    84.6853    42.1975    43.2321
 4580.2160    89.1570    41.9068    42.3282
 4580.7160    94.8690    39.8754    41.1551
 4581.2160    96.3640    36.4971    38.0685
 4581.7160    99.6539    32.7252    34.2257
 4582.2160   104.5649    29.5830    29.5916
 4582.7160   108.7885    26.4407    25.2399
 4583.2160   113.0122    23.2985    20.8882
 4583.7160   115.4994    20.1562    16.5883
 4584.2160   117.7386    18.4937    15.6751
 4584.7160   113.7762    17.7222    15.3473
 4585.2160   109.9028    18.7673    16.0219
 4585.7160   105.0072    20.3658    19.3537
 4586.2160    95.9371    24.7945    24.6028
 4586.7160    93.9592    29.2184    29.8519
 4587.2160    90.9891    33.4636    34.8257
 4587.7160    86.5306    37.5147    37.4030
 4588.2160    84.5527    39.4427    39.0444
 4588.7160    85.0554    39.4512    39.6146
 4589.2160    87.8460    38.7729    39.0230
 4589.7160    97.9695    33.2634    36.3963
 4590.2160   102.4412    29.8965    32.2602
 4590.7160   104.4323    25.5624    28.1975
 4591.2160   107.9117    23.1394    23.9648
 4591.7160   109.1586    21.0958    19.7320
 4592.2160   106.4365    21.5651    18.4123
 4592.7160   100.9693    23.9958    22.1598
 4593.2160    97.7692    28.4794    25.9371
 4593.7160   101.0006    30.3730    27.6431
 4594.2160   103.7359    26.3428    25.9362
 4594.7160   101.0138    25.0659    22.1856
 4595.2160    92.8344    25.0713    22.3501
 4595.7160    78.9495    27.3799    25.2295
 4596.2160    74.4408    38.7472    33.6996
 4596.7160    67.2246    46.3162    44.6883
 4597.2160    66.3181    48.6966    47.5553
 4597.7160    66.5744    48.7070    48.5942
 4598.2160    66.3330    48.0278    49.3039
 4598.7160    67.0837    46.6856    47.9342
 4599.2160    68.8268    45.3348    46.6025
 4599.7160    70.5698    44.1185    45.6312
 4600.2160    72.5906    43.1943    44.0108
 4600.7160    74.0575    43.5150    43.4388
 4601.2160    76.5447    44.1493    44.0763
 4601.7160    76.0535    42.6125    43.4627
 4602.2160    77.0689    41.7025    41.6613
 4602.7160    77.9695    40.5579    40.2168
 4603.2160    78.8700    39.4262    38.8163
 4603.7160    79.7706    38.5982    37.4764
 4604.2160    83.2985    38.3322    36.6978
 4604.7160    84.5472    37.5312    36.4452
 4605.2160    85.3175    36.4840    35.6881
 4605.7160    88.3524    35.1873    34.8123
 4606.2160    92.5126    33.5089    33.1202
 4606.7160    94.2553    31.6582    31.7352
 4607.2160    89.8008    30.3391    29.5552
 4607.7160    90.3032    29.2831    28.3193
 4608.2160    89.8155    29.0811    27.7203
 4608.7160    93.0508    28.6758    27.5226
 4609.2160    93.0602    28.6822    27.7179
 4609.7160    90.3390    28.8949    27.9145
 4610.2160    90.8435    29.9498    28.7185
 4610.7160    89.3657    31.0432    30.1832
 4611.2160    88.1338    31.7211    30.3976
 4611.7160    84.6694    31.7279    30.1806
 4612.2160    84.9258    31.5117    29.7530
 4612.7160    84.4381    29.9889    28.2846
 4613.2160    79.9815    29.1540    27.7077
 4613.7160    78.5015    29.7909    28.7095
 4614.2160    79.5043    31.3223    30.3891
 4614.7160    80.2548    32.9324    31.9390
 4615.2160    80.5134    33.8926    32.8592
 4615.7160    83.4985    33.9354    31.4852
 4616.2160    88.4682    31.5748    28.0974
 4616.7160    89.2579    28.5630    26.5289
 4617.2160    90.9730    27.7848    25.9805
 4617.7160    91.2449    28.1917    26.5396
 4618.2160    91.9748    29.2213    27.8932
 4618.7160    89.5047    30.7234    29.1080
 4619.2160    87.2805    31.1716    29.9467
 4619.7160    87.5370    30.9554    29.3132
 4620.2160    88.5377    30.0936    28.0874
 4620.7160    87.0577    29.2542    27.6835
 4621.2160    80.8646    29.4718    27.7174
 4621.7160    78.8885    30.1156    30.5856
 4622.2160    74.1859    33.7617    33.3091
 4622.7160    67.9928    39.5034    35.5094
 4623.2160    65.2704    42.7354    40.3574
 4623.7160    67.0173    45.5773    44.5808
 4624.2160    67.7700    47.5798    48.2065
 4624.7160    67.5282    49.6811    49.9495
 4625.2160    67.5387    50.3948    51.7555
 4625.7160    68.3246    48.6438    50.3012
 4626.2160    71.2786    45.3070    43.6298
 4626.7160    80.4653    39.8599    40.0589
 4627.2160    80.2236    37.1256    34.7459
 4627.7160    83.7070    33.8473    33.2930
 4628.2160    88.6767    32.9029    31.9007
 4628.7160    91.4138    32.4446    31.6733
 4629.2160    93.1586    31.7386    29.2449
 4629.7160    95.7426    28.9619    27.4710
