~VERSION INFORMATION
 VERS.               2.10:   CWLS LOG ASCII STANDARD - VERSION 2.10
 WRAP.                 NO:   ONE LINE PER DEPTH STEP
~WELL INFORMATION
#MNEM.UNIT      DATA TYPE    INFORMATION
#----------   ------------   ------------------------------
 STRT.F         3538.2156:   START DEPTH
 STOP.F         5485.2939:   STOP DEPTH
 STEP.F            0.5000:   STEP LENGTH
 NULL.          -999.2500:   NO VALUE
 COMP. Fenix & Scisson,Inc.:   COMPANY
 WELL.        44-1 TPX 10:   WELL
 FLD .           N.P.R. 3:   FIELD
 LOC . 10-38N-78W-NATRONA-WY:   LOCATION
 STAT.                 WY:   STATE
 COUN.            Natrona:   COUNTY
 SRVC.      Dresser Atlas:   SERVICE COMPANY
 DATE.                   :   LOGDATE
 APIN.         4902510439:   API NUMBER
~CURVE INFORMATION
#MNEM.UNIT       API CODE    CURVE DESCRIPTION
#----------   ------------   ------------------------------
 DEPT.F                  :
 GR  .API    06 310 01 00:   Gamma Ray
 LLS .ohmm   11 220 06 00:   Dual Laterolog, shallow
 LLD .ohmm   11 220 04 00:   Dual Laterolog, Deep
~PARAMETER INFORMATION
#MNEM.UNIT          VALUE    DESCRIPTION
#----------   ------------   ------------------------------
 EKB .F         5240.0000:   Kelly bushing
 EGL .F         5230.0000:   Ground level
 EDF .F            0.0000:   Drilling floor
 EPD .F           10.0000:   Permanent datum
 TD  .F         2250.0000:   Total depth
 NRUN.             1.0000:   Number of Runs
#--RUN 1---   ------------   The following are for Run 1---
 RUN .             1.0000:   Run 1
 DATE.mm/dd/yyyy 12-17-1977:   Date Logged
 DD  .ft             5471:   Depth Driller
 DL  .ft             5471:   Depth Logger
 BLI .ft             5461:   Bottom Log Interval
 TLI .ft             3550:   Top Log Interval
 CSS .inch          8.625:   Casing Size
 CTD1.ft             3023:   Casing Driller 1
 CTL1.ft              n/a:   Casing Logger 1
 BS  .inch          7.875:   Bit Size
 DFT .                kcl:   Type Fluid In Hole
 DFD .lb/gal          9.5:   Mud Weight
 DFV .sec              38:   Viscosity
 DFPH.               11.0:   pH
 DFL .cc              8.4:   Fluid Loss
 WSS .            mud pit:   Source Of Sample
 RM  .ohmm           .385:   Rm
 EMT .F                78:   Rm Meas. Temp.
 RMF .ohmm            .22:   Rmf
 MFT .F                70:   Rmf Meas. Temp.
 RMC .ohmm             .8:   Rmc
 MCST.F                70:   Rmc Meas. Temp.
 MFSS.               meas:   Source Rmf.
 MCSS.               meas:   Source Rmc.
 RMB .ohmm            .16:   Rm. At BHT
 BHT .F               176:   BHT.
 TCS .hh:mm        10 hrs:   Time Circ. Stopped
 MRT .F               176:   Maximum Recorded Temp.
 LUN .               6134:   Logging Unit Number
 LUL .           Gillette:   Logging Unit Location
 ENGI.              Hoyer:   Recorded By
 WITN.      Mr. Harington:   Witnessed By
 DGBY.              Burke:   Digitized By
~A  DEPTH       GR        LLS        LLD
# ...
 3993.2160    90.7255    11.7010    10.0891
 3993.7160    97.1576     9.7553     8.4022
 3994.2160    97.9211     7.8680     7.1035
 3994.7160   101.4709     7.3303     7.0012
 3995.2160   103.6762     7.2800     7.0492
 3995.7160   106.4272     8.0433     7.4070
 3996.2160   108.6814     8.5153     7.8945
 3996.7160   112.9231     8.7626     8.0707
 3997.2160   116.6680     8.5798     7.3669
 3997.7160   121.1581     7.0343     6.5102
 3998.2160   122.6669     6.0183     5.6536
 3998.7160   120.6975     5.1818     4.7969
 3999.2160   119.7218     4.9356     4.1551
 3999.7160   119.2476     4.9718     4.1540
 4000.2160   116.0359     4.9380     4.3339
 4000.7160   113.3211     5.0114     4.5216
 4001.2160   111.3472     5.1216     4.5851
 4001.7160   110.8729     5.1971     4.5835
 4002.2160   104.6799     5.2365     4.6482
 4002.7160   103.2073     5.3137     4.7810
 4003.2160    99.0004     5.3539     4.9173
 4003.7160    94.6114     5.5894     5.2038
 4004.2160    91.3408     5.8387     5.6659
 4004.7160    87.1353     6.1493     5.9112
 4005.2160    86.4081     6.2266     6.1760
 4005.7160    83.4448     6.4088     6.9082
 4006.2160    80.7301     7.1323     8.1337
 4006.7160    79.7499     7.9940     8.9828
 4007.2160    80.2694     9.2837     9.3724
 4007.7160    83.0205     9.6234     8.5418
 4008.2160    84.8047     8.7166     7.6753
 4008.7160    86.7880     7.4303     6.9420
 4009.2160    86.5531     6.5212     6.4077
 4009.7160    86.5758     6.3407     6.0004
 4010.2160    86.8424     6.2540     6.1432
 4010.7160    86.8605     6.5764     6.5301
 4011.2160    85.6364     6.8656     6.7643
 4011.7160    87.8905     7.0166     6.8108
 4012.2160    90.8900     6.8717     6.7119
 4012.7160    94.4662     6.5377     5.9879
 4013.2160    93.1669     6.1329     5.4962
 4013.7160    83.7440     6.0983     5.4944
 4014.2160    79.4481     6.2774     5.8371
 4014.7160    74.0009     6.7424     6.9427
 4015.2160    68.5537     7.5570     9.5582
 4015.7160    63.6893     9.1462    12.4313
 4016.2160    66.6933    11.0494    15.6032
 4016.7160    67.4568    12.9526    16.1640
 4017.2160    68.2202    15.2921    15.5928
 4017.7160    67.9894    14.4539    14.5175
 4018.2160    68.5050    13.8571    14.1055
 4018.7160    68.2491    13.7636    13.9006
 4019.2160    68.0443    13.2907    12.9419
 4019.7160    71.7937    12.3851    12.2221
 4020.2160    73.3025    11.7897    11.9600
 4020.7160    70.5741    12.2225    12.2139
 4021.2160    70.3324    12.8511    13.6814
 4021.7160    71.3375    13.2272    14.0716
 4022.2160    80.2906    13.0450    13.6452
 4022.7160    84.5233    11.9900    11.7376
 4023.2160    87.7622    10.4860    10.4267
 4023.7160    87.2742     8.9819     9.1157
 4024.2160    89.7680     7.2496     7.8047
 4024.7160    90.5245     6.9010     6.5604
 4025.2160    93.0180     6.7586     6.3748
 4025.7160    92.0310     6.7129     6.4177
 4026.2160    92.0423     6.7166     6.3249
 4026.7160    89.8153     6.7196     6.3289
 4027.2160    88.8283     6.7741     6.5489
 4027.7160    88.0943     6.9694     6.7362
 4028.2160    83.3828     7.2759     6.9277
 4028.7160    84.1372     8.3306     7.6505
 4029.2160    82.9040     9.2710     8.7545
 4029.7160    81.4246     9.9577     9.6679
 4030.2160    78.4500    10.3221    10.1580
 4030.7160    77.4676    10.1811    10.2271
 4031.2160    80.4580     9.9003     9.8665
 4031.7160    82.7030    10.0465    10.0045
 4032.2160    86.6923     9.7012     9.7198
 4032.7160    95.6732     8.9061     8.5564
 4033.2160   103.1051     7.7551     7.2884
 4033.7160   105.3502     6.6041     6.0204
 4034.2160   105.1085     5.4531     4.7327
 4034.7160   105.3660     4.6127     4.1857
 4035.2160   103.6359     4.2378     3.9307
 4035.7160   100.9143     4.3948     3.7922
 4036.2160    97.1966     4.5272     3.9844
 4036.7160    95.2181     4.5557     4.1567
 4037.2160    95.4778     4.4934     4.1853
 4037.7160    97.2260     4.5279     4.2435
 4038.2160    95.4959     4.5622     4.3029
 4038.7160    96.0019     4.6295     4.2402
 4039.2160    97.2531     4.7650     4.2092
 4039.7160    97.0115     4.8697     4.4223
 4040.2160    96.7742     4.8757     4.5808
 4040.7160    97.1122     4.9093     4.6780
 4041.2160    99.7738     4.8422     4.6765
 4041.7160    98.0460     4.5122     4.3540
 4042.2160    98.3035     4.3873     4.1707
 4042.7160   100.3001     4.3897     4.1104
 4043.2160    97.3278     4.6484     4.3898
 4043.7160    94.1070     4.7844     4.6356
 4044.2160    93.6191     4.7176     4.5682
 4044.7160    95.6319     4.6493     4.3759
 4045.2160    97.7266     4.5909     4.3127
 4045.7160    99.1144     4.5934     4.2807
 4046.2160    93.9060     4.6612     4.4027
 4046.7160    91.9252     4.8662     4.6922
 4047.2160    91.6858     4.9025     4.6225
 4047.7160    88.7158     4.7006     4.4294
 4048.2160    86.2400     4.6694     4.3969
 4048.7160    86.4978     5.0219     4.7190
 4049.2160    86.2292     5.7022     5.1377
 4049.7160    85.5244     6.5753     5.7550
 4050.2160    89.0117     6.9126     6.7756
 4050.7160    92.4990     6.4882     6.5833
 4051.2160    94.7440     6.1128     6.1279
 4051.7160    96.2438     5.7289     5.6499
 4052.2160    96.2914     5.3449     5.1270
 4052.7160    93.2805     4.9610     4.8418
 4053.2160    93.5593     4.5593     4.4443
 4053.7160    96.5307     4.5290     4.1378
 4054.2160    99.5211     4.5633     4.0494
 4054.7160   101.7661     4.4642     4.2847
 4055.2160   101.5245     4.5034     4.3757
 4055.7160   102.5296     4.3482     4.3344
 4056.2160   104.5262     4.1687     4.0147
 4056.7160   107.5166     4.0537     3.8184
 4057.2160   109.0163     4.0263     3.6838
 4057.7160   107.7406     4.0573     3.6565
 4058.2160   106.5522     4.1760     3.7607
 4058.7160   105.8159     4.2678     3.9514
 4059.2160   104.5827     4.2702     4.0930
 4059.7160   100.8650     4.2413     4.0339
 4060.2160    97.9005     4.2437     4.0903
 4060.7160    98.9153     4.1852     4.1475
 4061.2160    98.6826     4.1285     4.1164
 4061.7160    98.7089     4.0432     3.9713
 4062.2160    98.9784     3.9879     3.7504
 4062.7160    96.2665     3.9334     3.6181
 4063.2160    94.8021     3.9673     3.6143
 4063.7160    91.5934     4.1087     3.7475
 4064.2160    90.1185     4.3200     3.9163
 4064.7160    86.9097     4.3833     4.1065
 4065.2160    87.9298     4.3542     4.1347
 4065.7160    87.9508     4.3252     4.1037
 4066.2160    92.4683     4.3276     4.0444
 4066.7160    96.4454     4.3295     3.9577
 4067.2160    97.7034     4.3934     4.0131
 4067.7160    96.7359     4.3027     4.1866
 4068.2160    95.2662     4.2741     4.2151
 4068.7160    95.0388     4.3376     4.2134
 4069.2160    97.0474     4.3705     4.2420
 4069.7160    94.3356     4.4349     4.4255
 4070.2160    92.0925     4.5324     4.9221
 4070.7160    90.6562     4.6320     5.5134
 4071.2160    92.1679     4.9757     5.0607
 4071.7160    94.4197     5.2404     5.0951
 4072.2160    91.4646     5.4611     5.3155
 4072.7160    88.7475     5.3483     5.3136
 4073.2160    90.0366     5.5842     5.3494
 4073.7160    88.7948     5.7070     5.4242
 4074.2160    90.8087     5.6684     5.5394
 4074.7160    87.8484     5.7527     5.6973
 4075.2160    85.6334     5.9632     6.1153
 4075.7160    83.4184     6.1841     6.6579
 4076.2160    82.6941     6.3625     6.8477
 4076.7160    84.2058     6.1120     6.6315
 4077.2160    86.9598     5.7350     5.9736
 4077.7160    92.2279     5.3581     5.3157
 4078.2160    92.7214     5.0786     5.0364
 4078.7160    87.2766     5.0086     4.9991
 4079.2160    88.0430     5.0831     5.1103
 4079.7160    90.0516     5.2691     5.4404
 4080.2160    90.5713     5.5927     5.7981
 4080.7160    92.5799     5.8671     6.1355
 4081.2160    95.5823     5.8697     6.2218
 4081.7160    97.0940     5.5480     6.0019
 4082.2160   100.5933     4.3598     4.5466
 4082.7160   102.3535     3.9771     3.5184
 4083.2160   100.1438     3.8670     3.3936
 4083.7160    98.4257     4.0376     3.4004
