~VERSION INFORMATION
 VERS.               1.20:   CWLS LOG ASCII STANDARD - VERSION 1.20
 WRAP.                 NO:   ONE LINE PER DEPTH STEP
~WELL INFORMATION
#MNEM.UNIT      DATA TYPE    INFORMATION
#----------   ------------   ------------------------------
 STRT.F         3541.0000:   START DEPTH
 STOP.F         5482.5000:   STOP DEPTH
 STEP.F            0.5000:   STEP LENGTH
 NULL.          -999.2500:   NO VALUE
 COMP.            COMPANY:   Fenix & Scisson, Inc.
 WELL.               WELL:   44-1 TPX 10
 FLD .              FIELD:   N.P.R. 3
 LOC .           LOCATION:   10-38N-78W-NATRONA-WY
 STAT.              STATE:   WY
 COUN.             COUNTY:   Natrona
 SRVC.    SERVICE COMPANY:   Dresser Atlas
 DATE.            LOGDATE:   12/17/1977
~CURVE INFORMATION
#MNEM.UNIT       API CODE    CURVE DESCRIPTION
#----------   ------------   ------------------------------
 DEPT.F                  :
 DPHI.none   42 890 12 00:   Den. Porosity, Ss [%]
 CALI.inches 42 280 00 00:   Caliper
 GR  .GAPI   42 310 00 00:   Gamma Ray
~PARAMETER INFORMATION
#MNEM.UNIT          VALUE    DESCRIPTION
#----------   ------------   ------------------------------
 EKB .F         5240.0000:   Kelly bushing
 EGL .F         5230.0000:   Ground level
 EDF .F            0.0000:   Drilling floor
 EPD .F           10.0000:   Permanent datum
 TD  .F         1932.0000:   Total depth
 DATE.mm/dd/yyyy 12/17/1977:   Date Logged
 DD  .ft             5471:   Depth Driller
 DL  .ft             5471:   Depth Logger
 BLI .ft             5469:   Bottom Log Interval
 TLI .ft             3550:   Top Log Interval
 CSS .inch          8.625:   Casing Size
 CTD1.ft             3023:   Casing Driller 1
 BS  .inch          7.875:   Bit Size
 DFT .                KCL:   Type Fluid In Hole
 DFD .lb/gal          9.5:   Mud Weight
 DFV .sec              38:   Viscosity
 DFPH.               11.0:   pH
 DFL .cc              8.4:   Fluid Loss
 WSS .            Mud Pit:   Source Of Sample
 RM  .ohmm           .385:   Rm
 EMT .F                78:   Rm Meas. Temp.
 RMF .ohmm            .22:   Rmf
 MFT .F                70:   Rmf Meas. Temp.
 RMC .ohmm             .8:   Rmc
 MCST.F                70:   Rmc Meas. Temp.
 MFSS.               meas:   Source Rmf.
 MCSS.               meas:   Source Rmc.
 RMB .ohmm            .16:   Rm. At BHT
 BHT .F               176:   BHT.
 TCS .hh:mm        19 hrs:   Time Circ. Stopped
 MRT .F               176:   Maximum Recorded Temp.
 LUN .               6134:   Logging Unit Number
 LUL .           Gillette:   Logging Unit Location
 ENGI.              Hoyer:   Recorded By
 WITN.     Mr. Harrington:   Witnessed By
 DGBY.              Burke:   Digitized By
~A  DEPTH     DPHI       CALI         GR
# ...
 4269.0000     4.3514     9.9994   258.9987
 4269.5000     4.0541    10.0005   254.7867
 4270.0000     4.5615     9.9859   253.5644
 4270.5000     4.7001     9.9715   248.6067
 4271.0000     3.6348     9.9534   248.1244
 4271.5000     1.8866     9.8338   245.9069
 4272.0000     0.8387     9.8323   244.2799
 4272.5000    -0.0061     9.8359   240.2190
 4273.0000    -1.3067     9.7555   238.4954
 4273.5000    -1.0659     9.6981   233.5369
 4274.0000    -0.4050     9.6372   229.0682
 4274.5000    -0.0138     9.6009   224.2271
 4275.0000     0.1185     9.6080   222.3984
 4275.5000     0.4154     9.5314   225.4026
 4276.0000     1.9590     9.5012   228.9044
 4276.5000     1.8026     9.5181   227.1808
 4277.0000     0.7810     9.5036   226.9501
 4277.5000     0.1607     9.5840   225.2264
 4278.0000     0.5076     9.5655   224.9953
 4278.5000     1.1916     9.6470   225.7645
 4279.0000     2.6147     9.5856   227.7698
 4279.5000     4.3395     9.6800   228.2897
 4280.0000     6.0644     9.5102   228.3048
 4280.5000     7.7893     9.5579   228.5749
 4281.0000     9.1121     9.5900   231.8279
 4281.5000     9.1105     9.5911   234.3328
 4282.0000     6.8281     9.6078   235.3479
 4282.5000     4.5456     9.5933   234.6226
 4283.0000     3.8809     9.6451   234.1400
 4283.5000     4.0337     9.6890   234.2644
 4284.0000     3.6443     9.7054   235.1747
 4284.5000     4.1891     9.6600   236.5774
 4285.0000     3.3275     9.6610   237.9437
 4285.5000     2.7582     9.6932   235.4425
 4286.0000     3.2515     9.6942   241.4683
 4286.5000     2.7389     9.6642   246.7123
 4287.0000     2.7837     9.6653   245.4905
 4287.5000     4.5958     9.6664   240.3970
 4288.0000     6.3041     9.6830   234.0363
 4288.5000     6.7934     9.6997   231.3593
 4289.0000     7.4142     9.7163   231.6976
 4289.5000     7.4070     9.7174   235.3807
 4290.0000     7.0074     9.7030   238.3849
 4290.5000     6.9442     9.6885   244.1262
 4291.0000     7.7154     9.6740   241.9003
 4291.5000     8.0106     9.6129   245.1579
 4292.0000     7.8481     9.5984   245.9222
 4292.5000     7.0911     9.5995   245.4031
 4293.0000     6.2217     9.5851   243.9682
 4293.5000     6.9474     9.5862   245.4839
 4294.0000     8.7350     9.5872   247.2411
 4294.5000    10.2070     9.6039   247.7552
 4295.0000    10.2433     9.6050   244.2943
 4295.5000    10.5324     9.6061   241.3264
 4296.0000    11.5292     9.6072   242.5888
 4296.5000    12.5475     9.6082   243.8511
 4297.0000    12.5148     9.5940   241.8737
 4297.5000     9.8738     9.5636   238.4131
 4298.0000     7.9979     9.5336   241.4218
 4298.5000     5.1833     9.5193   242.6022
 4299.0000     4.5089     9.5048   241.9558
 4299.5000     3.8963     9.5059   241.7252
 4300.0000     4.0028     9.5070   240.2899
 4300.5000     5.0902     9.5312   237.7605
 4301.0000     6.0881     9.5311   238.2582
 4301.5000     6.4085     9.5154   240.9953
 4302.0000     7.8902     9.4841   233.7792
 4302.5000     9.4907     9.4531   226.8118
 4303.0000    11.0732     9.4214   225.8165
 4303.5000    10.5887     9.5344   226.5630
 4304.0000    11.0501     9.6244   228.0560
 4304.5000     9.8431     9.9439   227.3095
 4305.0000    11.1671    10.7805   228.2039
 4305.5000    14.1163    10.7648   228.8025
 4306.0000    17.1574    10.5037   225.3188
 4306.5000    17.3722    10.2483   221.7145
 4307.0000    15.1956     9.7020   220.3421
 4307.5000    13.6305     9.7020   219.2348
 4308.0000    10.6943     9.7019   217.3561
 4308.5000     9.5186     9.7018   215.1166
 4309.0000     9.2696     9.7017   212.6283
 4309.5000     9.2986     9.7016   213.1260
 4310.0000     9.8213     9.7016   213.3748
 4310.5000     9.9123     9.7015   212.6283
 4311.0000    10.3003     9.7014   211.8818
 4311.5000    10.8659     9.7170   213.5207
 4312.0000    10.1017     9.7169   215.6143
 4312.5000     9.3742     9.7168   214.3701
 4313.0000     9.7173     9.7167   216.6096
 4313.5000    10.1686     9.7323   219.3468
 4314.0000    11.6900     9.7791   221.0887
 4314.5000    11.1181     9.7946   223.2452
 4315.0000    14.6203     9.7945   225.8165
 4315.5000    15.0817     9.7788   227.0607
 4316.0000    18.0288     9.7787   224.5723
 4316.5000    21.1626     9.7943   225.8255
 4317.0000    23.7863     9.7786   230.7932
 4317.5000    24.0624     9.7785   229.7798
 4318.0000    14.7842     9.7784   227.7372
 4318.5000     6.6992     9.7784   229.0513
 4319.0000     6.5429     9.7783   233.9190
 4319.5000     5.1932     9.7782   244.4790
 4320.0000     3.9094     9.7781   246.2208
 4320.5000     4.6525     9.7780   245.2255
 4321.0000     5.0526     9.7780   248.2115
 4321.5000     4.3349     9.7779   250.2022
 4322.0000     3.7904     9.7622   256.9507
 4322.5000     2.8557     9.7136   257.1695
 4323.0000     1.0599     9.6214   252.4417
 4323.5000     1.3620     9.5531   250.4510
 4324.0000     2.2194     9.5275   251.1975
 4324.5000     3.2468     9.5274   253.6859
 4325.0000     3.7886     9.5430   252.1928
 4325.5000     4.4114     9.5429   252.4083
 4326.0000     5.4160     9.5272   251.9440
 4326.5000     6.4206     9.5427   251.4464
 4327.0000     7.4380     9.5427   251.1975
 4327.5000     7.4979     9.5426   250.6998
 4328.0000     6.8422     9.5581   244.4790
 4328.5000     5.1653     9.5580   240.9953
 4329.0000     3.4150     9.5736   243.7355
 4329.5000     3.7833     9.5735   246.6595
 4330.0000     3.4725     9.5734   251.9440
 4330.5000     2.6915     9.5734   250.6998
 4331.0000     1.7593     9.5733   245.7232
 4331.5000     2.3377     9.5888   242.9860
 4332.0000     3.8971     9.6044   239.1089
 4332.5000     3.8429     9.6043   235.0703
 4333.0000     3.5917     9.6198   235.0043
 4333.5000     4.1689     9.6354   236.7752
 4334.0000     4.2777     9.6509   238.9162
 4334.5000     3.8690     9.4946   242.2395
 4335.0000     2.8516     9.4583   252.2702
 4335.5000     1.8342     9.4320   260.1555
 4336.0000     0.9397     9.4475   257.2906
 4336.5000     0.7535     9.4474   251.1975
 4337.0000     1.5903     9.4473   247.9627
 4337.5000     2.4272     9.4473   250.4510
 4338.0000     3.2129     9.4472   251.5019
 4338.5000     3.3468     9.4471   252.9393
 4339.0000     2.7267     9.4470   254.4323
 4339.5000     2.8588     9.4470   252.1928
 4340.0000     3.7466     9.4469   246.2208
 4340.5000     4.0801     9.4468   242.4883
 4341.0000     3.1202     9.4467   238.1150
 4341.5000     3.6427     9.4466   234.5257
 4342.0000     4.2012     9.4466   235.2722
 4342.5000     4.0102     9.4465   234.9963
 4343.0000     5.2434     9.4464   234.2768
 4343.5000     5.3038     9.4463   233.1136
 4344.0000     4.9313     9.4462   232.5350
 4344.5000     4.4655     9.4462   231.3988
 4345.0000     4.5872     9.4461   230.2955
 4345.5000     4.5853     9.4304   229.0513
 4346.0000     4.6619     9.4303   234.2768
 4346.5000     5.3229     9.4302   234.2698
 4347.0000     5.2282     9.4145   233.7792
 4347.5000     4.7008     9.3988   235.7698
 4348.0000     3.8340     9.3987   235.2722
 4348.5000     3.2002     9.3830   235.0233
 4349.0000     2.3785     9.3830   231.0900
 4349.5000     3.8285     9.3829   228.8025
 4350.0000     5.2377     9.3828   226.3141
 4350.5000     6.6469     9.3671   221.8351
 4351.0000     7.5596     9.3983   222.1000
 4351.5000     7.4959     9.3982   222.8305
 4352.0000     8.1736     9.3825   219.9474
 4352.5000     9.2527     9.3824   217.1073
 4353.0000     8.7871     9.3823   216.1120
 4353.5000     8.9705     9.3979   217.6050
 4354.0000     9.8271     9.3822   219.3468
 4354.5000    11.0980     9.2883   220.5910
 4355.0000    11.8992     8.9758   222.3328
 4355.5000    10.0416     8.8819   228.6881
 4356.0000     6.8296     8.8975   235.5210
 4356.5000     7.2910     8.8531   229.3225
 4357.0000    11.4071     8.8036   216.2654
 4357.5000    15.5271     8.7098   203.2083
 4358.0000    19.8564     8.6784   198.9485
 4358.5000    21.4626     8.6627   202.2393
 4359.0000    22.2956     8.6939   203.7293
 4359.5000    23.1554     8.6782   203.4215
