~VERSION INFORMATION
 VERS.               2.10:   CWLS LOG ASCII STANDARD - VERSION 2.10
 WRAP.                 NO:   ONE LINE PER DEPTH STEP
~WELL INFORMATION
#MNEM.UNIT      DATA TYPE    INFORMATION
#----------   ------------   ------------------------------
 STRT.F         3538.2156:   START DEPTH
 STOP.F         5485.2939:   STOP DEPTH
 STEP.F            0.5000:   STEP LENGTH
 NULL.          -999.2500:   NO VALUE
 COMP. Fenix & Scisson,Inc.:   COMPANY
 WELL.        44-1 TPX 10:   WELL
 FLD .           N.P.R. 3:   FIELD
 LOC . 10-38N-78W-NATRONA-WY:   LOCATION
 STAT.                 WY:   STATE
 COUN.            Natrona:   COUNTY
 SRVC.      Dresser Atlas:   SERVICE COMPANY
 DATE.                   :   LOGDATE
 APIN.         4902510439:   API NUMBER
~CURVE INFORMATION
#MNEM.UNIT       API CODE    CURVE DESCRIPTION
#----------   ------------   ------------------------------
 DEPT.F                  :
 GR  .API    06 310 01 00:   Gamma Ray
 LLS .ohmm   11 220 06 00:   Dual Laterolog, shallow
 LLD .ohmm   11 220 04 00:   Dual Laterolog, Deep
~PARAMETER INFORMATION
#MNEM.UNIT          VALUE    DESCRIPTION
#----------   ------------   ------------------------------
 EKB .F         5240.0000:   Kelly bushing
 EGL .F         5230.0000:   Ground level
 EDF .F            0.0000:   Drilling floor
 EPD .F           10.0000:   Permanent datum
 TD  .F         2250.0000:   Total depth
 NRUN.             1.0000:   Number of Runs
#--RUN 1---   ------------   The following are for Run 1---
 RUN .             1.0000:   Run 1
 DATE.mm/dd/yyyy 12-17-1977:   Date Logged
 DD  .ft             5471:   Depth Driller
 DL  .ft             5471:   Depth Logger
 BLI .ft             5461:   Bottom Log Interval
 TLI .ft             3550:   Top Log Interval
 CSS .inch          8.625:   Casing Size
 CTD1.ft             3023:   Casing Driller 1
 CTL1.ft              n/a:   Casing Logger 1
 BS  .inch          7.875:   Bit Size
 DFT .                kcl:   Type Fluid In Hole
 DFD .lb/gal          9.5:   Mud Weight
 DFV .sec              38:   Viscosity
 DFPH.               11.0:   pH
 DFL .cc              8.4:   Fluid Loss
 WSS .            mud pit:   Source Of Sample
 RM  .ohmm           .385:   Rm
 EMT .F                78:   Rm Meas. Temp.
 RMF .ohmm            .22:   Rmf
 MFT .F                70:   Rmf Meas. Temp.
 RMC .ohmm             .8:   Rmc
 MCST.F                70:   Rmc Meas. Temp.
 MFSS.               meas:   Source Rmf.
 MCSS.               meas:   Source Rmc.
 RMB .ohmm            .16:   Rm. At BHT
 BHT .F               176:   BHT.
 TCS .hh:mm        10 hrs:   Time Circ. Stopped
 MRT .F               176:   Maximum Recorded Temp.
 LUN .               6134:   Logging Unit Number
 LUL .           Gillette:   Logging Unit Location
 ENGI.              Hoyer:   Recorded By
 WITN.      Mr. Harington:   Witnessed By
 DGBY.              Burke:   Digitized By
~A  DEPTH       GR        LLS        LLD
# ...
 5085.2160    75.9841    29.7787    33.7973
 5085.7160    73.2675    31.2888    35.2680
 5086.2160    70.3003    34.0685    38.9574
 5086.7160    70.0423    35.2933    40.9427
 5087.2160    69.0793    35.7808    42.1210
 5087.7160    71.8200    34.2633    39.2261
 5088.2160    73.3180    30.7736    34.4690
 5088.7160    72.8315    24.8396    28.7852
 5089.2160    65.1511    23.4525    23.9898
 5089.7160    57.0209    22.3013    22.0161
 5090.2160    42.8448    22.1333    23.8329
 5090.7160    31.0330    26.2520    41.9421
 5091.2160    16.6517    42.3063    70.8912
 5091.7160    12.1164    63.5044   104.6026
 5092.2160    13.3663  1146.7025   523.9139
 5092.7160    14.1201  1037.3361  1077.9570
 5093.2160    15.6181  1014.3349  1040.2152
 5093.7160    19.3486   881.8262   799.4720
 5094.2160    21.5908   751.6066   889.4199
 5094.7160    26.6702   602.6865   658.4021
 5095.2160    34.2636   422.7628   441.0067
 5095.7160    37.0019   242.8390   223.6114
 5096.2160    37.5077    38.9399    22.6534
 5096.7160    28.3390    34.7273    19.9297
 5097.2160    30.3331    37.5439    20.5032
 5097.7160    44.2342    50.9572    26.2964
 5098.2160    52.0368    90.9142    78.4986
 5098.7160    59.6511   101.7289   101.5019
 5099.2160    67.2654    74.2214    65.9986
 5099.7160    74.2882    50.8951    30.3062
 5100.2160    73.8017    39.6401    28.4041
 5100.7160    75.7958    38.2355    25.0067
 5101.2160    74.7243    37.6779    23.6218
 5101.7160    73.0986    37.6617    23.9583
 5102.2160    64.6765    37.6454    24.6477
 5102.7160    57.0556    38.2564    25.7203
 5103.2160    41.4212    45.9173    35.6719
 5103.7160    25.5200   156.9516    46.4064
 5104.2160    20.3228   464.3704   259.2813
 5104.7160    18.3473   744.2446   541.0414
 5105.2160    19.6027   687.7795   748.5042
 5105.7160    22.0955   536.0443   563.5319
 5106.2160    31.1585   353.1220   367.3279
 5106.7160    41.8655   170.1997   196.3793
 5107.2160    52.5724    27.1334    91.8356
 5107.7160    64.0683    16.9642    20.0361
 5108.2160    62.3409    14.9140    13.3573
 5108.7160    65.5808    14.5914    12.0904
 5109.2160    67.5774    14.6904    12.1757
 5109.7160    64.4312    15.1062    12.4485
 5110.2160    59.6666    15.6468    13.3528
 5110.7160    51.9887    18.1648    14.0333
 5111.2160    47.2877    22.2428    15.5013
 5111.7160    30.4315    71.2787    27.9159
 5112.2160    31.4359   133.0881    94.9125
 5112.7160    38.3937   176.2064   161.9091
 5113.2160    43.3670   123.8584   148.5027
 5113.7160    51.8132    64.1719   104.7698
 5114.2160    48.9800    12.5837    61.0369
 5114.7160    40.1815     6.8131    17.3041
 5115.2160    42.1780     6.3412     6.7332
 5115.7160    45.1669     6.3584     6.7881
 5116.2160    49.1479    12.5578     8.6444
 5116.7160    47.9197    13.2900    10.0363
 5117.2160    48.6760    13.5690    10.2517
 5117.7160    45.2152    14.5646    11.9871
 5118.2160    44.4829    16.7883    13.3356
 5118.7160    46.5224    13.0749    13.9159
 5119.2160    50.4964     9.3480     9.3122
 5119.7160    54.1968     8.8255     8.1616
 5120.2160    59.6662     9.0753     9.8191
 5120.7160    64.8876    15.0142    19.3950
 5121.2160    67.8764    30.9019    28.9709
 5121.7160    78.5522    46.0373    39.8509
 5122.2160    77.5750    37.6888    43.3988
 5122.7160    73.8662    36.0932    36.5851
 5123.2160    75.1234    37.1502    37.6379
 5123.7160    77.2327    27.8940    34.5561
 5124.2160    90.5226    26.2912    29.5363
 5124.7160    89.7905    22.9871    26.5560
 5125.2160    90.0506    21.5508    23.5298
 5125.7160    88.5773    24.4865    24.2069
 5126.2160    86.3569    26.8513    26.3616
 5126.7160    72.6589    29.8672    28.9129
 5127.2160    59.3433    33.2218    33.5677
 5127.7160    47.6954    57.0117    51.9842
 5128.2160    37.5370    79.3496    73.3292
 5128.7160    44.4484    82.0315    84.5987
 5129.2160    64.6029    69.2382    69.8109
 5129.7160    67.3407    57.6868    63.5364
 5130.2160    65.8644    46.1354    55.9824
 5130.7160    73.3213    36.5812    48.4284
 5131.2160    77.3024    35.5351    40.8744
 5131.7160    76.8184    35.0113    34.5112
 5132.2160    71.8692    33.0545    33.0452
 5132.7160    64.9229    34.4823    33.3817
 5133.2160    59.2846    38.3553    37.3101
 5133.7160    50.8232    43.5855    43.3168
 5134.2160    43.1454    45.1506    44.8823
 5134.7160    40.6768    41.7031    41.7969
 5135.2160    31.2625    45.2757    47.8407
 5135.7160    19.6157    80.8718    57.1457
 5136.2160    16.1549   281.4668    81.8231
 5136.7160    18.1515   638.5966   457.1694
 5137.2160    21.6365   618.0105  1945.0073
 5137.7160    27.5390   581.5110     0.0000
 5138.2160    37.1425   455.1256     0.0000
 5138.7160    55.6809   301.6933   929.8624
 5139.2160    74.2192   162.8985   245.6710
 5139.7160    88.6756    38.3793    35.7141
 5140.2160    90.6722    32.3283    32.5366
 5140.7160    86.7049    27.0379    19.3611
 5141.2160    82.7834    26.8328    17.2854
 5141.7160    75.1650    31.8243    18.6902
 5142.2160    64.6760    33.9506    20.4990
 5142.7160    39.4028    63.9095    34.6953
 5143.2160    26.9948   147.3618    78.0315
 5143.7160    27.7652   223.4194   165.1054
 5144.2160    33.2815   254.5156   236.6695
 5144.7160    37.9488   217.4401   259.5747
 5145.2160    42.4229   212.7361   218.8250
 5145.7160    25.8169   192.4364   206.4318
 5146.2160    24.5887   158.0265   169.3648
 5146.7160    26.8333   111.0543   129.5617
 5147.2160    25.8085    64.0821    79.9500
 5147.7160    25.1240    36.7404    39.4020
 5148.2160    20.4230    35.9499    35.9195
 5148.7160    16.4660   210.8236    42.4878
 5149.2160    14.2426  1404.5278   677.8663
 5149.7160    15.4980  1986.3948  1476.8658
 5150.2160    16.2542  1888.5598  1982.7958
 5150.7160    18.4989  1481.3479  1859.6705
 5151.2160    20.4954  1074.3053  1138.3462
 5151.7160    21.0153   848.6919   809.0542
 5152.2160    25.5581   476.1736   535.3120
 5152.7160    31.6511   373.5009   395.9959
 5153.2160    42.7693   214.0894   298.8349
 5153.7160    53.8874   153.1858   159.7494
 5154.2160    65.0055    71.0628    36.6580
 5154.7160    71.9309    38.3274    27.7761
 5155.2160    60.1410    31.3987    20.3109
 5155.7160    43.1809    32.5188    19.3230
 5156.2160    34.7558    47.4254    24.4362
 5156.7160    31.7132    78.0763    49.5461
 5157.2160    22.6310   129.4562    87.9329
 5157.7160    20.6586   285.4734   268.4018
 5158.2160    15.7094   398.9018   346.6954
 5158.7160    14.7262   437.7171   441.5025
 5159.2160    18.2142   369.0155   382.9330
 5159.7160    19.9627   293.1263   396.7643
 5160.2160    21.2151   288.8718   438.2700
 5160.7160    24.7000   357.5372   600.2849
 5161.2160    33.2783   392.1129   530.9608
 5161.7160    41.7201   309.8828   293.9020
 5162.2160    38.6308   205.0513   185.9976
 5162.7160    36.1622    99.6012    89.0568
 5163.2160    43.3681    83.3019    75.0761
 5163.7160    49.5811    71.6851    69.9165
 5164.2160    61.4868    59.5282    59.3612
 5164.7160    74.9092    41.6595    48.9859
 5165.2160    68.4717    38.7743    40.7125
 5165.7160    73.9412    36.3471    33.8113
 5166.2160    78.6664    34.2850    31.7010
 5166.7160    78.6785    32.3937    31.2846
 5167.2160    80.6827    33.7929    31.9568
 5167.7160    85.0547    36.7931    32.6440
 5168.2160    88.8853    35.2355    32.1798
 5168.7160    89.8926    33.7438    29.7559
 5169.2160    86.6799    32.0857    28.1079
 5169.7160    84.4595    28.8178    25.6154
 5170.2160    82.4840    26.2525    24.3516
 5170.7160    79.2003    24.7867    23.6911
 5171.2160    66.6230    25.1278    23.8583
 5171.7160    54.0457    27.5657    27.3682
 5172.2160    45.5569    40.7040    42.7761
 5172.7160    50.1845    53.4190    53.8204
 5173.2160    66.4385    54.9442    55.2058
 5173.7160    67.9360    40.4140    44.5941
 5174.2160    48.1061    38.4281    39.5124
 5174.7160    40.4283    54.1479    45.2259
 5175.2160    32.2543    70.8647    78.2352
 5175.7160    34.4989   251.9433   223.6339
