~VERSION INFORMATION
 VERS.               1.20:   CWLS LOG ASCII STANDARD - VERSION 1.20
 WRAP.                 NO:   ONE LINE PER DEPTH STEP
~WELL INFORMATION
#MNEM.UNIT      DATA TYPE    INFORMATION
#----------   ------------   ------------------------------
 STRT.F         3541.0000:   START DEPTH
 STOP.F         5482.5000:   STOP DEPTH
 STEP.F            0.5000:   STEP LENGTH
 NULL.          -999.2500:   NO VALUE
 COMP.            COMPANY:   Fenix & Scisson, Inc.
 WELL.               WELL:   44-1 TPX 10
 FLD .              FIELD:   N.P.R. 3
 LOC .           LOCATION:   10-38N-78W-NATRONA-WY
 STAT.              STATE:   WY
 COUN.             COUNTY:   Natrona
 SRVC.    SERVICE COMPANY:   Dresser Atlas
 DATE.            LOGDATE:   12/17/1977
~CURVE INFORMATION
#MNEM.UNIT       API CODE    CURVE DESCRIPTION
#----------   ------------   ------------------------------
 DEPT.F                  :
 DPHI.none   42 890 12 00:   Den. Porosity, Ss [%]
 CALI.inches 42 280 00 00:   Caliper
 GR  .GAPI   42 310 00 00:   Gamma Ray
~PARAMETER INFORMATION
#MNEM.UNIT          VALUE    DESCRIPTION
#----------   ------------   ------------------------------
 EKB .F         5240.0000:   Kelly bushing
 EGL .F         5230.0000:   Ground level
 EDF .F            0.0000:   Drilling floor
 EPD .F           10.0000:   Permanent datum
 TD  .F         1932.0000:   Total depth
 DATE.mm/dd/yyyy 12/17/1977:   Date Logged
 DD  .ft             5471:   Depth Driller
 DL  .ft             5471:   Depth Logger
 BLI .ft             5469:   Bottom Log Interval
 TLI .ft             3550:   Top Log Interval
 CSS .inch          8.625:   Casing Size
 CTD1.ft             3023:   Casing Driller 1
 BS  .inch          7.875:   Bit Size
 DFT .                KCL:   Type Fluid In Hole
 DFD .lb/gal          9.5:   Mud Weight
 DFV .sec              38:   Viscosity
 DFPH.               11.0:   pH
 DFL .cc              8.4:   Fluid Loss
 WSS .            Mud Pit:   Source Of Sample
 RM  .ohmm           .385:   Rm
 EMT .F                78:   Rm Meas. Temp.
 RMF .ohmm            .22:   Rmf
 MFT .F                70:   Rmf Meas. Temp.
 RMC .ohmm             .8:   Rmc
 MCST.F                70:   Rmc Meas. Temp.
 MFSS.               meas:   Source Rmf.
 MCSS.               meas:   Source Rmc.
 RMB .ohmm            .16:   Rm. At BHT
 BHT .F               176:   BHT.
 TCS .hh:mm        19 hrs:   Time Circ. Stopped
 MRT .F               176:   Maximum Recorded Temp.
 LUN .               6134:   Logging Unit Number
 LUL .           Gillette:   Logging Unit Location
 ENGI.              Hoyer:   Recorded By
 WITN.     Mr. Harrington:   Witnessed By
 DGBY.              Burke:   Digitized By
~A  DEPTH     DPHI       CALI         GR
# ...
 4724.0000    -0.4270     9.5831   274.3581
 4724.5000     0.1586     9.6015   274.3280
 4725.0000    -0.0685     9.6446   274.0902
 4725.5000    -1.5871     9.6284   272.4372
 4726.0000    -1.2973     9.6278   266.9243
 4726.5000    -1.2056     9.6429   259.9067
 4727.0000    -2.1030     9.6423   255.5223
 4727.5000    -1.4017     9.6418   252.9393
 4728.0000     0.0257     9.6413   257.1695
 4728.5000    -0.5790     9.6407   257.9240
 4729.0000    -1.7684     9.6402   258.4518
 4729.5000    -2.6964     9.6396   258.1649
 4730.0000    -2.2805     9.6548   259.1100
 4730.5000    -1.0931     9.6541   261.3997
 4731.0000    -0.8188     9.6379   261.6485
 4731.5000    -0.1092     9.6062   260.1555
 4732.0000     1.0427     9.6056   256.6718
 4732.5000     1.5890     9.5894   249.9533
 4733.0000     0.8721     9.5419   245.3165
 4733.5000     0.2663     9.5415   237.8049
 4734.0000     0.1951     9.5409   229.5490
 4734.5000     0.0085     9.5404   231.8010
 4735.0000    -0.1229     9.5398   236.7652
 4735.5000    -0.3577     9.5549   237.4346
 4736.0000    -1.1386     9.5700   240.0000
 4736.5000    -1.1086     9.6007   242.4883
 4737.0000    -0.6533     9.6002   243.9813
 4737.5000     0.0951     9.5996   249.9148
 4738.0000     0.8640     9.5991   256.9408
 4738.5000     1.0481     9.6142   264.6345
 4739.0000     0.7654     9.6136   267.1229
 4739.5000     1.2304     9.6130   268.3670
 4740.0000     1.2911     9.6281   263.8880
 4740.5000     0.7336     9.6119   263.3904
 4741.0000     0.3926     9.5645   259.5542
 4741.5000     0.1133     9.5091   252.9393
 4742.0000    -0.1768     9.4597   250.1882
 4742.5000    -0.0631     9.4379   248.0630
 4743.0000     0.5109     9.4373   249.7045
 4743.5000     0.1896     9.4368   249.4557
 4744.0000    -0.2639     9.4362   248.9580
 4744.5000    -0.1416     9.4357   249.7045
 4745.0000    -0.7607     9.4352   245.6871
 4745.5000    -0.1268     9.4346   240.6580
 4746.0000    -0.0530     9.4341   238.0013
 4746.5000    -0.3016     9.4335   236.0187
 4747.0000    -0.3394     9.4330   237.9606
 4747.5000     0.0672     9.4324   243.7325
 4748.0000     0.2924     9.4319   248.2569
 4748.5000     1.0523     9.4313   256.6718
 4749.0000     0.9053     9.4308   258.1649
 4749.5000     0.4008     9.4146   260.1555
 4750.0000     0.5423     9.4140   259.4090
 4750.5000     1.7573     9.4291   262.6439
 4751.0000     1.6015     9.4286   262.1462
 4751.5000     1.6645     9.4280   262.6439
 4752.0000     1.2882     9.4275   261.6485
 4752.5000     1.0725     9.4269   255.4277
 4753.0000     1.5963     9.4487   254.1835
 4753.5000     1.0696     9.4970   255.7106
 4754.0000     0.6050     9.5504   252.9393
 4754.5000     0.4493     9.5185   248.6531
 4755.0000     0.9112     9.5023   248.7092
 4755.5000     1.6513     9.4862   250.2022
 4756.0000     0.5689     9.4856   251.1975
 4756.5000     1.1613     9.4851   249.6536
 4757.0000     2.0737     9.4845   248.0996
 4757.5000     2.4798     9.4840   246.7185
 4758.0000     1.8298     9.4991   245.7372
 4758.5000     1.8906     9.5299   242.5889
 4759.0000     1.8276     9.5596   238.4519
 4759.5000     2.1043     9.6079   237.7605
 4760.0000     1.6703     9.6375   238.7558
 4760.5000     1.8851     9.6212   241.1342
 4761.0000     2.1018     9.6052   248.7092
 4761.5000     2.0519     9.5890   248.9580
 4762.0000     1.3474     9.5884   249.9533
 4762.5000    -1.3327     9.6035   254.9932
 4763.0000    -1.6117     9.6186   258.4367
 4763.5000    -0.9688     9.6337   268.6159
 4764.0000    -0.1938     9.6487   269.8600
 4764.5000     0.2992     9.6638   275.5832
 4765.0000     0.6685     9.6789   275.5832
 4765.5000     1.3799     9.6784   274.8367
 4766.0000     1.2525     9.6778   274.3391
 4766.5000     1.4059     9.6773   268.7892
 4767.0000     1.3292     9.6767   264.2444
 4767.5000     0.3658     9.6746   261.1508
 4768.0000    -0.6678     9.6600   263.6392
 4768.5000    -0.9779     9.6595   263.1415
 4769.0000    -1.2307     9.6589   264.8834
 4769.5000    -1.1650     9.6584   263.3904
 4770.0000    -1.2264     9.6578   263.4074
 4770.5000    -0.9217     9.6573   264.6886
 4771.0000    -0.7685     9.6567   267.2581
 4771.5000    -1.0787     9.6388   268.6159
 4772.0000    -1.4815     9.6088   268.1182
 4772.5000    -2.1315     9.5926   271.1042
 4773.0000    -1.6919     9.5920   273.8414
 4773.5000    -0.9749     9.5915   273.8414
 4774.0000    -0.7100     9.5909   273.0949
 4774.5000    -1.1174     9.5904   273.3638
 4775.0000    -0.9024     9.5742   273.8414
 4775.5000    -1.6454     9.5737   270.2849
 4776.0000    -1.2142     9.5575   268.3670
 4776.5000    -0.8754     9.5570   265.3810
 4777.0000    -1.0412     9.5564   264.7194
 4777.5000    -1.3345     9.5559   263.6392
 4778.0000    -1.2503     9.5553   257.1695
 4778.5000    -1.0045     9.5391   254.9230
 4779.0000    -0.4882     9.5230   254.1835
 4779.5000    -0.2658     9.5180   262.3950
 4780.0000    -0.3495     9.4594   264.6345
 4780.5000    -0.5776     9.4806   265.0140
 4781.0000    -0.4553     9.4814   265.6299
 4781.5000    -0.1168     9.4264   262.3950
 4782.0000     0.2528     9.3947   256.1949
 4782.5000     0.0350     9.3941   250.5516
 4783.0000    -0.2443     9.3936   245.9038
 4783.5000    -0.1529     9.3930   244.1649
 4784.0000    -0.2180     9.4081   243.4837
 4784.5000    -0.7946     9.4076   242.9860
 4785.0000    -0.9908     9.4070   238.2512
 4785.5000    -0.0084     9.4065   232.7838
 4786.0000     0.8859     9.4059   233.5303
 4786.5000     1.2293     9.4054   233.5293
 4787.0000     0.0230     9.4205   233.8103
 4787.5000    -0.2569     9.4199   238.7558
 4788.0000    -0.1608     9.4350   238.0093
 4788.5000    -0.1971     9.4501   237.5117
 4789.0000     0.9442     9.5050   238.7558
 4789.5000     1.9313     9.5741   240.0000
 4790.0000     2.2003     9.5892   240.0331
 4790.5000     2.8244     9.6198   240.0000
 4791.0000     2.8849     9.6348   240.0281
 4791.5000     3.0095     9.6343   241.2442
 4792.0000     2.7818     9.6337   241.4930
 4792.5000     1.8920     9.6332   241.9907
 4793.0000     0.7176     9.6327   236.7978
 4793.5000     0.8089     9.6164   231.4318
 4794.0000    -0.3355     9.6003   226.0658
 4794.5000    -0.2504     9.5841   224.0746
 4795.0000     0.3452     9.5836   225.8665
 4795.5000     0.4331     9.6142   231.7064
 4796.0000    -0.1287     9.6293   240.0527
 4796.5000    -0.4362     9.6288   247.0805
 4797.0000    -0.0038     9.6283   254.1082
 4797.5000     0.0879     9.6434   261.1360
 4798.0000     0.1484     9.6584   268.3670
 4798.5000     0.0904     9.6579   267.6205
 4799.0000    -0.2506     9.6248   268.6159
 4799.5000    -0.1047     9.5473   263.5686
 4800.0000     1.2085     9.5155   257.4184
 4800.5000     1.9022     9.5001   256.1742
 4801.0000     1.4373     9.5002   253.9347
 4801.5000     1.1580     9.5261   255.9254
 4802.0000     0.5389     9.5628   262.7272
 4802.5000     0.9701     9.5629   263.6457
 4803.0000     2.2954     9.5473   262.6516
 4803.5000     3.4113     9.5460   261.1597
 4804.0000     4.3947     9.5006   255.9355
 4804.5000     3.8683     9.4021   247.9740
 4805.0000     2.9325     9.3602   245.9845
 4805.5000     1.9596     9.3759   242.0044
 4806.0000     1.3006     9.3759   239.7661
 4806.5000     0.9558     9.3760   237.1409
 4807.0000     1.8609     9.3917   232.4656
 4807.5000     2.5937     9.3918   231.3094
 4808.0000     2.2951     9.3919   236.5364
 4808.5000     1.0935     9.3920   239.4487
 4809.0000     1.1073     9.3764   244.0039
 4809.5000     1.2604     9.3765   246.7423
 4810.0000     0.9603     9.3766   248.4853
 4810.5000    -0.2867     9.3766   249.7716
 4811.0000    -0.4427     9.3767   246.2482
 4811.5000    -0.2069     9.3612   245.7403
 4812.0000     0.4959     9.3612   247.2460
 4812.5000     0.9746     9.3613   246.2522
 4813.0000     1.2513     9.3591   239.7446
 4813.5000     1.0295     9.3146   235.8249
 4814.0000     1.7725     9.2678   233.0676
 4814.5000     1.7175     9.2367   233.8153
