~VERSION INFORMATION
 VERS.               1.20:   CWLS LOG ASCII STANDARD - VERSION 1.20
 WRAP.                 NO:   ONE LINE PER DEPTH STEP
~WELL INFORMATION
#MNEM.UNIT      DATA TYPE    INFORMATION
#----------   ------------   ------------------------------
 STRT.F         3541.0000:   START DEPTH
 STOP.F         5482.5000:   STOP DEPTH
 STEP.F            0.5000:   STEP LENGTH
 NULL.          -999.2500:   NO VALUE
 COMP.            COMPANY:   Fenix & Scisson, Inc.
 WELL.               WELL:   44-1 TPX 10
 FLD .              FIELD:   N.P.R. 3
 LOC .           LOCATION:   10-38N-78W-NATRONA-WY
 STAT.              STATE:   WY
 COUN.             COUNTY:   Natrona
 SRVC.    SERVICE COMPANY:   Dresser Atlas
 DATE.            LOGDATE:   12/17/1977
~CURVE INFORMATION
#MNEM.UNIT       API CODE    CURVE DESCRIPTION
#----------   ------------   ------------------------------
 DEPT.F                  :
 DPHI.none   42 890 12 00:   Den. Porosity, Ss [%]
 CALI.inches 42 280 00 00:   Caliper
 GR  .GAPI   42 310 00 00:   Gamma Ray
~PARAMETER INFORMATION
#MNEM.UNIT          VALUE    DESCRIPTION
#----------   ------------   ------------------------------
 EKB .F         5240.0000:   Kelly bushing
 EGL .F         5230.0000:   Ground level
 EDF .F            0.0000:   Drilling floor
 EPD .F           10.0000:   Permanent datum
 TD  .F         1932.0000:   Total depth
 DATE.mm/dd/yyyy 12/17/1977:   Date Logged
 DD  .ft             5471:   Depth Driller
 DL  .ft             5471:   Depth Logger
 BLI .ft             5469:   Bottom Log Interval
 TLI .ft             3550:   Top Log Interval
 CSS .inch          8.625:   Casing Size
 CTD1.ft             3023:   Casing Driller 1
 BS  .inch          7.875:   Bit Size
 DFT .                KCL:   Type Fluid In Hole
 DFD .lb/gal          9.5:   Mud Weight
 DFV .sec              38:   Viscosity
 DFPH.               11.0:   pH
 DFL .cc              8.4:   Fluid Loss
 WSS .            Mud Pit:   Source Of Sample
 RM  .ohmm           .385:   Rm
 EMT .F                78:   Rm Meas. Temp.
 RMF .ohmm            .22:   Rmf
 MFT .F                70:   Rmf Meas. Temp.
 RMC .ohmm             .8:   Rmc
 MCST.F                70:   Rmc Meas. Temp.
 MFSS.               meas:   Source Rmf.
 MCSS.               meas:   Source Rmc.
 RMB .ohmm            .16:   Rm. At BHT
 BHT .F               176:   BHT.
 TCS .hh:mm        19 hrs:   Time Circ. Stopped
 MRT .F               176:   Maximum Recorded Temp.
 LUN .               6134:   Logging Unit Number
 LUL .           Gillette:   Logging Unit Location
 ENGI.              Hoyer:   Recorded By
 WITN.     Mr. Harrington:   Witnessed By
 DGBY.              Burke:   Digitized By
~A  DEPTH     DPHI       CALI         GR
# ...
 5361.0000    -0.1547     8.0328   185.9285
 5361.5000    -0.1240     8.0328   184.1426
 5362.0000    -0.5433     8.0329   183.4886
 5362.5000    -0.7467     8.0329   183.5163
 5363.0000    -0.8995     8.0329   185.2815
 5363.5000    -0.2261     8.0330   183.5691
 5364.0000     0.3035     8.0330   184.5847
 5364.5000     0.7657     8.0330   186.8523
 5365.0000     1.1664     8.0331   188.3694
 5365.5000     0.8556     8.0331   190.3843
 5366.0000     1.0473     8.0331   192.3170
 5366.5000     2.1522     8.0332   192.9307
 5367.0000     1.1548     8.0332   189.4614
 5367.5000     0.0077     8.0332   189.7404
 5368.0000    -1.8042     8.0333   186.9432
 5368.5000    -1.8478     8.0333   185.0609
 5369.0000    -0.7010     8.0334   185.8316
 5369.5000     0.4458     8.0334   185.6009
 5370.0000     0.2618     8.0334   185.6299
 5370.5000     0.4772     8.0335   184.9087
 5371.0000    -1.5625     8.0335   184.4249
 5371.5000    -1.2544     8.0335   185.5359
 5372.0000    -0.6684     8.0336   188.9686
 5372.5000     1.1839     8.0336   192.2276
 5373.0000     1.7545     8.0336   195.7325
 5373.5000     2.5226     8.0337   195.7574
 5374.0000     3.0037     8.0337   196.2204
 5374.5000     1.4275     8.0337   198.2039
 5375.0000     0.8774     8.0338   201.5552
 5375.5000     0.2408     8.0338   201.0817
 5376.0000    -0.7258     8.0338   199.8118
 5376.5000    -1.1082     8.0339   195.1640
 5377.0000    -3.0684     8.0339   193.1975
 5377.5000    -6.3553     8.0339   187.4985
 5378.0000   -10.0691     8.0340   187.0233
 5378.5000  -999.2500     8.0340   186.3017
 5379.0000  -999.2500     8.0340   189.8105
 5379.5000  -999.2500     8.0341   189.5863
 5380.0000  -999.2500     8.0341   188.6207
 5380.5000  -999.2500     8.0341   189.3913
 5381.0000  -999.2500     8.0342   190.1620
 5381.5000  -999.2500     8.0342   189.6885
 5382.0000  -999.2500     8.0342   188.8742
 5382.5000    -9.1724     8.0343   188.4866
 5383.0000    -6.9141     8.0343   189.7610
 5383.5000    -4.6557     8.0344   188.2833
 5384.0000    -3.9021     8.0344   187.2822
 5384.5000    -2.8188     8.0344   184.8628
 5385.0000    -2.7232     8.0345   180.6568
 5385.5000    -2.4532     8.0345   179.9219
 5386.0000    -1.6414     8.0345   178.4596
 5386.5000    -0.2310     8.0346   178.9264
 5387.0000    -0.6367     8.0346   181.0023
 5387.5000    -5.7849     8.0346   184.0125
 5388.0000    -8.9747     8.0347   185.3111
 5388.5000    -8.3580     8.0347   185.8026
 5389.0000    -8.0858     8.0347   183.0702
 5389.5000    -7.3696     8.0348   181.0068
 5390.0000    -8.2509     8.0348   180.0063
 5390.5000    -8.2997     8.0194   179.1807
 5391.0000    -7.7757     8.0044   181.4504
 5391.5000    -7.4059     7.9894   185.7048
 5392.0000    -7.0669     7.9900   186.5331
 5392.5000    -7.1296     7.9906   187.2521
 5393.0000    -7.1244     7.9755   186.2749
 5393.5000    -7.1556     7.9762   188.2958
 5394.0000    -5.6426     7.9769   186.9444
 5394.5000    -3.3792     7.9619   184.6096
 5395.0000    -1.1159     7.9625   185.8799
 5395.5000     1.1475     7.9631   185.1576
 5396.0000     3.4108     7.9637   183.6790
 5396.5000     5.6741     7.9488   182.4300
 5397.0000     7.9375     7.9494   182.0668
 5397.5000    10.2008     7.9500   183.5184
 5398.0000    12.4641     7.9506   184.2891
 5398.5000    14.4196     7.9513   185.0575
 5399.0000    15.4221     7.9362   185.3313
 5399.5000    15.6534     7.9525   186.1034
 5400.0000    15.8686     7.9532   172.9955
 5400.5000    16.9202     8.0167   184.4160
 5401.0000    17.7514     8.0159   183.4064
 5401.5000    17.8125     8.0148   184.7309
 5402.0000    16.5006     8.0138   187.2489
 5402.5000    15.9266     8.0128   188.3821
 5403.0000    15.9876     8.0117   188.5490
 5403.5000    16.2649     8.0107   188.0844
 5404.0000    12.1952     8.0096   187.3655
 5404.5000     9.1282     8.0086   186.8922
 5405.0000     9.2856     8.0076   187.4520
 5405.5000    10.5398     8.0065   186.7101
 5406.0000    13.6639     8.0055   184.9979
 5406.5000    15.5808     8.0045   185.5264
 5407.0000    13.6081     8.0034   185.6203
 5407.5000    11.9654     8.0024   187.5826
 5408.0000    11.6452     8.0014   187.9652
 5408.5000    11.1165     8.0003   187.6420
 5409.0000    11.2525     7.9993   186.2726
 5409.5000    11.5921     7.9983   185.9572
 5410.0000    12.3855     7.9972   187.3765
 5410.5000    13.6814     7.9962   188.0683
 5411.0000    14.8323     7.9952   187.5283
 5411.5000    14.7389     7.9941   189.3134
 5412.0000    14.4912     7.9931   189.0949
 5412.5000    13.6942     7.9920   189.8717
 5413.0000    11.5861     7.9910   190.1508
 5413.5000    10.4804     7.9900   189.1902
 5414.0000    10.1019     7.9889   190.2152
 5414.5000     7.4756     7.9879   189.4909
 5415.0000     7.5984     7.9869   189.2792
 5415.5000     7.6298     7.9858   187.7029
 5416.0000     7.0698     7.9848   187.8479
 5416.5000     7.1488     7.9838   192.1530
 5417.0000     7.5335     7.9827   198.8559
 5417.5000     8.2740     7.9817   203.3646
 5418.0000     8.0879     7.9807   208.6198
 5418.5000     8.6123     7.9796   204.6449
 5419.0000     8.5806     7.9786   199.4026
 5419.5000     9.3706     7.9776   194.1554
 5420.0000    10.3398     7.9765   191.5763
 5420.5000    11.3326     7.9755   195.0896
 5421.0000    12.1298     7.9745   198.3541
 5421.5000    11.6964     7.9734   198.6291
 5422.0000    11.3338     7.9724   199.8057
 5422.5000     9.0407     7.9713   201.9194
 5423.0000     7.5242     7.9703   199.5729
 5423.5000     7.3383     7.9693   198.0039
 5424.0000     7.8316     7.9682   200.5228
 5424.5000     6.8038     7.9672   201.0645
 5425.0000     6.5946     7.9662   202.6472
 5425.5000     5.5128     7.9651   203.5995
 5426.0000     6.9086     7.9641   205.8744
 5426.5000     8.0130     7.9631   204.1295
 5427.0000     8.3829     7.9620   200.9533
 5427.5000     8.9999     7.9610   200.7379
 5428.0000     8.4741     7.9600   200.0136
 5428.5000     7.8555     7.9589   201.2948
 5429.0000     8.3705     7.9579   203.0663
 5429.5000     8.8136     7.9569   204.8378
 5430.0000     7.5740     7.9558   207.3561
 5430.5000     8.0761     7.9548   205.4979
 5431.0000     9.2417     7.9537   201.9458
 5431.5000     9.6732     7.9527   198.7406
 5432.0000     9.8272     7.9375   197.2773
 5432.5000    10.5058     7.9229   196.5591
 5433.0000     9.4590     7.9066   197.3366
 5433.5000     8.2834     7.9046   197.1168
 5434.0000     7.4145     7.9025   197.1246
 5434.5000     7.4757     7.9004   196.6804
 5435.0000     6.2835     7.8983   197.2084
 5435.5000     4.8178     7.8962   196.3133
 5436.0000     4.9390     7.8942   194.0383
 5436.5000     5.2412     7.8921   194.3168
 5437.0000     5.1243     7.8900   195.8394
 5437.5000     5.2162     7.8879   196.1179
 5438.0000     5.5288     7.8858   197.1429
 5438.5000     5.9867     7.8838   196.6244
 5439.0000     6.3875     7.8817   194.9628
 5439.5000     6.4795     7.8796   194.7436
 5440.0000     6.3860     7.8775   197.3036
 5440.5000     5.5421     7.8754   198.2940
 5441.0000     4.8712     7.8734   199.5604
 5441.5000     5.4262     7.8713   200.3440
 5442.0000     6.8826     7.8692   202.1120
 5442.5000     7.9266     7.8671   204.1358
 5443.0000     8.2967     7.8650   207.1515
 5443.5000     7.5853     7.8630   208.4238
 5444.0000     7.2123     7.8609   207.9573
 5444.5000     7.3482     7.8588   208.4847
 5445.0000     7.6138     7.8567   209.5097
 5445.5000     8.0763     7.8547   208.7561
 5446.0000     8.5080     7.8526   209.1337
 5446.5000     8.0439     7.8505   209.3522
 5447.0000     8.2271     7.8484   210.3822
 5447.5000     8.4133     7.8463   211.6560
 5448.0000     8.6595     7.8443   213.1762
 5448.5000     7.8556     7.8422   214.4501
 5449.0000     8.1019     7.8401   212.4343
 5449.5000     7.2556     7.8380   210.2310
 5450.0000     4.9353     7.8359   208.3256
 5450.5000     2.6150     7.8339   206.3646
 5451.0000     1.1181     7.8318   200.9938
 5451.5000     0.6849     7.8297   192.9200
