~VERSION INFORMATION
 VERS.               1.20:   CWLS LOG ASCII STANDARD - VERSION 1.20
 WRAP.                 NO:   ONE LINE PER DEPTH STEP
~WELL INFORMATION
#MNEM.UNIT      DATA TYPE    INFORMATION
#----------   ------------   ------------------------------
 STRT.F         3541.0000:   START DEPTH
 STOP.F         5482.5000:   STOP DEPTH
 STEP.F            0.5000:   STEP LENGTH
 NULL.          -999.2500:   NO VALUE
 COMP.            COMPANY:   Fenix & Scisson, Inc.
 WELL.               WELL:   44-1 TPX 10
 FLD .              FIELD:   N.P.R. 3
 LOC .           LOCATION:   10-38N-78W-NATRONA-WY
 STAT.              STATE:   WY
 COUN.             COUNTY:   Natrona
 SRVC.    SERVICE COMPANY:   Dresser Atlas
 DATE.            LOGDATE:   12/17/1977
~CURVE INFORMATION
#MNEM.UNIT       API CODE    CURVE DESCRIPTION
#----------   ------------   ------------------------------
 DEPT.F                  :
 DPHI.none   42 890 12 00:   Den. Porosity, Ss [%]
 CALI.inches 42 280 00 00:   Caliper
 GR  .GAPI   42 310 00 00:   Gamma Ray
~PARAMETER INFORMATION
#MNEM.UNIT          VALUE    DESCRIPTION
#----------   ------------   ------------------------------
 EKB .F         5240.0000:   Kelly bushing
 EGL .F         5230.0000:   Ground level
 EDF .F            0.0000:   Drilling floor
 EPD .F           10.0000:   Permanent datum
 TD  .F         1932.0000:   Total depth
 DATE.mm/dd/yyyy 12/17/1977:   Date Logged
 DD  .ft             5471:   Depth Driller
 DL  .ft             5471:   Depth Logger
 BLI .ft             5469:   Bottom Log Interval
 TLI .ft             3550:   Top Log Interval
 CSS .inch          8.625:   Casing Size
 CTD1.ft             3023:   Casing Driller 1
 BS  .inch          7.875:   Bit Size
 DFT .                KCL:   Type Fluid In Hole
 DFD .lb/gal          9.5:   Mud Weight
 DFV .sec              38:   Viscosity
 DFPH.               11.0:   pH
 DFL .cc              8.4:   Fluid Loss
 WSS .            Mud Pit:   Source Of Sample
 RM  .ohmm           .385:   Rm
 EMT .F                78:   Rm Meas. Temp.
 RMF .ohmm            .22:   Rmf
 MFT .F                70:   Rmf Meas. Temp.
 RMC .ohmm             .8:   Rmc
 MCST.F                70:   Rmc Meas. Temp.
 MFSS.               meas:   Source Rmf.
 MCSS.               meas:   Source Rmc.
 RMB .ohmm            .16:   Rm. At BHT
 BHT .F               176:   BHT.
 TCS .hh:mm        19 hrs:   Time Circ. Stopped
 MRT .F               176:   Maximum Recorded Temp.
 LUN .               6134:   Logging Unit Number
 LUL .           Gillette:   Logging Unit Location
 ENGI.              Hoyer:   Recorded By
 WITN.     Mr. Harrington:   Witnessed By
 DGBY.              Burke:   Digitized By
~A  DEPTH     DPHI       CALI         GR
# ...
 3632.0000  -999.2500    13.0573   259.2294
 3632.5000  -999.2500    13.2597   258.2862
 3633.0000  -999.2500    12.8401   260.5276
 3633.5000  -999.2500    12.7160   261.5247
 3634.0000  -999.2500    12.5359   260.3156
 3634.5000  -999.2500    12.0479   261.7776
 3635.0000  -999.2500    12.3022   260.0372
 3635.5000  -999.2500    12.6367   260.2878
 3636.0000  -999.2500    13.2463   258.2994
 3636.5000  -999.2500    12.2343   259.2966
 3637.0000  -999.2500    11.1319   260.7914
 3637.5000    16.7994    12.6874   256.8119
 3638.0000    17.7735    12.5789   256.7809
 3638.5000    18.7477    11.8640   263.9443
 3639.0000    19.7219    11.8018   265.0289
 3639.5000    20.6960    11.0090   265.3953
 3640.0000  -999.2500    10.9160   268.2678
 3640.5000    28.6867    11.0133   272.2510
 3641.0000    26.8333    10.8078   273.7453
 3641.5000    24.0193    11.0725   265.4700
 3642.0000    22.4436    11.7727   264.2936
 3642.5000  -999.2500    11.8041   263.5491
 3643.0000  -999.2500    12.5381   261.8090
 3643.5000  -999.2500    13.3910   262.3250
 3644.0000  -999.2500    13.0958   263.8365
 3644.5000  -999.2500    11.6809   267.0405
 3645.0000    19.7556    11.7019   266.0465
 3645.5000    18.6750    11.0594   266.2971
 3646.0000    21.2576    12.2532   263.8111
 3646.5000  -999.2500    12.7708   263.0663
 3647.0000  -999.2500    13.0625   263.5659
 3647.5000  -999.2500    14.2022   266.2218
 3648.0000  -999.2500    14.1682   266.8044
 3648.5000  -999.2500    13.9539   265.7949
 3649.0000  -999.2500    13.9388   267.4391
 3649.5000    24.1539    13.6436   269.7963
 3650.0000    24.1757    12.6329   272.0376
 3650.5000    23.5685    12.5867   274.2787
 3651.0000    23.0378    11.7516   273.5343
 3651.5000    25.6349    12.1206   269.8036
 3652.0000    26.0680    11.4804   262.8381
 3652.5000    23.8737    10.7683   262.0933
 3653.0000    24.2080    10.7209   268.1055
 3653.5000    25.1675    10.6600   272.5645
 3654.0000    18.4258    10.6603   275.3117
 3654.5000     9.6867    10.6918   280.7636
 3655.0000     9.4707    10.7232   280.5166
 3655.5000     8.2036    10.7857   280.7670
 3656.0000     7.7403    10.7165   278.7784
 3656.5000     7.7658    10.6619   278.5310
 3657.0000     8.4120    10.6622   281.0215
 3657.5000    10.8072    10.8051   278.7839
 3658.0000    13.6108    11.0952   277.0439
 3658.5000    16.4145    12.2480   277.0457
 3659.0000    19.2181    13.6028   274.2117
 3659.5000  -999.2500    13.2610   267.1286
 3660.0000  -999.2500    11.9549   258.8867
 3660.5000  -999.2500    10.5866   256.8975
 3661.0000  -999.2500    10.5558   258.6416
 3661.5000     7.5608    10.5561   265.6107
 3662.0000     7.8377    10.5585   268.4661
 3662.5000     7.0036    10.5723   266.6097
 3663.0000     6.9730    10.5726   266.5946
 3663.5000     7.1218    10.5729   272.3448
 3664.0000     7.4684    10.5732   274.6113
 3664.5000     7.6778    10.5736   276.3220
 3665.0000     8.2728    10.5739   276.0745
 3665.5000     8.3040    10.5742   279.0625
 3666.0000     7.7790    10.5900   278.0692
 3666.5000     7.1611    10.5904   274.8362
 3667.0000     7.0379    10.6467   270.1094
 3667.5000     7.8355    10.8243   265.5914
 3668.0000     9.8496    11.0112   266.8790
 3668.5000    12.4303    10.8560   269.6180
 3669.0000    15.0109    11.1051   267.0649
 3669.5000    17.6735    11.6031   266.3873
 3670.0000    20.9272    13.0807   264.1492
 3670.5000  -999.2500    13.9329   263.8269
 3671.0000  -999.2500    13.0289   260.4207
 3671.5000  -999.2500    12.4131   262.1644
 3672.0000  -999.2500    12.3294   262.4150
 3672.5000  -999.2500    12.1317   260.1774
 3673.0000  -999.2500    11.2918   259.4327
 3673.5000  -999.2500    10.6881   259.6916
 3674.0000  -999.2500    10.5950   259.9670
 3674.5000    14.3449    10.5953   263.1711
 3675.0000    17.8942    10.6268   267.1543
 3675.5000  -999.2500    10.8448   269.8933
 3676.0000  -999.2500    10.8793   272.1346
 3676.5000  -999.2500    11.3691   270.8922
 3677.0000  -999.2500    12.0588   267.1611
 3677.5000  -999.2500    12.1071   268.1587
 3678.0000  -999.2500    12.0128   272.3907
 3678.5000  -999.2500    12.1842   275.1377
 3679.0000  -999.2500    12.3866   277.3890
 3679.5000  -999.2500    11.8678   279.6123
 3680.0000  -999.2500    11.2830   281.8541
 3680.5000  -999.2500    10.9879   282.1376
 3681.0000    16.7003    10.7860   277.8764
 3681.5000    19.6574    10.9441   275.8871
 3682.0000    23.9274    11.3776   273.8987
 3682.5000    23.0622    11.2120   271.6610
 3683.0000    18.0134    10.8184   271.1652
 3683.5000    15.1805    10.6915   264.1828
 3684.0000  -999.2500    10.4923   263.4550
 3684.5000  -999.2500    10.5083   268.4339
 3685.0000    15.4383    10.8265   271.9194
 3685.5000    18.5893    11.0229   270.9259
 3686.0000    21.7361    11.2712   268.1906
 3686.5000    18.2083    10.6561   266.6994
 3687.0000    10.2681    10.2143   267.4477
 3687.5000    12.7724    10.1835   268.6937
 3688.0000    10.9671    10.4327   268.9444
 3688.5000     6.3745    10.6346   268.3611
 3689.0000     7.0650    10.9073   271.2533
 3689.5000     9.0027    11.3356   276.1664
 3690.0000     9.3883    10.6256   281.8914
 3690.5000     9.6526    10.2320   282.1416
 3691.0000     9.0039    10.1546   274.1812
 3691.5000     8.7227    10.1394   275.6761
 3692.0000     7.7946    10.1240   284.1382
 3692.5000     7.6140    10.1089   287.8726
 3693.0000     9.4692    10.2025   290.3627
 3693.5000    11.0765    10.1095   293.6158
 3694.0000    12.7775    10.0942   294.8454
 3694.5000    11.9542    10.0790   288.1291
 3695.0000     7.9689    10.0482   277.4308
 3695.5000     6.4725    10.0174   276.6861
 3696.0000     6.9276    10.0644   282.1627
 3696.5000     9.2045    10.0958   290.6249
 3697.0000     9.6607    10.1117   290.1286
 3697.5000     9.7198    10.1275   291.3748
 3698.0000     9.4773    10.1279   290.6303
 3698.5000     9.5661    10.1593   291.3787
 3699.0000     9.6592    10.0663   293.8688
 3699.5000     9.5669     9.9732   291.8800
 3700.0000     9.6702     9.9424   293.3746
 3700.5000     9.8455    10.0047   292.6252
 3701.0000     9.6292    10.0202   290.6309
 3701.5000     9.7175    10.0669   294.1115
 3702.0000    10.1449    10.1602   294.8554
 3702.5000    10.5877    10.1291   295.3504
 3703.0000    10.7114    10.1135   291.8630
 3703.5000    10.9588    10.1446   288.1274
 3704.0000    11.1860    10.1602   286.8803
 3704.5000    11.1135    10.1757   288.1213
 3705.0000    10.4335    10.1757   286.1270
 3705.5000     9.3588    10.1602   280.4334
 3706.0000     7.7444    10.1446   274.1770
 3706.5000     0.0783    10.1291   265.9624
 3707.0000    -0.8033    10.1291   263.2223
 3707.5000    -1.2442    10.1291   254.7589
 3708.0000    -0.1658    10.0040   254.0094
 3708.5000     1.8804    10.0047   260.7472
 3709.0000     5.3357    10.0047   276.9585
 3709.5000     8.7909     9.9891   292.1437
 3710.0000     9.7542     9.9736   298.8873
 3710.5000     8.9492     9.9736   302.2673
 3711.0000     7.4055     9.9736   305.2503
 3711.5000     5.7050     9.9580   304.2520
 3712.0000     5.3342     9.8958   300.0187
 3712.5000     6.6721     9.9269   300.6998
 3713.0000     8.3019     9.9736   298.5794
 3713.5000     8.6137     9.9891   297.2718
 3714.0000     8.8584     9.9425   295.7758
 3714.5000     9.2295     9.9425   297.8981
 3715.0000     9.7438     9.9269   298.5070
 3715.5000    10.9607     9.9269   300.2457
 3716.0000    11.0844     9.9425   299.9938
 3716.5000    10.0909     9.9580   297.7506
 3717.0000     7.9934     9.9885   290.7803
 3717.5000     7.3690    10.0202   289.0354
 3718.0000     7.4062     9.9709   289.5303
 3718.5000     8.3955     9.8958   289.0294
 3719.0000     8.4882     9.8958   286.0582
 3719.5000     5.6925     9.9425   288.0280
 3720.0000     4.2273     9.9891   284.9151
 3720.5000     2.8316     9.9114   278.8144
 3721.0000     4.0373     9.9114   281.3172
 3721.5000     3.1755     9.9736   284.7804
 3722.0000     2.8277     9.9891   285.2751
 3722.5000     4.3181     9.9891   288.2581
