~VERSION INFORMATION
 VERS.               1.20:   CWLS LOG ASCII STANDARD - VERSION 1.20
 WRAP.                 NO:   ONE LINE PER DEPTH STEP
~WELL INFORMATION
#MNEM.UNIT      DATA TYPE    INFORMATION
#----------   ------------   ------------------------------
 STRT.F         3541.0000:   START DEPTH
 STOP.F         5482.5000:   STOP DEPTH
 STEP.F            0.5000:   STEP LENGTH
 NULL.          -999.2500:   NO VALUE
 COMP.            COMPANY:   Fenix & Scisson, Inc.
 WELL.               WELL:   44-1 TPX 10
 FLD .              FIELD:   N.P.R. 3
 LOC .           LOCATION:   10-38N-78W-NATRONA-WY
 STAT.              STATE:   WY
 COUN.             COUNTY:   Natrona
 SRVC.    SERVICE COMPANY:   Dresser Atlas
 DATE.            LOGDATE:   12/17/1977
~CURVE INFORMATION
#MNEM.UNIT       API CODE    CURVE DESCRIPTION
#----------   ------------   ------------------------------
 DEPT.F                  :
 DPHI.none   42 890 12 00:   Den. Porosity, Ss [%]
 CALI.inches 42 280 00 00:   Caliper
 GR  .GAPI   42 310 00 00:   Gamma Ray
~PARAMETER INFORMATION
#MNEM.UNIT          VALUE    DESCRIPTION
#----------   ------------   ------------------------------
 EKB .F         5240.0000:   Kelly bushing
 EGL .F         5230.0000:   Ground level
 EDF .F            0.0000:   Drilling floor
 EPD .F           10.0000:   Permanent datum
 TD  .F         1932.0000:   Total depth
 DATE.mm/dd/yyyy 12/17/1977:   Date Logged
 DD  .ft             5471:   Depth Driller
 DL  .ft             5471:   Depth Logger
 BLI .ft             5469:   Bottom Log Interval
 TLI .ft             3550:   Top Log Interval
 CSS .inch          8.625:   Casing Size
 CTD1.ft             3023:   Casing Driller 1
 BS  .inch          7.875:   Bit Size
 DFT .                KCL:   Type Fluid In Hole
 DFD .lb/gal          9.5:   Mud Weight
 DFV .sec              38:   Viscosity
 DFPH.               11.0:   pH
 DFL .cc              8.4:   Fluid Loss
 WSS .            Mud Pit:   Source Of Sample
 RM  .ohmm           .385:   Rm
 EMT .F                78:   Rm Meas. Temp.
 RMF .ohmm            .22:   Rmf
 MFT .F                70:   Rmf Meas. Temp.
 RMC .ohmm             .8:   Rmc
 MCST.F                70:   Rmc Meas. Temp.
 MFSS.               meas:   Source Rmf.
 MCSS.               meas:   Source Rmc.
 RMB .ohmm            .16:   Rm. At BHT
 BHT .F               176:   BHT.
 TCS .hh:mm        19 hrs:   Time Circ. Stopped
 MRT .F               176:   Maximum Recorded Temp.
 LUN .               6134:   Logging Unit Number
 LUL .           Gillette:   Logging Unit Location
 ENGI.              Hoyer:   Recorded By
 WITN.     Mr. Harrington:   Witnessed By
 DGBY.              Burke:   Digitized By
~A  DEPTH     DPHI       CALI         GR
# ...
 4633.0000     3.7438     9.5124   234.1123
 4633.5000     3.5238     9.5126   230.3774
 4634.0000     2.7231     9.5128   227.9597
 4634.5000     2.0797     9.5130   228.0882
 4635.0000     0.8021     9.5133   230.3701
 4635.5000     1.0611     9.5135   236.8813
 4636.0000     1.1691     9.5137   247.3248
 4636.5000     1.2080     9.5139   253.5038
 4637.0000     1.7209     9.4983   253.0037
 4637.5000     1.9353     9.4980   246.2828
 4638.0000     1.6959     9.4978   242.0504
 4638.5000     0.5675     9.4778   244.2872
 4639.0000    -0.4181     9.4133   247.2708
 4639.5000    -0.3886     9.3877   254.9822
 4640.0000    -0.4522     9.3875   261.6983
 4640.5000     0.0605     9.3873   259.2804
 4641.0000     0.6561     9.3870   253.2325
 4641.5000     1.0245     9.3868   250.2894
 4642.0000     1.0369     9.3866   246.2604
 4642.5000     0.7732     9.3863   243.5003
 4643.0000     0.3456     9.3861   240.8758
 4643.5000    -0.3116     9.3859   240.5297
 4644.0000    -0.0972     9.3856   238.5366
 4644.5000     0.2099     9.3854   239.0319
 4645.0000     0.0227     9.3852   239.2784
 4645.5000    -1.0602     9.3849   242.5107
 4646.0000    -1.0312     9.3847   245.0685
 4646.5000    -0.2270     9.3845   244.2477
 4647.0000    -0.0585     9.3842   247.9772
 4647.5000     0.4145     9.3996   253.4491
 4648.0000     0.9383     9.4150   256.5993
 4648.5000     0.3182     9.4304   270.9642
 4649.0000     0.6447     9.4301   284.5458
 4649.5000     0.3622     9.4568   283.0504
 4650.0000     0.1375     9.4922   280.5597
 4650.5000     0.8050     9.4920   279.3131
 4651.0000     2.0778     9.4917   272.6404
 4651.5000     2.2531     9.4915   264.8679
 4652.0000     1.9728     9.4756   261.1049
 4652.5000     1.6003     9.4754   253.4241
 4653.0000     1.7366     9.4752   250.3501
 4653.5000     1.5966     9.4749   249.4379
 4654.0000     0.6372     9.4903   249.9338
 4654.5000     0.0485     9.5057   256.1516
 4655.0000    -0.4309     9.5055   258.8864
 4655.5000     0.0139     9.5052   265.1475
 4656.0000     0.1104     9.5077   274.0813
 4656.5000     0.6584     9.5405   276.0485
 4657.0000     0.5330     9.5826   278.7827
 4657.5000     0.4694     9.5980   280.5228
 4658.0000     0.7147     9.6291   278.5291
 4658.5000     0.5275     9.6559   273.0523
 4659.0000     1.0223     9.6911   270.8104
 4659.5000     1.6356     9.7221   277.0288
 4660.0000     1.2940     9.7219   278.2706
 4660.5000     0.6435     9.7373   280.0339
 4661.0000    -1.0263     9.7214   280.2163
 4661.5000    -0.8737     9.7524   274.2813
 4662.0000    -0.3930     9.7522   272.7859
 4662.5000     0.2075     9.7676   271.2905
 4663.0000     0.3559     9.7673   273.6807
 4663.5000     1.4351     9.7827   273.7742
 4664.0000     1.4646     9.7981   280.2413
 4664.5000     1.3053     9.8291   281.9807
 4665.0000     1.1317     9.8289   285.2131
 4665.5000     0.4393     9.8287   285.7532
 4666.0000     0.5919     9.8284   285.9548
 4666.5000     0.8063     9.8126   280.7263
 4667.0000    -0.7134     9.8123   279.9776
 4667.5000    -1.4175     9.7536   279.2284
 4668.0000    -2.1650     9.7025   278.2313
 4668.5000    -1.7197     9.6710   278.5121
 4669.0000    -0.0683     9.6708   279.9676
 4669.5000     0.3314     9.6862   281.4582
 4670.0000     0.1752     9.6859   275.2343
 4670.5000     1.0691     9.6857   272.9924
 4671.0000     0.9128     9.6855   265.2762
 4671.5000     0.6925     9.6696   262.2878
 4672.0000     0.1022     9.6694   256.8110
 4672.5000    -0.9465     9.6535   255.8132
 4673.0000    -1.4117     9.6376   256.0596
 4673.5000    -0.5795     9.6218   262.0292
 4674.0000    -0.4265     9.6216   264.7619
 4674.5000    -1.9114     9.6213   274.7143
 4675.0000    -1.7279     9.6055   275.7906
 4675.5000    -1.4209     9.5896   279.7068
 4676.0000    -0.8358     9.5894   282.9192
 4676.5000    -0.9016     9.5878   277.6368
 4677.0000    -1.1642     9.5576   271.9650
 4677.5000    -1.5523     9.5418   271.3651
 4678.0000    -0.8972     9.5416   270.7100
 4678.5000    -0.1517     9.5570   268.1632
 4679.0000     0.2392     9.5567   264.7386
 4679.5000     0.4177     9.5565   261.2525
 4680.0000     0.1991     9.5562   261.7206
 4680.5000     0.4444     9.5560   260.6893
 4681.0000     0.1643     9.5558   259.0059
 4681.5000    -0.1189     9.5555   259.7699
 4682.0000     0.0063     9.5553   265.9026
 4682.5000    -0.4592     9.5550   270.1958
 4683.0000    -1.6966     9.5705   268.9492
 4683.5000    -1.3778     9.5702   270.6887
 4684.0000    -0.7427     9.5700   268.6955
 4684.5000    -0.7365     9.5854   272.7133
 4685.0000    -1.2406     9.5852   271.1312
 4685.5000    -1.0880     9.5849   268.1900
 4686.0000    -1.1282     9.5847   261.4754
 4686.5000    -1.1844     9.5845   258.2318
 4687.0000    -1.4642     9.5842   258.9759
 4687.5000    -0.6120     9.5840   263.7013
 4688.0000     0.6478     9.5837   265.9384
 4688.5000     1.0320     9.5835   271.9080
 4689.0000    -0.9917     9.5833   275.3890
 4689.5000    -1.9681     9.5674   276.6142
 4690.0000    -1.7132     9.5672   280.2042
 4690.5000    -1.1057     9.5670   281.8508
 4691.0000    -0.2748     9.5667   283.0932
 4691.5000    -0.4624     9.5821   283.3396
 4692.0000    -0.1245     9.5819   282.8392
 4692.5000     0.3061     9.5816   283.5830
 4693.0000     0.0880     9.5971   282.3364
 4693.5000     0.2433     9.5968   274.4256
 4694.0000     0.6782     9.6122   265.9963
 4694.5000     1.3180     9.6120   257.5669
 4695.0000     1.2884     9.6274   250.9735
 4695.5000     1.0621     9.6584   244.9991
 4696.0000     0.1286     9.6737   243.4576
 4696.5000    -0.5735     9.6579   239.5193
 4697.0000     0.4236     9.6420   237.8644
 4697.5000     1.5227     9.6262   235.0354
 4698.0000     1.8915     9.6259   232.7935
 4698.5000     2.6619     9.5632   234.0353
 4699.0000     3.0307     9.4848   234.0328
 4699.5000     3.1589     9.4846   238.6184
 4700.0000    -0.4249     9.4687   242.4883
 4700.5000    -0.7740     9.4682   246.9673
 4701.0000    -1.6322     9.4833   245.7232
 4701.5000    -2.6219     9.4827   241.4930
 4702.0000    -2.7533     9.4977   238.5070
 4702.5000    -2.1013     9.4972   242.9860
 4703.0000    -0.5544     9.4811   247.4650
 4703.5000     1.0598     9.4805   251.1975
 4704.0000     1.4086     9.4800   258.2314
 4704.5000     1.4784     9.4795   264.1910
 4705.0000     0.1064     9.4789   266.3433
 4705.5000    -0.0833     9.4784   272.4366
 4706.0000    -0.1935     9.4777   272.1206
 4706.5000     0.0520     9.4929   268.8647
 4707.0000     0.2055     9.4923   268.6159
 4707.5000     0.0803     9.4918   270.6065
 4708.0000    -1.1874     9.4908   267.1489
 4708.5000    -1.3122     9.4727   263.4706
 4709.0000    -1.1849     9.4589   252.9393
 4709.5000    -0.4458     9.4427   247.9563
 4710.0000     0.1971     9.4422   246.2208
 4710.5000     0.8472     9.4260   246.9864
 4711.0000     0.9052     9.4255   249.9533
 4711.5000     0.7621     9.3937   250.2882
 4712.0000     0.6336     9.3775   251.9440
 4712.5000     0.5307     9.3770   247.7138
 4713.0000     1.3939     9.3608   248.4603
 4713.5000     1.3926     9.3446   249.7045
 4714.0000     0.9267     9.3441   248.7092
 4714.5000     0.3086     9.3435   249.7045
 4715.0000     0.6589     9.3430   246.4536
 4715.5000     0.6770     9.3424   243.1174
 4716.0000     0.5522     9.3419   241.9907
 4716.5000     1.0448     9.3568   238.7905
 4717.0000    -0.0685     9.3721   232.7838
 4717.5000    -0.1353     9.4027   232.9420
 4718.0000     0.4893     9.3866   232.7838
 4718.5000     1.2244     9.3703   233.0327
 4719.0000     1.3163     9.3855   232.5350
 4719.5000     0.4191     9.4005   232.5350
 4720.0000     0.6647     9.4323   232.7838
 4720.5000     1.0650     9.4775   233.0888
 4721.0000     0.4040     9.4927   239.0047
 4721.5000    -0.5641     9.5078   250.2752
 4722.0000    -0.2052     9.5474   263.3703
 4722.5000    -0.6393     9.5849   271.1283
 4723.0000    -0.8565     9.5842   273.0949
 4723.5000    -0.9199     9.5837   273.4402
