~VERSION INFORMATION
 VERS.               2.10:   CWLS LOG ASCII STANDARD - VERSION 2.10
 WRAP.                 NO:   ONE LINE PER DEPTH STEP
~WELL INFORMATION
#MNEM.UNIT      DATA TYPE    INFORMATION
#----------   ------------   ------------------------------
 STRT.F         3538.2156:   START DEPTH
 STOP.F         5485.2939:   STOP DEPTH
 STEP.F            0.5000:   STEP LENGTH
 NULL.          -999.2500:   NO VALUE
 COMP. Fenix & Scisson,Inc.:   COMPANY
 WELL.        44-1 TPX 10:   WELL
 FLD .           N.P.R. 3:   FIELD
 LOC . 10-38N-78W-NATRONA-WY:   LOCATION
 STAT.                 WY:   STATE
 COUN.            Natrona:   COUNTY
 SRVC.      Dresser Atlas:   SERVICE COMPANY
 DATE.                   :   LOGDATE
 APIN.         4902510439:   API NUMBER
~CURVE INFORMATION
#MNEM.UNIT       API CODE    CURVE DESCRIPTION
#----------   ------------   ------------------------------
 DEPT.F                  :
 GR  .API    06 310 01 00:   Gamma Ray
 LLS .ohmm   11 220 06 00:   Dual Laterolog, shallow
 LLD .ohmm   11 220 04 00:   Dual Laterolog, Deep
~PARAMETER INFORMATION
#MNEM.UNIT          VALUE    DESCRIPTION
#----------   ------------   ------------------------------
 EKB .F         5240.0000:   Kelly bushing
 EGL .F         5230.0000:   Ground level
 EDF .F            0.0000:   Drilling floor
 EPD .F           10.0000:   Permanent datum
 TD  .F         2250.0000:   Total depth
 NRUN.             1.0000:   Number of Runs
#--RUN 1---   ------------   The following are for Run 1---
 RUN .             1.0000:   Run 1
 DATE.mm/dd/yyyy 12-17-1977:   Date Logged
 DD  .ft             5471:   Depth Driller
 DL  .ft             5471:   Depth Logger
 BLI .ft             5461:   Bottom Log Interval
 TLI .ft             3550:   Top Log Interval
 CSS .inch          8.625:   Casing Size
 CTD1.ft             3023:   Casing Driller 1
 CTL1.ft              n/a:   Casing Logger 1
 BS  .inch          7.875:   Bit Size
 DFT .                kcl:   Type Fluid In Hole
 DFD .lb/gal          9.5:   Mud Weight
 DFV .sec              38:   Viscosity
 DFPH.               11.0:   pH
 DFL .cc              8.4:   Fluid Loss
 WSS .            mud pit:   Source Of Sample
 RM  .ohmm           .385:   Rm
 EMT .F                78:   Rm Meas. Temp.
 RMF .ohmm            .22:   Rmf
 MFT .F                70:   Rmf Meas. Temp.
 RMC .ohmm             .8:   Rmc
 MCST.F                70:   Rmc Meas. Temp.
 MFSS.               meas:   Source Rmf.
 MCSS.               meas:   Source Rmc.
 RMB .ohmm            .16:   Rm. At BHT
 BHT .F               176:   BHT.
 TCS .hh:mm        10 hrs:   Time Circ. Stopped
 MRT .F               176:   Maximum Recorded Temp.
 LUN .               6134:   Logging Unit Number
 LUL .           Gillette:   Logging Unit Location
 ENGI.              Hoyer:   Recorded By
 WITN.      Mr. Harington:   Witnessed By
 DGBY.              Burke:   Digitized By
~A  DEPTH       GR        LLS        LLD
# ...
 4903.2160    90.7346    49.6805    44.6513
 4903.7160    89.9980    48.6108    44.0172
 4904.2160    99.4370    47.2263    41.2846
 4904.7160   105.4005    45.2317    39.5568
 4905.2160   106.4028    43.6313    36.5492
 4905.7160   109.4550    37.5506    30.5315
 4906.2160   104.9346    33.4901    25.9939
 4906.7160   107.1772    31.6101    25.0838
 4907.2160    99.7480    31.3850    25.4411
 4907.7160    92.0681    33.4487    26.3600
 4908.2160    83.6441    35.7763    28.1003
 4908.7160    80.4293    47.0147    39.3830
 4909.2160    74.2353    59.4584    53.2883
 4909.7160    73.5037    64.7407    60.1322
 4910.2160    71.7774    66.1187    64.1021
 4910.7160    70.7952    66.5629    65.0153
 4911.2160    71.0536    67.9651    65.0100
 4911.7160    68.8334    69.9008    69.3007
 4912.2160    69.0915    74.0666    72.8325
 4912.7160    71.3341    79.9619    78.1950
 4913.2160    76.8015    81.6552    81.0194
 4913.7160    79.2922    80.4644    81.0130
 4914.2160    86.7442    73.3109    80.4325
 4914.7160    88.4907    65.3801    76.3477
 4915.2160    96.9348    57.4161    61.8436
 4915.7160   105.4317    47.8619    49.5922
 4916.2160   111.1313    38.3077    37.3407
 4916.7160   113.0916    28.7492    25.9497
 4917.2160   113.3472    26.3807    21.5670
 4917.7160   106.9102    26.1849    21.5653
 4918.2160   107.1683    27.1204    22.3442
 4918.7160   107.1784    29.1747    25.0961
 4919.2160    99.9947    34.4865    29.4948
 4919.7160    93.0590    39.5159    33.8935
 4920.2160    91.3278    43.0265    38.2921
 4920.7160    90.8757    46.5162    42.3624
 4921.2160    88.8722    48.8752    44.8391
 4921.7160    87.6444    50.6268    45.8024
 4922.2160    93.1119    50.2455    46.4549
 4922.7160    96.5948    48.4414    45.7943
 4923.2160    94.8684    45.6573    42.9515
 4923.7160    94.3799    42.8919    40.2851
 4924.2160    95.1765    40.4967    37.5165
 4924.7160    94.4025    40.1917    36.4256
 4925.2160    94.6607    40.1743    37.7783
 4925.7160    92.3637    41.0250    38.5900
 4926.2160    89.9701    41.8938    38.0412
 4926.7160    94.9415    41.5781    37.2352
 4927.2160   102.1453    40.9712    36.7064
 4927.7160   104.8841    40.6589    35.1702
 4928.2160   106.1345    40.3526    34.6708
 4928.7160   106.3926    39.7642    34.7045
 4929.2160   112.1081    38.0828    32.7480
 4929.7160   116.5833    31.1784    27.9016
 4930.2160   118.8259    28.0044    24.6352
 4930.7160   116.1098    27.5916    23.7726
 4931.2160   107.6841    28.0085    23.2689
 4931.7160    98.4326    31.1212    24.9822
 4932.2160    86.3734    34.6185    28.7987
 4932.7160    86.6290    41.0605    32.2670
 4933.2160    83.6649    50.4684    46.7027
 4933.7160    84.4191    57.7637    52.0669
 4934.2160    80.9563    59.8339    54.9930
 4934.7160    79.7236    61.5443    53.4474
 4935.2160    78.2478    62.9013    56.1702
 4935.7160    73.0486    65.0863    58.1990
 4936.2160    71.0174    70.8685    61.1650
 4936.7160    71.0842    76.6163    65.2031
 4937.2160    68.8617    79.9299    71.5135
 4937.7160    75.8200    93.4616    80.2826
 4938.2160    80.5433   100.3241    93.0244
 4938.7160    85.7627    94.7101   100.5865
 4939.2160    94.4549    66.4520    76.7593
 4939.7160   106.1239    36.9283    60.9194
 4940.2160   111.8394    30.6673    43.2632
 4940.7160   110.3611    30.2201    26.9756
 4941.2160   109.8750    31.7527    25.1217
 4941.7160   104.1822    33.8420    24.9417
 4942.2160    99.7271    35.8127    26.2128
 4942.7160    96.0163    38.7173    30.0031
 4943.2160    87.5922    43.4912    32.9646
 4943.7160    84.8736    49.6411    37.9332
 4944.2160    79.9225    53.2861    47.2867
 4944.7160    78.9403    68.3573    56.8870
 4945.2160    74.4852    75.4990    63.2865
 4945.7160    73.2550    73.8696    67.9462
 4946.2160    74.5054    71.7619    68.4918
 4946.7160    72.7790    71.2214    66.0300
 4947.2160    70.5591    73.9565    66.6051
 4947.7160    68.0860    83.8292    73.4508
 4948.2160    69.5869    91.9296    80.5595
 4948.7160    72.0776    95.2346    85.2693
 4949.2160    80.2737    82.5355    91.5836
 4949.7160    92.4850    66.5391    83.7044
 4950.2160   104.6056    48.8983    61.4182
 4950.7160   108.0886    32.8622    42.7123
 4951.2160   112.8093    31.4723    25.6217
 4951.7160   108.1087    32.5971    25.4381
 4952.2160   107.6201    40.3525    28.5018
 4952.7160   105.5368    44.2517    34.7796
 4953.2160   104.6661    45.5169    38.9682
 4953.7160   101.4513    47.1431    39.8055
 4954.2160   100.8323    48.4858    40.0864
 4954.7160    96.0141    49.1609    40.0825
 4955.2160    96.0267    49.8812    41.2359
 4955.7160    98.0187    51.2593    42.7253
 4956.2160    96.7885    50.8732    44.5845
 4956.7160    96.8011    49.4216    44.9001
 4957.2160    97.3073    46.6618    44.2616
 4957.7160   100.2941    44.6888    41.4978
 4958.2160   100.5593    43.7243    39.7757
 4958.7160   108.1560    42.7806    37.5728
 4959.2160   107.2726    42.7617    35.7452
 4959.7160   105.5437    43.0448    35.4890
 4960.2160   107.1454    43.9563    35.9946
 4960.7160   104.8062    44.8919    37.2947
 4961.2160   101.5814    46.1655    38.0961
 4961.7160    98.8527    47.1431    38.3649
 4962.2160    97.3643    47.8002    39.2371
 4962.7160   100.0930    48.8115    40.3161
 4963.2160    98.8527    48.4434    40.6015
 4963.7160   110.2636    47.0566    39.7405
 4964.2160   113.7364    42.8731    38.0773
 4964.7160   118.8065    37.9634    34.4658
 4965.2160   115.9690    36.8803    30.9758
 4965.7160   110.0155    37.1281    29.6712
 4966.2160   105.5504    41.8935    31.0457
 4966.7160   104.0620    47.2705    36.9940
 4967.2160   101.0853    51.5000    41.7452
 4967.7160   100.8372    53.6902    44.1858
 4968.2160    98.1085    53.6670    45.7817
 4968.7160    97.1163    54.0335    46.1058
 4969.2160    95.1318    54.3907    46.1012
 4969.7160    93.6434    55.1479    46.7682
 4970.2160    97.3643    56.7185    49.1965
 4970.7160    96.8682    57.0999    50.5550
 4971.2160    97.3643    57.4833    50.9119
 4971.7160    99.8556    57.4522    51.6372
 4972.2160    97.3643    55.8130    50.1839
 4972.7160   102.0775    50.4898    46.7350
 4973.2160   104.0620    48.0114    43.8338
 4973.7160   105.5504    46.6415    40.2297
 4974.2160   103.0698    45.9614    37.9749
 4974.7160   104.5581    46.2702    36.9459
 4975.2160   105.3023    46.9144    38.2804
 4975.7160   104.8062    46.8890    38.2774
 4976.2160   108.5271    46.8688    38.8234
 4976.7160   107.0388    45.2081    38.0001
 4977.2160   111.0078    41.1889    37.4604
 4977.7160   111.5039    38.8889    35.6215
 4978.2160   108.7752    38.0105    32.8540
 4978.7160   109.0233    41.7233    31.8000
 4979.2160   106.4928    46.0823    35.3767
 4979.7160    93.8915    50.8968    41.0722
 4980.2160    93.3953    53.8605    45.0472
 4980.7160    96.6202    55.0070    48.7091
 4981.2160   100.8372    54.1990    47.6771
 4981.7160   102.5736    53.4085    44.0858
 4982.2160   102.8217    52.9531    44.7580
 4982.7160   104.3498    52.6014    47.6649
 4983.2160   108.7752    53.7152    49.0365
 4983.7160   110.5116    53.3106    48.6852
 4984.2160   108.5271    52.1601    46.9806
 4984.7160   106.0465    51.3995    44.6954
 4985.2160   110.5116    51.0123    43.4383
 4985.7160   110.5219    50.2647    44.3736
 4986.2160   115.0899    49.8413    44.0536
 4986.7160   113.9845    50.5789    45.3205
 4987.2160   109.0233    52.3916    45.6413
 4987.7160   111.0078    53.8837    45.9634
 4988.2160   108.0310    55.0307    47.9626
 4988.7160   106.2946    55.7968    49.3437
 4989.2160   101.8295    56.1663    49.3822
 4989.7160   103.6373    56.9475    47.6114
 4990.2160   102.3256    55.2719    44.4643
 4990.7160   104.5581    42.4734    39.2105
 4991.2160   105.5504    38.4225    34.2729
 4991.7160   103.8140    35.2571    31.3640
 4992.2160   105.7984    34.7467    27.7191
 4992.7160   110.7597    37.8295    28.9253
 4993.2160   114.2326    40.6072    32.1792
 4993.7160   110.7597    43.9007    36.8323
