~VERSION INFORMATION
 VERS.               1.20:   CWLS LOG ASCII STANDARD - VERSION 1.20
 WRAP.                 NO:   ONE LINE PER DEPTH STEP
~WELL INFORMATION
#MNEM.UNIT      DATA TYPE    INFORMATION
#----------   ------------   ------------------------------
 STRT.F         3541.0000:   START DEPTH
 STOP.F         5482.5000:   STOP DEPTH
 STEP.F            0.5000:   STEP LENGTH
 NULL.          -999.2500:   NO VALUE
 COMP.            COMPANY:   Fenix & Scisson, Inc.
 WELL.               WELL:   44-1 TPX 10
 FLD .              FIELD:   N.P.R. 3
 LOC .           LOCATION:   10-38N-78W-NATRONA-WY
 STAT.              STATE:   WY
 COUN.             COUNTY:   Natrona
 SRVC.    SERVICE COMPANY:   Dresser Atlas
 DATE.            LOGDATE:   12/17/1977
~CURVE INFORMATION
#MNEM.UNIT       API CODE    CURVE DESCRIPTION
#----------   ------------   ------------------------------
 DEPT.F                  :
 DPHI.none   42 890 12 00:   Den. Porosity, Ss [%]
 CALI.inches 42 280 00 00:   Caliper
 GR  .GAPI   42 310 00 00:   Gamma Ray
~PARAMETER INFORMATION
#MNEM.UNIT          VALUE    DESCRIPTION
#----------   ------------   ------------------------------
 EKB .F         5240.0000:   Kelly bushing
 EGL .F         5230.0000:   Ground level
 EDF .F            0.0000:   Drilling floor
 EPD .F           10.0000:   Permanent datum
 TD  .F         1932.0000:   Total depth
 DATE.mm/dd/yyyy 12/17/1977:   Date Logged
 DD  .ft             5471:   Depth Driller
 DL  .ft             5471:   Depth Logger
 BLI .ft             5469:   Bottom Log Interval
 TLI .ft             3550:   Top Log Interval
 CSS .inch          8.625:   Casing Size
 CTD1.ft             3023:   Casing Driller 1
 BS  .inch          7.875:   Bit Size
 DFT .                KCL:   Type Fluid In Hole
 DFD .lb/gal          9.5:   Mud Weight
 DFV .sec              38:   Viscosity
 DFPH.               11.0:   pH
 DFL .cc              8.4:   Fluid Loss
 WSS .            Mud Pit:   Source Of Sample
 RM  .ohmm           .385:   Rm
 EMT .F                78:   Rm Meas. Temp.
 RMF .ohmm            .22:   Rmf
 MFT .F                70:   Rmf Meas. Temp.
 RMC .ohmm             .8:   Rmc
 MCST.F                70:   Rmc Meas. Temp.
 MFSS.               meas:   Source Rmf.
 MCSS.               meas:   Source Rmc.
 RMB .ohmm            .16:   Rm. At BHT
 BHT .F               176:   BHT.
 TCS .hh:mm        19 hrs:   Time Circ. Stopped
 MRT .F               176:   Maximum Recorded Temp.
 LUN .               6134:   Logging Unit Number
 LUL .           Gillette:   Logging Unit Location
 ENGI.              Hoyer:   Recorded By
 WITN.     Mr. Harrington:   Witnessed By
 DGBY.              Burke:   Digitized By
~A  DEPTH     DPHI       CALI         GR
# ...
 4178.0000     5.1099    10.0396   241.0721
 4178.5000     5.2879    10.0246   241.2983
 4179.0000     6.3453    10.0425   240.8164
 4179.5000     6.3756    10.0457   236.3531
 4180.0000     5.0767    10.0489   232.1473
 4180.5000     5.1688    10.0520   229.1684
 4181.0000     5.4465    10.0552   228.9353
 4181.5000     5.8170    10.0584   228.1381
 4182.0000     3.9307    10.0616   230.2059
 4182.5000     3.9488    10.0648   230.7937
 4183.0000     4.5479    10.0680   232.4859
 4183.5000     4.5782    10.0712   231.7551
 4184.0000     4.0998    10.0744   234.2592
 4184.5000     3.0623    10.0776   237.5097
 4185.0000     3.6800    10.0808   238.5208
 4185.5000     3.8959    10.0840   238.7854
 4186.0000     4.4384    10.0872   238.0541
 4186.5000     5.2857    10.0904   237.5726
 4187.0000     6.2744    10.0936   236.1578
 4187.5000     6.2429    10.0968   231.8849
 4188.0000     6.6170    10.1298   225.9286
 4188.5000     6.1800    10.1926   221.2152
 4189.0000     6.9452    10.2086   214.7613
 4189.5000     8.0668    10.1627   212.2887
 4190.0000     9.2075    10.1789   209.5177
 4190.5000     9.8870    10.2531   208.3388
 4191.0000    10.4738    10.3305   208.5247
 4191.5000    10.4114    10.3984   208.1215
 4192.0000     9.4180    10.3835   208.7499
 4192.5000     8.4011    10.4174   206.4150
 4193.0000     7.7205    10.4937   206.4308
 4193.5000     6.9549    10.5099   210.3114
 4194.0000     6.4827    10.5105   212.9304
 4194.5000     6.0803    10.4022   213.1965
 4195.0000     6.6136    10.4651   211.3093
 4195.5000     7.4703    10.4033   208.7529
 4196.0000     7.8097    10.4040   208.2710
 4196.5000     7.8911    10.4047   205.5456
 4197.0000     7.7777    10.3742   209.0489
 4197.5000     6.5655    10.3281   209.3135
 4198.0000     5.9913    10.2822   214.0571
 4198.5000     5.3031    10.2827   213.8239
 4199.0000     5.8279    10.2990   216.3518
 4199.5000     5.2593    10.3307   223.5639
 4200.0000     3.6937    10.4247   226.0679
 4200.5000     4.6192    10.4568   228.8212
 4201.0000     4.9575    10.4422   230.0830
 4201.5000     4.3683    10.4435   228.3608
 4202.0000     4.5347    10.4756   229.3774
 4202.5000     4.1759    10.5389   231.3862
 4203.0000     3.3998    10.5244   235.1369
 4203.5000     3.0211    10.5271   238.3899
 4204.0000     3.3069    10.5424   249.9514
 4204.5000     3.8938    10.6834   256.5896
 4205.0000     2.8059    10.7464   256.4640
 4205.5000     1.3859    10.7320   256.3771
 4206.0000     2.3509    10.7488   258.3905
 4206.5000     3.9477    10.8202   262.6388
 4207.0000     5.0582    10.8753   262.6193
 4207.5000     6.6025    10.7681   265.6611
 4208.0000    11.0104    10.7375   266.9235
 4208.5000    14.1707    10.6142   264.4533
 4209.0000    17.1506    10.9575   266.9644
 4209.5000    20.1306    11.4561   267.4802
 4210.0000    23.1106    11.4730   268.2426
 4210.5000    25.2625    11.5829   267.2632
 4211.0000    19.3128    11.4152   263.5534
 4211.5000    13.6242    11.2429   262.5754
 4212.0000     8.9972    10.9949   262.3453
 4212.5000    10.0420    11.1167   266.0715
 4213.0000    13.5960    11.2106   270.5941
 4213.5000    15.6995    11.4499   272.8556
 4214.0000    14.9598    11.7925   272.3761
 4214.5000    10.8197    11.7625   270.3991
 4215.0000    10.1811    11.8104   269.9241
 4215.5000     7.6241    11.8114   269.4446
 4216.0000     8.6061    11.6415   270.4536
 4216.5000     9.8767    11.1760   265.4996
 4217.0000     9.9369    11.1188   263.1908
 4217.5000     8.1709    11.0226   258.8263
 4218.0000     5.9936    11.0068   252.8821
 4218.5000     5.2948    11.1035   246.6655
 4219.0000     6.0653    11.0809   241.5422
 4219.5000     6.2182    11.1513   237.2152
 4220.0000     6.1298    11.1524   234.7760
 4220.5000     5.8200    11.1225   233.0478
 4221.0000     5.8108    10.8434   235.5583
 4221.5000     6.3345    10.9847   235.3282
 4222.0000     5.3090    11.1413   235.5952
 4222.5000     4.5994    11.1734   233.0222
 4223.0000     4.3194    11.1589   231.5728
 4223.5000     4.5031    11.1574   229.9311
 4224.0000     5.1504    11.0369   229.2006
 4224.5000     4.2632    11.0380   232.4557
 4225.0000     4.0958    11.1011   235.4588
 4225.5000     4.2981    11.0927   235.7269
 4226.0000     4.5250    11.0256   234.7498
 4226.5000     4.4923    10.9799   237.7638
 4227.0000     4.3973    10.9810   242.5045
 4227.5000     4.2105    10.9821   243.0203
 4228.0000     4.3937    10.9652   244.7803
 4228.5000     4.2682    10.8445   244.5474
 4229.0000     3.1845    10.7617   246.3079
 4229.5000     3.7181    10.7376   246.3279
 4230.0000     3.9228    10.7294   246.0964
 4230.5000     2.2822    10.6621   245.6174
 4231.0000     2.4776    10.6631   249.6174
 4231.5000     3.6613    10.6798   249.7140
 4232.0000     4.8439    10.6809   250.4012
 4232.5000     4.9419    10.6820   252.4134
 4233.0000     5.2718    10.6521   249.8202
 4233.5000     4.4350    10.6530   249.4592
 4234.0000     4.1086    10.6697   252.7168
 4234.5000     3.8904    10.6863   252.4816
 4235.0000     3.5645    10.6874   252.2554
 4235.5000     5.0475    10.6885   254.0219
 4236.0000     6.1270    10.6896   256.0909
 4236.5000     6.0625    10.6907   256.7900
 4237.0000     6.4007    10.7073   257.2331
 4237.5000     5.9966    10.7084   259.0469
 4238.0000     5.0761    10.7097   260.0828
 4238.5000     3.3966    10.6950   259.1057
 4239.0000     3.1148    10.6806   255.9195
 4239.5000     3.1192    10.6661   253.4184
 4240.0000     3.6998    10.6392   254.9300
 4240.5000     4.6575    10.6061   254.2017
 4241.0000     6.0960    10.6072   255.2197
 4241.5000     6.6314    10.5927   252.9984
 4242.0000     4.0275    10.6249   253.7631
 4242.5000     2.6707    10.6260   255.5231
 4243.0000     3.0520    10.6271   259.7714
 4243.5000     3.8107    10.6281   258.7943
 4244.0000     3.6544    10.6292   259.3101
 4244.5000     4.2931    10.6303   257.5864
 4245.0000     5.7424    10.6314   257.6849
 4245.5000     6.0060    10.6325   261.6529
 4246.0000     6.0581    10.6336   262.6176
 4246.5000     4.8844    10.6193   259.6498
 4247.0000     4.1072    10.6202   261.5408
 4247.5000     3.3322    10.6213   261.9256
 4248.0000     1.8466    10.6224   260.2065
 4248.5000     1.8122    10.6235   258.7309
 4249.0000     2.1738    10.6091   259.5091
 4249.5000     4.5148    10.6257   260.3048
 4250.0000     6.8558    10.6267   264.5124
 4250.5000     9.3180    10.5639   263.8793
 4251.0000     8.4156    10.5200   262.8757
 4251.5000     6.7787    10.4900   262.0778
 4252.0000     7.3305    10.4755   261.5818
 4252.5000     7.0229    10.6890   264.3646
 4253.0000     6.1555    10.8302   264.2993
 4253.5000     5.9378    10.8365   262.4046
 4254.0000     7.3867    10.8532   258.1881
 4254.5000     8.1908    11.0714   258.8247
 4255.0000     8.0649    11.4230   259.9708
 4255.5000     8.0008    11.5562   259.4899
 4256.0000     7.9067    11.3087   263.9876
 4256.5000    10.4686    11.3163   267.1732
 4257.0000    14.6418    11.4042   267.5085
 4257.5000    18.8149    11.4051   261.8253
 4258.0000    22.4895    11.3907   259.0890
 4258.5000     5.7954    11.3451   257.1165
 4259.0000     7.8003    11.2373   258.1300
 4259.5000    10.3332    11.2229   259.3924
 4260.0000    12.8661    11.0746   259.1617
 4260.5000    14.3814    10.8314   256.4427
 4261.0000    15.5427    10.7442   255.2167
 4261.5000    17.5614    10.6902   256.4791
 4262.0000    15.4885    10.5920   256.4977
 4262.5000     2.0091    10.3079   257.2619
 4263.0000     0.9563    10.1418   256.0373
 4263.5000     1.8090    10.1429   258.5469
 4264.0000     2.5944    10.1596   259.8072
 4264.5000     3.3317    10.2075   257.5880
 4265.0000     4.1326    10.1928   257.1085
 4265.5000     4.4708    10.1163   256.8771
 4266.0000     5.3346    10.0549   257.3936
 4266.5000     4.8151    10.0873   253.9312
 4267.0000     2.3943    10.0573   250.7145
 4267.5000     3.5629    10.0895   254.7872
 4268.0000     4.7096    10.0594   256.4740
 4268.5000     4.8619    10.0138   258.9805
