~VERSION INFORMATION
 VERS.               2.10:   CWLS LOG ASCII STANDARD - VERSION 2.10
 WRAP.                 NO:   ONE LINE PER DEPTH STEP
~WELL INFORMATION
#MNEM.UNIT      DATA TYPE    INFORMATION
#----------   ------------   ------------------------------
 STRT.F         3538.2156:   START DEPTH
 STOP.F         5485.2939:   STOP DEPTH
 STEP.F            0.5000:   STEP LENGTH
 NULL.          -999.2500:   NO VALUE
 COMP. Fenix & Scisson,Inc.:   COMPANY
 WELL.        44-1 TPX 10:   WELL
 FLD .           N.P.R. 3:   FIELD
 LOC . 10-38N-78W-NATRONA-WY:   LOCATION
 STAT.                 WY:   STATE
 COUN.            Natrona:   COUNTY
 SRVC.      Dresser Atlas:   SERVICE COMPANY
 DATE.                   :   LOGDATE
 APIN.         4902510439:   API NUMBER
~CURVE INFORMATION
#MNEM.UNIT       API CODE    CURVE DESCRIPTION
#----------   ------------   ------------------------------
 DEPT.F                  :
 GR  .API    06 310 01 00:   Gamma Ray
 LLS .ohmm   11 220 06 00:   Dual Laterolog, shallow
 LLD .ohmm   11 220 04 00:   Dual Laterolog, Deep
~PARAMETER INFORMATION
#MNEM.UNIT          VALUE    DESCRIPTION
#----------   ------------   ------------------------------
 EKB .F         5240.0000:   Kelly bushing
 EGL .F         5230.0000:   Ground level
 EDF .F            0.0000:   Drilling floor
 EPD .F           10.0000:   Permanent datum
 TD  .F         2250.0000:   Total depth
 NRUN.             1.0000:   Number of Runs
#--RUN 1---   ------------   The following are for Run 1---
 RUN .             1.0000:   Run 1
 DATE.mm/dd/yyyy 12-17-1977:   Date Logged
 DD  .ft             5471:   Depth Driller
 DL  .ft             5471:   Depth Logger
 BLI .ft             5461:   Bottom Log Interval
 TLI .ft             3550:   Top Log Interval
 CSS .inch          8.625:   Casing Size
 CTD1.ft             3023:   Casing Driller 1
 CTL1.ft              n/a:   Casing Logger 1
 BS  .inch          7.875:   Bit Size
 DFT .                kcl:   Type Fluid In Hole
 DFD .lb/gal          9.5:   Mud Weight
 DFV .sec              38:   Viscosity
 DFPH.               11.0:   pH
 DFL .cc              8.4:   Fluid Loss
 WSS .            mud pit:   Source Of Sample
 RM  .ohmm           .385:   Rm
 EMT .F                78:   Rm Meas. Temp.
 RMF .ohmm            .22:   Rmf
 MFT .F                70:   Rmf Meas. Temp.
 RMC .ohmm             .8:   Rmc
 MCST.F                70:   Rmc Meas. Temp.
 MFSS.               meas:   Source Rmf.
 MCSS.               meas:   Source Rmc.
 RMB .ohmm            .16:   Rm. At BHT
 BHT .F               176:   BHT.
 TCS .hh:mm        10 hrs:   Time Circ. Stopped
 MRT .F               176:   Maximum Recorded Temp.
 LUN .               6134:   Logging Unit Number
 LUL .           Gillette:   Logging Unit Location
 ENGI.              Hoyer:   Recorded By
 WITN.      Mr. Harington:   Witnessed By
 DGBY.              Burke:   Digitized By
~A  DEPTH       GR        LLS        LLD
# ...
 5267.2160    99.2332   203.2118   158.0045
 5267.7160   100.7329   202.3822   161.3993
 5268.2160   101.2803   190.3828   160.2423
 5268.7160   107.9018   164.4113   154.6293
 5269.2160   117.0931   153.5646   135.0735
 5269.7160   126.4300   146.5341   123.1350
 5270.2160   131.7880   141.8333   116.3153
 5270.7160   125.7775   136.1051   106.7916
 5271.2160   127.7665   129.2420    99.4523
 5271.7160   123.8050   126.8922    93.9347
 5272.2160   121.8266   127.2783    90.5679
 5272.7160   122.3287   127.6655    89.3658
 5273.2160   118.1177   130.8221    90.6407
 5273.7160   114.4028   137.9343    93.9128
 5274.2160   104.7239   146.5470    99.4033
 5274.7160   100.4054   161.7321   105.9659
 5275.2160    96.8100   177.5099   114.5799
 5275.7160    92.3494   192.5739   126.5946
 5276.2160    92.6050   207.4324   143.2144
 5276.7160    97.8188   220.2742   158.8848
 5277.2160    98.0729   228.9617   171.8007
 5277.7160    93.3672   226.4079   176.7480
 5278.2160    89.9004   203.9051   174.2345
 5278.7160    87.1075   200.3562   168.1341
 5279.2160    76.0225   205.4656   169.3208
 5279.7160    50.9742   314.6935   218.7258
 5280.2160    27.9105   493.5526   376.2014
 5280.7160    24.6917   881.6380   533.6771
 5281.2160    23.9520  1034.4775   713.0394
 5281.7160    24.2076  1059.2484   769.9305
 5282.2160    26.6943  1070.8870   748.2618
 5282.7160    27.2095  1195.3706   758.9216
 5283.2160    25.8207  1698.9650   887.3938
 5283.7160    24.9759  2215.3950  1146.2493
 5284.2160    27.2160  2643.8582  1311.9949
 5284.7160    30.6949  2845.6848  1623.9100
 5285.2160    36.9025  2194.2471  1682.5647
 5285.7160    42.1178  1822.9806  1390.4597
 5286.2160    43.3642  1419.3315  1059.5527
 5286.7160    43.1221  1316.2776   862.0115
 5287.2160    37.1166  1310.9038   814.2700
 5287.7160    35.6923  1393.1155   802.7062
 5288.2160    36.1945  1468.8529   837.6357
 5288.7160    34.9602  1391.6493   880.3241
 5289.2160    37.4483  1148.8970   861.1932
 5289.7160    40.4311   902.6833   644.8311
 5290.2160    45.3984   656.4695   369.7619
 5290.7160    50.2963   410.2558    98.9988
 5291.2160    58.7894   233.1263    58.9814
 5291.7160    72.3580   113.6530    53.7683
 5292.2160    97.5165   108.4259    51.8857
 5292.7160   108.1892   107.2397    54.5300
 5293.2160   117.6216   107.6479    67.4940
 5293.7160   118.6198   107.9754    66.5355
 5294.2160   120.8585   105.2592    66.0588
 5294.7160   120.9041   102.6114    66.0810
 5295.2160   122.8550   101.4666    67.9530
 5295.7160   119.6377    97.5139    68.9224
 5296.2160   122.3724    93.6212    69.4089
 5296.7160   123.3707    88.2256    68.4219
 5297.2160   118.4155    77.2842    63.2679
 5297.7160   119.6618    75.8216    60.1905
 5298.2160   120.6601    80.5766    62.3645
 5298.7160   115.4344    86.7937    69.5067
 5299.2160   110.0070    92.1670    78.4867
 5299.7160   110.5091    91.1386    82.2792
 5300.2160   117.7136    84.2550    81.1107
 5300.7160   119.7122    74.0956    74.3189
 5301.2160   119.2301    55.0910    52.5391
 5301.7160   117.7522    53.3237    45.7831
 5302.2160   116.5295    55.0330    43.6726
 5302.7160   104.8559    62.7582    44.6110
 5303.2160   101.6774    71.0594    51.7932
 5303.7160    99.7034    78.2359    59.2824
 5304.2160   102.4496    84.4274    70.3109
 5304.7160   105.6885    79.8637    68.8211
 5305.2160   108.4312    70.9639    62.0120
 5305.7160   119.6080    64.2184    51.5128
 5306.2160   124.5833    57.2158    42.7235
 5306.7160   124.3493    48.5383    39.1874
 5307.2160   127.1318    42.7098    30.9820
 5307.7160   124.8770    41.6354    29.5078
 5308.2160   124.3914    40.5881    28.6780
 5308.7160   128.1264    39.5670    28.6757
 5309.2160   122.9346    39.6874    28.4702
 5309.7160   121.9564    39.5229    27.8670
 5310.2160   107.0863    37.9735    25.9518
 5310.7160   106.5945    36.7951    24.5092
 5311.2160   102.8006    36.6170    23.9693
 5311.7160    99.6905    36.7564    23.3198
 5312.2160    91.0224    37.3976    22.0283
 5312.7160    84.0907    38.3222    21.5615
 5313.2160    80.1357    36.8294    19.8053
 5313.7160    70.0857    30.6808    15.3189
 5314.2160    58.8305    23.1473    10.3616
 5314.7160    53.3822    15.6139     7.6853
 5315.2160    53.6497     8.9992     6.8096
 5315.7160    54.6591     8.0612     6.2520
 5316.2160    55.4173     7.2211     5.8590
 5316.7160    53.6949     6.6083     5.6989
 5317.2160    55.6934     6.2669     5.8213
 5317.7160    57.6920     6.2299     6.4303
 5318.2160    57.7060     6.5932     9.1106
 5318.7160    59.2084     9.7278    14.8765
 5319.2160    61.2070    15.8336    21.3324
 5319.7160    57.2555    23.1245    28.4217
 5320.2160    55.2816    30.4154    46.2643
 5320.7160    56.5359    37.7063    78.5732
 5321.2160    53.5767    50.4007    86.7944
 5321.7160    50.8621    58.3353    84.3517
 5322.2160    46.6412    59.6436   107.4184
 5322.7160    40.4727    62.3229   119.5024
 5323.2160    38.4988    77.9019   152.1815
 5323.7160    37.5241   107.5576   195.1801
 5324.2160    25.6311   166.3054   230.0803
 5324.7160    26.6885   276.2985   746.5264
 5325.2160    28.1433   386.2915  1411.8893
 5325.7160    30.3899   496.2846  -999.2500
 5326.2160    30.9001  1255.3220     0.0000
 5326.7160    32.8986     0.0000  1719.4623
 5327.2160    33.4053  1594.2957  1502.0043
 5327.7160    32.8847  1505.1871  1470.1802
 5328.2160    34.6772  1504.6031  1491.1246
 5328.7160    34.4045  1559.7198  1544.9830
 5329.2160    33.4650  1661.0641  1646.9814
 5329.7160    36.2112  1732.9806  1731.9333
 5330.2160    40.1942  1757.3542  1694.2089
 5330.7160    45.9137  1578.4216  1555.4896
 5331.2160    46.9200  1299.2540  1256.5182
 5331.7160    40.9805  1246.5760  1238.6738
 5332.2160    32.0644  1406.4996  1417.7838
 5332.7160    26.7880  1741.2067  1742.4128
 5333.2160    24.9022  -999.2500     0.0000
 5333.7160    22.6836  -999.2500     0.0000
 5334.2160    22.9457     0.0000     0.0000
 5334.7160    25.4404     0.0000     0.0000
 5335.2160    28.4312     0.0000     0.0000
 5335.7160    28.6933     0.0000     0.0000
 5336.2160    27.4667     0.0000     0.0000
 5336.7160    27.2330     0.0000     0.0000
 5337.2160    28.7360     0.0000  1744.0734
 5337.7160    27.0165  1810.0259  1644.7122
 5338.2160    25.5422  1999.2169  1791.0708
 5338.7160    25.0566  -999.2500     0.0000
 5339.2160    28.2990     0.0000     0.0000
 5339.7160    32.2820     0.0000     0.0000
 5340.2160    36.0170     0.0000     0.0000
 5340.7160    39.0180     0.0000  1816.0264
 5341.2160    40.2621  1386.6090  1466.9498
 5341.7160    40.0281  1263.2683  1309.0619
 5342.2160    41.5340  1227.2786  1281.3257
 5342.7160    41.3000  1218.0880  1272.1448
 5343.2160    38.8334  1252.8354  1272.0446
 5343.7160    34.1343  1280.2740  1308.6494
 5344.2160    26.4584  1443.5586  1385.4412
 5344.7160    25.4801  1774.3904  1491.4795
 5345.2160    22.5175  -999.2500  1853.8024
 5345.7160    23.5273  -999.2500  -999.2500
 5346.2160    24.5336  -999.2500     0.0000
 5346.7160    23.3073     0.0000     0.0000
 5347.2160    22.0775     0.0001     0.0001
 5347.7160    24.0796     0.0001     0.0000
 5348.2160    27.8145     0.0000     0.0000
 5348.7160    28.0850     0.0000   909.8011
 5349.2160    25.2976   842.3541   847.2580
 5349.7160    23.6396   930.4003   909.6398
 5350.2160    22.9095  1095.7432  1019.1922
 5350.7160    21.6844  1111.1543  1071.1340
 5351.2160    25.6709   976.8685   958.7941
 5351.7160    25.6849   718.6884   739.8586
 5352.2160    25.6990   581.6078   568.6287
 5352.7160    26.9533   535.0392   469.2420
 5353.2160    24.9794   506.1790   456.0537
 5353.7160    26.2372   551.1722   482.7071
 5354.2160    27.7397   672.6762   529.4243
 5354.7160    26.7614   722.0999   584.8074
 5355.2160    24.0468   732.1848   632.3471
 5355.7160    25.3047   621.1589   623.3546
 5356.2160    26.8071   578.1951   564.2320
 5356.7160    28.0614   545.9314   479.0502
 5357.2160    27.5758   504.5612   436.7092
 5357.7160    27.3447   504.3654   433.5886
