~VERSION INFORMATION
 VERS.               1.20:   CWLS LOG ASCII STANDARD - VERSION 1.20
 WRAP.                 NO:   ONE LINE PER DEPTH STEP
~WELL INFORMATION
#MNEM.UNIT      DATA TYPE    INFORMATION
#----------   ------------   ------------------------------
 STRT.F         3541.0000:   START DEPTH
 STOP.F         5482.5000:   STOP DEPTH
 STEP.F            0.5000:   STEP LENGTH
 NULL.          -999.2500:   NO VALUE
 COMP.            COMPANY:   Fenix & Scisson, Inc.
 WELL.               WELL:   44-1 TPX 10
 FLD .              FIELD:   N.P.R. 3
 LOC .           LOCATION:   10-38N-78W-NATRONA-WY
 STAT.              STATE:   WY
 COUN.             COUNTY:   Natrona
 SRVC.    SERVICE COMPANY:   Dresser Atlas
 DATE.            LOGDATE:   12/17/1977
~CURVE INFORMATION
#MNEM.UNIT       API CODE    CURVE DESCRIPTION
#----------   ------------   ------------------------------
 DEPT.F                  :
 DPHI.none   42 890 12 00:   Den. Porosity, Ss [%]
 CALI.inches 42 280 00 00:   Caliper
 GR  .GAPI   42 310 00 00:   Gamma Ray
~PARAMETER INFORMATION
#MNEM.UNIT          VALUE    DESCRIPTION
#----------   ------------   ------------------------------
 EKB .F         5240.0000:   Kelly bushing
 EGL .F         5230.0000:   Ground level
 EDF .F            0.0000:   Drilling floor
 EPD .F           10.0000:   Permanent datum
 TD  .F         1932.0000:   Total depth
 DATE.mm/dd/yyyy 12/17/1977:   Date Logged
 DD  .ft             5471:   Depth Driller
 DL  .ft             5471:   Depth Logger
 BLI .ft             5469:   Bottom Log Interval
 TLI .ft             3550:   Top Log Interval
 CSS .inch          8.625:   Casing Size
 CTD1.ft             3023:   Casing Driller 1
 BS  .inch          7.875:   Bit Size
 DFT .                KCL:   Type Fluid In Hole
 DFD .lb/gal          9.5:   Mud Weight
 DFV .sec              38:   Viscosity
 DFPH.               11.0:   pH
 DFL .cc              8.4:   Fluid Loss
 WSS .            Mud Pit:   Source Of Sample
 RM  .ohmm           .385:   Rm
 EMT .F                78:   Rm Meas. Temp.
 RMF .ohmm            .22:   Rmf
 MFT .F                70:   Rmf Meas. Temp.
 RMC .ohmm             .8:   Rmc
 MCST.F                70:   Rmc Meas. Temp.
 MFSS.               meas:   Source Rmf.
 MCSS.               meas:   Source Rmc.
 RMB .ohmm            .16:   Rm. At BHT
 BHT .F               176:   BHT.
 TCS .hh:mm        19 hrs:   Time Circ. Stopped
 MRT .F               176:   Maximum Recorded Temp.
 LUN .               6134:   Logging Unit Number
 LUL .           Gillette:   Logging Unit Location
 ENGI.              Hoyer:   Recorded By
 WITN.     Mr. Harrington:   Witnessed By
 DGBY.              Burke:   Digitized By
~A  DEPTH     DPHI       CALI         GR
# ...
 5088.0000    -3.2715    10.2738   232.7049
 5088.5000    -4.2396    10.3366   229.0944
 5089.0000    -4.1802    10.3682   222.1419
 5089.5000    -3.4409    10.3997   213.4877
 5090.0000    -0.6021    10.4313   204.1298
 5090.5000    -0.2641    10.4316   194.7719
 5091.0000    -0.3590    10.4475   185.4141
 5091.5000    -0.2996    10.4634   179.1375
 5092.0000    -0.3330    10.4800   177.4020
 5092.5000    -0.2424    10.5109   178.4059
 5093.0000    -0.4924    10.5269   178.9141
 5093.5000    -0.5904    10.5428   181.1621
 5094.0000    -0.6817    10.5431   183.6591
 5094.5000    -0.5610    10.5591   188.0612
 5095.0000    -0.8413    10.5594   195.4032
 5095.5000    -1.0908    10.5597   203.8420
 5096.0000    -1.2414    10.5756   205.7140
 5096.5000    -0.5090    10.4509   203.8168
 5097.0000    -0.2333    10.3566   195.6560
 5097.5000     0.1042    10.3422   198.4017
 5098.0000     0.1330    10.3112   212.3448
 5098.5000    -0.2711    10.2960   219.5894
 5099.0000    -0.2110    10.2963   224.4231
 5099.5000    -0.1830    10.2966   236.5168
 5100.0000     0.0310    10.2969   242.4898
 5100.5000     0.2480    10.2816   241.5085
 5101.0000     0.3845    10.2819   241.7674
 5101.5000     0.7338    10.2822   239.1287
 5102.0000     0.6647    10.2825   235.8253
 5102.5000     0.1496    10.2984   226.9250
 5103.0000    -0.3482    10.3300   213.5397
 5103.5000    -0.4731    10.3303   200.1544
 5104.0000    -0.2122    10.3306   187.8672
 5104.5000    -0.0146    10.3309   180.9019
 5105.0000    -0.3883    10.3313   182.1594
 5105.5000    -0.7305    10.3316   183.5860
 5106.0000    -0.6175    10.3163   187.6633
 5106.5000    -0.5192    10.2853   197.4000
 5107.0000    -0.3672    10.2700   213.4111
 5107.5000    -0.4932    10.2547   222.2893
 5108.0000    -0.1874    10.2550   223.3001
 5108.5000    -0.0156    10.2397   226.2994
 5109.0000     0.2093    10.2034   227.5536
 5109.5000     0.1901    10.1465   229.0632
 5110.0000     0.0809    10.0532   228.8773
 5110.5000     0.0482     9.9910   223.9827
 5111.0000     0.0514     9.9756   210.3211
 5111.5000    -0.5214     9.9759   201.2482
 5112.0000    -1.2611     9.9762   192.2816
 5112.5000    -0.7885     9.9766   191.6787
 5113.0000    -0.6448     9.9925   210.9675
 5113.5000     0.6810    10.0397   215.4883
 5114.0000     1.2654    11.1807   210.5250
 5114.5000     2.1896    11.2278   207.8011
 5115.0000    -0.5360    10.6000   205.0739
 5115.5000    -2.0250     9.9003   206.5802
 5116.0000    -1.8332     9.8538   207.5000
 5116.5000    -2.1136     9.8069   208.5959
 5117.0000    -0.4178     9.7430   207.8358
 5117.5000    -0.2652     9.6828   206.6368
 5118.0000     0.0098     9.6886   207.3967
 5118.5000     0.5015    10.0531   209.6528
 5119.0000     1.8580    11.7931   214.8916
 5119.5000     1.5968    11.1878   215.4787
 5120.0000     0.3100     9.5906   218.4019
 5120.5000    -0.4805     9.5753   223.8896
 5121.0000    -0.3444     9.5600   237.5948
 5121.5000    -0.4302     9.5603   237.1838
 5122.0000    -0.5599     9.5763   235.9353
 5122.5000    -0.8387     9.5922   233.8995
 5123.0000    -1.0412     9.5612   240.6313
 5123.5000    -0.7281     9.5616   251.5933
 5124.0000    -0.8693     9.5619   252.8498
 5124.5000    -2.4011     9.5778   254.8548
 5125.0000    -2.4499     9.5781   253.3748
 5125.5000    -1.9736     9.5784   249.8611
 5126.0000    -2.0942     9.5788   243.1730
 5126.5000    -5.4898     9.5946   226.8972
 5127.0000    -8.8854     9.5793   219.2554
 5127.5000  -999.2500     9.5953   206.9893
 5128.0000  -999.2500     9.5956   202.1953
 5128.5000  -999.2500     9.6116   214.0650
 5129.0000  -999.2500     9.6141   224.8690
 5129.5000  -999.2500     9.6434   226.1643
 5130.0000    -9.1406     9.6594   225.3934
 5130.5000    -6.5918     9.6753   231.1693
 5131.0000    -4.0430     9.6913   237.6128
 5131.5000    -3.3627     9.7072   231.9063
 5132.0000    -3.5360     9.7075   228.4359
 5132.5000    -5.3350     9.7234   223.7214
 5133.0000    -8.2569     9.7238   220.9976
 5133.5000  -999.2500     9.7241   215.0389
 5134.0000  -999.2500     9.7244   202.1665
 5134.5000  -999.2500     9.7403   200.1989
 5135.0000  -999.2500     9.7406   193.9818
 5135.5000  -999.2500     9.7409   185.0130
 5136.0000  -999.2500     9.7413   178.3526
 5136.5000  -999.2500     9.7416   178.2903
 5137.0000  -999.2500     9.7419   181.7564
 5137.5000  -999.2500     9.7265   184.3254
 5138.0000    -8.7109     9.7269   193.0872
 5138.5000    -5.9186     9.7428   205.0569
 5139.0000    -3.1264     9.7587   233.3978
 5139.5000    -0.8393     9.7747   254.2694
 5140.0000    -0.7799     9.7907   254.7798
 5140.5000    -0.8750     9.8066   247.5803
 5141.0000    -0.6619     9.8382   243.3634
 5141.5000    -0.4987     9.8541   237.2657
 5142.0000  -999.2500     9.8700   224.1539
 5142.5000    -4.4618     9.9016   211.0420
 5143.0000    -8.6222     9.9331   197.9301
 5143.5000  -999.2500     9.9647   189.6808
 5144.0000  -999.2500     9.9831   190.6928
 5144.5000  -999.2500    10.0279   196.6781
 5145.0000  -999.2500    10.0594   199.1798
 5145.5000  -999.2500    10.0597   196.2748
 5146.0000  -999.2500    10.0600   188.5066
 5146.5000    -8.7018    10.0759   189.7642
 5147.0000    -6.7043    10.1075   189.5701
 5147.5000    -4.7068    10.1382   189.7907
 5148.0000    -4.0321    10.1862   187.9136
 5148.5000    -7.9336    10.2204   181.3603
 5149.0000  -999.2500    10.2650   181.1215
 5149.5000  -999.2500    10.2653   179.2857
 5150.0000  -999.2500    10.2813   179.3271
 5150.5000  -999.2500    10.2816   179.6975
 5151.0000  -999.2500    10.2819   182.1875
 5151.5000  -999.2500    10.2978   182.6849
 5152.0000  -999.2500    10.3138   185.4382
 5152.5000  -999.2500    10.3297   192.1839
 5153.0000  -999.2500    10.3456   201.3902
 5153.5000    -9.3111    10.3459   213.2068
 5154.0000    -3.4452    10.3619   227.5443
 5154.5000    -3.9110    10.6577   228.7123
 5155.0000    -6.7350    10.9094   219.0970
 5155.5000  -999.2500    10.8628   209.2566
 5156.0000  -999.2500    11.1424   199.4162
 5156.5000  -999.2500    11.1291   189.5758
 5157.0000  -999.2500    10.0513   181.3445
 5157.5000  -999.2500    10.0516   179.1136
 5158.0000  -999.2500    10.0362   176.1456
 5158.5000  -999.2500    10.0522   175.9092
 5159.0000  -999.2500    10.0525   176.6304
 5159.5000  -999.2500    10.0372   177.4297
 5160.0000  -999.2500    10.0375   178.7384
 5160.5000  -999.2500    10.0351   181.1165
 5161.0000    -8.5858    10.0225   192.7040
 5161.5000    -8.7835    10.0228   198.3883
 5162.0000  -999.2500    10.0231   199.3936
 5162.5000  -999.2500    10.0234   197.6672
 5163.0000  -999.2500    10.0238   199.7525
 5163.5000  -999.2500    10.0084   208.4391
 5164.0000  -999.2500    10.0087   228.0620
 5164.5000  -999.2500    10.0079   239.0370
 5165.0000  -999.2500     9.9752   241.0343
 5165.5000  -999.2500     9.9315   244.7801
 5166.0000  -999.2500     9.9006   243.0482
 5166.5000  -999.2500     9.8697   245.8021
 5167.0000  -999.2500     9.8388   245.3177
 5167.5000  -999.2500     9.8234   245.9429
 5168.0000  -999.2500     9.8238   247.8360
 5168.5000  -999.2500     9.8241   245.8586
 5169.0000  -999.2500     9.8244   246.8653
 5169.5000  -999.2500     9.8247   243.3969
 5170.0000  -999.2500     9.8094   238.7486
 5170.5000  -999.2500     9.8097   231.0875
 5171.0000  -999.2500     9.7944   210.8397
 5171.5000  -999.2500     9.8103   206.3266
 5172.0000    -9.6042     9.8106   203.4013
 5172.5000    -6.4673     9.7797   227.0147
 5173.0000    -3.3469     9.7019   233.7890
 5173.5000    -2.9866     9.6397   225.4929
 5174.0000    -7.6501     9.5932   207.8544
 5174.5000  -999.2500     9.5778   195.9364
 5175.0000  -999.2500     9.5782   194.7745
 5175.5000  -999.2500     9.6097   198.7216
 5176.0000    -9.4039     9.5944   209.2343
 5176.5000    -6.3558     9.5947   230.6979
 5177.0000    -4.9982     9.5950   237.2878
 5177.5000    -4.0571     9.5797   242.1225
 5178.0000    -3.1183     9.5161   246.1172
 5178.5000    -2.7663     9.4397   246.8770
