~VERSION INFORMATION
 VERS.               1.20:   CWLS LOG ASCII STANDARD - VERSION 1.20
 WRAP.                 NO:   ONE LINE PER DEPTH STEP
~WELL INFORMATION
#MNEM.UNIT      DATA TYPE    INFORMATION
#----------   ------------   ------------------------------
 STRT.F         3541.0000:   START DEPTH
 STOP.F         5482.5000:   STOP DEPTH
 STEP.F            0.5000:   STEP LENGTH
 NULL.          -999.2500:   NO VALUE
 COMP.            COMPANY:   Fenix & Scisson, Inc.
 WELL.               WELL:   44-1 TPX 10
 FLD .              FIELD:   N.P.R. 3
 LOC .           LOCATION:   10-38N-78W-NATRONA-WY
 STAT.              STATE:   WY
 COUN.             COUNTY:   Natrona
 SRVC.    SERVICE COMPANY:   Dresser Atlas
 DATE.            LOGDATE:   12/17/1977
~CURVE INFORMATION
#MNEM.UNIT       API CODE    CURVE DESCRIPTION
#----------   ------------   ------------------------------
 DEPT.F                  :
 DPHI.none   42 890 12 00:   Den. Porosity, Ss [%]
 CALI.inches 42 280 00 00:   Caliper
 GR  .GAPI   42 310 00 00:   Gamma Ray
~PARAMETER INFORMATION
#MNEM.UNIT          VALUE    DESCRIPTION
#----------   ------------   ------------------------------
 EKB .F         5240.0000:   Kelly bushing
 EGL .F         5230.0000:   Ground level
 EDF .F            0.0000:   Drilling floor
 EPD .F           10.0000:   Permanent datum
 TD  .F         1932.0000:   Total depth
 DATE.mm/dd/yyyy 12/17/1977:   Date Logged
 DD  .ft             5471:   Depth Driller
 DL  .ft             5471:   Depth Logger
 BLI .ft             5469:   Bottom Log Interval
 TLI .ft             3550:   Top Log Interval
 CSS .inch          8.625:   Casing Size
 CTD1.ft             3023:   Casing Driller 1
 BS  .inch          7.875:   Bit Size
 DFT .                KCL:   Type Fluid In Hole
 DFD .lb/gal          9.5:   Mud Weight
 DFV .sec              38:   Viscosity
 DFPH.               11.0:   pH
 DFL .cc              8.4:   Fluid Loss
 WSS .            Mud Pit:   Source Of Sample
 RM  .ohmm           .385:   Rm
 EMT .F                78:   Rm Meas. Temp.
 RMF .ohmm            .22:   Rmf
 MFT .F                70:   Rmf Meas. Temp.
 RMC .ohmm             .8:   Rmc
 MCST.F                70:   Rmc Meas. Temp.
 MFSS.               meas:   Source Rmf.
 MCSS.               meas:   Source Rmc.
 RMB .ohmm            .16:   Rm. At BHT
 BHT .F               176:   BHT.
 TCS .hh:mm        19 hrs:   Time Circ. Stopped
 MRT .F               176:   Maximum Recorded Temp.
 LUN .               6134:   Logging Unit Number
 LUL .           Gillette:   Logging Unit Location
 ENGI.              Hoyer:   Recorded By
 WITN.     Mr. Harrington:   Witnessed By
 DGBY.              Burke:   Digitized By
~A  DEPTH     DPHI       CALI         GR
# ...
 4360.0000    23.2771     8.6781   202.4261
 4360.5000    23.7694     8.6780   203.1726
 4361.0000    23.3968     8.6467   203.4215
 4361.5000    23.4567     8.6466   201.4778
 4362.0000    23.0635     8.6153   200.6843
 4362.5000    22.4797     8.5996   200.9441
 4363.0000    21.8791     8.5995   202.7529
 4363.5000    20.0819     8.5838   203.9191
 4364.0000    20.3271     8.5837   203.9191
 4364.5000    22.2402     8.5837   205.4121
 4365.0000    23.7703     8.5836   206.6563
 4365.5000    23.5025     8.5835   207.6516
 4366.0000    23.3153     8.5834   207.4028
 4366.5000    23.7459     8.5834   209.6423
 4367.0000    23.7435     8.5989   212.1306
 4367.5000    23.7107     8.5988   212.3795
 4368.0000    22.9984     8.6300   215.8631
 4368.5000    21.8227     8.6455   219.0980
 4369.0000    17.2694     8.7087   220.1259
 4369.5000    12.3250     8.8721   220.0893
 4370.0000     9.5548     9.0203   221.8351
 4370.5000    10.7932     9.0984   222.0840
 4371.0000    11.8054     9.0983   224.3235
 4371.5000    11.4946     9.1138   221.3375
 4372.0000    13.1552     9.1294   218.3515
 4372.5000    15.7446     9.0199   216.6096
 4373.0000    17.3183     8.8781   214.8678
 4373.5000    18.8093     8.8136   214.3701
 4374.0000    20.4070     8.7595   214.1113
 4374.5000    20.5947     8.6915   213.1260
 4375.0000    20.4384     8.6758   212.3795
 4375.5000    20.9302     8.6757   211.6330
 4376.0000    21.8766     8.6912   211.8818
 4376.5000    22.9655     8.6912   211.8818
 4377.0000    22.2527     8.7067   211.8818
 4377.5000    21.8398     8.7066   211.6330
 4378.0000    21.3679     8.7066   211.8818
 4378.5000    20.6095     8.7065   212.1174
 4379.0000    20.3605     8.7064   211.0094
 4379.5000    20.1737     8.7220   208.0785
 4380.0000    19.6496     8.7219   209.1446
 4380.5000    18.7486     8.6905   209.3935
 4381.0000    19.6111     8.6905   208.4897
 4381.5000    20.2053     8.7685   207.4028
 4382.0000    20.5960     8.8309   207.6516
 4382.5000    20.8414     8.8309   206.6693
 4383.0000    19.9332     8.8308   205.3902
 4383.5000    19.0366     8.7719   203.9191
 4384.0000    18.9511     8.6900   201.9285
 4384.5000    19.8186     8.6430   202.4261
 4385.0000    21.5811     8.6273   202.1773
 4385.5000    22.9605     8.6116   202.4261
 4386.0000    23.7963     8.6116   202.4261
 4386.5000    24.0065     8.6115   201.6796
 4387.0000    23.5103     8.6114   201.6796
 4387.5000    22.8979     8.6113   201.6796
 4388.0000    20.8966     8.6112   201.6796
 4388.5000    18.8953     8.6112   201.6796
 4389.0000    17.9432     8.6111   201.9285
 4389.5000    18.2497     8.6110   202.4261
 4390.0000    20.0394     8.6109   203.9191
 4390.5000    20.3542     8.6109   203.6703
 4391.0000    20.5298     8.6264   204.1504
 4391.5000    20.7132     8.6263   205.4341
 4392.0000    19.9360     8.5950   207.5215
 4392.5000    18.6703     8.5468   208.6470
 4393.0000    19.1904     8.5323   209.6423
 4393.5000    20.9803     8.5115   208.3951
 4394.0000    22.9886     8.4697   206.6563
 4394.5000    22.0292     8.4540   205.6610
 4395.0000    21.8420     8.5008   204.6656
 4395.5000    21.3768     8.6413   205.9098
 4396.0000    20.1812     8.6417   208.7069
 4396.5000    17.8822     8.6272   208.8958
 4397.0000    17.7134     8.6411   208.1493
 4397.5000    17.4704     8.6254   206.6933
 4398.0000    17.0734     8.6409   203.4215
 4398.5000    16.8051     8.5784   200.4355
 4399.0000    17.4002     8.5314   198.6936
 4399.5000    19.5691     8.5470   196.7030
 4400.0000    19.9663     8.5469   197.3250
 4400.5000    22.2439     8.5313   200.9469
 4401.0000    24.2368     8.5314   200.1839
 4401.5000    22.7527     8.5057   198.3660
 4402.0000    22.7514     8.4534   198.1908
 4402.5000    22.1320     8.4066   197.1944
 4403.0000    20.9218     8.4067   197.0409
 4403.5000    20.2792     8.4068   196.4454
 4404.0000    20.4021     8.4069   196.1953
 4404.5000    21.0337     8.4226   197.1894
 4405.0000    21.6928     8.4445   193.9534
 4405.5000    21.5370     8.5165   195.5610
 4406.0000    19.9604     8.5322   196.1904
 4406.5000    19.7164     8.5435   195.6913
 4407.0000    19.0311     8.6261   195.4415
 4407.5000    19.5858     8.6418   198.4260
 4408.0000    20.3570     8.5944   199.6693
 4408.5000    20.6025     8.5326   199.9165
 4409.0000    20.7865     8.5327   203.1502
 4409.5000    21.3727     8.5171   203.6466
 4410.0000    21.4634     8.5172   206.3384
 4410.5000    21.1223     8.5173   208.3720
 4411.0000    21.6148     8.5330   205.6336
 4411.5000    21.7062     8.5487   205.3833
 4412.0000    22.6315     8.5487   205.6311
 4412.5000    22.7230     8.5488   206.6250
 4413.0000    22.2435     8.5662   210.3562
 4413.5000    19.6328     8.6427   219.0642
 4414.0000    16.4796     8.7103   220.0586
 4414.5000    19.2521     8.7835   209.6061
 4415.0000    22.1465     8.7523   206.1212
 4415.5000    23.6352     8.7055   205.1247
 4416.0000    25.2154     8.7056   202.6351
 4416.5000    24.7853     8.7057   202.1362
 4417.0000    23.7375     8.7058   202.5709
 4417.5000    23.2258     8.8309   200.1429
 4418.0000    22.9244     8.8153   201.6346
 4418.5000    22.8610     8.7373   201.6334
 4419.0000    22.5508     8.7746   202.3787
 4419.5000    22.9201     8.7999   202.1288
 4420.0000    22.7955     8.7437   204.3755
 4420.5000    22.9487     8.7220   206.3565
 4421.0000    22.2416     8.7220   207.5838
 4421.5000    21.8028     8.7377   209.3684
 4422.0000    20.8654     8.7699   210.3341
 4422.5000    20.3484     8.8160   212.3233
 4423.0000    20.6888     8.7067   213.2382
 4423.5000    20.6499     8.6599   215.2781
 4424.0000    20.3441     8.7069   218.2916
 4424.5000    19.5089     8.7070   217.5439
 4425.0000    19.0751     8.8164   218.2895
 4425.5000    17.2293     8.9380   218.2880
 4426.0000    15.0573     9.0316   220.2774
 4426.5000    16.5074     9.0041   218.0088
 4427.0000    17.2224     8.8720   215.5083
 4427.5000    18.3801     8.6449   212.0620
 4428.0000    18.7796     8.6294   206.3376
 4428.5000    19.2512     8.7076   203.9816
 4429.0000    19.5796     8.6601   204.2360
 4429.5000    19.8354     8.5984   205.5875
 4430.0000    19.1542     8.5984   209.0116
 4430.5000    18.9676     8.6141   209.5664
 4431.0000    19.4604     8.6142   212.6326
 4431.5000    19.3665     8.6299   216.2825
 4432.0000    18.5003     8.7262   216.7789
 4432.5000    14.2473     8.8176   218.0216
 4433.0000     9.5994     8.9874   219.5133
 4433.5000     6.4809     9.2552   218.0191
 4434.0000     6.4489     9.3491   213.7220
 4434.5000     5.4424     9.3960   200.8472
 4435.0000     3.4168     9.3961   194.8740
 4435.5000     1.1935     9.3962   189.3984
 4436.0000     1.4087     9.3962   188.4053
 4436.5000     0.8370     9.4170   186.3883
 4437.0000    -0.1575     9.4929   186.6573
 4437.5000    -0.6035     9.5689   187.4029
 4438.0000    -0.6547     9.5528   187.6505
 4438.5000    -0.3899     9.5060   188.6446
 4439.0000     0.5045     9.3655   188.3943
 4439.5000     0.3491     9.2718   188.6422
 4440.0000     1.3626     9.2250   187.1477
 4440.5000     2.5700     9.2251   186.1511
 4441.0000     3.0904     9.2927   185.6523
 4441.5000     3.1860     9.5065   185.9536
 4442.0000     1.1076     9.5222   186.8940
 4442.5000     0.4281     9.4910   186.3948
 4443.0000    -0.4022     9.3974   185.1494
 4443.5000    -0.4341     9.3974   183.7772
 4444.0000    -0.4220     9.4444   183.1566
 4444.5000    -0.8386     9.5851   185.6434
 4445.0000    -1.1797     9.6008   187.1353
 4445.5000    -1.5516     9.6165   187.6118
 4446.0000    -0.5954     9.6525   187.1328
 4446.5000    -0.2570     9.6948   187.6597
 4447.0000    -0.2902     9.6480   189.1211
 4447.5000     1.2098     9.6480   188.1242
 4448.0000     2.3953     9.6481   189.1186
 4448.5000     2.2087     9.7420   186.8776
 4449.0000     0.9100     9.8536   185.4755
 4449.5000     1.0143    10.0546   184.4535
 4450.0000     3.3750    10.1484   183.8880
 4450.5000     5.7358    10.1502   184.3844
