~VERSION INFORMATION
 VERS.               2.10:   CWLS LOG ASCII STANDARD - VERSION 2.10
 WRAP.                 NO:   ONE LINE PER DEPTH STEP
~WELL INFORMATION
#MNEM.UNIT      DATA TYPE    INFORMATION
#----------   ------------   ------------------------------
 STRT.F         3538.2156:   START DEPTH
 STOP.F         5485.2939:   STOP DEPTH
 STEP.F            0.5000:   STEP LENGTH
 NULL.          -999.2500:   NO VALUE
 COMP. Fenix & Scisson,Inc.:   COMPANY
 WELL.        44-1 TPX 10:   WELL
 FLD .           N.P.R. 3:   FIELD
 LOC . 10-38N-78W-NATRONA-WY:   LOCATION
 STAT.                 WY:   STATE
 COUN.            Natrona:   COUNTY
 SRVC.      Dresser Atlas:   SERVICE COMPANY
 DATE.                   :   LOGDATE
 APIN.         4902510439:   API NUMBER
~CURVE INFORMATION
#MNEM.UNIT       API CODE    CURVE DESCRIPTION
#----------   ------------   ------------------------------
 DEPT.F                  :
 GR  .API    06 310 01 00:   Gamma Ray
 LLS .ohmm   11 220 06 00:   Dual Laterolog, shallow
 LLD .ohmm   11 220 04 00:   Dual Laterolog, Deep
~PARAMETER INFORMATION
#MNEM.UNIT          VALUE    DESCRIPTION
#----------   ------------   ------------------------------
 EKB .F         5240.0000:   Kelly bushing
 EGL .F         5230.0000:   Ground level
 EDF .F            0.0000:   Drilling floor
 EPD .F           10.0000:   Permanent datum
 TD  .F         2250.0000:   Total depth
 NRUN.             1.0000:   Number of Runs
#--RUN 1---   ------------   The following are for Run 1---
 RUN .             1.0000:   Run 1
 DATE.mm/dd/yyyy 12-17-1977:   Date Logged
 DD  .ft             5471:   Depth Driller
 DL  .ft             5471:   Depth Logger
 BLI .ft             5461:   Bottom Log Interval
 TLI .ft             3550:   Top Log Interval
 CSS .inch          8.625:   Casing Size
 CTD1.ft             3023:   Casing Driller 1
 CTL1.ft              n/a:   Casing Logger 1
 BS  .inch          7.875:   Bit Size
 DFT .                kcl:   Type Fluid In Hole
 DFD .lb/gal          9.5:   Mud Weight
 DFV .sec              38:   Viscosity
 DFPH.               11.0:   pH
 DFL .cc              8.4:   Fluid Loss
 WSS .            mud pit:   Source Of Sample
 RM  .ohmm           .385:   Rm
 EMT .F                78:   Rm Meas. Temp.
 RMF .ohmm            .22:   Rmf
 MFT .F                70:   Rmf Meas. Temp.
 RMC .ohmm             .8:   Rmc
 MCST.F                70:   Rmc Meas. Temp.
 MFSS.               meas:   Source Rmf.
 MCSS.               meas:   Source Rmc.
 RMB .ohmm            .16:   Rm. At BHT
 BHT .F               176:   BHT.
 TCS .hh:mm        10 hrs:   Time Circ. Stopped
 MRT .F               176:   Maximum Recorded Temp.
 LUN .               6134:   Logging Unit Number
 LUL .           Gillette:   Logging Unit Location
 ENGI.              Hoyer:   Recorded By
 WITN.      Mr. Harington:   Witnessed By
 DGBY.              Burke:   Digitized By
~A  DEPTH       GR        LLS        LLD
# ...
 5358.2160    28.8477   529.9667   462.2047
 5358.7160    28.6137   541.4059   472.1359
 5359.2160    28.1316   560.5794   489.4350
 5359.7160    26.9054   572.4750   514.1089
 5360.2160    24.9355   601.5335   544.1660
 5360.7160    23.9500   645.7301   588.4018
 5361.2160    23.7110   688.2501   659.2659
 5361.7160    23.4719   799.0854   776.3702
 5362.2160    22.9602  1003.4504   933.9927
 5362.7160    22.2346  1277.6898  1123.6166
 5363.2160    22.2632  1452.4712  1316.2007
 5363.7160    22.0219  1494.0494  1451.2362
 5364.2160    23.5215  1276.5649  1430.6265
 5364.7160    24.0267  1138.5151  1147.4642
 5365.2160    25.0280   959.1066   988.1891
 5365.7160    27.0215   657.0700   528.4345
 5366.2160    27.0305   537.7712   502.7306
 5366.7160    25.7992   557.2178   502.6910
 5367.2160    24.5702   628.7645   536.7811
 5367.7160    20.8583   904.0953   640.0935
 5368.2160    19.1286  1072.3809   832.7122
 5368.7160    21.8663  1477.4045  1450.0646
 5369.2160    22.8698  1599.0569  1545.8270
 5369.7160    22.6285  1336.0377  1534.7206
 5370.2160    24.1282  1297.9603  1350.1954
 5370.7160    24.1373  1373.4833  1266.3774
 5371.2160    26.1330  1334.3536  1230.7599
 5371.7160    28.8707  1250.9462  1211.7745
 5372.2160    31.1122  1164.4219  1137.9414
 5372.7160    32.3616   953.3547  1004.3017
 5373.2160    33.3628   775.0018   820.2938
 5373.7160    35.1083   671.0933   701.2730
 5374.2160    36.3576   625.2365   625.3651
 5374.7160    38.8650   607.4240   595.4730
 5375.2160    41.0911   602.8752   591.2179
 5375.7160    38.3714   633.4767   608.2191
 5376.2160    36.3960   714.8152   653.0010
 5376.7160    35.1624   783.9221   796.8308
 5377.2160    34.6776  1079.9988  1229.5576
 5377.7160    29.2292  1620.0447  1883.8350
 5378.2160    26.7576  -999.2500  -999.2500
 5378.7160    25.0302  -999.2500     0.0000
 5379.2160    25.7857     0.0000     0.0000
 5379.7160    27.5311     0.0000     0.0000
 5380.2160    27.7882     0.0000     0.0000
 5380.7160    30.0298     0.0000     0.0000
 5381.2160    30.5327     0.0000     0.0000
 5381.7160    27.5672     0.0000     0.0000
 5382.2160    28.3204     0.0000     0.0000
 5382.7160    26.3275     0.0000     0.0000
 5383.2160    27.8446     0.0000     0.0000
 5383.7160    31.0762     0.0000     0.0000
 5384.2160    28.1107     0.0000     0.0000
 5384.7160    25.8872     0.0000     0.0000
 5385.2160    21.4311     0.0000     0.0000
 5385.7160    16.9750     0.0000     0.0000
 5386.2160    17.9762     0.0000     0.0000
 5386.7160    18.0556     0.0000     0.0000
 5387.2160    19.4849     0.0000     0.0000
 5387.7160    21.2303     0.0000     0.0000
 5388.2160    23.4697     0.0000     0.0000
 5388.7160    19.2631     0.0000     0.0000
 5389.2160    19.0241     0.0000     0.0000
 5389.7160    19.2815     0.0000     0.0000
 5390.2160    17.3057     0.0000     0.0000
 5390.7160    18.8054     0.0000     0.0000
 5391.2160    18.0679     0.0000     0.0000
 5391.7160    20.3118     0.0000     0.0000
 5392.2160    21.8092     0.0000     0.0000
 5392.7160    22.8104     0.0000     0.0000
 5393.2160    24.5559     0.0000     0.0000
 5393.7160    24.0688     0.0000     0.0000
 5394.2160    22.8397     0.0000     0.0000
 5394.7160    20.3681     0.0000     0.0000
 5395.2160    19.3827     0.0000     0.0000
 5395.7160    20.6343     0.0000  -999.2500
 5396.2160    21.1394  -999.2500  -999.2500
 5396.7160    21.6678  -999.2500    83.3310
 5397.2160    23.8937  -999.2500    74.6214
 5397.7160    23.6471    74.9180    70.2423
 5398.2160    24.1522    71.7533    71.7515
 5398.7160    21.9309    76.4706    76.4884
 5399.2160    19.9555    81.5061    78.6910
 5399.7160    18.7242    79.7505    72.2465
 5400.2160    18.2348    70.1193    65.3942
 5400.7160    19.9825    63.8883    60.8667
 5401.2160    20.7559    59.8516    57.0530
 5401.7160    22.1445    56.9517    54.7278
 5402.2160    23.5331    54.9361    54.3357
 5402.7160    24.9218    54.5247    55.5031
 5403.2160    26.5104    56.8854    58.7481
 5403.7160    25.7764    60.2005    67.2429
 5404.2160    26.0414    96.3309   100.8496
 5404.7160    24.8147    95.6096   100.0411
 5405.2160    23.3399    76.2526    81.1461
 5405.7160    22.8572    64.5422    67.7002
 5406.2160    23.3788    60.9407    62.1570
 5406.7160    24.6589    59.2045    60.8412
 5407.2160    25.8783    62.2097    64.8566
 5407.7160    26.8841    71.2054    80.2757
 5408.2160    25.9021    79.7775    89.3063
 5408.7160    24.6788    90.0209    89.9367
 5409.2160    23.7001    86.8266    85.3788
 5409.7160    22.9695    81.3992    76.3514
 5410.2160    22.9831    75.7691    71.1042
 5410.7160    23.9906    66.1454    66.2175
 5411.2160    27.2542    60.6987    63.8991
 5411.7160    27.7405    59.8163    62.9916
 5412.2160    26.0176    60.2209    62.9410
 5412.7160    24.7909    61.7559    64.8095
 5413.2160    25.7968    77.2195    74.7913
 5413.7160    26.3031    94.2422    99.2706
 5414.2160    26.0686   116.6692   128.2281
 5414.7160    26.8298   165.3828   190.9511
 5415.2160    27.3395   236.1134   250.1857
 5415.7160    28.6091   270.2563   272.4544
 5416.2160    29.9327   262.2744   264.7917
 5416.7160    34.0813   191.7740   155.0756
 5417.2160    41.0407   155.8970   123.0899
 5417.7160    44.0310   131.3306   101.3456
 5418.2160    44.5373    96.6208    94.3806
 5418.7160    39.3450    94.5396    94.3731
 5419.2160    36.6299   102.9431   109.5668
 5419.7160    35.1551   108.9425   107.2453
 5420.2160    34.4201    95.3985    95.0243
 5420.7160    33.4459    83.6115    89.1135
 5421.2160    34.7032    81.8106    86.0046
 5421.7160    37.6935    84.7463    85.3869
 5422.2160    38.4479    90.9729    89.1025
 5422.7160    37.9654    97.6570    97.0334
 5423.2160    39.9669   108.6362   111.8570
 5423.7160    37.4998   122.2465   121.8132
 5424.2160    36.7365   180.0568   161.8871
 5424.7160    40.9999   198.8771   198.9543
 5425.2160    40.0010   193.2112   193.0233
 5425.7160    40.7790   173.5498   175.0161
 5426.2160    41.5402   159.2590   159.5472
 5426.7160    43.2902   148.2435   137.4011
 5427.2160    42.0635   139.9714   133.5368
 5427.7160    42.0771   132.9961   132.5799
 5428.2160    41.0984   129.3017   130.6971
 5428.7160    40.5720   126.5167   124.3398
 5429.2160    38.3969   121.1723   118.2914
 5429.7160    38.6587   118.5624   119.1243
 5430.2160    40.1610   117.6745   122.5522
 5430.7160    39.1853   119.3180   123.4197
 5431.2160    33.9896   120.9844   119.0961
 5431.7160    33.0109   118.3671   115.7466
 5432.2160    34.7610   114.9949   111.6940
 5432.7160    36.7591   110.9252   108.5527
 5433.2160    37.5889   109.3124   107.7746
 5433.7160    36.0443   109.2700   111.6654
 5434.2160    35.0623   114.0009   115.6987
 5434.7160    32.5986   115.5932   116.5176
 5435.2160    31.8240   117.5963   117.3377
 5435.7160    31.7247   133.1901   188.0405
 5436.2160    31.6438   156.8595   210.2062
 5436.7160    29.9243   192.8083   262.0379
 5437.2160    29.4417   205.5043   299.9281
 5437.7160    29.2073   191.2902   310.7675
 5438.2160    30.7127   162.2993   295.6454
 5438.7160    29.9821   133.6400   263.8250
 5439.2160    30.4918   132.7197   208.6178
 5439.7160    30.5054   136.1785   158.3720
 5440.2160    29.0306   139.6374   130.4408
 5440.7160    28.0486   143.0963   141.0444
 5441.2160    32.8899   146.5551   169.6800
 5441.7160    34.0315   150.6978   196.9977
 5442.2160    32.5567   173.7233   227.0927
 5442.7160    33.3179   176.1666   245.5533
 5443.2160    34.5684   163.9658   242.0660
 5443.7160    33.0970   149.3953   231.5562
 5444.2160    29.6377   133.2394   192.4892
 5444.7160    29.5983   117.9866   145.0203
 5445.2160    28.4246    94.8475   123.1267
 5445.7160    29.5625    86.1451   111.4486
 5446.2160    31.9247    83.6909   104.5301
 5446.7160    28.7169    82.4821   102.3153
 5447.2160    29.7193    89.8051   103.0375
 5447.7160    29.4848    91.7107   109.0615
 5448.2160    30.9902    92.9923   108.9231
 5448.7160    32.4922    94.9986   108.2694
