~VERSION INFORMATION
 VERS.               1.20:   CWLS LOG ASCII STANDARD - VERSION 1.20
 WRAP.                 NO:   ONE LINE PER DEPTH STEP
~WELL INFORMATION
#MNEM.UNIT      DATA TYPE    INFORMATION
#----------   ------------   ------------------------------
 STRT.F         3541.0000:   START DEPTH
 STOP.F         5482.5000:   STOP DEPTH
 STEP.F            0.5000:   STEP LENGTH
 NULL.          -999.2500:   NO VALUE
 COMP.            COMPANY:   Fenix & Scisson, Inc.
 WELL.               WELL:   44-1 TPX 10
 FLD .              FIELD:   N.P.R. 3
 LOC .           LOCATION:   10-38N-78W-NATRONA-WY
 STAT.              STATE:   WY
 COUN.             COUNTY:   Natrona
 SRVC.    SERVICE COMPANY:   Dresser Atlas
 DATE.            LOGDATE:   12/17/1977
~CURVE INFORMATION
#MNEM.UNIT       API CODE    CURVE DESCRIPTION
#----------   ------------   ------------------------------
 DEPT.F                  :
 DPHI.none   42 890 12 00:   Den. Porosity, Ss [%]
 CALI.inches 42 280 00 00:   Caliper
 GR  .GAPI   42 310 00 00:   Gamma Ray
~PARAMETER INFORMATION
#MNEM.UNIT          VALUE    DESCRIPTION
#----------   ------------   ------------------------------
 EKB .F         5240.0000:   Kelly bushing
 EGL .F         5230.0000:   Ground level
 EDF .F            0.0000:   Drilling floor
 EPD .F           10.0000:   Permanent datum
 TD  .F         1932.0000:   Total depth
 DATE.mm/dd/yyyy 12/17/1977:   Date Logged
 DD  .ft             5471:   Depth Driller
 DL  .ft             5471:   Depth Logger
 BLI .ft             5469:   Bottom Log Interval
 TLI .ft             3550:   Top Log Interval
 CSS .inch          8.625:   Casing Size
 CTD1.ft             3023:   Casing Driller 1
 BS  .inch          7.875:   Bit Size
 DFT .                KCL:   Type Fluid In Hole
 DFD .lb/gal          9.5:   Mud Weight
 DFV .sec              38:   Viscosity
 DFPH.               11.0:   pH
 DFL .cc              8.4:   Fluid Loss
 WSS .            Mud Pit:   Source Of Sample
 RM  .ohmm           .385:   Rm
 EMT .F                78:   Rm Meas. Temp.
 RMF .ohmm            .22:   Rmf
 MFT .F                70:   Rmf Meas. Temp.
 RMC .ohmm             .8:   Rmc
 MCST.F                70:   Rmc Meas. Temp.
 MFSS.               meas:   Source Rmf.
 MCSS.               meas:   Source Rmc.
 RMB .ohmm            .16:   Rm. At BHT
 BHT .F               176:   BHT.
 TCS .hh:mm        19 hrs:   Time Circ. Stopped
 MRT .F               176:   Maximum Recorded Temp.
 LUN .               6134:   Logging Unit Number
 LUL .           Gillette:   Logging Unit Location
 ENGI.              Hoyer:   Recorded By
 WITN.     Mr. Harrington:   Witnessed By
 DGBY.              Burke:   Digitized By
~A  DEPTH     DPHI       CALI         GR
# ...
 5270.0000    -6.2635     8.8625   286.4944
 5270.5000    -6.0701     8.8630   289.8965
 5271.0000    -4.9572     8.8634   291.6548
 5271.5000    -3.4861     8.8639   288.1876
 5272.0000    -3.5486     8.8644   282.9786
 5272.5000    -2.8308     8.8648   280.2433
 5273.0000    -1.8813     8.8653   280.9355
 5273.5000    -2.8133     8.8658   279.7946
 5274.0000    -3.6758     8.8662   269.8578
 5274.5000    -3.3628     8.8667   262.4034
 5275.0000    -2.8746     8.8828   258.1752
 5275.5000    -1.5677     8.8989   255.2267
 5276.0000    -1.7644     8.8994   257.2333
 5276.5000    -1.8579     8.9155   254.2679
 5277.0000    -1.8897     8.9159   255.0367
 5277.5000    -2.4934     8.9164   259.0287
 5278.0000    -2.9953     8.9169   259.2899
 5278.5000    -4.5934     8.9173   249.3017
 5279.0000    -5.6303     8.9178   230.0219
 5279.5000    -7.4847     8.9183   210.7422
 5280.0000    -5.2941     8.9187   192.6741
 5280.5000    -3.1036     8.9192   188.9580
 5281.0000    -0.9130     8.9197   185.5857
 5281.5000     1.0366     8.9370   184.0144
 5282.0000    -0.1922     8.9404   185.0262
 5282.5000    -1.9804     8.9438   187.0334
 5283.0000    -3.9042     8.9473   189.2894
 5283.5000    -5.8859     8.9507   189.5462
 5284.0000    -5.4145     8.9542   189.3224
 5284.5000    -4.3994     8.9576   191.1628
 5285.0000    -4.1581     8.9611   199.2463
 5285.5000    -4.3758     8.9645   204.5549
 5286.0000    -3.8824     8.9679   204.4874
 5286.5000    -4.5628     8.9714   201.3026
 5287.0000    -4.2859     8.9748   197.1394
 5287.5000    -3.8850     8.9783   196.6563
 5288.0000    -5.9556     8.9817   197.6659
 5288.5000    -6.2418     8.9851   199.1795
 5289.0000    -4.8110     8.9886   198.4495
 5289.5000    -2.7705     9.0058   198.7142
 5290.0000    -0.7299     9.0375   200.2244
 5290.5000     1.4222     9.0380   209.2953
 5291.0000     1.9188     9.0384   222.1204
 5291.5000     0.7279     9.0389   242.0852
 5292.0000     0.1841     9.0394   262.0501
 5292.5000     1.4975     9.0242   285.6609
 5293.0000     1.7268     9.0247   288.4940
 5293.5000     0.9535     9.0409   289.6728
 5294.0000     0.7984     9.0569   290.9359
 5294.5000     1.8730     9.0573   295.4314
 5295.0000     2.3690     9.0578   290.2224
 5295.5000     2.1638     9.0583   289.2436
 5296.0000     1.3345     9.0744   287.0700
 5296.5000     1.0408     9.0899   284.0511
 5297.0000     0.6693     9.1232   282.0769
 5297.5000     0.0507     9.1852   277.8633
 5298.0000     0.4822     9.2326   278.8751
 5298.5000     0.1107     9.2486   268.8429
 5299.0000     0.2025     9.2647   262.2362
 5299.5000     0.3896     9.2740   264.7263
 5300.0000     0.8803     9.3282   274.4644
 5300.5000     0.4469     9.3598   279.0651
 5301.0000    -1.5617     9.3139   286.2084
 5301.5000    -0.9757     9.3354   286.0610
 5302.0000    -0.9455     9.3775   282.5213
 5302.5000    -1.3790     9.3781   274.8371
 5303.0000    -1.1945     9.3788   262.1431
 5303.5000    -1.3807     9.3482   259.3725
 5304.0000    -2.2158     9.3331   259.7307
 5304.5000    -2.3400     9.3494   260.0098
 5305.0000    -1.6596     9.3656   264.0153
 5305.5000    -0.1180     9.3819   282.2043
 5306.0000    -1.1999     9.4138   284.4680
 5306.5000    -1.2932     9.4301   294.4454
 5307.0000    -1.6032     9.4463   293.4673
 5307.5000    -1.7585     9.4625   291.9731
 5308.0000    -0.7069     9.5231   291.5319
 5308.5000    -0.2133     9.5575   290.0631
 5309.0000    -1.5293     9.5737   294.3234
 5309.5000    -2.6271     9.5744   284.6431
 5310.0000    -2.7513     9.5750   282.4278
 5310.5000    -1.9802     9.5913   272.9962
 5311.0000    -1.8883     9.6232   269.3130
 5311.5000    -0.8388     9.6394   267.2982
 5312.0000    -0.4165     9.6557   264.5443
 5312.5000    -0.0685     9.7012   252.4457
 5313.0000     0.3077     9.7505   247.4932
 5313.5000     0.3859     9.9131   241.5453
 5314.0000     0.2378    10.4551   236.3151
 5314.5000     1.0825    10.6120   226.8496
 5315.0000     1.3171    10.9406   221.4623
 5315.5000     0.5749    10.4200   220.9888
 5316.0000     1.4394     9.8482   221.4249
 5316.5000     1.8708     9.6769   219.7990
 5317.0000    -0.0457     9.5824   217.8715
 5317.5000    -0.7879     9.6469   218.6031
 5318.0000    -0.2018     9.4690   220.6180
 5318.5000    -1.1911     9.3629   220.8849
 5319.0000    -3.4354     9.2738   223.4035
 5319.5000    -7.7743     9.2043   226.4136
 5320.0000    -9.0908     9.1501   223.1031
 5320.5000    -8.1137     9.1349   223.1063
 5321.0000    -7.3424     9.1044   222.0131
 5321.5000    -9.8452     8.9956   220.7871
 5322.0000  -999.2500     8.9484   215.0941
 5322.5000  -999.2500     8.9161   208.9589
 5323.0000  -999.2500     8.8726   199.7872
 5323.5000  -999.2500     8.8575   197.2506
 5324.0000  -999.2500     8.8425   188.5846
 5324.5000  -999.2500     8.8275   186.8479
 5325.0000  -999.2500     8.7969   189.8640
 5325.5000  -999.2500     8.7663   190.8775
 5326.0000    -8.1323     8.7203   192.1519
 5326.5000    -4.9320     8.6566   194.1667
 5327.0000    -3.3685     8.6275   192.4490
 5327.5000    -4.5122     8.6281   194.1806
 5328.0000    -3.8700     8.6131   196.2562
 5328.5000    -3.1549     8.5980   197.9969
 5329.0000    -4.3459     8.5831   197.2735
 5329.5000    -4.1839     8.5681   200.0409
 5330.0000    -2.9103     8.5219   203.2999
 5330.5000    -3.1844     8.4913   203.5729
 5331.0000    -3.8387     8.4762   205.0840
 5331.5000    -3.2529     8.4457   198.6389
 5332.0000    -3.4391     8.4306   191.1902
 5332.5000    -5.0461     8.4312   187.0095
 5333.0000    -4.9810     8.4162   187.2767
 5333.5000    -4.4656     8.4169   186.7994
 5334.0000    -3.3190     8.4175   190.4286
 5334.5000    -4.8336     8.4181   192.2268
 5335.0000    -4.9887     8.4187   193.0285
 5335.5000    -5.3295     8.4194   194.1160
 5336.0000    -5.4539     8.4200   196.6423
 5336.5000    -6.4717     8.4206   195.1596
 5337.0000    -8.4389     8.4212   195.4326
 5337.5000    -6.9930     8.4219   190.7350
 5338.0000    -5.3648     8.4069   187.7731
 5338.5000    -4.6271     8.4075   189.7880
 5339.0000    -3.7604     8.4081   194.0423
 5339.5000    -4.5536     8.4088   200.5361
 5340.0000    -4.7814     8.4094   203.5125
 5340.5000    -4.0636     8.4100   205.3516
 5341.0000    -3.1331     8.4106   207.3717
 5341.5000    -2.0376     8.4113   206.8596
 5342.0000    -2.1041     8.4119   204.3954
 5342.5000    -3.9212     8.4125   202.4289
 5343.0000    -3.9723     8.4131   199.7159
 5343.5000    -4.7146     8.4138   196.2564
 5344.0000    -6.4875     8.4144   191.5527
 5344.5000    -6.4264     8.4150   189.8285
 5345.0000    -7.5975     8.4156   188.8647
 5345.5000    -9.1465     8.4163   188.8896
 5346.0000  -999.2500     8.4013   188.9182
 5346.5000  -999.2500     8.3863   185.7076
 5347.0000  -999.2500     8.2961   185.9806
 5347.5000    -7.5392     8.2469   189.4884
 5348.0000    -4.2648     8.1844   191.7521
 5348.5000    -1.4916     8.1207   193.2557
 5349.0000    -2.2647     8.0612   192.4794
 5349.5000    -2.0842     8.0307   188.3469
 5350.0000    -1.2262     8.0156   187.8694
 5350.5000    -0.7593     8.0163   188.6440
 5351.0000     0.2544     8.0321   188.1645
 5351.5000     0.6681     8.0321   188.1947
 5352.0000     1.7923     8.0322   187.2235
 5352.5000     2.1860     8.0322   187.4965
 5353.0000     1.7746     8.0322   188.2672
 5353.5000     1.9602     8.0323   187.2960
 5354.0000     0.5877     8.0323   187.5690
 5354.5000    -0.3595     8.0323   186.3515
 5355.0000    -0.2901     8.0324   185.1350
 5355.5000     1.3175     8.0324   184.9043
 5356.0000     2.9252     8.0325   186.6763
 5356.5000     3.0093     8.0325   186.9493
 5357.0000     1.4541     8.0325   187.2224
 5357.5000    -0.1012     8.0326   187.4961
 5358.0000    -0.4582     8.0326   187.5841
 5358.5000     0.0351     8.0326   188.5450
 5359.0000     0.3429     8.0327   189.3126
 5359.5000     1.2072     8.0327   189.3398
 5360.0000     0.8045     8.0327   188.0025
 5360.5000     0.9583     8.0328   186.4379
