~VERSION INFORMATION
 VERS.               2.10:   CWLS LOG ASCII STANDARD - VERSION 2.10
 WRAP.                 NO:   ONE LINE PER DEPTH STEP
~WELL INFORMATION
#MNEM.UNIT      DATA TYPE    INFORMATION
#----------   ------------   ------------------------------
 STRT.F         3538.2156:   START DEPTH
 STOP.F         5485.2939:   STOP DEPTH
 STEP.F            0.5000:   STEP LENGTH
 NULL.          -999.2500:   NO VALUE
 COMP. Fenix & Scisson,Inc.:   COMPANY
 WELL.        44-1 TPX 10:   WELL
 FLD .           N.P.R. 3:   FIELD
 LOC . 10-38N-78W-NATRONA-WY:   LOCATION
 STAT.                 WY:   STATE
 COUN.            Natrona:   COUNTY
 SRVC.      Dresser Atlas:   SERVICE COMPANY
 DATE.                   :   LOGDATE
 APIN.         4902510439:   API NUMBER
~CURVE INFORMATION
#MNEM.UNIT       API CODE    CURVE DESCRIPTION
#----------   ------------   ------------------------------
 DEPT.F                  :
 GR  .API    06 310 01 00:   Gamma Ray
 LLS .ohmm   11 220 06 00:   Dual Laterolog, shallow
 LLD .ohmm   11 220 04 00:   Dual Laterolog, Deep
~PARAMETER INFORMATION
#MNEM.UNIT          VALUE    DESCRIPTION
#----------   ------------   ------------------------------
 EKB .F         5240.0000:   Kelly bushing
 EGL .F         5230.0000:   Ground level
 EDF .F            0.0000:   Drilling floor
 EPD .F           10.0000:   Permanent datum
 TD  .F         2250.0000:   Total depth
 NRUN.             1.0000:   Number of Runs
#--RUN 1---   ------------   The following are for Run 1---
 RUN .             1.0000:   Run 1
 DATE.mm/dd/yyyy 12-17-1977:   Date Logged
 DD  .ft             5471:   Depth Driller
 DL  .ft             5471:   Depth Logger
 BLI .ft             5461:   Bottom Log Interval
 TLI .ft             3550:   Top Log Interval
 CSS .inch          8.625:   Casing Size
 CTD1.ft             3023:   Casing Driller 1
 CTL1.ft              n/a:   Casing Logger 1
 BS  .inch          7.875:   Bit Size
 DFT .                kcl:   Type Fluid In Hole
 DFD .lb/gal          9.5:   Mud Weight
 DFV .sec              38:   Viscosity
 DFPH.               11.0:   pH
 DFL .cc              8.4:   Fluid Loss
 WSS .            mud pit:   Source Of Sample
 RM  .ohmm           .385:   Rm
 EMT .F                78:   Rm Meas. Temp.
 RMF .ohmm            .22:   Rmf
 MFT .F                70:   Rmf Meas. Temp.
 RMC .ohmm             .8:   Rmc
 MCST.F                70:   Rmc Meas. Temp.
 MFSS.               meas:   Source Rmf.
 MCSS.               meas:   Source Rmc.
 RMB .ohmm            .16:   Rm. At BHT
 BHT .F               176:   BHT.
 TCS .hh:mm        10 hrs:   Time Circ. Stopped
 MRT .F               176:   Maximum Recorded Temp.
 LUN .               6134:   Logging Unit Number
 LUL .           Gillette:   Logging Unit Location
 ENGI.              Hoyer:   Recorded By
 WITN.      Mr. Harington:   Witnessed By
 DGBY.              Burke:   Digitized By
~A  DEPTH       GR        LLS        LLD
# ...
 4357.2160    53.3853     8.4683    12.3308
 4357.7160    38.2446     5.8010     9.5484
 4358.2160    38.5075     3.0974     6.9448
 4358.7160    38.5220     2.7861     4.1240
 4359.2160    38.5365     2.8077     3.6804
 4359.7160    40.0417     2.9736     3.5772
 4360.2160    39.5593     3.1271     3.5784
 4360.7160    38.5800     3.1061     3.7866
 4361.2160    41.0826     3.0217     3.9799
 4361.7160    41.8425     3.0240     4.0083
 4362.2160    41.1080     3.0474     3.7866
 4362.7160    42.8653     3.0710     3.8959
 4363.2160    43.6252     3.1614     4.3038
 4363.7160    42.8943     3.1410     4.6210
 4364.2160    41.6661     3.0549     4.4514
 4364.7160    42.4264     2.9497     4.1240
 4365.2160    44.4657     2.9310     4.0369
 4365.7160    47.6765     2.9752     4.0369
 4366.2160    49.9270     3.0412     4.1240
 4366.7160    52.6744     3.1085     4.0947
 4367.2160    54.9250     3.2001     3.9517
 4367.7160    56.9271     3.3652     3.9237
 4368.2160    57.9353     3.7192     4.0156
 4368.7160    61.6766     4.1703     4.4914
 4369.2160    63.1940     4.9402     5.6235
 4369.7160    62.4356     7.8549    10.3990
 4370.2160    60.3932     8.3954    15.1745
 4370.7160    56.5208     9.6629    21.4743
 4371.2160    56.2833    10.3804    21.9374
 4371.7160    55.3076    10.1678    20.0000
 4372.2160    51.3470     8.8899    17.4720
 4372.7160    49.1254     8.3446    14.7303
 4373.2160    45.4132     6.0947    11.9565
 4373.7160    44.9309     3.7455     8.9387
 4374.2160    45.4963     3.4662     5.9208
 4374.7160    47.5663     3.3231     4.5557
 4375.2160    48.9532     3.3973     4.5218
 4375.7160    48.2223     3.3514     4.5934
 4376.2160    47.7363     3.3061     4.6210
 4376.7160    48.4998     3.3794     4.5235
 4377.2160    50.7503     3.5566     4.6540
 4377.7160    52.0071     3.6074     5.2149
 4378.2160    51.2762     3.5835     5.6393
 4378.7160    51.0109     3.5863     5.8434
 4379.2160    47.5042     3.5884     5.7609
 4379.7160    45.6091     3.6420     6.0649
 4380.2160    45.3443     3.6442     6.4552
 4380.7160    44.8904     3.5950     6.5944
 4381.2160    43.6663     3.4696     6.2742
 4381.7160    44.1777     3.4012     5.6393
 4382.2160    43.9401     3.4275     5.3274
 4382.7160    45.6974     3.5536     5.3235
 4383.2160    47.9443     3.6582     5.8908
 4383.7160    44.4841     3.7392     6.7441
 4384.2160    41.2688     3.7149     6.9805
 4384.7160    38.0535     3.6649     6.9310
 4385.2160    40.3735     3.6412     6.4552
 4385.7160    41.3160     3.6176     5.5596
 4386.2160    40.5851     3.6984     5.3274
 4386.7160    40.1028     3.8617     5.2521
 4387.2160    41.6080     4.0323     5.3376
 4387.7160    42.3678     4.1806     6.4552
 4388.2160    42.8792     4.3036     7.3368
 4388.7160    44.8813     4.3990     7.9905
 4389.2160    43.8930     4.4017     8.0475
 4389.7160    43.4196     4.3122     7.9905
 4390.2160    47.4129     4.1050     7.8777
 4390.7160    47.1790     4.0784     7.5486
 4391.2160    47.4419     4.0520     6.2297
 4391.7160    50.1894     4.0551     6.0509
 4392.2160    52.4399     3.9161     6.5977
 4392.7160    51.7091     3.7818     6.8331
 4393.2160    48.4937     3.6250     6.4552
 4393.7160    43.0298     3.5525     5.0327
 4394.2160    40.0731     3.5800     4.3966
 4394.7160    42.5757     3.7648     4.2430
 4395.2160    43.8341     4.1022     4.3654
 4395.7160    43.5696     4.3756     4.6872
 4396.2160    39.1446     4.5688     6.4327
 4396.7160    38.6586     4.7369     8.0475
 4397.2160    38.4247     4.6386     8.4583
 4397.7160    38.1908     4.2492     8.3984
 4398.2160    37.7120     3.9742     8.0475
 4398.7160    37.4744     3.9200     7.3368
 4399.2160    37.4926     3.7861     6.6889
 4399.7160    37.7555     3.7086     6.0550
 4400.2160    37.8645     7.2187     5.5949
 4400.7160    37.2876     3.8761     5.4811
 4401.2160    38.2996     3.9351     5.4811
 4401.7160    36.5749     3.9909     5.5596
 4402.2160    36.8379     4.0225     5.8020
 4402.7160    35.9137     4.0756     6.1417
 4403.2160    34.9381     3.9887     6.5944
 4403.7160    33.9746     3.9315     7.0303
 4404.2160    33.0045     3.8752     6.8593
 4404.7160    31.5365     3.8745     5.8434
 4405.2160    29.0536     3.9576     5.5369
 4405.7160    30.5994     4.1005     5.4988
 4406.2160    30.8721     4.2485     6.1637
 4406.7160    33.6292     4.1284     7.2097
 4407.2160    33.3990     3.9522     7.7433
 4407.7160    36.6591     3.8430     7.8007
 4408.2160    39.1678     3.7878     7.3190
 4408.7160    40.1798     3.7602     6.8185
 4409.2160    39.2163     3.6800     6.6291
 4409.7160    38.9921     3.5253     6.4453
 4410.2160    41.5504     3.3771     6.1340
 4410.7160    42.7733     3.2583     5.7553
 4411.2160    44.2822     3.2116     5.3616
 4411.7160    44.0580     3.2340     4.8548
 4412.2160    45.3305     3.3270     4.5876
 4412.7160    47.8392     3.4485     4.4285
 4413.2160    52.5840     3.5500     4.5253
 4413.7160    54.0989     3.5454     5.0574
 4414.2160    54.8685     3.4698     7.1894
 4414.7160    50.6691     3.2536     7.5049
 4415.2160    43.1897     3.1168     7.1424
 4415.7160    40.5373     2.9858     6.0556
 4416.2160    41.3069     2.9431     4.5656
 4416.7160    41.8280     3.0711     4.2232
 4417.2160    43.0945     3.1820     4.2244
 4417.7160    42.8642     3.3205     4.5049
 4418.2160    43.3914     3.3436     4.7361
 4418.7160    42.9187     3.2723     4.8741
 4419.2160    42.6940     3.3186     4.8409
 4419.7160    42.9678     3.3897     4.7044
 4420.2160    44.2851     3.4872     4.6028
 4420.7160    45.0093     3.6131     4.5124
 4421.2160    44.0337     3.7703     4.4816
 4421.7160    44.5609     3.9344     4.7456
 4422.2160    46.3243     4.0475     5.5116
 4422.7160    48.5846     4.1936     5.9618
 4423.2160    49.6026     4.3450     6.1793
 4423.7160    53.8504     4.4744     6.2696
 4424.2160    55.1169     4.6421     6.4091
 4424.7160    54.3947     4.9021     6.6087
 4425.2160    53.6747     5.2634     7.6038
 4425.7160    56.4379     5.7734     9.4820
 4426.2160    57.2014     5.9822    10.3297
 4426.7160    55.4926     5.3743    10.6300
 4427.2160    51.2932     4.9681     8.9681
 4427.7160    46.3485     4.7933     7.3382
 4428.2160    44.8760     4.7246     5.6902
 4428.7160    43.6641     4.7576     5.3389
 4429.2160    45.9244     4.9323     5.2646
 4429.7160    47.6877     4.9993     5.4184
 4430.2160    48.7064     4.8577     5.5763
 4430.7160    48.2331     4.7883     5.4990
 4431.2160    50.2510     4.9965     5.5005
 4431.7160    51.0206     5.2139     5.6636
 4432.2160    54.6445     5.7192     6.1796
 4432.7160    59.0193     8.7758     7.1120
 4433.2160    57.3044    14.7120     9.3578
 4433.7160    52.6082    30.9634    14.1088
 4434.2160    38.7194    35.7020    19.4358
 4434.7160    30.7895    41.4603    32.6196
 4435.2160    26.7668    50.2514    40.1027
 4435.7160    24.6306   160.1910    52.1891
 4436.2160    24.6609   292.2069   161.1317
 4436.7160    24.4307   417.2665   277.7789
 4437.2160    25.7032   448.0398   405.0663
 4437.7160    26.2243   435.3495   405.1791
 4438.2160    25.2548   417.0485   402.4183
 4438.7160    23.5399   353.9187   369.6259
 4439.2160    21.5765   277.7232   320.7056
 4439.7160    21.3523   126.7434   229.6512
 4440.2160    23.6640    65.3016   116.8765
 4440.7160    24.3957    53.8588    83.1558
 4441.2160    24.4259    54.2347    49.1082
 4441.7160    24.7046    65.3763    50.1811
 4442.2160    24.9833   152.4158    57.4576
 4442.7160    23.0260   172.0227   154.4620
 4443.2160    23.3485   145.9831   161.2296
 4443.7160    25.8269    99.9845   123.5997
 4444.2160    28.0932    75.7399    67.2655
 4444.7160    27.8674    81.9010    65.8153
 4445.2160    27.4083   114.2320    72.2768
 4445.7160    26.4372   143.7870   117.9282
 4446.2160    26.2190   144.7905   142.1110
 4446.7160    27.0021   155.4620   149.4066
 4447.2160    27.5293   183.1285   163.9247
 4447.7160    27.2805   211.1542   232.3357
