~VERSION INFORMATION
 VERS.               2.10:   CWLS LOG ASCII STANDARD - VERSION 2.10
 WRAP.                 NO:   ONE LINE PER DEPTH STEP
~WELL INFORMATION
#MNEM.UNIT      DATA TYPE    INFORMATION
#----------   ------------   ------------------------------
 STRT.F         3538.2156:   START DEPTH
 STOP.F         5485.2939:   STOP DEPTH
 STEP.F            0.5000:   STEP LENGTH
 NULL.          -999.2500:   NO VALUE
 COMP. Fenix & Scisson,Inc.:   COMPANY
 WELL.        44-1 TPX 10:   WELL
 FLD .           N.P.R. 3:   FIELD
 LOC . 10-38N-78W-NATRONA-WY:   LOCATION
 STAT.                 WY:   STATE
 COUN.            Natrona:   COUNTY
 SRVC.      Dresser Atlas:   SERVICE COMPANY
 DATE.                   :   LOGDATE
 APIN.         4902510439:   API NUMBER
~CURVE INFORMATION
#MNEM.UNIT       API CODE    CURVE DESCRIPTION
#----------   ------------   ------------------------------
 DEPT.F                  :
 GR  .API    06 310 01 00:   Gamma Ray
 LLS .ohmm   11 220 06 00:   Dual Laterolog, shallow
 LLD .ohmm   11 220 04 00:   Dual Laterolog, Deep
~PARAMETER INFORMATION
#MNEM.UNIT          VALUE    DESCRIPTION
#----------   ------------   ------------------------------
 EKB .F         5240.0000:   Kelly bushing
 EGL .F         5230.0000:   Ground level
 EDF .F            0.0000:   Drilling floor
 EPD .F           10.0000:   Permanent datum
 TD  .F         2250.0000:   Total depth
 NRUN.             1.0000:   Number of Runs
#--RUN 1---   ------------   The following are for Run 1---
 RUN .             1.0000:   Run 1
 DATE.mm/dd/yyyy 12-17-1977:   Date Logged
 DD  .ft             5471:   Depth Driller
 DL  .ft             5471:   Depth Logger
 BLI .ft             5461:   Bottom Log Interval
 TLI .ft             3550:   Top Log Interval
 CSS .inch          8.625:   Casing Size
 CTD1.ft             3023:   Casing Driller 1
 CTL1.ft              n/a:   Casing Logger 1
 BS  .inch          7.875:   Bit Size
 DFT .                kcl:   Type Fluid In Hole
 DFD .lb/gal          9.5:   Mud Weight
 DFV .sec              38:   Viscosity
 DFPH.               11.0:   pH
 DFL .cc              8.4:   Fluid Loss
 WSS .            mud pit:   Source Of Sample
 RM  .ohmm           .385:   Rm
 EMT .F                78:   Rm Meas. Temp.
 RMF .ohmm            .22:   Rmf
 MFT .F                70:   Rmf Meas. Temp.
 RMC .ohmm             .8:   Rmc
 MCST.F                70:   Rmc Meas. Temp.
 MFSS.               meas:   Source Rmf.
 MCSS.               meas:   Source Rmc.
 RMB .ohmm            .16:   Rm. At BHT
 BHT .F               176:   BHT.
 TCS .hh:mm        10 hrs:   Time Circ. Stopped
 MRT .F               176:   Maximum Recorded Temp.
 LUN .               6134:   Logging Unit Number
 LUL .           Gillette:   Logging Unit Location
 ENGI.              Hoyer:   Recorded By
 WITN.      Mr. Harington:   Witnessed By
 DGBY.              Burke:   Digitized By
~A  DEPTH       GR        LLS        LLD
# ...
 3902.2160    82.2548     6.5109     6.9714
 3902.7160    88.7184     6.7964     7.3252
 3903.2160    86.4477     6.6082     7.2198
 3903.7160    88.9749     6.3346     7.0153
 3904.2160    90.9666     6.0723     6.3487
 3904.7160    91.4674     5.6982     6.0387
 3905.2160    89.7333     5.5798     5.9096
 3905.7160    89.4889     5.7457     6.2534
 3906.2160    88.4981     5.8269     6.3870
 3906.7160    87.7568     5.8288     6.3848
 3907.2160    89.5009     5.8722     6.4290
 3907.7160    90.9956     5.9581     6.2466
 3908.2160    92.4903     5.6709     6.0267
 3908.7160    87.7749     5.3215     5.9823
 3909.2160    83.8037     5.6344     6.1938
 3909.7160    82.0676     6.0963     6.6992
 3910.2160    82.3211     6.6114     7.5045
 3910.7160    82.5735     7.1297     7.9984
 3911.2160    82.5776     7.0451     8.2275
 3911.7160    82.0847     7.0047     8.3425
 3912.2160    81.5918     7.3116     8.5809
 3912.7160    81.3474     7.5776     8.5133
 3913.2160    82.5946     7.3149     7.9868
 3913.7160    84.8347     7.0609     7.7607
 3914.2160    85.3356     6.8585     7.8139
 3914.7160    87.3272     6.7698     7.8681
 3915.2160    89.3188     6.8685     7.9220
 3915.7160    91.8073     6.9186     7.7521
 3916.2160    95.0411     6.7264     7.5326
 3916.7160    94.7967     6.5398     7.3193
 3917.2160    94.0553     6.4034     7.2135
 3917.7160    94.3088     6.3570     7.3153
 3918.2160    93.5675     6.3613     7.1584
 3918.7160    91.8324     6.4080     7.0553
 3919.2160    92.3333     6.3638     7.0034
 3919.7160    96.0640     6.2314     6.6615
 3920.2160    98.8010     6.0153     6.2869
 3920.7160    98.0596     5.7657     5.9413
 3921.2160    94.3380     5.5264     5.8975
 3921.7160    90.1184     5.5320     6.0231
 3922.2160    85.8988     5.8110     6.1952
 3922.7160    86.6481     6.1085     6.4635
 3923.2160    88.8882     6.3759     6.7915
 3923.7160    88.8922     6.6078     7.0355
 3924.2160    91.1322     6.7038     7.1343
 3924.7160    93.4974     6.7531     7.0311
 3925.2160    94.8670     6.6092     6.7836
 3925.7160    91.8906     6.1252     5.6770
 3926.2160    84.9381     5.1597     4.8880
 3926.7160    82.2092     4.9453     5.0636
 3927.2160    77.8737     5.3107     5.8360
 3927.7160    70.4167     6.6316     7.6407
 3928.2160    63.0909    10.9593    12.0941
 3928.7160    66.8803    15.4194    17.3107
 3929.2160    75.2738    17.4018    16.7013
 3929.7160    78.7561    14.9943    13.9391
 3930.2160    78.5117    11.4706    10.4111
 3930.7160    77.2724     8.8069     8.4308
 3931.2160    77.7733     8.8717     8.7959
 3931.7160    82.4989     9.8012     9.1768
 3932.2160    87.2234     9.6652     8.8532
 3932.7160    88.9666     8.8765     8.3020
 3933.2160    86.4871     8.5010     8.2409
 3933.7160    85.7458     8.6949     8.7832
 3934.2160    80.7808     9.2708     9.2290
 3934.7160    80.0395    10.0977     9.5605
 3935.2160    80.5404     9.8865     8.9017
 3935.7160    80.0475     9.8188     8.8361
 3936.2160    77.5671     9.8915     9.0880
 3936.7160    75.5835    10.0440     9.8248
 3937.2160    71.8391    11.1663    11.2433
 3937.7160    68.1392    12.6917    13.5233
 3938.2160    62.9258    14.2220    15.6974
 3938.7160    55.9733    16.1648    17.9637
 3939.2160    54.9825    18.2430    19.5734
 3939.7160    56.9751    18.7728    20.4044
 3940.2160    57.7245    19.0456    20.6910
 3940.7160    59.2192    19.4758    21.7412
 3941.2160    60.2000    22.1196    24.1823
 3941.7160    64.1972    25.6826    26.7067
 3942.2160    66.6856    28.7793    31.0003
 3942.7160    72.4039    30.6856    32.5860
 3943.2160    83.3396    32.4865    27.5784
 3943.7160    86.3250    27.0166    24.1473
 3944.2160    90.8011    24.2923    23.1322
 3944.7160    84.3455    23.2842    21.5382
 3945.2160    72.5624    21.6929    22.3117
 3945.7160    68.7023    22.3229    23.9498
 3946.2160    67.7116    24.6618    25.5259
 3946.7160    69.9526    25.7459    25.5141
 3947.2160    75.1740    25.1477    20.9630
 3947.7160    76.4193    20.5189    14.6237
 3948.2160    74.1883    14.0863    11.5775
 3948.7160    74.7051    11.6312    11.0122
 3949.2160    76.2281    10.9135    10.5493
 3949.7160    78.9218    10.8381    10.5464
 3950.2160    77.6836    12.2322    11.3206
 3950.7160    75.9485    13.8284    13.5433
 3951.2160    78.4370    15.4702    14.6150
 3951.7160    81.9193    16.1472    14.8213
 3952.2160    84.6562    15.0437    14.2986
 3952.7160    89.6292    14.0156    12.3114
 3953.2160   100.2127    13.4339    10.3611
 3953.7160   105.7873    11.4935     8.5710
 3954.2160   110.0149     9.0918     6.7809
 3954.7160   111.5096     6.8280     5.9903
 3955.2160   107.5385     6.5166     5.7845
 3955.7160   101.3313     6.8506     6.5727
 3956.2160    90.1552     8.3595     7.7387
 3956.7160    84.1965    10.0568     8.9829
 3957.2160    79.2316    12.0132    12.5339
 3957.7160    76.5030    14.4527    16.7873
 3958.2160    69.7989    15.9670    20.3356
 3958.7160    65.0444    19.7625    28.8064
 3959.2160    64.0927    28.5962    38.5488
 3959.7160    73.2902    37.8553    39.6503
 3960.2160    79.2570    32.9767    33.6069
 3960.7160    94.6647    27.1306    24.6663
 3961.2160   103.6129    18.9616    15.7256
 3961.7160   104.6097    10.7452     8.2244
 3962.2160    98.1551     9.1211     8.1060
 3962.7160    92.1963     9.3936     9.0161
 3963.2160    88.9716    10.3044     9.5413
 3963.7160    86.7395    10.8320     9.6754
 3964.2160    84.7560    11.2260    10.1664
 3964.7160    72.8345    11.9696    12.5457
 3965.2160    66.3789    13.3179    16.1314
 3965.7160    63.4016    16.3778    17.9426
 3966.2160    63.6540    17.5959    18.8546
 3966.7160    64.9003    18.0870    16.8208
 3967.2160    64.9430    16.4957    16.2286
 3967.7160    68.1392    15.8112    15.6574
 3968.2160    68.8875    15.0478    13.4775
 3968.7160    67.8977    13.3395    12.8230
 3969.2160    64.6730    12.1659    11.1984
 3969.7160    56.0148    10.1773     9.9203
 3970.2160    48.3310    10.1194     9.7782
 3970.7160    36.4876    10.6381    10.2010
 3971.2160    37.4402    11.1828    10.8723
 3971.7160    39.4459    12.1802    11.7538
 3972.2160    42.1969    13.3612    13.6803
 3972.7160    46.4386    14.4499    15.2826
 3973.2160    53.9102    14.4532    15.7203
 3973.7160    72.0650    14.3541    14.9517
 3974.2160    77.5489    13.8572    14.2216
 3974.7160    75.8279    13.1882    12.9621
 3975.2160    76.3434    12.2869    12.3292
 3975.7160    76.1126    11.9455    11.8952
 3976.2160    77.6260    11.5313    11.2136
 3976.7160    77.1427    10.9746     9.8108
 3977.2160    78.6560    10.3585     9.1347
 3977.7160    76.6866     9.6626     9.0039
 3978.2160    76.2033     9.4605     9.5957
 3978.7160    73.7415     9.7358    10.3002
 3979.2160    66.5546    11.1446    14.5364
 3979.7160    59.2836    13.9937    23.7984
 3980.2160    51.1917    22.1657    33.0605
 3980.7160    47.4831    30.3378    42.3672
 3981.2160    45.0168    57.1205    68.8076
 3981.7160    44.7819    95.9453    72.1857
 3982.2160    44.3077    68.4957    63.4897
 3982.7160    41.8414    56.8814    54.6662
 3983.2160    40.1204    55.9665    50.1803
 3983.7160    37.4056    53.2673    44.4533
 3984.2160    39.2153    45.2995    37.6967
 3984.7160    41.1731    34.8348    32.5217
 3985.2160    43.4272    24.3701    27.3467
 3985.7160    45.4329    18.2463    22.1717
 3986.2160    47.4386    16.8790    17.0813
 3986.7160    48.9475    15.8376    15.3785
 3987.2160    49.4580    14.8603    13.1475
 3987.7160    48.7347    13.7468    12.8664
 3988.2160    49.9956    13.5559    12.7717
 3988.7160    49.7398    13.5591    13.1366
 3989.2160    48.2973    13.8548    13.9019
 3989.7160    47.5656    14.6680    15.2497
 3990.2160    49.8242    15.9763    16.6329
 3990.7160    53.0722    17.0345    17.5649
 3991.2160    59.3015    17.4052    16.9454
 3991.7160    63.2948    16.9215    16.1180
 3992.2160    71.7447    15.6526    13.1104
 3992.7160    85.1974    14.6784    11.6970
