~VERSION INFORMATION
 VERS.               2.10:   CWLS LOG ASCII STANDARD - VERSION 2.10
 WRAP.                 NO:   ONE LINE PER DEPTH STEP
~WELL INFORMATION
#MNEM.UNIT      DATA TYPE    INFORMATION
#----------   ------------   ------------------------------
 STRT.F         3538.2156:   START DEPTH
 STOP.F         5485.2939:   STOP DEPTH
 STEP.F            0.5000:   STEP LENGTH
 NULL.          -999.2500:   NO VALUE
 COMP. Fenix & Scisson,Inc.:   COMPANY
 WELL.        44-1 TPX 10:   WELL
 FLD .           N.P.R. 3:   FIELD
 LOC . 10-38N-78W-NATRONA-WY:   LOCATION
 STAT.                 WY:   STATE
 COUN.            Natrona:   COUNTY
 SRVC.      Dresser Atlas:   SERVICE COMPANY
 DATE.                   :   LOGDATE
 APIN.         4902510439:   API NUMBER
~CURVE INFORMATION
#MNEM.UNIT       API CODE    CURVE DESCRIPTION
#----------   ------------   ------------------------------
 DEPT.F                  :
 GR  .API    06 310 01 00:   Gamma Ray
 LLS .ohmm   11 220 06 00:   Dual Laterolog, shallow
 LLD .ohmm   11 220 04 00:   Dual Laterolog, Deep
~PARAMETER INFORMATION
#MNEM.UNIT          VALUE    DESCRIPTION
#----------   ------------   ------------------------------
 EKB .F         5240.0000:   Kelly bushing
 EGL .F         5230.0000:   Ground level
 EDF .F            0.0000:   Drilling floor
 EPD .F           10.0000:   Permanent datum
 TD  .F         2250.0000:   Total depth
 NRUN.             1.0000:   Number of Runs
#--RUN 1---   ------------   The following are for Run 1---
 RUN .             1.0000:   Run 1
 DATE.mm/dd/yyyy 12-17-1977:   Date Logged
 DD  .ft             5471:   Depth Driller
 DL  .ft             5471:   Depth Logger
 BLI .ft             5461:   Bottom Log Interval
 TLI .ft             3550:   Top Log Interval
 CSS .inch          8.625:   Casing Size
 CTD1.ft             3023:   Casing Driller 1
 CTL1.ft              n/a:   Casing Logger 1
 BS  .inch          7.875:   Bit Size
 DFT .                kcl:   Type Fluid In Hole
 DFD .lb/gal          9.5:   Mud Weight
 DFV .sec              38:   Viscosity
 DFPH.               11.0:   pH
 DFL .cc              8.4:   Fluid Loss
 WSS .            mud pit:   Source Of Sample
 RM  .ohmm           .385:   Rm
 EMT .F                78:   Rm Meas. Temp.
 RMF .ohmm            .22:   Rmf
 MFT .F                70:   Rmf Meas. Temp.
 RMC .ohmm             .8:   Rmc
 MCST.F                70:   Rmc Meas. Temp.
 MFSS.               meas:   Source Rmf.
 MCSS.               meas:   Source Rmc.
 RMB .ohmm            .16:   Rm. At BHT
 BHT .F               176:   BHT.
 TCS .hh:mm        10 hrs:   Time Circ. Stopped
 MRT .F               176:   Maximum Recorded Temp.
 LUN .               6134:   Logging Unit Number
 LUL .           Gillette:   Logging Unit Location
 ENGI.              Hoyer:   Recorded By
 WITN.      Mr. Harington:   Witnessed By
 DGBY.              Burke:   Digitized By
~A  DEPTH       GR        LLS        LLD
# ...
 3811.2160   117.4627     4.2951     3.6889
 3811.7160   110.5146     4.6716     5.0958
 3812.2160   107.7901     6.0504     8.5778
 3812.7160   110.4455    11.3062    12.6562
 3813.2160   115.2625    12.4036    13.6818
 3813.7160   116.5132    12.0601    12.0340
 3814.2160   119.0061    10.2074     9.8579
 3814.7160   121.4990     7.6610     8.1538
 3815.2160   119.0209     6.5550     6.6795
 3815.7160   117.0439     4.9008     5.2051
 3816.2160   110.5927     3.9900     4.2836
 3816.7160   102.6437     3.8795     3.7145
 3817.2160    88.0030     3.9642     3.1306
 3817.7160    72.8561     4.3183     3.0421
 3818.2160    45.2869     6.0985     3.4317
 3818.7160    31.6308     9.3947     6.4156
 3819.2160    28.6579    12.6909    16.7496
 3819.7160    29.6601    17.0261    21.6304
 3820.2160    30.6623    16.7914    23.0547
 3820.7160    30.6708    15.4247    20.8615
 3821.2160    31.5730    14.6814    19.0131
 3821.7160    36.6525    14.5820    18.2131
 3822.2160    38.8970    14.3811    18.0748
 3822.7160    41.3899    14.0825    17.3138
 3823.2160    44.3797    13.3100    15.3367
 3823.7160    47.1210    12.2267    14.5868
 3824.2160    58.8065    10.7630    13.5807
 3824.7160    66.7653     9.8870    12.1158
 3825.2160    86.9760     3.7651     7.0633
 3825.7160    93.3674     2.4596     2.3584
 3826.2160    82.6926     2.0897     2.0018
 3826.7160    73.5085     2.0311     1.8109
 3827.2160    71.2809     2.0935     1.7212
 3827.7160    70.0471     2.1521     1.7223
 3828.2160    74.0311     2.1528     1.7587
 3828.7160    74.0413     2.1688     1.7960
 3829.2160    74.2982     2.2162     1.8604
 3829.7160    74.3066     2.3134     1.9547
 3830.2160    74.5635     2.4669     2.0980
 3830.7160    70.5968     2.6306     2.3169
 3831.2160    67.3754     2.7897     2.4886
 3831.7160    65.8926     3.0342     2.6880
 3832.2160    63.1079     3.2585     3.0978
 3832.7160    62.9308     3.4501     3.5701
 3833.2160    61.6949     3.6271     3.8319
 3833.7160    64.4384     3.7862     3.9696
 3834.2160    67.4282     3.8965     4.1116
 3834.7160    73.1509     4.0674     4.1101
 3835.2160    77.1345     4.1877     4.1401
 3835.7160    82.3604     4.3079     4.5693
 3836.2160    90.0073     4.1889     5.1916
 3836.7160    95.9698     4.0155     5.3396
 3837.2160   104.5765     3.7681     5.2999
 3837.7160   113.1833     3.5109     4.8646
 3838.2160   114.9491     3.4137     3.9849
 3838.7160   112.2268     3.4636     3.5298
 3839.2160   112.2352     3.5648     3.5036
 3839.7160   112.7406     3.6979     3.6716
 3840.2160   112.9974     3.7221     4.0360
 3840.7160   110.7699     3.5179     4.1220
 3841.2160   115.5009     3.4205     3.9763
 3841.7160   124.7019     3.3492     3.7819
 3842.2160   125.7041     3.3265     3.6226
 3842.7160   127.6980     3.3516     3.5449
 3843.2160   121.2490     3.3765     3.5691
 3843.7160   120.5577     3.4504     3.8103
 3844.2160   125.4966     3.3551     3.9120
 3844.7160   132.2060     3.1708     3.5146
 3845.2160   132.7134     3.0611     3.0260
 3845.7160   133.2188     3.0402     2.7383
 3846.2160   132.9767     3.0849     2.7568
 3846.7160   134.9748     3.1975     2.8557
 3847.2160   136.9687     3.3854     3.4835
 3847.7160   135.2008     3.6113     3.6342
 3848.2160   135.0001     3.7757     3.7645
 3848.7160   136.2509     4.0473     3.9553
 3849.2160   135.2675     4.4401     4.1627
 3849.7160   134.5285     4.7012     4.5241
 3850.2160   133.0484     4.9424     5.6783
 3850.7160   129.8270     5.1226     6.1821
 3851.2160   116.9643     5.3095     6.2691
 3851.7160   101.5216     5.3871     6.2664
 3852.2160    98.5487     5.5049     6.2642
 3852.7160    97.3149     5.3150     6.1298
 3853.2160    99.0625     5.2046     5.8265
 3853.7160   101.0585     5.1690     5.7868
 3854.2160    98.8309     5.2451     5.9512
 3854.7160    99.0899     5.3979     6.2085
 3855.2160    96.8624     5.5159     6.3408
 3855.7160    97.1192     5.5570     6.2931
 3856.2160    97.3740     5.5588     6.2910
 3856.7160    98.6268     5.5212     6.2888
 3857.2160   100.6228     5.3687     5.9367
 3857.7160   100.3826     5.2200     5.6749
 3858.2160   106.1207     4.7275     5.1475
 3858.7160   110.1637     4.4048     4.8958
 3859.2160   111.0935     4.2828     4.4937
 3859.7160   111.8473     4.2799     4.4287
 3860.2160   110.1166     4.4405     4.6202
 3860.7160   107.6385     4.6025     4.8200
 3861.2160   109.1376     4.6371     4.9574
 3861.7160   107.4090     4.6054     4.8856
 3862.2160   108.1628     4.5743     4.8835
 3862.7160   109.1652     4.5433     4.9522
 3863.2160   109.6725     4.5775     4.9150
 3863.7160   110.9210     4.5790     4.9133
 3864.2160   109.1903     4.6131     5.0175
 3864.7160   110.6916     4.7489     5.1974
 3865.2160   112.9360     4.9263     5.5786
 3865.7160   113.7315     5.1369     5.9075
 3866.2160   107.2386     5.3243     5.9856
 3866.7160   103.7688     5.0677     5.4160
 3867.2160   104.2742     4.3361     5.0425
 3867.7160   104.7816     4.2458     4.7959
 3868.2160   104.7900     4.2173     4.6268
 3868.7160   103.0594     4.2488     4.5275
 3869.2160   104.3100     4.2470     4.6236
 3869.7160   104.5648     4.1328     4.8235
 3870.2160   103.0847     4.0183     4.8214
 3870.7160   100.6087     3.6651     4.6845
 3871.2160   102.1078     3.4053     4.4873
 3871.7160    98.6401     3.0725     4.0028
 3872.2160    99.1433     2.7398     2.9215
 3872.7160    98.6548     2.4658     2.3634
 3873.2160   101.3962     2.3637     2.1387
 3873.7160    99.4171     2.3813     2.0341
 3874.2160   101.6637     2.5034     2.1119
 3874.7160   103.4112     2.6723     2.2938
 3875.2160   103.1174     2.9619     2.5151
 3875.7160   100.2004     3.3292     2.6996
 3876.2160    96.7306     3.6965     2.9391
 3876.7160    91.9292     4.2714     3.3156
 3877.2160    86.2291     4.4906     3.7405
 3877.7160    80.5289     4.7209     4.5125
 3878.2160    74.8288     5.1061     5.4233
 3878.7160    69.1287     5.4449     6.3341
 3879.2160    63.4907     6.0588     7.2408
 3879.7160    62.0064     6.5068     7.8408
 3880.2160    62.0169     6.9448     8.3966
 3880.7160    57.8018     7.5840     9.1415
 3881.2160    50.8537     9.0942    10.5352
 3881.7160    50.8642    10.4112    12.4918
 3882.2160    54.1617    11.4217    13.1249
 3882.7160    55.8501    11.5879    13.2480
 3883.2160    56.8523    10.4954    11.7874
 3883.7160    58.3514     8.4243    10.4465
 3884.2160    63.0804     8.1910     8.3134
 3884.7160    62.0950     8.3300     8.3105
 3885.2160    60.8609     9.9292     8.5474
 3885.7160    63.6026    11.4482    10.2800
 3886.2160    63.3626    11.7818    12.6304
 3886.7160    67.8452    11.3744    12.0986
 3887.2160    75.8039    10.4486    10.4164
 3887.7160    82.5205     8.5673     9.0346
 3888.2160    87.4978     6.6368     6.5091
 3888.7160    87.0094     6.2723     6.1908
 3889.2160    80.3098     6.5253     6.4585
 3889.7160    74.1070     7.6033     7.6037
 3890.2160    72.0963     8.2823     8.4568
 3890.7160    69.8602     8.6456     9.0127
 3891.2160    68.4181     8.8346     8.8194
 3891.7160    69.6687     8.6511     8.3815
 3892.2160    68.9339     8.2342     7.9208
 3892.7160    68.6918     7.8374     7.8063
 3893.2160    73.6713     7.6746     7.8036
 3893.7160    75.9158     7.5694     7.6907
 3894.2160    76.4222     7.4645     7.5257
 3894.7160    78.7269     7.6282     7.5231
 3895.2160    83.1482     7.9628     7.6827
 3895.7160    82.4092     8.7980     8.7346
 3896.2160    80.9270     9.4485     9.5228
 3896.7160    82.1797     9.5867     9.9842
 3897.2160    85.1696     9.3748     9.7008
 3897.7160    85.4651     8.5026     8.3521
 3898.2160    88.9131     7.8465     7.1399
 3898.7160    94.9667     6.8864     6.5071
 3899.2160    97.8762     5.2885     5.8466
 3899.7160    98.1310     4.4931     4.6882
 3900.2160    87.6486     4.5588     4.5876
 3900.7160    84.7272     5.0369     4.6191
 3901.2160    79.5138     5.7673     5.1099
 3901.7160    77.5293     6.1604     6.2233
