~VERSION INFORMATION
 VERS.               1.20:   CWLS LOG ASCII STANDARD - VERSION 1.20
 WRAP.                 NO:   ONE LINE PER DEPTH STEP
~WELL INFORMATION
#MNEM.UNIT      DATA TYPE    INFORMATION
#----------   ------------   ------------------------------
 STRT.F         3541.0000:   START DEPTH
 STOP.F         5482.5000:   STOP DEPTH
 STEP.F            0.5000:   STEP LENGTH
 NULL.          -999.2500:   NO VALUE
 COMP.            COMPANY:   Fenix & Scisson, Inc.
 WELL.               WELL:   44-1 TPX 10
 FLD .              FIELD:   N.P.R. 3
 LOC .           LOCATION:   10-38N-78W-NATRONA-WY
 STAT.              STATE:   WY
 COUN.             COUNTY:   Natrona
 SRVC.    SERVICE COMPANY:   Dresser Atlas
 DATE.            LOGDATE:   12/17/1977
~CURVE INFORMATION
#MNEM.UNIT       API CODE    CURVE DESCRIPTION
#----------   ------------   ------------------------------
 DEPT.F                  :
 DPHI.none   42 890 12 00:   Den. Porosity, Ss [%]
 CALI.inches 42 280 00 00:   Caliper
 GR  .GAPI   42 310 00 00:   Gamma Ray
~PARAMETER INFORMATION
#MNEM.UNIT          VALUE    DESCRIPTION
#----------   ------------   ------------------------------
 EKB .F         5240.0000:   Kelly bushing
 EGL .F         5230.0000:   Ground level
 EDF .F            0.0000:   Drilling floor
 EPD .F           10.0000:   Permanent datum
 TD  .F         1932.0000:   Total depth
 DATE.mm/dd/yyyy 12/17/1977:   Date Logged
 DD  .ft             5471:   Depth Driller
 DL  .ft             5471:   Depth Logger
 BLI .ft             5469:   Bottom Log Interval
 TLI .ft             3550:   Top Log Interval
 CSS .inch          8.625:   Casing Size
 CTD1.ft             3023:   Casing Driller 1
 BS  .inch          7.875:   Bit Size
 DFT .                KCL:   Type Fluid In Hole
 DFD .lb/gal          9.5:   Mud Weight
 DFV .sec              38:   Viscosity
 DFPH.               11.0:   pH
 DFL .cc              8.4:   Fluid Loss
 WSS .            Mud Pit:   Source Of Sample
 RM  .ohmm           .385:   Rm
 EMT .F                78:   Rm Meas. Temp.
 RMF .ohmm            .22:   Rmf
 MFT .F                70:   Rmf Meas. Temp.
 RMC .ohmm             .8:   Rmc
 MCST.F                70:   Rmc Meas. Temp.
 MFSS.               meas:   Source Rmf.
 MCSS.               meas:   Source Rmc.
 RMB .ohmm            .16:   Rm. At BHT
 BHT .F               176:   BHT.
 TCS .hh:mm        19 hrs:   Time Circ. Stopped
 MRT .F               176:   Maximum Recorded Temp.
 LUN .               6134:   Logging Unit Number
 LUL .           Gillette:   Logging Unit Location
 ENGI.              Hoyer:   Recorded By
 WITN.     Mr. Harrington:   Witnessed By
 DGBY.              Burke:   Digitized By
~A  DEPTH     DPHI       CALI         GR
# ...
 3996.0000     1.9777    10.4219   266.0590
 3996.5000     1.8845    10.4074   269.0535
 3997.0000     3.5140    10.4699   280.1444
 3997.5000     4.4491    10.4856   289.9732
 3998.0000     4.6957    10.4858   289.4840
 3998.5000     5.3460    10.4861   287.0042
 3999.0000     5.3010    10.4863   280.5429
 3999.5000     4.5394    10.4866   279.0582
 4000.0000     4.7243    10.4868   280.5599
 4000.5000     5.3729    10.4872   279.3594
 4001.0000     5.7610    10.5033   274.1093
 4001.5000     5.8046    10.5350   274.1177
 4002.0000     5.6805    10.5975   273.1288
 4002.5000     6.2980    10.6135   276.1253
 4003.0000     6.5464    10.6140   272.6239
 4003.5000     6.4301    10.6301   264.6959
 4004.0000     5.4616    10.6705   258.2347
 4004.5000     5.6467    10.6932   257.7455
 4005.0000     4.9970    10.6936   256.9331
 4005.5000     5.4600    10.6941   253.0367
 4006.0000     4.9957    10.6790   250.7696
 4006.5000     4.7999    10.6795   248.5746
 4007.0000     4.9324    10.6799   246.3415
 4007.5000     5.2723    10.6960   249.0892
 4008.0000     4.3752    10.7039   251.8349
 4008.5000     3.4474    10.8058   253.5852
 4009.0000     3.6940    10.8840   253.8425
 4009.5000     4.3426    10.8844   247.8810
 4010.0000     4.4657    10.8849   248.1383
 4010.5000     4.3370    10.8698   249.3910
 4011.0000     4.9480    10.8678   251.1413
 4011.5000     5.2397    10.7931   250.1544
 4012.0000     5.4218    10.7097   250.1624
 4012.5000     5.2976    10.6851   251.6643
 4013.0000     5.1902    10.6855   256.1493
 4013.5000     4.7399    10.7016   255.0612
 4014.0000     3.8748    10.7331   246.4656
 4014.5000     1.8021    10.7336   240.1900
 4015.0000     0.7506    10.7030   230.8061
 4015.5000     0.5200    10.6879   227.0820
 4016.0000     0.7540    10.7040   226.0952
 4016.5000     1.6454    10.7573   227.1632
 4017.0000     1.9589    10.7981   229.8467
 4017.5000     2.4977    10.7675   230.6017
 4018.0000     2.6020    10.7680   232.1010
 4018.5000     3.3428    10.7529   230.3677
 4019.0000     4.4555    10.7533   232.8666
 4019.5000     4.6095    10.8498   235.5325
 4020.0000     3.7743    10.7699   237.6113
 4020.5000     3.2174    10.7082   232.7479
 4021.0000     3.0326    10.6930   229.9148
 4021.5000     3.2163    10.6935   231.4180
 4022.0000     3.1142    10.6939   237.8961
 4022.5000     2.7515    10.6944   240.6418
 4023.0000     3.6472    10.6949   243.3874
 4023.5000     4.1413    10.6798   248.1216
 4024.0000     3.5225    10.6802   250.1229
 4024.5000     2.9655    10.6963   254.8592
 4025.0000     2.9338    10.6967   253.3746
 4025.5000     3.1885    10.6972   254.8782
 4026.0000     3.6840    10.6977   252.1495
 4026.5000     4.4523    10.6981   251.9079
 4027.0000     5.3437    10.6986   254.6548
 4027.5000     5.4969    10.7146   254.9100
 4028.0000     4.3332    10.6995   247.7044
 4028.5000     3.5173    10.7000   247.1590
 4029.0000     3.7332    10.7160   246.7260
 4029.5000     3.7017    10.7165   243.9458
 4030.0000     0.8881    10.7170   240.7709
 4030.5000     0.5786    10.7174   244.2651
 4031.0000     0.9224    10.7179   245.5178
 4031.5000     1.8347    10.7184   244.0323
 4032.0000     3.0032    10.7188   244.7882
 4032.5000     4.5329    10.7193   247.2850
 4033.0000     5.0996    10.7198   258.4917
 4033.5000     5.5532    10.7203   263.4768
 4034.0000     5.8903    10.7519   264.7274
 4034.5000     6.2308    10.7598   261.2543
 4035.0000     6.0138    10.8305   264.7590
 4035.5000     4.9932    10.8887   262.5154
 4036.0000     5.6063    10.9247   262.5244
 4036.5000     6.1903    10.9719   262.7832
 4037.0000     5.9189    10.9887   263.5422
 4037.5000     5.7941    11.0039   267.5280
 4038.0000     4.9558    11.0709   268.9645
 4038.5000     4.6806    11.1292   267.4727
 4039.0000     4.3091    11.1453   267.2895
 4039.5000     4.5559    11.1924   269.3039
 4040.0000     4.9881    11.2084   269.0638
 4040.5000     6.1931    11.1646   267.8276
 4041.0000     5.6671    11.1316   268.3359
 4041.5000     5.9756    11.1320   269.0887
 4042.0000     5.7029    11.1325   268.1019
 4042.5000     5.4798    11.1330   269.6054
 4043.0000     5.4174    11.1334   268.1209
 4043.5000     5.9009    11.1339   267.6317
 4044.0000     6.5292    11.1344   265.4426
 4044.5000     6.4131    11.1504   262.9208
 4045.0000     5.2298    11.1509   264.6711
 4045.5000     4.6011    11.1358   259.0879
 4046.0000     5.2957    11.1348   254.7368
 4046.5000     5.6447    11.1057   253.7478
 4047.0000     5.8903    11.1217   254.6588
 4047.5000     4.8875    11.1376   254.7806
 4048.0000     1.9496    11.1381   249.4965
 4048.5000     1.6710    11.1386   248.4807
 4049.0000     3.0758    11.1390   246.8249
 4049.5000     4.3842    11.1395   248.0424
 4050.0000     5.9041    11.1400   255.5187
 4050.5000     6.1790    11.1404   260.0406
 4051.0000     7.0776    11.1409   257.8096
 4051.5000     7.7881    11.1414   256.5739
 4052.0000     6.8349    11.1418   258.0553
 4052.5000     6.1444    11.1424   259.3466
 4053.0000     6.3335    11.1584   258.3433
 4053.5000     5.8693    11.1432   259.3470
 4054.0000     6.3634    11.1437   258.8557
 4054.5000     5.8372    11.0505   260.1084
 4055.0000     5.8677    10.9870   256.3843
 4055.5000     5.6816    10.9585   257.4999
 4056.0000     6.9499    10.9901   262.5640
 4056.5000     7.8134    11.0216   263.8784
 4057.0000     6.9435    11.0468   263.9131
 4057.5000     5.8647    11.0691   263.7822
 4058.0000     6.0805    11.0229   261.2456
 4058.5000     6.9456    10.9924   256.9455
 4059.0000     6.6359    10.9928   256.4542
 4059.5000     6.8517    10.9933   253.4787
 4060.0000     6.5520    10.9783   252.9874
 4060.5000     5.9849    10.9787   258.9700
 4061.0000     6.2316    10.9948   260.9767
 4061.5000     5.7365    10.9952   262.5433
 4062.0000     5.7081    10.9956   260.7394
 4062.5000     6.6835    11.0117   257.5130
 4063.0000     7.0331    11.0121   255.5192
 4063.5000     7.0944    11.0126   253.2989
 4064.0000     7.3412    11.0103   255.4905
 4064.5000     6.7351    10.9980   257.0478
 4065.0000     6.5054    10.9984   255.5645
 4065.5000     6.2884    11.0145   255.5732
 4066.0000     5.9478    11.0149   259.5636
 4066.5000     5.6383    11.0621   260.8162
 4067.0000     6.3176    11.1380   261.5902
 4067.5000     6.8426    11.1563   261.0841
 4068.0000     6.8420    11.1723   257.1113
 4068.5000     6.0444    11.2351   258.1129
 4069.0000     5.5426    11.2510   252.8788
 4069.5000     6.4384    11.2515   251.4994
 4070.0000     6.4997    11.2519   250.1757
 4070.5000     6.0045    11.2524   250.2153
 4071.0000     5.9114    11.2529   248.7025
 4071.5000     5.8180    11.2533   244.8679
 4072.0000     5.2610    11.2538   241.5046
 4072.5000     5.7852    11.2698   244.7479
 4073.0000     6.2800    11.2859   248.7377
 4073.5000     5.7538    11.2863   247.2532
 4074.0000     5.1265    11.2868   245.7686
 4074.5000     4.4544    11.2872   246.2743
 4075.0000     4.5158    11.2877   245.7856
 4075.5000     4.6388    11.2882   243.0414
 4076.0000     4.7339    11.2886   242.8165
 4076.5000     4.7613    11.2736   244.5689
 4077.0000     4.5135    11.2759   247.5621
 4077.5000     4.8899    11.2900   247.3259
 4078.0000     5.5323    11.2905   247.4816
 4078.5000     5.5010    11.2910   248.3347
 4079.0000     5.8096    11.2914   247.8457
 4079.5000     5.9477    11.2919   245.6150
 4080.0000     6.6379    11.3079   246.9338
 4080.5000     7.3226    11.3084   249.1156
 4081.0000     7.1365    11.2933   249.8727
 4081.5000     8.1868    11.2627   255.6918
 4082.0000     8.8592    11.2942   257.3554
 4082.5000    11.5398    11.3372   258.8568
 4083.0000    14.8312    12.0573   261.6024
 4083.5000    13.9283    11.8945   257.1319
 4084.0000     9.4958    11.0927   250.4915
 4084.5000     6.3287    11.0011   248.6885
 4085.0000     6.6064    10.9550   250.6877
 4085.5000     6.6676    10.9398   248.7054
 4086.0000     7.0071    10.8470   249.9899
 4086.5000     7.4141    10.7541   252.2061
