~VERSION INFORMATION
 VERS.               2.10:   CWLS LOG ASCII STANDARD - VERSION 2.10
 WRAP.                 NO:   ONE LINE PER DEPTH STEP
~WELL INFORMATION
#MNEM.UNIT      DATA TYPE    INFORMATION
#----------   ------------   ------------------------------
 STRT.F         3538.2156:   START DEPTH
 STOP.F         5485.2939:   STOP DEPTH
 STEP.F            0.5000:   STEP LENGTH
 NULL.          -999.2500:   NO VALUE
 COMP. Fenix & Scisson,Inc.:   COMPANY
 WELL.        44-1 TPX 10:   WELL
 FLD .           N.P.R. 3:   FIELD
 LOC . 10-38N-78W-NATRONA-WY:   LOCATION
 STAT.                 WY:   STATE
 COUN.            Natrona:   COUNTY
 SRVC.      Dresser Atlas:   SERVICE COMPANY
 DATE.                   :   LOGDATE
 APIN.         4902510439:   API NUMBER
~CURVE INFORMATION
#MNEM.UNIT       API CODE    CURVE DESCRIPTION
#----------   ------------   ------------------------------
 DEPT.F                  :
 GR  .API    06 310 01 00:   Gamma Ray
 LLS .ohmm   11 220 06 00:   Dual Laterolog, shallow
 LLD .ohmm   11 220 04 00:   Dual Laterolog, Deep
~PARAMETER INFORMATION
#MNEM.UNIT          VALUE    DESCRIPTION
#----------   ------------   ------------------------------
 EKB .F         5240.0000:   Kelly bushing
 EGL .F         5230.0000:   Ground level
 EDF .F            0.0000:   Drilling floor
 EPD .F           10.0000:   Permanent datum
 TD  .F         2250.0000:   Total depth
 NRUN.             1.0000:   Number of Runs
#--RUN 1---   ------------   The following are for Run 1---
 RUN .             1.0000:   Run 1
 DATE.mm/dd/yyyy 12-17-1977:   Date Logged
 DD  .ft             5471:   Depth Driller
 DL  .ft             5471:   Depth Logger
 BLI .ft             5461:   Bottom Log Interval
 TLI .ft             3550:   Top Log Interval
 CSS .inch          8.625:   Casing Size
 CTD1.ft             3023:   Casing Driller 1
 CTL1.ft              n/a:   Casing Logger 1
 BS  .inch          7.875:   Bit Size
 DFT .                kcl:   Type Fluid In Hole
 DFD .lb/gal          9.5:   Mud Weight
 DFV .sec              38:   Viscosity
 DFPH.               11.0:   pH
 DFL .cc              8.4:   Fluid Loss
 WSS .            mud pit:   Source Of Sample
 RM  .ohmm           .385:   Rm
 EMT .F                78:   Rm Meas. Temp.
 RMF .ohmm            .22:   Rmf
 MFT .F                70:   Rmf Meas. Temp.
 RMC .ohmm             .8:   Rmc
 MCST.F                70:   Rmc Meas. Temp.
 MFSS.               meas:   Source Rmf.
 MCSS.               meas:   Source Rmc.
 RMB .ohmm            .16:   Rm. At BHT
 BHT .F               176:   BHT.
 TCS .hh:mm        10 hrs:   Time Circ. Stopped
 MRT .F               176:   Maximum Recorded Temp.
 LUN .               6134:   Logging Unit Number
 LUL .           Gillette:   Logging Unit Location
 ENGI.              Hoyer:   Recorded By
 WITN.      Mr. Harington:   Witnessed By
 DGBY.              Burke:   Digitized By
~A  DEPTH       GR        LLS        LLD
# ...
 4994.2160   108.2791    46.4570    44.6262
 4994.7160   109.2713    45.4495    45.7067
 4995.2160   112.4961    45.1071    44.9376
 4995.7160   113.7364    45.7400    45.2557
 4996.2160   112.0000    45.3906    44.6121
 4996.7160   111.7519    45.7005    44.9495
 4997.2160   116.9612    45.6758    45.8913
 4997.7160   115.7209    45.6561    45.8877
 4998.2160   114.9767    45.6358    45.8841
 4998.7160   111.7519    45.9430    45.8805
 4999.2160   109.7674    45.9182    45.5518
 4999.7160   107.2868    45.5723    45.5482
 5000.2160   102.1589    43.9576    43.9534
 5000.7160    95.8904    42.0988    40.5888
 5001.2160    89.6814    41.4849    35.0005
 5001.7160    83.2585    42.0625    33.7750
 5002.2160    80.5394    43.3600    35.4963
 5002.7160    89.9982    51.6721    43.3147
 5003.2160    98.8474    50.5569    43.6213
 5003.7160   107.6965    44.7673    42.0932
 5004.2160   101.6648    38.2527    37.0322
 5004.7160   102.9171    35.8600    30.2848
 5005.2160   105.1569    33.3770    27.4645
 5005.7160   101.4480    32.6567    27.4624
 5006.2160    98.2328    32.8796    27.8542
 5006.7160    92.7850    33.3338    28.0508
 5007.2160    95.0272    33.5577    28.0480
 5007.7160    98.2616    34.3028    28.0458
 5008.2160    90.6915    35.2405    27.8448
 5008.7160    91.5856    30.7632    27.0438
 5009.2160    94.0758    29.2531    25.6817
 5009.7160    95.8219    27.0351    23.6369
 5010.2160    95.8315    24.6316    22.0125
 5010.7160    94.3527    23.9288    20.6460
 5011.2160    92.8740    24.2637    20.4984
 5011.7160    94.4179    25.5415    22.0073
 5012.2160   102.0124    27.3612    23.6276
 5012.7160   100.0990    31.0939    25.2106
 5013.2160   104.5738    33.6157    27.4951
 5013.7160   106.0694    36.3422    29.4484
 5014.2160   104.5906    38.7335    31.6166
 5014.7160   102.8638    39.5542    34.4308
 5015.2160   103.1239    40.3912    35.6744
 5015.7160   100.1567    40.3732    35.1678
 5016.2160   105.2942    39.7808    35.1650
 5016.7160   104.3954    39.4811    35.4229
 5017.2160   100.1856    39.7464    36.5154
 5017.7160   100.6913    41.4654    39.1139
 5018.2160    93.5072    42.9515    41.9938
 5018.7160    98.7285    45.7777    45.0857
 5019.2160   106.4280    48.4434    46.0553
 5019.7160   107.9260    48.3377    45.7244
 5020.2160   108.6822    45.7135    43.9444
 5020.7160   107.4515    43.7805    42.0645
 5021.2160   106.7146    42.2292    40.1845
 5021.7160   108.4630    40.4436    38.3046
 5022.2160   103.5114    39.0106    36.4246
 5022.7160   104.5133    38.1686    34.1421
 5023.2160   104.2748    36.8162    31.3466
 5023.7160   102.7961    35.1731    28.3735
 5024.2160   103.1063    30.7764    25.1402
 5024.7160   105.5464    29.6859    24.7832
 5025.2160   100.0962    29.4654    25.6784
 5025.7160    98.8679    31.6256    27.5690
 5026.2160    97.8853    39.9961    31.3882
 5026.7160    94.9158    41.7259    34.6087
 5027.2160    96.6642    41.7079    34.3608
 5027.7160    94.6700    40.1980    34.1146
 5028.2160    92.7169    38.8004    31.9968
 5028.7160    91.7318    39.9055    32.6842
 5029.2160    95.4648    42.2292    35.0907
 5029.7160    97.9550    43.1280    36.8790
 5030.2160   101.1871    41.8930    37.4044
 5030.7160    97.2301    40.4086    34.8331
 5031.2160    85.8289    37.6120    32.2093
 5031.7160    81.3734    33.7094    29.1544
 5032.2160    79.8970    32.8156    27.3445
 5032.7160    77.4260    33.5105    26.5755
 5033.2160    76.4434    34.7115    27.3402
 5033.7160    73.4762    36.9955    29.9862
 5034.2160    74.2300    47.1221    37.4701
 5034.7160    77.9606    53.1702    42.7849
 5035.2160    91.8617    54.6965    43.7042
 5035.7160    94.1039    47.5157    41.4035
 5036.2160    96.8422    40.7857    34.3105
 5036.7160    93.1333    40.1909    30.6176
 5037.2160    87.9336    42.8355    29.3368
 5037.7160    77.0285    55.7400    32.8694
 5038.2160    78.5265    62.4475    37.6222
 5038.7160    79.5605    65.6144    41.5579
 5039.2160    77.5520    64.6576    44.3015
 5039.7160    77.3150    57.6623    41.1881
 5040.2160    72.1177    58.0441    38.9711
 5040.7160    60.3373    64.1082    41.2495
 5041.2160    51.7119    72.8540    51.7877
 5041.7160    52.3024    85.1878    54.8154
 5042.2160    47.9003    92.0970    58.8514
 5042.7160    38.6984   108.4589    64.0897
 5043.2160    30.7414   134.2632    73.3569
 5043.7160    24.1416   363.9308    99.7963
 5044.2160    20.6002   657.8858   517.4736
 5044.7160    17.6330   802.5714  1052.3301
 5045.2160    17.1441   746.9460  1464.4746
 5045.7160    18.3965   715.3618  1838.6088
 5046.2160    19.6464   699.9227  1932.3097
 5046.7160    23.6250   670.3268  1334.8263
 5047.2160    25.8763   430.6738   315.0384
 5047.7160    29.7801   411.8398   293.2560
 5048.2160    44.1701   330.5029   283.1095
 5048.7160    60.9892   281.4828   267.4298
 5049.2160    79.7375   190.5968   231.9527
 5049.7160    85.9487   110.8951   176.6028
 5050.2160    86.3849   102.4870    94.6546
 5050.7160    85.7191   100.2752    78.1106
 5051.2160    82.7543    99.5198    83.8617
 5051.7160    84.2523   103.0865    94.7924
 5052.2160    83.2673   116.3177   106.7840
 5052.7160    80.3002   123.0909   112.2260
 5053.2160    82.0486   126.6917   117.9454
 5053.7160    80.8152   127.4473   123.0777
 5054.2160    80.0834   128.3036   129.3501
 5054.7160    81.8318   127.3234   133.0750
 5055.2160    84.0740   126.3643   132.1189
 5055.7160    80.8588   125.4125   134.0011
 5056.2160    78.8815   124.4678   136.8775
 5056.7160    84.3509   123.5303   139.8183
 5057.2160    83.1202   121.6421   139.8073
 5057.7160    78.4141   119.0890   138.8056
 5058.2160    79.4188   117.3524   133.9457
 5058.7160    80.6709   116.4684   128.3399
 5059.2160    81.4222   111.5436   123.8464
 5059.7160    85.4033   103.8239   118.5854
 5060.2160    86.1547    97.7219   109.3287
 5060.7160    82.9419    91.1758   101.4578
 5061.2160    81.7112    84.6298    95.8387
 5061.7160    84.2211    77.3714    92.4832
 5062.2160    88.3306    70.4928    88.6127
 5062.7160    91.6625    64.2258    81.0027
 5063.2160    93.9071    57.6876    72.0081
 5063.7160    96.8935    52.5069    61.6394
 5064.2160    98.6395    46.3157    46.7047
 5064.7160    95.4243    42.3980    43.1867
 5065.2160    95.0140    40.0304    42.8772
 5065.7160    94.9474    38.6120    42.9140
 5066.2160    97.3522    38.0490    42.2650
 5066.7160    92.9846    37.7624    41.3356
 5067.2160    91.7539    37.2117    40.4922
 5067.7160    90.5208    36.9211    40.7788
 5068.2160    95.7421    36.9148    41.3597
 5068.7160    88.0626    37.4253    42.2483
 5069.2160    86.0853    38.7666    43.4632
 5069.7160    91.0586    39.8707    44.7140
 5070.2160    89.0450    40.4258    46.6597
 5070.7160    86.6127    40.1213    49.0762
 5071.2160    91.3355    39.2554    50.0912
 5071.7160    88.3708    37.8367    49.0289
 5072.2160    85.8974    35.6690    45.9853
 5072.7160    88.8862    33.7500    44.0607
 5073.2160    90.3841    32.7870    42.2167
 5073.7160    90.6394    31.6253    39.9367
 5074.2160    88.4189    30.7229    37.4605
 5074.7160    89.6688    28.8013    34.9842
 5075.2160    94.2291    27.3875    32.5080
 5075.7160    92.1711    26.6060    30.4246
 5076.2160    89.9481    27.2278    31.5867
 5076.7160    90.2058    29.3698    34.3288
 5077.2160    93.6883    31.0834    36.5951
 5077.7160    94.6902    30.4093    37.3821
 5078.2160    92.4672    29.3318    33.5961
 5078.7160    90.7404    28.0915    31.2872
 5079.2160    94.9671    26.3344    29.3450
 5079.7160    89.2713    24.3221    27.9095
 5080.2160    96.9732    22.1065    24.9954
 5080.7160   100.2076    19.9146    20.7048
 5081.2160    98.4808    19.0725    19.9799
 5081.7160    95.7618    18.7944    20.2649
 5082.2160    94.5023    20.1744    21.2973
 5082.7160    95.0368    21.9666    24.0325
 5083.2160    93.1721    23.5796    26.1716
 5083.7160    86.1282    25.8660    28.0995
 5084.2160    79.1921    27.4179    31.0945
 5084.7160    75.4784    28.9540    32.6191
