~VERSION INFORMATION
 VERS.               2.10:   CWLS LOG ASCII STANDARD - VERSION 2.10
 WRAP.                 NO:   ONE LINE PER DEPTH STEP
~WELL INFORMATION
#MNEM.UNIT      DATA TYPE    INFORMATION
#----------   ------------   ------------------------------
 STRT.F         3538.2156:   START DEPTH
 STOP.F         5485.2939:   STOP DEPTH
 STEP.F            0.5000:   STEP LENGTH
 NULL.          -999.2500:   NO VALUE
 COMP. Fenix & Scisson,Inc.:   COMPANY
 WELL.        44-1 TPX 10:   WELL
 FLD .           N.P.R. 3:   FIELD
 LOC . 10-38N-78W-NATRONA-WY:   LOCATION
 STAT.                 WY:   STATE
 COUN.            Natrona:   COUNTY
 SRVC.      Dresser Atlas:   SERVICE COMPANY
 DATE.                   :   LOGDATE
 APIN.         4902510439:   API NUMBER
~CURVE INFORMATION
#MNEM.UNIT       API CODE    CURVE DESCRIPTION
#----------   ------------   ------------------------------
 DEPT.F                  :
 GR  .API    06 310 01 00:   Gamma Ray
 LLS .ohmm   11 220 06 00:   Dual Laterolog, shallow
 LLD .ohmm   11 220 04 00:   Dual Laterolog, Deep
~PARAMETER INFORMATION
#MNEM.UNIT          VALUE    DESCRIPTION
#----------   ------------   ------------------------------
 EKB .F         5240.0000:   Kelly bushing
 EGL .F         5230.0000:   Ground level
 EDF .F            0.0000:   Drilling floor
 EPD .F           10.0000:   Permanent datum
 TD  .F         2250.0000:   Total depth
 NRUN.             1.0000:   Number of Runs
#--RUN 1---   ------------   The following are for Run 1---
 RUN .             1.0000:   Run 1
 DATE.mm/dd/yyyy 12-17-1977:   Date Logged
 DD  .ft             5471:   Depth Driller
 DL  .ft             5471:   Depth Logger
 BLI .ft             5461:   Bottom Log Interval
 TLI .ft             3550:   Top Log Interval
 CSS .inch          8.625:   Casing Size
 CTD1.ft             3023:   Casing Driller 1
 CTL1.ft              n/a:   Casing Logger 1
 BS  .inch          7.875:   Bit Size
 DFT .                kcl:   Type Fluid In Hole
 DFD .lb/gal          9.5:   Mud Weight
 DFV .sec              38:   Viscosity
 DFPH.               11.0:   pH
 DFL .cc              8.4:   Fluid Loss
 WSS .            mud pit:   Source Of Sample
 RM  .ohmm           .385:   Rm
 EMT .F                78:   Rm Meas. Temp.
 RMF .ohmm            .22:   Rmf
 MFT .F                70:   Rmf Meas. Temp.
 RMC .ohmm             .8:   Rmc
 MCST.F                70:   Rmc Meas. Temp.
 MFSS.               meas:   Source Rmf.
 MCSS.               meas:   Source Rmc.
 RMB .ohmm            .16:   Rm. At BHT
 BHT .F               176:   BHT.
 TCS .hh:mm        10 hrs:   Time Circ. Stopped
 MRT .F               176:   Maximum Recorded Temp.
 LUN .               6134:   Logging Unit Number
 LUL .           Gillette:   Logging Unit Location
 ENGI.              Hoyer:   Recorded By
 WITN.      Mr. Harington:   Witnessed By
 DGBY.              Burke:   Digitized By
~A  DEPTH       GR        LLS        LLD
# ...
 4630.2160    89.4566    27.5583    26.6994
 4630.7160    86.2403    27.7617    26.1346
 4631.2160    83.7681    28.3682    26.1335
 4631.7160    83.5263    28.9880    26.6962
 4632.2160    80.8082    30.0466    26.5056
 4632.7160    76.7922    31.8171    27.8574
 4633.2160    71.5922    34.7315    30.1427
 4633.7160    66.4248    38.8658    32.6788
 4634.2160    63.9334    42.9546    42.0756
 4634.7160    65.4725    46.8014    45.8223
 4635.2160    76.8918    47.4814    46.1479
 4635.7160    81.6134    41.1838    42.9774
 4636.2160    88.5676    36.7526    37.2774
 4636.7160    95.0256    33.9884    32.3333
 4637.2160    92.0573    32.5726    30.7617
 4637.7160    83.3835    34.1301    30.3259
 4638.2160    86.7446    37.5830    33.7382
 4638.7160    91.0924    39.2342    35.9669
 4639.2160    94.5737    38.6853    36.2224
 4639.7160    97.5589    36.5511    33.4948
 4640.2160    99.3016    32.8518    29.4686
 4640.7160    96.5835    30.5982    27.6403
 4641.2160    93.6151    30.6100    28.2351
 4641.7160    86.4156    32.0139    29.9323
 4642.2160    82.8965    34.5657    32.5480
 4642.7160    78.5107    37.6613    34.4521
 4643.2160    76.0385    43.4422    42.3421
 4643.7160    76.2950    47.6714    47.1070
 4644.2160    76.7975    48.3641    47.7803
 4644.7160    81.0250    45.0490    43.5583
 4645.2160    82.0558    41.9588    40.8557
 4645.7160    82.0341    39.9254    38.5943
 4646.2160    83.5660    40.2223    38.5926
 4646.7160    91.4794    40.8091    39.4228
 4647.2160    94.9607    40.8182    40.2717
 4647.7160   101.9149    38.2902    38.8627
 4648.2160   108.8690    33.6867    32.9968
 4648.7160   112.8465    30.2270    29.4464
 4649.2160   116.0797    26.2262    23.4516
 4649.7160   117.5833    23.2681    21.0776
 4650.2160   108.8394    23.2746    20.1962
 4650.7160    94.0295    24.1246    22.1514
 4651.2160    93.5418    25.9130    23.4473
 4651.7160    89.0851    29.6783    25.1745
 4652.2160    82.8920    32.8005    29.8589
 4652.7160    83.8927    35.9936    36.6970
 4653.2160    83.6527    39.2170    39.9648
 4653.7160    91.8475    41.2455    41.4097
 4654.2160    95.6242    41.5376    41.3883
 4654.7160    98.0680    40.9608    40.2444
 4655.2160   109.2392    37.6109    36.9505
 4655.7160   112.7205    32.3920    32.0498
 4656.2160   119.9227    27.2689    26.9971
 4656.7160   122.4118    22.9812    22.2976
 4657.2160   123.4125    21.1323    19.6174
 4657.7160   121.9325    20.8367    18.6638
 4658.2160   118.4477    20.9916    18.9304
 4658.7160   118.9747    21.6037    19.2007
 4659.2160   118.4870    22.2336    19.6140
 4659.7160   118.9916    22.0794    19.8941
 4660.2160   117.5116    21.4647    19.7521
 4660.7160   116.7737    20.7178    19.4722
 4661.2160   117.5285    20.8718    19.0604
 4661.7160   118.2811    21.3278    18.9245
 4662.2160   118.2896    22.4241    19.4697
 4662.7160   118.0499    23.7455    21.2035
 4663.2160   115.3317    25.5058    23.2564
 4663.7160   114.0977    27.2020    24.6201
 4664.2160   117.0850    27.4195    25.1467
 4664.7160   118.8298    25.1080    24.4401
 4665.2160   127.7685    21.4439    22.1229
 4665.7160   130.7536    20.4716    19.8834
 4666.2160   129.7554    20.3308    18.6497
 4666.7160   128.0439    20.3365    18.3855
 4667.2160   127.8043    20.6331    18.5160
 4667.7160   123.8437    22.1627    19.5992
 4668.2160   124.0981    23.6366    20.9382
 4668.7160   122.8662    24.6750    22.1159
 4669.2160   123.8690    25.2141    22.4320
 4669.7160   124.6409    24.6861    22.2719
 4670.2160   122.6111    24.3421    21.8008
 4670.7160   120.2971    24.5232    22.2699
 4671.2160   108.0288    26.1540    23.2398
 4671.7160   106.3008    30.6969    27.3689
 4672.2160   100.6038    35.8405    32.5426
 4672.7160    97.1372    40.9842    38.0299
 4673.2160    96.4036    44.6831    43.5173
 4673.7160    96.6601    45.9833    46.3180
 4674.2160    98.9087    45.3451    45.9878
 4674.7160   101.2966    42.2346    37.4152
 4675.2160   109.5867    37.3292    32.5831
 4675.7160   110.5873    33.2055    29.1674
 4676.2160   113.0764    29.0818    27.1639
 4676.7160   112.8367    27.7580    26.4008
 4677.2160   109.1242    28.5690    27.3554
 4677.7160   107.6443    30.6868    28.9557
 4678.2160   104.9240    33.4350    31.0888
 4678.7160   106.4208    35.1537    31.9846
 4679.2160   105.9331    34.4195    32.2115
 4679.7160   107.1818    35.6765    33.3757
 4680.2160    98.7583    38.8716    36.0902
 4680.7160    89.3403    44.5198    40.6470
 4681.2160    88.6046    47.4804    46.6176
 4681.7160    88.5247    47.8309    47.9608
 4682.2160    96.3221    44.8686    44.5885
 4682.7160   105.9079    42.0483    41.9659
 4683.2160   108.9814    38.8321    38.0428
 4683.7160   108.9899    36.2560    34.7824
 4684.2160   110.4867    34.0106    33.6006
 4684.7160   110.2470    33.0619    33.3610
 4685.2160   111.2456    32.8326    31.7394
 4685.7160   108.0313    34.2770    30.4121
 4686.2160   104.3188    37.6139    32.8855
 4686.7160    94.5677    42.2263    38.1813
 4687.2160    94.4132    48.3434    42.7812
 4687.7160    96.6563    46.9506    44.0139
 4688.2160   105.3468    39.2952    39.5580
 4688.7160   113.7894    35.0672    35.5536
 4689.2160   119.0071    31.1202    26.1846
 4689.7160   118.4826    26.5677    21.3036
 4690.2160   118.7759    24.9223    20.1244
 4690.7160   124.3376    24.4004    19.1462
 4691.2160   130.2057    23.0196    18.6084
 4691.7160   132.1986    21.9370    17.9485
 4692.2160   129.4783    21.4765    17.4529
 4692.7160   124.2775    21.4825    17.5767
 4693.2160   123.2936    21.7959    17.8279
 4693.7160   122.3098    22.5919    18.6042
 4694.2160   116.1167    23.9231    19.6926
 4694.7160   106.7929    27.2046    25.0708
 4695.2160    95.7946    32.2188    30.9201
 4695.7160    88.6067    38.0184    36.7694
 4696.2160    87.0095    43.8180    42.6187
 4696.7160    76.9678    49.6176    55.6120
 4697.2160    75.4879    60.5197    62.7566
 4697.7160    71.0312    59.6737    68.8328
 4698.2160    69.0551    60.5643    74.4309
 4698.7160    66.8310    75.0055    77.6726
 4699.2160    66.0952    78.3009    79.3442
 4699.7160    65.6075    77.7622    81.0519
 4700.2160    68.5773    73.4680    73.7589
 4700.7160    74.3666    63.1155    64.4324
 4701.2160    80.1558    51.6864    45.4485
 4701.7160    78.5205    47.2525    44.8260
 4702.2160    73.3923    50.0397    48.1272
 4702.7160    76.0575    52.6119    52.0409
 4703.2160    82.1421    54.1459    51.6694
 4703.7160    86.7166    49.8166    44.1832
 4704.2160    94.1608    44.6820    35.4391
 4704.7160   104.3338    40.4901    32.0787
 4705.2160   106.3207    35.6902    28.8028
 4705.7160   113.5169    31.9878    26.9765
 4706.2160   110.2945    30.4376    26.0957
 4706.7160   107.5682    29.5886    25.3624
 4707.2160   110.7954    29.8069    25.9080
 4707.7160   109.8062    29.3916    25.7231
 4708.2160   108.0722    28.9820    25.9054
 4708.7160   106.0901    29.4048    26.6515
 4709.2160    95.9220    30.7992    28.2223
 4709.7160    90.9631    34.6614    35.6708
 4710.2160    83.0276    37.4972    37.7573
 4710.7160    88.4873    41.4420    40.5384
 4711.2160    88.5068    42.6503    41.7060
 4711.7160    93.9496    43.5821    42.3019
 4712.2160    93.4558    43.5919    42.6016
 4712.7160    88.4976    43.9136    41.9972
 4713.2160    84.5310    44.8729    40.7967
 4713.7160    87.0140    43.3139    37.7431
 4714.2160    93.2180    41.5096    35.6537
 4714.7160    97.9330    39.4979    34.8993
 4715.2160    95.9515    37.8527    34.8974
 4715.7160    92.4521    37.3231    35.1452
 4716.2160    90.0028    37.8697    36.4151
 4716.7160    86.5330    39.2527    37.7314
 4717.2160    79.0935    40.6863    39.0953
 4717.7160    76.8634    40.0707    37.7275
 4718.2160    75.3768    40.4176    39.6508
 4718.7160    78.1085    41.8936    41.0841
 4719.2160    80.8396    43.1151    41.9679
 4719.7160    80.5939    44.3722    44.4227
 4720.2160    76.0784    46.3217    47.0212
 4720.7160    73.4050    48.3569    49.0686
