~VERSION INFORMATION
 VERS.               2.10:   CWLS LOG ASCII STANDARD - VERSION 2.10
 WRAP.                 NO:   ONE LINE PER DEPTH STEP
~WELL INFORMATION
#MNEM.UNIT      DATA TYPE    INFORMATION
#----------   ------------   ------------------------------
 STRT.F         3538.2156:   START DEPTH
 STOP.F         5485.2939:   STOP DEPTH
 STEP.F            0.5000:   STEP LENGTH
 NULL.          -999.2500:   NO VALUE
 COMP. Fenix & Scisson,Inc.:   COMPANY
 WELL.        44-1 TPX 10:   WELL
 FLD .           N.P.R. 3:   FIELD
 LOC . 10-38N-78W-NATRONA-WY:   LOCATION
 STAT.                 WY:   STATE
 COUN.            Natrona:   COUNTY
 SRVC.      Dresser Atlas:   SERVICE COMPANY
 DATE.                   :   LOGDATE
 APIN.         4902510439:   API NUMBER
~CURVE INFORMATION
#MNEM.UNIT       API CODE    CURVE DESCRIPTION
#----------   ------------   ------------------------------
 DEPT.F                  :
 GR  .API    06 310 01 00:   Gamma Ray
 LLS .ohmm   11 220 06 00:   Dual Laterolog, shallow
 LLD .ohmm   11 220 04 00:   Dual Laterolog, Deep
~PARAMETER INFORMATION
#MNEM.UNIT          VALUE    DESCRIPTION
#----------   ------------   ------------------------------
 EKB .F         5240.0000:   Kelly bushing
 EGL .F         5230.0000:   Ground level
 EDF .F            0.0000:   Drilling floor
 EPD .F           10.0000:   Permanent datum
 TD  .F         2250.0000:   Total depth
 NRUN.             1.0000:   Number of Runs
#--RUN 1---   ------------   The following are for Run 1---
 RUN .             1.0000:   Run 1
 DATE.mm/dd/yyyy 12-17-1977:   Date Logged
 DD  .ft             5471:   Depth Driller
 DL  .ft             5471:   Depth Logger
 BLI .ft             5461:   Bottom Log Interval
 TLI .ft             3550:   Top Log Interval
 CSS .inch          8.625:   Casing Size
 CTD1.ft             3023:   Casing Driller 1
 CTL1.ft              n/a:   Casing Logger 1
 BS  .inch          7.875:   Bit Size
 DFT .                kcl:   Type Fluid In Hole
 DFD .lb/gal          9.5:   Mud Weight
 DFV .sec              38:   Viscosity
 DFPH.               11.0:   pH
 DFL .cc              8.4:   Fluid Loss
 WSS .            mud pit:   Source Of Sample
 RM  .ohmm           .385:   Rm
 EMT .F                78:   Rm Meas. Temp.
 RMF .ohmm            .22:   Rmf
 MFT .F                70:   Rmf Meas. Temp.
 RMC .ohmm             .8:   Rmc
 MCST.F                70:   Rmc Meas. Temp.
 MFSS.               meas:   Source Rmf.
 MCSS.               meas:   Source Rmc.
 RMB .ohmm            .16:   Rm. At BHT
 BHT .F               176:   BHT.
 TCS .hh:mm        10 hrs:   Time Circ. Stopped
 MRT .F               176:   Maximum Recorded Temp.
 LUN .               6134:   Logging Unit Number
 LUL .           Gillette:   Logging Unit Location
 ENGI.              Hoyer:   Recorded By
 WITN.      Mr. Harington:   Witnessed By
 DGBY.              Burke:   Digitized By
~A  DEPTH       GR        LLS        LLD
# ...
 3629.2160    91.9068     3.9739     5.3434
 3629.7160    92.0049     4.1725     5.8429
 3630.2160    86.4652     4.3710     6.7158
 3630.7160    86.5450     4.5386     7.6099
 3631.2160    90.8393     4.6045     8.6285
 3631.7160    92.9641     4.1643     8.6567
 3632.2160    92.9761     3.4340     4.4137
 3632.7160    90.5037     2.9243     4.1855
 3633.2160    92.5034     2.8837     4.1720
 3633.7160    93.2578     2.9932     4.3401
 3634.2160    93.5213     3.1873     4.6125
 3634.7160    93.2850     3.2337     4.9371
 3635.2160    93.3168     3.1887     4.9594
 3635.7160    93.0607     3.1445     4.8703
 3636.2160    94.5665     3.1455     4.8197
 3636.7160    96.3177     3.2371     4.8697
 3637.2160    99.0627     3.3314     5.4789
 3637.7160    98.0779     3.3831     5.6997
 3638.2160   100.5775     3.4050     5.7266
 3638.7160    98.1051     3.3578     5.5039
 3639.2160    99.3594     3.2646     4.9654
 3639.7160    99.9207     3.2191     4.8104
 3640.2160   101.6226     3.3128     4.7608
 3640.7160   101.1378     3.4091     4.8873
 3641.2160    99.4108     3.4585     5.3348
 3641.7160   100.1682     3.4101     5.5895
 3642.2160   101.4225     3.3389     5.6964
 3642.7160    96.2172     3.2690     5.6331
 3643.2160    98.7137     3.1109     5.2663
 3643.7160    96.4898     3.0028     4.4560
 3644.2160    98.0570     2.8972     4.1363
 3644.7160   102.2312     2.8785     4.1229
 3645.2160   102.7372     2.8791     4.2374
 3645.7160   102.7523     2.8188     4.4303
 3646.2160   101.0252     2.7794     4.3500
 3646.7160   101.2858     2.7407     3.9807
 3647.2160   104.7761     2.7026     3.8291
 3647.7160   106.5273     2.7030     3.7360
 3648.2160   106.0425     2.7228     3.7240
 3648.7160   107.6611     2.7454     3.7119
 3649.2160   109.7964     2.8024     3.7811
 3649.7160   113.2867     2.8633     3.8530
 3650.2160   113.7957     3.0098     3.9726
 3650.7160   112.8140     3.2092     4.1033
 3651.2160   111.3324     3.4707     4.2384
 3651.7160   109.1114     3.6225     4.4407
 3652.2160   100.9248     3.7810     4.6859
 3652.7160    98.9493     4.0687     5.1577
 3653.2160   102.9395     4.5179     6.1915
 3653.7160   110.6535     5.0270     7.2252
 3654.2160   114.1438     5.6333     8.8403
 3654.7160   121.1124     5.8795     9.3952
 3655.2160   124.1058     5.6353     8.4760
 3655.7160   123.1241     5.4395     7.6468
 3656.2160   119.9064     5.0313     6.5631
 3656.7160   119.9185     4.6538     6.4036
 3657.2160   120.1793     4.7270     6.5826
 3657.7160   119.6972     4.8930     6.8266
 3658.2160   119.4578     4.7230     6.6134
 3658.7160   119.4729     4.3070     5.8820
 3659.2160   116.7521     3.7905     5.1209
 3659.7160   113.7828     3.6329     4.2113
 3660.2160   105.3204     3.6855     4.1090
 3660.7160   102.1319     3.8745     4.0365
 3661.2160    97.1751     4.2050     4.4270
 3661.7160   100.1685     5.1135     6.1089
 3662.2160   105.6464     6.8703     8.6456
 3662.7160   113.6088    10.5604    11.6795
 3663.2160   116.8507    10.1935    14.8506
 3663.7160   112.3907     9.7005    14.0652
 3664.2160   111.9059     9.2972    13.5222
 3664.7160   110.4273     9.0381    12.8193
 3665.2160   112.6784     8.2276    11.5652
 3665.7160   113.6843     7.3056    10.1406
 3666.2160   113.9448     6.7302     8.8509
 3666.7160   113.9569     5.8855     7.1051
 3667.2160   110.4907     5.0512     6.4556
 3667.7160   108.2638     4.8069     6.3420
 3668.2160   108.2789     4.4462     6.0571
 3668.7160   108.7985     3.9973     5.7031
 3669.2160   109.5848     3.7770     5.3698
 3669.7160   109.8088     3.6718     4.9845
 3670.2160   106.3426     3.6206     4.5290
 3670.7160   105.1125     3.4685     4.2340
 3671.2160   104.6276     3.3974     3.7125
 3671.7160   104.3883     3.3740     3.4423
 3672.2160   105.8940     3.5217     3.3358
 3672.7160   105.6575     3.7550     3.4456
 3673.2160   105.4213     3.9472     3.6101
 3673.7160   106.6756     4.3300     4.0042
 3674.2160   105.6939     4.7838     4.3166
 3674.7160   112.6655     5.1013     4.9615
 3675.2160   116.4043     5.0353     5.3868
 3675.7160   117.4102     3.9789     4.4300
 3676.2160   116.9223     3.5267     4.1095
 3676.7160   114.2045     3.4042     3.9805
 3677.2160   112.9744     3.3092     3.9395
 3677.7160   109.9362     3.3813     3.9580
 3678.2160   110.5171     3.4302     4.0019
 3678.7160   112.5167     3.3824     3.8190
 3679.2160   111.7804     3.3116     3.6474
 3679.7160   112.5409     3.2888     3.4099
 3680.2160   112.3015     3.2895     3.3983
 3680.7160   111.8167     3.3371     3.5358
 3681.2160   112.3287     3.4096     3.4966
 3681.7160   109.3563     3.4590     3.3874
 3682.2160   105.3672     3.5342     3.3287
 3682.7160   104.9115     3.7151     3.3417
 3683.2160   101.6968     3.9922     3.5768
 3683.7160    96.9883     4.3249     4.1112
 3684.2160    98.7396     4.8009     5.1471
 3684.7160   106.4535     5.0109     5.5092
 3685.2160   107.2109     4.6021     5.4386
 3685.7160   105.4819     4.3175     4.5124
 3686.2160   102.7610     4.3492     3.8729
 3686.7160   105.7575     4.4437     4.2350
 3687.2160   105.0242     4.7385     4.9728
 3687.7160   107.0335     5.1744     5.4377
 3688.2160   109.3482     5.3486     5.3817
 3688.7160   108.7872     5.1627     4.9601
 3689.2160   114.5165     4.6415     4.7036
 3689.7160   117.7584     4.7088     4.7219
 3690.2160   117.5191     4.9147     4.8388
 3690.7160   119.5217     5.0573     5.0338
 3691.2160   120.5276     5.1672     5.1995
 3691.7160   120.2911     5.4768     5.8084
 3692.2160   118.3157     6.1305     6.8691
 3692.7160   118.0794     6.8213     7.4579
 3693.2160   121.5727     7.5362     7.7034
 3693.7160   126.5537     7.2744     7.4099
 3694.2160   131.2863     5.9628     6.3822
 3694.7160   124.3419     5.4376     5.1888
 3695.2160   117.1490     5.1379     4.9597
 3695.7160   114.6413     5.2521     5.4577
 3696.2160   115.6824     6.1207     6.1443
 3696.7160   122.0158     7.5457     7.0049
 3697.2160   126.3929     7.9885     7.8822
 3697.7160   129.6348     7.6021     7.8010
 3698.2160   132.6282     7.1829     7.3976
 3698.7160   131.3950     7.2357     7.3737
 3699.2160   132.1555     7.2369     7.3499
 3699.7160   132.4130     7.1360     7.3262
 3700.2160   131.3770     6.9813     7.1356
 3700.7160   130.2041     6.6965     6.7864
 3701.2160   132.0396     6.4647     6.4498
 3701.7160   134.7003     6.2298     6.1784
 3702.2160   135.4608     5.8984     5.9606
 3702.7160   136.7121     5.7347     5.7098
 3703.2160   133.0005     5.6153     5.3541
 3703.7160   130.0312     5.4207     5.2768
 3704.2160   128.0526     5.1959     5.4322
 3704.7160   126.5771     4.9101     5.5034
 3705.2160   123.5837     4.7738     4.9096
 3705.7160   120.5701     4.7778     4.6366
 3706.2160   113.2002     4.9145     4.7016
 3706.7160   106.2557     5.3916     5.8223
 3707.2160   102.0442     7.2404     7.6747
 3707.7160    97.5812     9.4585     9.7711
 3708.2160    98.5901    11.6765    12.7991
 3708.7160   102.0804    13.1224    13.5453
 3709.2160   111.5335    12.4006    11.7446
 3709.7160   123.2646     9.3542     9.5022
 3710.2160   136.6528     6.1176     6.8745
 3710.7160   142.8761     4.2137     4.3969
 3711.2160   148.1056     4.0090     3.8674
 3711.7160   145.6332     3.9830     3.6007
 3712.2160   142.6639     4.0703     3.5236
 3712.7160   143.7525     4.2187     3.4975
 3713.2160   147.1631     4.3108     3.5682
 3713.7160   145.4361     4.3424     3.5962
 3714.2160   141.7214     4.1923     3.6243
 3714.7160   136.2677     3.9899     3.6523
 3715.2160   135.2860     3.9068     3.6804
 3715.7160   131.0744     3.8528     3.7084
 3716.2160   131.0518     3.8541     3.7365
 3716.7160   133.5831     3.9103     3.7645
 3717.2160   132.8050     4.1109     3.7926
 3717.7160   133.1134     4.3526     3.8206
 3718.2160   132.6255     4.7078     3.8487
 3718.7160   133.6344     4.6427     3.8767
 3719.2160   132.1558     4.3254     3.9048
 3719.7160   129.1865     4.2655     3.9328
