~VERSION INFORMATION
 VERS.               2.10:   CWLS LOG ASCII STANDARD - VERSION 2.10
 WRAP.                 NO:   ONE LINE PER DEPTH STEP
~WELL INFORMATION
#MNEM.UNIT      DATA TYPE    INFORMATION
#----------   ------------   ------------------------------
 STRT.F         3538.2156:   START DEPTH
 STOP.F         5485.2939:   STOP DEPTH
 STEP.F            0.5000:   STEP LENGTH
 NULL.          -999.2500:   NO VALUE
 COMP. Fenix & Scisson,Inc.:   COMPANY
 WELL.        44-1 TPX 10:   WELL
 FLD .           N.P.R. 3:   FIELD
 LOC . 10-38N-78W-NATRONA-WY:   LOCATION
 STAT.                 WY:   STATE
 COUN.            Natrona:   COUNTY
 SRVC.      Dresser Atlas:   SERVICE COMPANY
 DATE.                   :   LOGDATE
 APIN.         4902510439:   API NUMBER
~CURVE INFORMATION
#MNEM.UNIT       API CODE    CURVE DESCRIPTION
#----------   ------------   ------------------------------
 DEPT.F                  :
 GR  .API    06 310 01 00:   Gamma Ray
 LLS .ohmm   11 220 06 00:   Dual Laterolog, shallow
 LLD .ohmm   11 220 04 00:   Dual Laterolog, Deep
~PARAMETER INFORMATION
#MNEM.UNIT          VALUE    DESCRIPTION
#----------   ------------   ------------------------------
 EKB .F         5240.0000:   Kelly bushing
 EGL .F         5230.0000:   Ground level
 EDF .F            0.0000:   Drilling floor
 EPD .F           10.0000:   Permanent datum
 TD  .F         2250.0000:   Total depth
 NRUN.             1.0000:   Number of Runs
#--RUN 1---   ------------   The following are for Run 1---
 RUN .             1.0000:   Run 1
 DATE.mm/dd/yyyy 12-17-1977:   Date Logged
 DD  .ft             5471:   Depth Driller
 DL  .ft             5471:   Depth Logger
 BLI .ft             5461:   Bottom Log Interval
 TLI .ft             3550:   Top Log Interval
 CSS .inch          8.625:   Casing Size
 CTD1.ft             3023:   Casing Driller 1
 CTL1.ft              n/a:   Casing Logger 1
 BS  .inch          7.875:   Bit Size
 DFT .                kcl:   Type Fluid In Hole
 DFD .lb/gal          9.5:   Mud Weight
 DFV .sec              38:   Viscosity
 DFPH.               11.0:   pH
 DFL .cc              8.4:   Fluid Loss
 WSS .            mud pit:   Source Of Sample
 RM  .ohmm           .385:   Rm
 EMT .F                78:   Rm Meas. Temp.
 RMF .ohmm            .22:   Rmf
 MFT .F                70:   Rmf Meas. Temp.
 RMC .ohmm             .8:   Rmc
 MCST.F                70:   Rmc Meas. Temp.
 MFSS.               meas:   Source Rmf.
 MCSS.               meas:   Source Rmc.
 RMB .ohmm            .16:   Rm. At BHT
 BHT .F               176:   BHT.
 TCS .hh:mm        10 hrs:   Time Circ. Stopped
 MRT .F               176:   Maximum Recorded Temp.
 LUN .               6134:   Logging Unit Number
 LUL .           Gillette:   Logging Unit Location
 ENGI.              Hoyer:   Recorded By
 WITN.      Mr. Harington:   Witnessed By
 DGBY.              Burke:   Digitized By
~A  DEPTH       GR        LLS        LLD
# ...
 4266.2160   101.6309     6.0886     5.1417
 4266.7160   101.8899     5.8003     5.1412
 4267.2160    95.4479     5.6804     5.0201
 4267.7160    93.4518     5.6844     4.7532
 4268.2160    95.9731     5.8931     4.8552
 4268.7160    93.6302     6.2410     5.0663
 4269.2160    89.2968     6.6566     5.2867
 4269.7160    88.5644     6.9502     5.3620
 4270.2160    86.0905     6.8074     5.1740
 4270.7160    86.4499     6.7630     5.1735
 4271.2160    85.3769     6.8258     5.3222
 4271.7160    83.3393     7.3216     5.8455
 4272.2160    82.4238     7.8092     6.3265
 4272.7160    80.7023     8.1536     6.6801
 4273.2160    78.9773     8.6965     6.8722
 4273.7160    74.2709     9.4753     7.1711
 4274.2160    67.3285    10.6213     8.5656
 4274.7160    64.3613    12.5973    10.2690
 4275.2160    65.1207    15.4435    15.2030
 4275.7160    64.8862    18.2898    20.1370
 4276.2160    64.4036    21.5021    25.6003
 4276.7160    64.7022    26.2467    28.8875
 4277.2160    64.4354    29.0123    31.6825
 4277.7160    64.1976    30.9906    34.9959
 4278.2160    66.2028    34.1953    42.0999
 4278.7160    64.4778    41.4454    47.5056
 4279.2160    63.4946    47.1226    62.6850
 4279.7160    64.2576    63.9858    77.0359
 4280.2160    63.0290    75.3801    71.3836
 4280.7160    64.2858    69.7546    57.5375
 4281.2160    67.6237    53.3914    45.4576
 4281.7160    70.5288    36.8344    26.4960
 4282.2160    70.7913    25.2824    24.6745
 4282.7160    72.5446    24.6139    25.0253
 4283.2160    71.3164    25.8863    32.3245
 4283.7160    69.0910    29.2240    43.8839
 4284.2160    71.3447    39.5703    47.4501
 4284.7160    72.8495    53.1226    49.1634
 4285.2160    73.8574    54.2966    52.8582
 4285.7160    71.3870    55.8919    55.8655
 4286.2160    72.4684    56.7228    52.0234
 4286.7160    76.3878    55.1648    45.7673
 4287.2160    75.9050    46.7637    38.8569
 4287.7160    76.1676    35.8160    31.6117
 4288.2160    73.4488    32.2149    29.8601
 4288.7160    70.9784    30.0232    29.2267
 4289.2160    72.6128    28.5831    28.6067
 4289.7160    76.9336    29.0080    27.6036
 4290.2160    80.7102    29.2309    26.6179
 4290.7160    83.0827    29.0401    26.0716
 4291.2160    86.2078    26.1203    25.5185
 4291.7160    84.9797    25.4029    25.1555
 4292.2160    84.7418    25.6201    25.1529
 4292.7160    85.0079    26.9213    25.6926
 4293.2160    86.7612    28.5108    27.5836
 4293.7160    86.5233    29.3485    29.8252
 4294.2160    88.5286    31.0813    32.0203
 4294.7160    89.7991    31.9945    32.9409
 4295.2160    89.5383    32.0122    33.4337
 4295.7160    87.3854    32.2582    35.1102
 4296.2160    83.6196    34.4062    36.8986
 4296.7160    81.3977    35.4174    37.9594
 4297.2160    77.4367    34.9015    37.1542
 4297.7160    74.4694    32.5647    35.5984
 4298.2160    72.7444    30.3492    33.3876
 4298.7160    74.4977    29.0993    30.4359
 4299.2160    77.0232    28.0959    29.1614
 4299.7160    78.7495    28.3157    29.1583
 4300.2160    78.0197    28.1274    29.3647
 4300.7160    77.2888    28.9600    29.9980
 4301.2160    71.0921    29.1843    30.2121
 4301.7160    72.8462    28.9658    29.7854
 4302.2160    69.6341    28.6040    29.7854
 4302.7160    65.6735    29.0353    30.9518
 4303.2160    63.6968    31.4135    34.3383
 4303.7160    66.4442    33.2701    36.6082
 4304.2160    67.2077    34.0073    37.9334
 4304.7160    70.2036    34.7608    38.7515
 4305.2160    69.7207    34.7821    38.4769
 4305.7160    73.2140    33.5578    37.3977
 4306.2160    75.4645    31.7585    35.8338
 4306.7160    67.2838    29.5996    34.0281
 4307.2160    63.8165    28.1771    29.7854
 4307.7160    64.5800    27.6043    28.5411
 4308.2160    63.6007    27.0389    27.5439
 4308.7160    57.9009    25.9269    26.5817
 4309.2160    56.1726    24.6847    25.4712
 4309.7160    55.6939    23.6302    24.2341
 4310.2160    54.7071    22.2211    23.0345
 4310.7160    56.4890    21.1564    21.0209
 4311.2160    58.2255    20.5733    20.5771
 4311.7160    57.7431    21.0324    21.0209
 4312.2160    58.9999    22.4342    21.7819
 4312.7160    64.9735    24.4447    24.4071
 4313.2160    63.9942    29.8403    27.9385
 4313.7160    64.2572    32.5407    31.7543
 4314.2160    60.7970    33.0048    33.3752
 4314.7160    60.2957    31.8730    32.6706
 4315.2160    63.1176    30.7800    31.7543
 4315.7160    66.3100    31.0183    31.7543
 4316.2160    68.0637    32.8515    33.6134
 4316.7160    68.3230    34.7931    36.6082
 4317.2160    68.0927    37.9112    38.7515
 4317.7160    68.3556    40.2070    41.0203
 4318.2160    70.8546    41.3403    43.1534
 4318.7160    75.0927    41.6540    42.5053
 4319.2160    78.3370    40.5184    41.3131
 4319.7160    84.1436    39.1289    40.7296
 4320.2160    86.3243    37.5197    38.4769
 4320.7160    87.0798    35.2183    33.1387
 4321.2160    86.5975    32.8241    29.9980
 4321.7160    84.6244    31.2344    29.5743
 4322.2160    84.3868    30.6115    29.3647
 4322.7160    89.3739    30.4181    28.7448
 4323.2160    92.1621    30.4367    28.9499
 4323.7160    90.1483    30.0258    27.1549
 4324.2160    89.3099    29.4064    26.9625
 4324.7160    83.8458    29.2162    26.5817
 4325.2160    81.4997    29.2385    26.5817
 4325.7160    82.7565    29.4799    26.9914
 4326.2160    81.2767    30.5532    28.9499
 4326.7160    83.7793    31.0092    29.7854
 4327.2160    85.7814    30.1592    28.7448
 4327.7160    88.5288    30.1776    28.1380
 4328.2160    88.8089    30.4113    28.1380
 4328.7160    87.7705    31.0851    28.3388
 4329.2160    86.0879    33.3932    32.4391
 4329.7160    87.0998    37.1987    35.0789
 4330.2160    91.5863    37.9929    32.9038
 4330.7160    93.3400    32.9878    29.9980
 4331.2160    92.8576    30.5277    27.7405
 4331.7160    91.3814    29.4808    26.7714
 4332.2160    86.9239    29.7091    27.1549
 4332.7160    82.7148    30.5838    28.3388
 4333.2160    79.4911    33.0888    30.6507
 4333.7160    78.9823    34.0632    31.7896
 4334.2160    79.5321    34.0847    31.7543
 4334.7160    84.0187    34.1099    31.3058
 4335.2160    88.2568    33.1749    30.2121
 4335.7160    94.7309    31.3619    28.9499
 4336.2160   101.2051    29.4382    27.5439
 4336.7160   100.4742    28.2275    26.2062
 4337.2160    96.0167    27.6490    25.2907
 4337.7160    91.5426    28.6789    26.0205
 4338.2160    88.9597    29.9654    27.5439
 4338.7160    87.3646    30.3791    27.3487
 4339.2160    84.8982    29.7570    26.5817
 4339.7160    84.4122    29.1520    26.2062
 4340.2160    81.2005    28.7541    26.5817
 4340.7160    76.9914    29.3957    27.7405
 4341.2160    75.7637    30.6940    30.6919
 4341.7160    76.5236    32.2847    32.6706
 4342.2160    77.7803    32.9939    33.6134
 4342.7160    71.9292    33.2538    33.8533
 4343.2160    70.1075    33.5112    34.3383
 4343.7160    71.1194    34.0114    35.3292
 4344.2160    72.3725    33.7914    36.3487
 4344.7160    70.8963    34.0530    37.3977
 4345.2160    71.6562    35.0556    38.2444
 4345.7160    72.4196    36.3448    39.5872
 4346.2160    72.7368    37.4156    40.4410
 4346.7160    72.4486    37.1785    40.1544
 4347.2160    72.5185    35.6495    39.8698
 4347.7160    72.9746    34.9141    40.1544
 4348.2160    70.0113    35.4405    40.7296
 4348.7160    66.7960    37.0058    41.6254
 4349.2160    66.0652    38.0953    43.1142
 4349.7160    60.6139    38.9394    45.6385
 4350.2160    56.1563    39.2416    48.3105
 4350.7160    53.9348    38.9930    48.6553
 4351.2160    51.9617    38.4666    47.6282
 4351.7160    52.7220    36.3626    43.1142
 4352.2160    51.9944    33.8907    29.8538
 4352.7160    50.7667    22.4049    22.0939
 4353.2160    51.7750    17.4092    17.2252
 4353.7160    53.2801    15.0065    15.4736
 4354.2160    53.7879    12.8439    14.0383
 4354.7160    52.8086    11.1501    11.8157
 4355.2160    54.5659     9.5433    10.3222
 4355.7160    63.2761     8.5842     9.8910
 4356.2160    67.2657     8.4683    10.5448
 4356.7160    60.0789     8.7799    12.5075
