~VERSION INFORMATION
 VERS.               1.20:   CWLS LOG ASCII STANDARD - VERSION 1.20
 WRAP.                 NO:   ONE LINE PER DEPTH STEP
~WELL INFORMATION
#MNEM.UNIT      DATA TYPE    INFORMATION
#----------   ------------   ------------------------------
 STRT.F         3541.0000:   START DEPTH
 STOP.F         5482.5000:   STOP DEPTH
 STEP.F            0.5000:   STEP LENGTH
 NULL.          -999.2500:   NO VALUE
 COMP.            COMPANY:   Fenix & Scisson, Inc.
 WELL.               WELL:   44-1 TPX 10
 FLD .              FIELD:   N.P.R. 3
 LOC .           LOCATION:   10-38N-78W-NATRONA-WY
 STAT.              STATE:   WY
 COUN.             COUNTY:   Natrona
 SRVC.    SERVICE COMPANY:   Dresser Atlas
 DATE.            LOGDATE:   12/17/1977
~CURVE INFORMATION
#MNEM.UNIT       API CODE    CURVE DESCRIPTION
#----------   ------------   ------------------------------
 DEPT.F                  :
 DPHI.none   42 890 12 00:   Den. Porosity, Ss [%]
 CALI.inches 42 280 00 00:   Caliper
 GR  .GAPI   42 310 00 00:   Gamma Ray
~PARAMETER INFORMATION
#MNEM.UNIT          VALUE    DESCRIPTION
#----------   ------------   ------------------------------
 EKB .F         5240.0000:   Kelly bushing
 EGL .F         5230.0000:   Ground level
 EDF .F            0.0000:   Drilling floor
 EPD .F           10.0000:   Permanent datum
 TD  .F         1932.0000:   Total depth
 DATE.mm/dd/yyyy 12/17/1977:   Date Logged
 DD  .ft             5471:   Depth Driller
 DL  .ft             5471:   Depth Logger
 BLI .ft             5469:   Bottom Log Interval
 TLI .ft             3550:   Top Log Interval
 CSS .inch          8.625:   Casing Size
 CTD1.ft             3023:   Casing Driller 1
 BS  .inch          7.875:   Bit Size
 DFT .                KCL:   Type Fluid In Hole
 DFD .lb/gal          9.5:   Mud Weight
 DFV .sec              38:   Viscosity
 DFPH.               11.0:   pH
 DFL .cc              8.4:   Fluid Loss
 WSS .            Mud Pit:   Source Of Sample
 RM  .ohmm           .385:   Rm
 EMT .F                78:   Rm Meas. Temp.
 RMF .ohmm            .22:   Rmf
 MFT .F                70:   Rmf Meas. Temp.
 RMC .ohmm             .8:   Rmc
 MCST.F                70:   Rmc Meas. Temp.
 MFSS.               meas:   Source Rmf.
 MCSS.               meas:   Source Rmc.
 RMB .ohmm            .16:   Rm. At BHT
 BHT .F               176:   BHT.
 TCS .hh:mm        19 hrs:   Time Circ. Stopped
 MRT .F               176:   Maximum Recorded Temp.
 LUN .               6134:   Logging Unit Number
 LUL .           Gillette:   Logging Unit Location
 ENGI.              Hoyer:   Recorded By
 WITN.     Mr. Harrington:   Witnessed By
 DGBY.              Burke:   Digitized By
~A  DEPTH     DPHI       CALI         GR
# ...
 4997.0000    -3.6963     9.5175   273.0658
 4997.5000    -3.6049     9.5172   270.9124
 4998.0000    -3.9468     9.5168   268.3632
 4998.5000    -4.1956     9.5478   265.8140
 4999.0000    -4.3208     9.5632   263.2648
 4999.5000    -3.9214     9.5784   260.6483
 5000.0000    -4.4034     9.5626   259.6593
 5000.5000    -5.1659     9.5784   257.9259
 5001.0000    -4.9697     9.5944   254.4507
 5001.5000    -5.4603     9.6728   250.1156
 5002.0000    -6.7663     9.7044   241.2795
 5002.5000    -6.2383     9.7359   242.2833
 5003.0000    -5.7269     9.7363   250.3258
 5003.5000    -4.3991     9.7053   264.1189
 5004.0000    -3.7483     9.7213   266.9866
 5004.5000    -3.6012     9.7372   269.9399
 5005.0000    -2.7340     9.7375   270.4461
 5005.5000    -2.9587     9.7379   269.4571
 5006.0000    -3.2576     9.7537   266.9794
 5006.5000    -4.6762     9.7697   265.2454
 5007.0000    -4.6029     9.7700   263.7615
 5007.5000    -4.2283     9.7859   259.2908
 5008.0000    -4.0759     9.8175   259.0507
 5008.5000    -5.2526     9.8344   258.7812
 5009.0000    -5.1004     9.8650   258.3233
 5009.5000    -5.2572     9.8653   257.0862
 5010.0000    -5.1668     9.8656   258.3402
 5010.5000    -5.2186     9.8816   260.0905
 5011.0000    -5.7897     9.8819   259.8481
 5011.5000    -5.1125     9.8822   261.5984
 5012.0000    -4.6824     9.8825   260.7530
 5012.5000    -4.0978     9.8984   261.8662
 5013.0000    -3.0501     9.9144   264.6440
 5013.5000    -2.2182     9.9459   265.6158
 5014.0000    -1.7881     9.9619   264.3823
 5014.5000    -2.2426     9.9622   261.6596
 5015.0000    -4.4801     9.9625   259.1716
 5015.5000    -3.7163     9.9784   262.1682
 5016.0000    -1.8427     9.9788   261.4096
 5016.5000    -2.0779    10.0103   260.1924
 5017.0000    -2.8561    10.0263   261.2221
 5017.5000    -3.5651    10.0891   259.9587
 5018.0000    -3.2281    10.1206   257.9240
 5018.5000    -3.5710    10.1209   256.0004
 5019.0000    -4.4142    10.1369   257.5019
 5019.5000    -5.2573    10.1529   265.3298
 5020.0000    -5.8622    10.1844   266.4769
 5020.5000    -5.1778    10.2003   267.7296
 5021.0000    -4.2924    10.2007   266.5568
 5021.5000    -3.7696    10.2166   266.6761
 5022.0000    -3.6787    10.2325   265.5269
 5022.5000    -4.9586    10.2484   262.7875
 5023.0000    -4.7034    10.2644   264.2890
 5023.5000    -4.1497    10.2803   265.5417
 5024.0000    -3.8122    10.3119   265.3013
 5024.5000    -3.1350    10.3278   265.3821
 5025.0000    -4.1875    10.3125   265.5053
 5025.5000    -4.4677    10.2972   264.8298
 5026.0000    -3.6467    10.2975   265.8339
 5026.5000    -2.7428    10.2821   266.3391
 5027.0000    -2.3436    10.2669   264.4408
 5027.5000    -1.8875    10.2203   261.8792
 5028.0000    -2.0084    10.2050   256.1645
 5028.5000    -3.2153    10.2209   254.9288
 5029.0000    -2.5705    10.2213   255.7757
 5029.5000    -1.7996    10.2216   259.5229
 5030.0000    -2.4197    10.2375   262.6702
 5030.5000    -2.1054    10.2221   263.1764
 5031.0000    -1.6515    10.2381   260.8018
 5031.5000    -1.4073    10.2384   249.7563
 5032.0000    -5.0238    10.2387   251.2578
 5032.5000    -7.3475    10.2234   253.2996
 5033.0000    -6.3563    10.2238   250.0306
 5033.5000    -6.1732    10.2241   247.7548
 5034.0000    -7.3184    10.2244   242.6551
 5034.5000    -6.3929    10.2247   240.6004
 5035.0000    -4.2344    10.2094   245.8365
 5035.5000    -3.8351    10.1940   256.2960
 5036.0000    -3.7512    10.1632   258.0464
 5036.5000    -3.2843    10.1634   258.3867
 5037.0000    -3.1625    10.1637   255.5750
 5037.5000    -4.8330    10.1641   241.8976
 5038.0000    -5.5146    10.1644   238.1736
 5038.5000    -4.1455    10.1491   237.1868
 5039.0000    -3.9134    10.1494   237.6459
 5039.5000    -4.1324    10.1497   238.6967
 5040.0000    -4.4122    10.1500   237.7120
 5040.5000    -5.6506    10.1503   234.4857
 5041.0000    -7.5297    10.1350   230.0915
 5041.5000    -9.0839    10.1196   210.1169
 5042.0000  -999.2500    10.1044   209.1297
 5042.5000  -999.2500    10.0891   209.1384
 5043.0000  -999.2500    10.0894   208.3113
 5043.5000  -999.2500    10.0897   196.8864
 5044.0000  -999.2500    10.0744   190.4519
 5044.5000  -999.2500    10.0531   186.1090
 5045.0000  -999.2500     9.9893   178.8254
 5045.5000  -999.2500     9.9503   177.8365
 5046.0000  -999.2500     9.9086   179.8377
 5046.5000  -999.2500     9.8572   184.2207
 5047.0000  -999.2500     9.7950   191.0522
 5047.5000  -999.2500     9.7484   194.5444
 5048.0000  -999.2500     9.7331   198.2330
 5048.5000    -9.5483     9.7334   206.8311
 5049.0000    -7.0021     9.7338   232.8916
 5049.5000    -4.4560     9.7341   242.7201
 5050.0000    -1.4946     9.7031   247.1327
 5050.5000    -1.0645     9.6722   245.6076
 5051.0000    -1.6207     9.6568   245.6162
 5051.5000    -2.5427     9.6572   244.3438
 5052.0000    -3.2644     9.6419   242.7070
 5052.5000    -2.8137     9.6422   240.9137
 5053.0000    -2.7439     9.6269   241.4220
 5053.5000    -1.8794     9.6272   243.9188
 5054.0000    -1.8219     9.6275   244.1754
 5054.5000    -3.1496     9.6278   242.1939
 5055.0000    -4.7946     9.6281   242.4510
 5055.5000    -5.5973     9.6284   242.2109
 5056.0000    -4.1494     9.6287   243.7592
 5056.5000    -2.5445     9.6291   242.2279
 5057.0000    -2.5465     9.6450   242.1622
 5057.5000    -2.4250     9.6453   240.7540
 5058.0000    -3.1690     9.6613   241.5146
 5058.5000    -3.6960     9.6616   243.2593
 5059.0000    -2.9125     9.6619   241.5259
 5059.5000    -2.0998     9.6622   244.2716
 5060.0000    -1.2871     9.6625   244.2801
 5060.5000    -0.4623     9.6784   243.7909
 5061.0000    -1.3500     9.6944   244.5459
 5061.5000    -3.1729     9.7128   244.3055
 5062.0000    -3.5697     9.7167   248.0465
 5062.5000    -4.1514     9.7206   249.6868
 5063.0000    -5.4792     9.7244   254.2865
 5063.5000    -5.2642     9.7283   253.2975
 5064.0000    -4.2261     9.7322   256.2936
 5064.5000    -3.1684     9.7361   255.3073
 5065.0000    -3.9743     9.7400   254.0716
 5065.5000    -4.3782     9.7439   251.5917
 5066.0000    -4.6584     9.7478   252.2997
 5066.5000    -3.9812     9.7516   249.6201
 5067.0000    -3.8433     9.7555   248.3845
 5067.5000    -3.7904     9.7594   247.8932
 5068.0000    -4.1431     9.7633   249.3968
 5068.5000    -4.2999     9.7672   249.6541
 5069.0000    -6.3406     9.7711   254.1416
 5069.5000    -6.6826     9.7750   254.6836
 5070.0000    -5.6823     9.7789   254.4074
 5070.5000    -4.3156     9.7827   255.4112
 5071.0000    -2.9490     9.7866   251.7317
 5071.5000    -1.3488     9.7905   247.4662
 5072.0000    -2.4939     9.7951   250.5520
 5072.5000    -2.4036     9.8109   250.2225
 5073.0000    -1.8184     9.8112   250.6420
 5073.5000    -2.2228     9.8272   253.7969
 5074.0000    -1.3294     9.8431   253.4828
 5074.5000    -1.0537     9.8747   254.9843
 5075.0000    -1.6330     9.8906   256.4857
 5075.5000    -2.2888     9.9066   253.8662
 5076.0000    -1.4316     9.9225   250.7891
 5076.5000    -1.2789     9.9228   249.2792
 5077.0000    -1.8681     9.9232   249.3039
 5077.5000    -0.8518     9.9391   248.8165
 5078.0000    -0.3492     9.9550   244.5948
 5078.5000     1.7071     9.9710   246.0963
 5079.0000     1.2415     9.9713   253.0721
 5079.5000     0.2508     9.9872   256.4873
 5080.0000    -0.7282    10.0031   255.5753
 5080.5000    -2.5649    10.0191   255.5857
 5081.0000    -4.1426    10.0356   254.8419
 5081.5000    -3.5216    10.0671   252.2528
 5082.0000    -2.1493    10.0986   249.1421
 5082.5000    -0.7208    10.1470   248.4916
 5083.0000    -1.0010    10.1926   241.9446
 5083.5000    -1.6851    10.2085   238.9495
 5084.0000    -1.7078    10.2244   236.7361
 5084.5000    -1.6567    10.2247   237.9866
 5085.0000    -1.9374    10.2406   232.1642
 5085.5000    -1.4450    10.2410   233.2548
 5086.0000    -1.5399    10.2413   235.5260
 5086.5000    -1.2563    10.2572   234.2902
 5087.0000    -1.0812    10.2579   235.7922
 5087.5000    -1.6401    10.2734   235.3046
