~VERSION INFORMATION
 VERS.               1.20:   CWLS LOG ASCII STANDARD - VERSION 1.20
 WRAP.                 NO:   ONE LINE PER DEPTH STEP
~WELL INFORMATION
#MNEM.UNIT      DATA TYPE    INFORMATION
#----------   ------------   ------------------------------
 STRT.F         3541.0000:   START DEPTH
 STOP.F         5482.5000:   STOP DEPTH
 STEP.F            0.5000:   STEP LENGTH
 NULL.          -999.2500:   NO VALUE
 COMP.            COMPANY:   Fenix & Scisson, Inc.
 WELL.               WELL:   44-1 TPX 10
 FLD .              FIELD:   N.P.R. 3
 LOC .           LOCATION:   10-38N-78W-NATRONA-WY
 STAT.              STATE:   WY
 COUN.             COUNTY:   Natrona
 SRVC.    SERVICE COMPANY:   Dresser Atlas
 DATE.            LOGDATE:   12/17/1977
~CURVE INFORMATION
#MNEM.UNIT       API CODE    CURVE DESCRIPTION
#----------   ------------   ------------------------------
 DEPT.F                  :
 DPHI.none   42 890 12 00:   Den. Porosity, Ss [%]
 CALI.inches 42 280 00 00:   Caliper
 GR  .GAPI   42 310 00 00:   Gamma Ray
~PARAMETER INFORMATION
#MNEM.UNIT          VALUE    DESCRIPTION
#----------   ------------   ------------------------------
 EKB .F         5240.0000:   Kelly bushing
 EGL .F         5230.0000:   Ground level
 EDF .F            0.0000:   Drilling floor
 EPD .F           10.0000:   Permanent datum
 TD  .F         1932.0000:   Total depth
 DATE.mm/dd/yyyy 12/17/1977:   Date Logged
 DD  .ft             5471:   Depth Driller
 DL  .ft             5471:   Depth Logger
 BLI .ft             5469:   Bottom Log Interval
 TLI .ft             3550:   Top Log Interval
 CSS .inch          8.625:   Casing Size
 CTD1.ft             3023:   Casing Driller 1
 BS  .inch          7.875:   Bit Size
 DFT .                KCL:   Type Fluid In Hole
 DFD .lb/gal          9.5:   Mud Weight
 DFV .sec              38:   Viscosity
 DFPH.               11.0:   pH
 DFL .cc              8.4:   Fluid Loss
 WSS .            Mud Pit:   Source Of Sample
 RM  .ohmm           .385:   Rm
 EMT .F                78:   Rm Meas. Temp.
 RMF .ohmm            .22:   Rmf
 MFT .F                70:   Rmf Meas. Temp.
 RMC .ohmm             .8:   Rmc
 MCST.F                70:   Rmc Meas. Temp.
 MFSS.               meas:   Source Rmf.
 MCSS.               meas:   Source Rmc.
 RMB .ohmm            .16:   Rm. At BHT
 BHT .F               176:   BHT.
 TCS .hh:mm        19 hrs:   Time Circ. Stopped
 MRT .F               176:   Maximum Recorded Temp.
 LUN .               6134:   Logging Unit Number
 LUL .           Gillette:   Logging Unit Location
 ENGI.              Hoyer:   Recorded By
 WITN.     Mr. Harrington:   Witnessed By
 DGBY.              Burke:   Digitized By
~A  DEPTH     DPHI       CALI         GR
 3541.0000  -999.2500     6.1551  -999.2500
 3541.5000  -999.2500     6.1530  -999.2500
 3542.0000  -999.2500     6.1509  -999.2500
 3542.5000  -999.2500     6.1488  -999.2500
 3543.0000  -999.2500     6.1468  -999.2500
 3543.5000  -999.2500     6.1447  -999.2500
 3544.0000  -999.2500     6.1426  -999.2500
 3544.5000  -999.2500     6.1405  -999.2500
 3545.0000  -999.2500     6.1384  -999.2500
 3545.5000  -999.2500     9.0150  -999.2500
 3546.0000    14.5425     9.0148  -999.2500
 3546.5000    14.1831     9.0146    33.2970
 3547.0000    14.0724     9.0299    27.0043
 3547.5000    16.5557     9.0297    27.0157
 3548.0000    19.0634     9.0451    22.2970
 3548.5000    21.5712     9.0915    18.5736
 3549.0000    24.0789     9.2011    12.6085
 3549.5000    26.5867     9.4592     1.4224
 3550.0000    27.7164    10.6954   298.0397
 3550.5000    29.0699    10.7385   294.8163
 3551.0000    29.1625     9.3806   300.5486
 3551.5000    29.0078     9.0126  -999.2500
 3552.0000    28.2925     9.0124  -999.2500
 3552.5000    12.9334     9.0122     9.5109
 3553.0000    13.6133     9.0121    21.4807
 3553.5000    14.3830     9.0119    27.3735
 3554.0000    17.1885     9.0272    25.2277
 3554.5000    19.3935     9.0270    22.9150
 3555.0000    17.2913     9.0579    16.8815
 3555.5000    13.7367     9.0775    13.4776
 3556.0000    12.4462     9.1664    11.7449
 3556.5000    12.6232     9.1973     7.5036
 3557.0000    12.9771     9.2593     8.4068
 3557.5000    12.1130     9.3369    10.2794
 3558.0000    10.7064     9.3367     1.3305
 3558.5000    11.5943     9.3365     1.3419
 3559.0000    13.0416     9.3519   318.8627
 3559.5000    14.1990     9.4139   318.8719
 3560.0000    14.4152     9.4759   317.1392
 3560.5000    14.4460     9.5068   311.1763
 3561.0000    12.4057     9.5222   309.1948
 3561.5000    11.5091     9.5064   308.9754
 3562.0000    11.5708     9.5062   307.9688
 3562.5000     9.6924     9.5216   305.4483
 3563.0000     7.7684     9.5370   303.0538
 3563.5000     8.2915     9.5678   299.1927
 3564.0000     8.7882     9.5832   297.5544
 3564.5000     9.9628     9.5986   310.2564
 3565.0000    10.5191     9.6960   311.1350
 3565.5000    10.9522     9.7381   316.4946
 3566.0000    11.1092     9.7535   315.7581
 3566.5000    12.1363     9.7533   311.4629
 3567.0000    14.7163     9.7375   308.0626
 3567.5000    17.2963     9.7529   308.8389
 3568.0000    19.8763     9.9393   308.0809
 3568.5000    22.4562    10.1880   301.3221
 3569.0000    25.0362     9.9389   293.0303
 3569.5000    27.6162     9.7891   284.7385
 3570.0000    27.6430     9.7208   275.7706
 3570.5000    17.0091     9.7051   273.5402
 3571.0000    12.7543     9.7204   279.0237
 3571.5000     9.4973     9.7047   281.5212
 3572.0000    11.9504     9.7356   288.8452
 3572.5000    14.4472     9.7665   293.9813
 3573.0000    16.9441     9.9685   294.2395
 3573.5000    18.5230     9.6884   291.7622
 3574.0000    17.7470     9.5636   292.0179
 3574.5000    14.3311     9.5633   287.3015
 3575.0000     8.2833     9.5012   286.3130
 3575.5000     7.5391     9.5010   286.5710
 3576.0000     8.4992     9.5008   286.3328
 3576.5000    10.8302     9.5006   288.3334
 3577.0000    12.0852     9.5004   290.8309
 3577.5000    14.4409     9.5002   288.3517
 3578.0000    16.7966     9.5178   284.1306
 3578.5000    19.1523     9.5776   285.4259
 3579.0000    19.1334     9.5463   289.5611
 3579.5000    18.7688     9.7171   307.5684
 3580.0000    19.8125     9.7480   312.9499
 3580.5000    20.9794    10.1055   308.0667
 3581.0000    22.1463    10.0289   291.6520
 3581.5000    23.3132     9.7008   289.6705
 3582.0000    24.4801     9.7006   290.4261
 3582.5000    23.1719     9.7937   288.1754
 3583.0000    18.6875     9.6846   289.9898
 3583.5000    14.2032     9.6378   292.9442
 3584.0000  -999.2500     9.6376   296.4370
 3584.5000  -999.2500     9.8085   296.4461
 3585.0000  -999.2500    10.4459   292.2228
 3585.5000  -999.2500    11.1767   293.2273
 3586.0000  -999.2500    11.1978   290.1698
 3586.5000  -999.2500    11.4896   283.2945
 3587.0000    24.6788    11.8057   280.5661
 3587.5000  -999.2500    11.9337   279.0826
 3588.0000  -999.2500    12.5179   277.1013
 3588.5000  -999.2500    13.2906   278.6034
 3589.0000  -999.2500    14.1267   282.9050
 3589.5000  -999.2500    14.5655   285.1543
 3590.0000  -999.2500    14.0858   286.4553
 3590.5000  -999.2500    13.3497   304.5208
 3591.0000  -999.2500    12.2030   305.0253
 3591.5000  -999.2500    11.0563   303.8599
 3592.0000    13.1396     9.8211   300.3180
 3592.5000    12.4594     9.8054   307.0457
 3593.0000  -999.2500     9.7274   309.4185
 3593.5000  -999.2500     9.7893   317.0173
 3594.0000  -999.2500     9.9292  -999.2500
 3594.5000  -999.2500    10.3490     2.2983
 3595.0000  -999.2500     9.9288    11.9969
 3595.5000    24.2562    10.3019    22.6852
 3596.0000    27.0180    10.5327    16.2081
 3596.5000    26.7088    10.7681  -999.2500
 3597.0000    24.2564    10.8301   289.9584
 3597.5000    25.7812    10.9296   285.2420
 3598.0000    27.0484    11.2496   286.9930
 3598.5000    27.5157    11.0463   287.9346
 3599.0000    27.6355    11.2959   287.0241
 3599.5000    27.3924    11.0469   284.0344
 3600.0000    26.8006    11.0000   283.8166
 3600.5000    26.7079    11.1906   284.5429
 3601.0000    26.0896    11.2339   283.5496
 3601.5000    24.4822    10.5342   284.5470
 3602.0000    24.5230    10.0992   283.1218
 3602.5000    24.9768    10.1151   280.8188
 3603.0000    25.5332    10.1776   278.5804
 3603.5000    26.0587     9.9290   284.0947
 3604.0000    23.7142     9.9449   285.3026
 3604.5000    24.8784     9.9297   279.3360
 3605.0000    26.0425     9.9300   268.4971
 3605.5000    20.7399     9.9304   253.8220
 3606.0000    12.4269     9.8311   239.1470
 3606.5000    13.3996     9.7288   224.4719
 3607.0000    16.2071     9.6881   209.7968
 3607.5000    19.0146     9.5700   195.1218
 3608.0000    20.9200     9.3876   183.0470
 3608.5000    22.0849     9.2948   181.8046
 3609.0000    23.5928     9.2606   184.0789
 3609.5000    23.7167     9.1863   184.5455
 3610.0000    22.4807     9.1866   186.7872
 3610.5000    20.8127     9.1869   188.7797
 3611.0000    20.5594     9.2028   190.5234
 3611.5000    20.0045     9.2031   195.9740
 3612.0000    18.9202     9.2967   204.5748
 3612.5000    16.7411     9.3904   216.4075
 3613.0000    12.2512     9.5317   228.2640
 3613.5000    12.0043     9.7745   243.7945
 3614.0000    11.8809    10.0912   257.6820
 3614.5000    14.6468    10.1537   264.1913
 3615.0000    17.5281    10.1385   269.9163
 3615.5000    20.4094    10.1387   267.9272
 3616.0000    23.2907    10.1390   264.9433
 3616.5000    26.1720    10.1549   260.4661
 3617.0000    25.3128    10.1863   257.5048
 3617.5000    10.9255    10.2022   252.0660
 3618.0000    10.6167    10.2678   246.5369
 3618.5000    10.8335    10.3117   244.2230
 3619.0000    10.6484    10.3586   237.7647
 3619.5000    10.4015    10.3589   239.8243
 3620.0000    10.7419    10.3593   241.5679
 3620.5000     9.9077    10.3596   251.3309
 3621.0000    10.3222    10.3599   269.2890
 3621.5000    11.4310    10.3602   288.8518
 3622.0000    12.3767    10.3605   289.8488
 3622.5000    13.6496    10.3608   291.0949
 3623.0000    15.2725    10.3611   291.8432
 3623.5000    17.2439    10.3614   291.3305
 3624.0000    19.2153    10.5793   287.1605
 3624.5000    21.1868    11.7618   273.0029
 3625.0000    23.1582    11.4428   259.0050
 3625.5000    25.1296    11.3982   256.5184
 3626.0000    27.1298    12.5092   251.0459
 3626.5000    27.5332    11.6505   251.0478
 3627.0000    27.5634    11.8878   251.5468
 3627.5000    27.4710    12.0902   248.8941
 3628.0000    26.9759    11.3009   247.0719
 3628.5000    26.3650    10.9244   247.1136
 3629.0000    25.7541    11.3912   253.0620
 3629.5000    25.1431    10.7695   255.7865
 3630.0000    24.5322    10.7698   254.5442
 3630.5000    23.9213    10.6385   260.5185
 3631.0000    23.3316    10.2417   259.5245
 3631.5000  -999.2500    10.3955   262.2639
