~VERSION INFORMATION
 VERS.               2.10:   CWLS LOG ASCII STANDARD - VERSION 2.10
 WRAP.                 NO:   ONE LINE PER DEPTH STEP
~WELL INFORMATION
#MNEM.UNIT      DATA TYPE    INFORMATION
#----------   ------------   ------------------------------
 STRT.F         3538.2156:   START DEPTH
 STOP.F         5485.2939:   STOP DEPTH
 STEP.F            0.5000:   STEP LENGTH
 NULL.          -999.2500:   NO VALUE
 COMP. Fenix & Scisson,Inc.:   COMPANY
 WELL.        44-1 TPX 10:   WELL
 FLD .           N.P.R. 3:   FIELD
 LOC . 10-38N-78W-NATRONA-WY:   LOCATION
 STAT.                 WY:   STATE
 COUN.            Natrona:   COUNTY
 SRVC.      Dresser Atlas:   SERVICE COMPANY
 DATE.                   :   LOGDATE
 APIN.         4902510439:   API NUMBER
~CURVE INFORMATION
#MNEM.UNIT       API CODE    CURVE DESCRIPTION
#----------   ------------   ------------------------------
 DEPT.F                  :
 GR  .API    06 310 01 00:   Gamma Ray
 LLS .ohmm   11 220 06 00:   Dual Laterolog, shallow
 LLD .ohmm   11 220 04 00:   Dual Laterolog, Deep
~PARAMETER INFORMATION
#MNEM.UNIT          VALUE    DESCRIPTION
#----------   ------------   ------------------------------
 EKB .F         5240.0000:   Kelly bushing
 EGL .F         5230.0000:   Ground level
 EDF .F            0.0000:   Drilling floor
 EPD .F           10.0000:   Permanent datum
 TD  .F         2250.0000:   Total depth
 NRUN.             1.0000:   Number of Runs
#--RUN 1---   ------------   The following are for Run 1---
 RUN .             1.0000:   Run 1
 DATE.mm/dd/yyyy 12-17-1977:   Date Logged
 DD  .ft             5471:   Depth Driller
 DL  .ft             5471:   Depth Logger
 BLI .ft             5461:   Bottom Log Interval
 TLI .ft             3550:   Top Log Interval
 CSS .inch          8.625:   Casing Size
 CTD1.ft             3023:   Casing Driller 1
 CTL1.ft              n/a:   Casing Logger 1
 BS  .inch          7.875:   Bit Size
 DFT .                kcl:   Type Fluid In Hole
 DFD .lb/gal          9.5:   Mud Weight
 DFV .sec              38:   Viscosity
 DFPH.               11.0:   pH
 DFL .cc              8.4:   Fluid Loss
 WSS .            mud pit:   Source Of Sample
 RM  .ohmm           .385:   Rm
 EMT .F                78:   Rm Meas. Temp.
 RMF .ohmm            .22:   Rmf
 MFT .F                70:   Rmf Meas. Temp.
 RMC .ohmm             .8:   Rmc
 MCST.F                70:   Rmc Meas. Temp.
 MFSS.               meas:   Source Rmf.
 MCSS.               meas:   Source Rmc.
 RMB .ohmm            .16:   Rm. At BHT
 BHT .F               176:   BHT.
 TCS .hh:mm        10 hrs:   Time Circ. Stopped
 MRT .F               176:   Maximum Recorded Temp.
 LUN .               6134:   Logging Unit Number
 LUL .           Gillette:   Logging Unit Location
 ENGI.              Hoyer:   Recorded By
 WITN.      Mr. Harington:   Witnessed By
 DGBY.              Burke:   Digitized By
~A  DEPTH       GR        LLS        LLD
# ...
 4721.2160    76.8808    51.2131    50.4820
 4721.7160    80.6042    51.1663    46.0208
 4722.2160    89.3467    46.6977    39.6339
 4722.7160   101.9423    42.6458    32.2455
 4723.2160   103.6806    37.7096    27.1841
 4723.7160   101.9287    32.7734    25.3166
 4724.2160   109.3115    27.7767    24.7808
 4724.7160   114.6031    27.1949    24.4296
 4725.2160   115.1023    26.0622    22.9696
 4725.7160   121.0576    23.7430    20.8887
 4726.2160   117.0916    23.0981    20.3018
 4726.7160   110.1483    22.9391    20.1571
 4727.2160    98.9879    24.9949    22.4250
 4727.7160    89.8120    28.2215    25.6434
 4728.2160    91.5508    33.2572    29.1888
 4728.7160    92.8835    34.4717    31.9965
 4729.2160    98.5020    34.9746    30.6583
 4729.7160    97.2641    33.5010    29.5857
 4730.2160    96.2737    32.1233    27.9386
 4730.7160   102.9744    29.9198    26.2424
 4731.2160   102.8436    27.2777    23.8970
 4731.7160    98.2504    26.5154    24.2381
 4732.2160    94.2996    27.2900    24.9363
 4732.7160    87.8524    29.1048    26.3949
 4733.2160    89.3432    33.5724    30.8639
 4733.7160    82.8960    38.8307    39.3050
 4734.2160    76.6969    44.6253    43.2017
 4734.7160    77.4435    50.4199    51.4958
 4735.2160    77.6945    53.0303    54.5087
 4735.7160    83.6504    47.6657    50.4035
 4736.2160    89.6063    44.7136    46.6081
 4736.7160    96.3064    43.7774    45.2985
 4737.2160    95.3160    42.8607    43.7137
 4737.7160    98.0477    40.7836    41.8854
 4738.2160    99.5385    38.5314    38.6301
 4738.7160   108.2457    31.5664    28.9330
 4739.2160   113.4353    25.1091    24.0471
 4739.7160   111.7013    23.0274    21.3074
 4740.2160   113.4396    22.5948    20.2715
 4740.7160   108.7294    23.4212    20.7076
 4741.2160    95.3365    25.7013    26.3710
 4741.7160    92.8582    31.6108    29.5478
 4742.2160    94.3490    34.9363    31.9904
 4742.7160    94.3515    35.7602    32.4067
 4743.2160    90.7748    34.9515    31.0509
 4743.7160    92.1243    34.4650    31.2709
 4744.2160    93.6151    34.2279    32.1716
 4744.7160    92.6246    33.9924    31.9420
 4745.2160    93.1238    34.2452    32.3979
 4745.7160    90.8936    36.0055    33.3311
 4746.2160    79.7333    40.0781    36.6360
 4746.7160    76.7589    43.6673    43.9808
 4747.2160    78.2497    47.2400    49.2789
 4747.7160    81.4775    47.1902    47.8943
 4748.2160    89.4179    41.2768    38.9662
 4748.7160    96.3661    37.6319    34.7404
 4749.2160   100.0894    34.3088    31.0310
 4749.7160   103.5647    31.5030    28.8991
 4750.2160   102.8229    30.4067    27.8881
 4750.7160    99.5187    29.3486    27.1045
 4751.2160   101.0913    26.9484    25.2424
 4751.7160   104.8773    25.9906    24.5331
 4752.2160   105.8099    24.2278    23.0108
 4752.7160   105.3162    24.0597    22.1933
 4753.2160   101.1015    24.2387    21.7358
 4753.7160   102.0962    25.3036    23.0069
 4754.2160    97.1374    26.7946    24.8778
 4754.7160    95.4033    26.9924    25.5947
 4755.2160    88.9561    28.5829    27.2849
 4755.7160    90.2859    30.2769    29.0870
 4756.2160    93.4384    31.1499    29.5022
 4756.7160    94.6688    31.3814    29.2727
 4757.2160   100.1292    29.2287    27.8672
 4757.7160    96.9068    28.4134    27.0841
 4758.2160    89.7154    28.2163    29.0791
 4758.7160    80.7876    29.4577    33.7616
 4759.2160    76.8210    34.7139    38.3707
 4759.7160    77.5676    38.3659    40.3272
 4760.2160    74.8413    40.9500    40.9029
 4760.7160    78.8133    41.5165    40.2925
 4761.2160    83.0328    40.0718    38.6360
 4761.7160    81.0507    37.8589    34.2342
 4762.2160    83.2857    32.6025    31.4320
 4762.7160    84.2803    32.3763    35.2185
 4763.2160    87.2595    35.2778    38.6280
 4763.7160    92.7193    39.2680    40.5977
 4764.2160    95.8058    40.7021    37.8087
 4764.7160   103.0314    34.6004    30.5641
 4765.2160   107.9016    27.1064    23.4743
 4765.7160   112.1070    24.0153    21.5529
 4766.2160   112.3284    23.3643    21.2474
 4766.7160   112.8269    23.0375    19.9289
 4767.2160   110.8449    22.7165    20.0825
 4767.7160   112.0876    23.3801    21.2438
 4768.2160   106.3852    24.9349    22.4864
 4768.7160   105.8914    26.4042    24.3150
 4769.2160   105.3977    26.7894    23.8005
 4769.7160   105.6482    26.0285    23.1317
 4770.2160   104.3573    25.6793    23.4619
 4770.7160   104.1647    26.0553    24.3100
 4771.2160   107.6405    26.4354    24.3431
 4771.7160   108.8833    26.0671    24.1349
 4772.2160   104.9161    25.3399    22.1593
 4772.7160   107.3997    24.2844    21.6904
 4773.2160   106.9054    24.1172    21.8441
 4773.7160   109.1410    24.3088    21.6882
 4774.2160   115.3765    24.0602    21.2292
 4774.7160   118.0760    21.9988    20.3413
 4775.2160   116.8381    22.1612    18.9140
 4775.7160   113.6163    21.2380    18.0227
 4776.2160   110.8894    20.0652    17.6413
 4776.7160   107.1715    20.2133    18.0208
 4777.2160   103.9485    21.5575    19.7654
 4777.7160   105.2262    22.6677    21.3727
 4778.2160   105.4423    23.6617    21.5242
 4778.7160   103.3250    23.8375    22.1442
 4779.2160    96.0214    25.0628    26.5490
 4779.7160    94.5354    28.2982    28.6026
 4780.2160    97.5146    31.4990    30.7094
 4780.7160    98.7573    34.0761    32.2753
 4781.2160   101.7365    32.4247    25.3413
 4781.7160   105.2111    24.2124    22.4542
 4782.2160   106.2288    22.8754    21.5150
 4782.7160   104.9294    23.7121    21.6706
 4783.2160    95.9520    25.1094    22.8407
 4783.7160    86.8648    28.3508    24.6238
 4784.2160    83.1469    30.4525    29.4139
 4784.7160    84.6371    32.2469    30.6947
 4785.2160    84.8881    33.6637    33.9066
 4785.7160    76.7045    36.4179    37.4546
 4786.2160    72.4898    39.6961    40.5004
 4786.7160    70.9935    41.4250    40.2113
 4787.2160    74.5163    40.5576    39.6413
 4787.7160    76.4667    39.7061    39.3579
 4788.2160    78.4536    38.6007    38.2520
 4788.7160    83.1692    38.6094    37.1771
 4789.2160    85.6522    36.4773    33.4135
 4789.7160    81.9337    30.7480    29.6067
 4790.2160    78.4632    29.6780    28.7748
 4790.7160    78.4656    29.8973    29.1943
 4791.2160    73.2562    31.2124    29.8134
 4791.7160    72.0208    34.2509    31.3332
 4792.2160    73.2642    36.2691    35.8649
 4792.7160    74.2582    36.5368    36.3768
 4793.2160    69.7961    36.2834    36.1171
 4793.7160    68.5576    37.0782    37.9588
 4794.2160    66.3281    39.5439    40.8926
 4794.7160    63.3537    44.1815    47.8571
 4795.2160    62.8600    49.1796    54.9365
 4795.7160    63.3877    54.1769    58.9829
 4796.2160    69.5631    56.5302    55.9596
 4796.7160    84.4492    51.9096    48.5245
 4797.2160    87.4284    45.5257    40.8288
 4797.7160    88.9192    37.7577    33.1332
 4798.2160   103.3092    29.9898    24.7613
 4798.7160   109.0170    23.8883    23.0602
 4799.2160   109.7940    21.9347    20.1443
 4799.7160   106.2932    21.6290    18.6277
 4800.2160   104.1764    22.1015    19.1642
 4800.7160   102.0813    25.1088    20.3353
 4801.2160    91.9132    28.3330    23.1460
 4801.7160    93.4040    30.6325    27.7268
 4802.2160   101.5924    31.5066    28.7266
 4802.7160   104.0755    31.7230    28.7152
 4803.2160   104.3265    27.8894    27.0800
 4803.7160   106.3134    24.8736    24.2079
 4804.2160   108.0516    24.3207    22.2245
 4804.7160   105.8221    23.9821    21.7523
 4805.2160    94.9097    24.4912    21.9045
 4805.7160    86.9742    25.5518    24.0429
 4806.2160    79.2538    27.8232    27.0573
 4806.7160    77.5526    32.7680    30.0717
 4807.2160    81.5246    36.1933    33.0861
 4807.7160    82.2706    38.5768    35.7562
 4808.2160    77.8079    40.5853    38.3865
 4808.7160    80.5396    42.8938    42.3996
 4809.2160    83.0226    43.8085    43.9287
 4809.7160    85.2575    41.3603    40.3293
 4810.2160    87.3062    36.8879    32.7062
 4810.7160    87.9910    31.9741    29.0670
 4811.2160    88.2415    30.1902    27.8489
 4811.7160    83.5307    31.7229    29.6857
