~VERSION INFORMATION
 VERS.               1.20:   CWLS LOG ASCII STANDARD - VERSION 1.20
 WRAP.                 NO:   ONE LINE PER DEPTH STEP
~WELL INFORMATION
#MNEM.UNIT      DATA TYPE    INFORMATION
#----------   ------------   ------------------------------
 STRT.F         3541.0000:   START DEPTH
 STOP.F         5482.5000:   STOP DEPTH
 STEP.F            0.5000:   STEP LENGTH
 NULL.          -999.2500:   NO VALUE
 COMP.            COMPANY:   Fenix & Scisson, Inc.
 WELL.               WELL:   44-1 TPX 10
 FLD .              FIELD:   N.P.R. 3
 LOC .           LOCATION:   10-38N-78W-NATRONA-WY
 STAT.              STATE:   WY
 COUN.             COUNTY:   Natrona
 SRVC.    SERVICE COMPANY:   Dresser Atlas
 DATE.            LOGDATE:   12/17/1977
~CURVE INFORMATION
#MNEM.UNIT       API CODE    CURVE DESCRIPTION
#----------   ------------   ------------------------------
 DEPT.F                  :
 DPHI.none   42 890 12 00:   Den. Porosity, Ss [%]
 CALI.inches 42 280 00 00:   Caliper
 GR  .GAPI   42 310 00 00:   Gamma Ray
~PARAMETER INFORMATION
#MNEM.UNIT          VALUE    DESCRIPTION
#----------   ------------   ------------------------------
 EKB .F         5240.0000:   Kelly bushing
 EGL .F         5230.0000:   Ground level
 EDF .F            0.0000:   Drilling floor
 EPD .F           10.0000:   Permanent datum
 TD  .F         1932.0000:   Total depth
 DATE.mm/dd/yyyy 12/17/1977:   Date Logged
 DD  .ft             5471:   Depth Driller
 DL  .ft             5471:   Depth Logger
 BLI .ft             5469:   Bottom Log Interval
 TLI .ft             3550:   Top Log Interval
 CSS .inch          8.625:   Casing Size
 CTD1.ft             3023:   Casing Driller 1
 BS  .inch          7.875:   Bit Size
 DFT .                KCL:   Type Fluid In Hole
 DFD .lb/gal          9.5:   Mud Weight
 DFV .sec              38:   Viscosity
 DFPH.               11.0:   pH
 DFL .cc              8.4:   Fluid Loss
 WSS .            Mud Pit:   Source Of Sample
 RM  .ohmm           .385:   Rm
 EMT .F                78:   Rm Meas. Temp.
 RMF .ohmm            .22:   Rmf
 MFT .F                70:   Rmf Meas. Temp.
 RMC .ohmm             .8:   Rmc
 MCST.F                70:   Rmc Meas. Temp.
 MFSS.               meas:   Source Rmf.
 MCSS.               meas:   Source Rmc.
 RMB .ohmm            .16:   Rm. At BHT
 BHT .F               176:   BHT.
 TCS .hh:mm        19 hrs:   Time Circ. Stopped
 MRT .F               176:   Maximum Recorded Temp.
 LUN .               6134:   Logging Unit Number
 LUL .           Gillette:   Logging Unit Location
 ENGI.              Hoyer:   Recorded By
 WITN.     Mr. Harrington:   Witnessed By
 DGBY.              Burke:   Digitized By
~A  DEPTH     DPHI       CALI         GR
# ...
 4542.0000     1.1281     9.9688   276.7123
 4542.5000     1.9634     9.9219   269.1130
 4543.0000     2.8553     9.8906   261.5138
 4543.5000     3.7794     9.7486   253.4692
 4544.0000     3.1531     9.6875   247.7436
 4544.5000     1.7679     9.6719   251.7225
 4545.0000     0.6543     9.6562   257.6921
 4545.5000     1.0519     9.6406   253.6603
 4546.0000     1.8306     9.6250   247.7333
 4546.5000     2.6260     9.6250   242.5054
 4547.0000     2.9641     9.6250   235.8694
 4547.5000     3.5600     9.6250   228.3168
 4548.0000     3.6711     9.6416   226.0749
 4548.5000     3.2264     9.6562   225.0775
 4549.0000     3.4511     9.6406   226.8166
 4549.5000     3.6348     9.6413   229.3025
 4550.0000     3.4844     9.6420   231.0419
 4550.5000     2.9518     9.6426   230.5418
 4551.0000     3.1046     9.6433   231.7960
 4551.5000     3.0719     9.6439   231.0345
 4552.0000     3.2556     9.6446   231.7781
 4552.5000     3.1311     9.6453   236.4316
 4553.0000     2.5796     9.6459   249.5851
 4553.5000     1.6604     9.6466   262.7385
 4554.0000     0.1597     9.6472   274.1062
 4554.5000    -0.1818     9.6479   277.0539
 4555.0000    -0.0577     9.6485   269.8347
 4555.5000     0.0967     9.6492   269.5838
 4556.0000     0.4000     9.6498   270.3275
 4556.5000     0.2654     9.6505   273.5599
 4557.0000     0.5506     9.6512   270.3049
 4557.5000     0.4876     9.6518   265.7044
 4558.0000     1.0332     9.6525   253.6460
 4558.5000     1.7490     9.6531   249.2664
 4559.0000     2.5826     9.6538   243.9670
 4559.5000     2.9936     9.6544   238.7081
 4560.0000     3.2892     9.6551   237.4619
 4560.5000     3.2262     9.6557   239.4497
 4561.0000     3.1314     9.6425   238.4520
 4561.5000     3.1915     9.6094   234.2194
 4562.0000     3.6507     9.5938   231.8506
 4562.5000     4.0221     9.6094   228.6569
 4563.0000     3.9852     9.6562   226.4987
 4563.5000     3.9260     9.7031   227.2428
 4564.0000     3.3017     9.7031   226.4933
 4564.5000     2.4705     9.7188   228.9791
 4565.0000     2.1912     9.7188   228.7069
 4565.5000     3.1776     9.7344   226.3901
 4566.0000     3.4847     9.7500   225.1653
 4566.5000     3.4136     9.7500   224.4898
 4567.0000     3.0180     9.7812   223.4921
 4567.5000     2.0653     9.7812   222.5875
 4568.0000     1.8921     9.7812   221.7460
 4568.5000     3.6725     9.7969   225.4755
 4569.0000     3.9631     9.7969   225.7219
 4569.5000     2.5150     9.8125   228.7474
 4570.0000     1.8401     9.8125   235.6279
 4570.5000     1.9556     9.8750   244.7544
 4571.0000     2.2278     9.8906   248.3948
 4571.5000     3.1259     9.9244   258.8040
 4572.0000     3.1911     9.9375   265.6402
 4572.5000     2.4260     9.9375   272.4850
 4573.0000     1.2821     9.9375   265.0879
 4573.5000     0.5246     9.9219   256.8037
 4574.0000     1.5590     9.9062   253.3096
 4574.5000     1.6828     9.7969   244.5010
 4575.0000     1.7546     9.7188   242.3635
 4575.5000     1.8028     9.7031   241.7087
 4576.0000     1.9674     9.7031   239.0074
 4576.5000     2.4967     9.7031   238.3749
 4577.0000     3.4789     9.7031   239.8661
 4577.5000     4.1878     9.7188   239.3655
 4578.0000     4.1130     9.7188   240.8054
 4578.5000     3.5030     9.7500   243.0930
 4579.0000     0.9376     9.7656   242.5644
 4579.5000    -0.0525     9.7656   242.3410
 4580.0000    -0.5171     9.7656   242.8363
 4580.5000     0.5582     9.7673   245.0734
 4581.0000     2.4036     9.7969   250.5459
 4581.5000     3.1528     9.8125   251.0405
 4582.0000     2.9971     9.8818   258.0055
 4582.5000     4.1996     9.9219   270.0366
 4583.0000     3.4735     9.9375   274.6725
 4583.5000     3.0842     9.9375   275.1896
 4584.0000     2.7294     9.9219   277.4042
 4584.5000     1.5632     9.8750   279.1442
 4585.0000     0.1447     9.8424   275.0209
 4585.5000    -0.2273     9.6875   268.8302
 4586.0000     0.4193     9.6203   256.9900
 4586.5000     0.6706     9.5766   253.2550
 4587.0000     1.7218     9.5720   249.5201
 4587.5000     2.1474     9.5674   246.8742
 4588.0000     2.6673     9.5628   246.5294
 4588.5000     2.2309     9.5582   247.0245
 4589.0000     1.5824     9.5536   250.7546
 4589.5000     1.4885     9.5490   256.4543
 4590.0000     1.8879     9.5312   260.5417
 4590.5000    -0.4612     9.5312   267.2406
 4591.0000    -0.2152     9.5312   273.8858
 4591.5000    -0.2216     9.5312   276.1229
 4592.0000    -0.3812     9.5312   275.6228
 4592.5000    -0.5611     9.5312   268.9019
 4593.0000    -1.4894     9.5312   266.4111
 4593.5000    -1.3763     9.5469   265.1459
 4594.0000    -0.6588     9.5469   267.4375
 4594.5000     1.1310     9.5469   276.4620
 4595.0000     0.8175     9.5625   271.8306
 4595.5000     0.2627     9.5625   257.7967
 4596.0000     0.9133     9.5625   245.4941
 4596.5000     0.2903     9.5625   242.1474
 4597.0000     0.9986     9.5625   236.7577
 4597.5000     1.6146     9.5625   233.7602
 4598.0000     2.1380     9.5781   232.7818
 4598.5000     2.1677     9.5781   230.3032
 4599.0000     2.3822     9.5781   231.0472
 4599.5000     1.8241     9.5781   232.0978
 4600.0000     1.3900     9.5714   234.5261
 4600.5000     1.3979     9.5310   236.1001
 4601.0000     2.2819     9.5308   234.2714
 4601.5000     2.0949     9.5305   234.5182
 4602.0000     1.1666     9.5303   233.2712
 4602.5000     1.4166     9.5301   233.5176
 4603.0000     1.9730     9.5298   238.9895
 4603.5000     2.1874     9.5296   239.4848
 4604.0000     3.0516     9.5294   243.1000
 4604.5000     3.6287     9.5291   246.1985
 4605.0000     4.0043     9.5289   242.4635
 4605.5000     3.5791     9.5443   242.4610
 4606.0000     2.7655     9.5441   244.4488
 4606.5000     1.2641     9.5438   249.6718
 4607.0000     1.0624     9.5436   251.4113
 4607.5000     2.1611     9.5434   253.6483
 4608.0000     3.4366     9.5431   253.3971
 4608.5000     3.2494     9.5429   251.1552
 4609.0000     2.8769     9.5427   250.8739
 4609.5000     2.0725     9.5424   247.1309
 4610.0000     3.3366     9.5422   246.4195
 4610.5000     3.3657     9.5420   247.9100
 4611.0000     2.9946     9.5417   247.1611
 4611.5000     2.8368     9.5415   247.4078
 4612.0000     3.6067     9.5413   248.4005
 4612.5000     3.5740     9.5410   246.9050
 4613.0000     3.8501     9.5408   246.4050
 4613.5000     4.6514     9.5405   244.6157
 4614.0000     4.7115     9.5559   243.1222
 4614.5000     3.6430     9.5244   242.4157
 4615.0000     2.4528     9.5242   244.7698
 4615.5000     1.6485     9.5084   248.5475
 4616.0000     1.5106     9.5081   252.3620
 4616.5000     2.3935     9.5079   255.6124
 4617.0000     2.5852     9.5233   255.7942
 4617.5000     2.2269     9.5230   254.3454
 4618.0000     2.4722     9.5228   255.3384
 4618.5000     2.5494     9.5226   252.7558
 4619.0000     2.5922     9.5223   250.6057
 4619.5000     2.4975     9.5066   250.3538
 4620.0000     1.8162     9.5068   250.1026
 4620.5000     1.5981     9.5071   248.8560
 4621.0000     1.3491     9.5073   243.8309
 4621.5000     1.4514     9.5075   241.7306
 4622.0000     2.5805     9.5077   238.6459
 4622.5000     2.6594     9.5079   238.3950
 4623.0000     0.4147     9.5081   235.1217
 4623.5000     0.0113     9.5083   229.8364
 4624.0000    -0.6701     9.5086   226.4432
 4624.5000    -0.1368     9.5088   226.1926
 4625.0000     0.5000     9.5090   226.9366
 4625.5000     0.9010     9.5092   226.6848
 4626.0000     1.4587     9.5094   230.1001
 4626.5000     2.3389     9.5096   236.6798
 4627.0000     3.0359     9.5098   240.3933
 4627.5000     3.5141     9.5101   242.3515
 4628.0000     3.3216     9.5103   240.3579
 4628.5000     2.2472     9.5105   240.6049
 4629.0000     2.3694     9.5107   246.0763
 4629.5000     1.6258     9.5109   253.2900
 4630.0000     1.5291     9.5111   253.2877
 4630.5000     1.8096     9.5113   250.2992
 4631.0000     1.6819     9.5115   246.8131
 4631.5000     2.3728     9.5118   247.0944
 4632.0000     3.5619     9.5120   249.2966
 4632.5000     4.0292     9.5122   242.3262
