~VERSION INFORMATION
 VERS.               1.20:   CWLS LOG ASCII STANDARD - VERSION 1.20
 WRAP.                 NO:   ONE LINE PER DEPTH STEP
~WELL INFORMATION
#MNEM.UNIT      DATA TYPE    INFORMATION
#----------   ------------   ------------------------------
 STRT.F         3541.0000:   START DEPTH
 STOP.F         5482.5000:   STOP DEPTH
 STEP.F            0.5000:   STEP LENGTH
 NULL.          -999.2500:   NO VALUE
 COMP.            COMPANY:   Fenix & Scisson, Inc.
 WELL.               WELL:   44-1 TPX 10
 FLD .              FIELD:   N.P.R. 3
 LOC .           LOCATION:   10-38N-78W-NATRONA-WY
 STAT.              STATE:   WY
 COUN.             COUNTY:   Natrona
 SRVC.    SERVICE COMPANY:   Dresser Atlas
 DATE.            LOGDATE:   12/17/1977
~CURVE INFORMATION
#MNEM.UNIT       API CODE    CURVE DESCRIPTION
#----------   ------------   ------------------------------
 DEPT.F                  :
 DPHI.none   42 890 12 00:   Den. Porosity, Ss [%]
 CALI.inches 42 280 00 00:   Caliper
 GR  .GAPI   42 310 00 00:   Gamma Ray
~PARAMETER INFORMATION
#MNEM.UNIT          VALUE    DESCRIPTION
#----------   ------------   ------------------------------
 EKB .F         5240.0000:   Kelly bushing
 EGL .F         5230.0000:   Ground level
 EDF .F            0.0000:   Drilling floor
 EPD .F           10.0000:   Permanent datum
 TD  .F         1932.0000:   Total depth
 DATE.mm/dd/yyyy 12/17/1977:   Date Logged
 DD  .ft             5471:   Depth Driller
 DL  .ft             5471:   Depth Logger
 BLI .ft             5469:   Bottom Log Interval
 TLI .ft             3550:   Top Log Interval
 CSS .inch          8.625:   Casing Size
 CTD1.ft             3023:   Casing Driller 1
 BS  .inch          7.875:   Bit Size
 DFT .                KCL:   Type Fluid In Hole
 DFD .lb/gal          9.5:   Mud Weight
 DFV .sec              38:   Viscosity
 DFPH.               11.0:   pH
 DFL .cc              8.4:   Fluid Loss
 WSS .            Mud Pit:   Source Of Sample
 RM  .ohmm           .385:   Rm
 EMT .F                78:   Rm Meas. Temp.
 RMF .ohmm            .22:   Rmf
 MFT .F                70:   Rmf Meas. Temp.
 RMC .ohmm             .8:   Rmc
 MCST.F                70:   Rmc Meas. Temp.
 MFSS.               meas:   Source Rmf.
 MCSS.               meas:   Source Rmc.
 RMB .ohmm            .16:   Rm. At BHT
 BHT .F               176:   BHT.
 TCS .hh:mm        19 hrs:   Time Circ. Stopped
 MRT .F               176:   Maximum Recorded Temp.
 LUN .               6134:   Logging Unit Number
 LUL .           Gillette:   Logging Unit Location
 ENGI.              Hoyer:   Recorded By
 WITN.     Mr. Harrington:   Witnessed By
 DGBY.              Burke:   Digitized By
~A  DEPTH     DPHI       CALI         GR
# ...
 3814.0000     8.5289     9.9446   285.6067
 3814.5000     9.8551     9.9980   279.6371
 3815.0000    11.1812    10.0537   273.3151
 3815.5000    12.6337    10.1004   269.1925
 3816.0000    16.7425    10.0538   260.5113
 3816.5000  -999.2500    10.0539   253.0302
 3817.0000  -999.2500    10.1628   241.5826
 3817.5000  -999.2500    10.8161   230.2712
 3818.0000  -999.2500    10.1115   214.7613
 3818.5000  -999.2500     9.5254   196.2978
 3819.0000    15.4824     9.3700   190.8259
 3819.5000    15.9680     9.3389   189.3353
 3820.0000    16.6275     9.3546   189.5866
 3820.5000    17.5490     9.3547   190.5844
 3821.0000    17.7410     9.3081   191.2693
 3821.5000    17.6991     9.2304   191.7575
 3822.0000    16.5883     9.2625   192.5938
 3822.5000    16.9402     9.3903   192.8625
 3823.0000    17.4046     9.5417   198.2785
 3823.5000    19.1281     9.5884   206.5723
 3824.0000    21.2534     9.5729   226.3226
 3824.5000    24.1455     9.5817   246.0728
 3825.0000  -999.2500     9.7442   263.7639
 3825.5000  -999.2500    10.9351   260.7803
 3826.0000  -999.2500    11.6139   253.2608
 3826.5000    11.1961    11.7817   245.1256
 3827.0000  -999.2500    12.3437   239.0105
 3827.5000  -999.2500    12.4817   236.4047
 3828.0000  -999.2500    11.7607   237.9001
 3828.5000  -999.2500    10.1265   237.9025
 3829.0000  -999.2500     9.7914   236.4725
 3829.5000  -999.2500    10.0093   235.9167
 3830.0000  -999.2500    10.0249   235.9276
 3830.5000  -999.2500    10.0795   231.6595
 3831.0000    17.2974    10.1028   227.6248
 3831.5000    15.1907    10.0718   226.9686
 3832.0000    14.0175    10.1030   222.9901
 3832.5000    12.7809    10.0719   221.4989
 3833.0000    13.5545    10.0253   221.7508
 3833.5000    13.8952     9.9943   222.2509
 3834.0000    13.7414     9.9944   225.3013
 3834.5000    11.8873     9.9941   229.1791
 3835.0000    10.8061     9.9458   233.4557
 3835.5000    10.4047     9.9169   234.3830
 3836.0000    11.2711     9.9170   248.9671
 3836.5000    11.7355     9.9863   263.5511
 3837.0000    12.6018    10.0347   274.7723
 3837.5000    13.1278    10.1038   273.2818
 3838.0000    11.7312    10.1661   269.5517
 3838.5000    10.5327    10.1954   269.0563
 3839.0000    10.2861    10.2596   268.7382
 3839.5000    11.0590    10.2907   270.5543
 3840.0000    12.2041    10.2939   283.1171
 3840.5000    12.7588    10.3220   289.8910
 3841.0000    13.6274    10.3221   289.4729
 3841.5000    13.7379    10.3377   289.2271
 3842.0000    13.0106    10.3533   286.7412
 3842.5000    12.7640    10.3690   294.7063
 3843.0000    12.4813    10.3404   298.9389
 3843.5000    12.8271    10.3225   301.7791
 3844.0000    13.3972    10.3537   299.4414
 3844.5000    15.3325    10.3382   295.7024
 3845.0000    12.6438    10.3735   292.2013
 3845.5000    12.3970    10.4316   297.7075
 3846.0000    10.8272    10.4473   300.6959
 3846.5000    11.1543    10.4785   301.4106
 3847.0000    11.5647    10.5874   301.9449
 3847.5000    11.4845    10.6186   297.4683
 3848.0000    10.9712    10.6187   298.4661
 3848.5000     9.7121    10.6187   299.4638
 3849.0000     9.5581    10.6033   291.7524
 3849.5000     9.8989    10.5878   283.9042
 3850.0000     9.3484    10.6034   270.7579
 3850.5000     8.3953    10.6191   262.6369
 3851.0000     7.4423    10.6347   258.3862
 3851.5000     6.4395    10.6659   255.1860
 3852.0000     6.6287    10.6778   255.8326
 3852.5000     7.1755    10.7438   257.1815
 3853.0000     7.8018    10.7905   255.4421
 3853.5000     8.6833    10.8061   258.9044
 3854.0000     9.1921    10.8062   259.9281
 3854.5000    10.2768    10.7907   260.9243
 3855.0000    10.1072    10.7908   260.4291
 3855.5000     9.2581    10.7598   261.1786
 3856.0000     9.4133    10.7754   262.4252
 3856.5000     8.7339    10.7599   261.4323
 3857.0000     9.4447    10.7756   258.9458
 3857.5000    10.5902    10.7757   266.6627
 3858.0000    10.9000    10.7913   267.1628
 3858.5000    10.5915    10.8069   269.6535
 3859.0000    10.2520    10.8070   268.1490
 3859.5000    10.8402    10.8382   269.1204
 3860.0000    10.7172    10.8383   267.6701
 3860.5000    10.1615    10.8383   269.1662
 3861.0000    10.0929    10.8073   270.2821
 3861.5000    10.8710    10.8074   269.1710
 3862.0000    11.2764    10.8075   268.9246
 3862.5000    11.1225    10.8075   270.9177
 3863.0000    10.9997    10.8232   269.6760
 3863.5000    10.5985    10.8232   266.9412
 3864.0000     9.7336    10.8233   266.9437
 3864.5000    10.0434    10.8234   265.7019
 3865.0000    10.5387    10.8235   266.9487
 3865.5000    10.3230    10.8080   265.4585
 3866.0000    10.0764    10.8236   262.2261
 3866.5000     9.7106    10.8237   261.9797
 3867.0000     9.5831    10.8082   259.4938
 3867.5000    10.2006    10.8239   260.6874
 3868.0000    10.6975    10.8239   263.2311
 3868.5000     9.7399    10.8240   263.2466
 3869.0000     9.8024    10.8241   264.4802
 3869.5000    10.3884    10.8397   263.7367
 3870.0000    11.3418    10.8709   262.4943
 3870.5000    12.6965    10.9131   263.8589
 3871.0000    13.9352    10.9488   268.2839
 3871.5000    16.0543    10.9334   271.7090
 3872.0000    18.1734    10.9334   264.9930
 3872.5000    20.2924    10.9552   263.7512
 3873.0000    22.4115    11.1202   267.2373
 3873.5000    24.8937    11.1669   266.4679
 3874.0000    23.9361    10.9960   265.9986
 3874.5000    21.1382    10.9960   265.9074
 3875.0000    14.6268    10.9339   267.2470
 3875.5000    11.3579    10.8718   265.0106
 3876.0000    10.4981    10.9011   259.6312
 3876.5000     9.7508    10.9650   252.7070
 3877.0000     9.8752    11.0120   247.8483
 3877.5000     8.3547    11.0307   244.1471
 3878.0000     7.7382    11.1102   239.2896
 3878.5000     8.1154    11.1522   234.3056
 3879.0000     8.7343    11.1286   230.9379
 3879.5000     8.7691    11.0590   227.7055
 3880.0000     8.9830    11.0435   224.2243
 3880.5000     8.6345    11.0592   215.0199
 3881.0000     8.5516    11.0437   212.0363
 3881.5000     8.7837    11.0438   210.5457
 3882.0000     9.4775    11.0750   211.2661
 3882.5000    10.3776    11.1258   213.7734
 3883.0000    10.4401    11.1684   217.9158
 3883.5000     9.2500    11.1841   222.0023
 3884.0000     6.9794    11.1841   223.9954
 3884.5000     7.0419    11.1842   222.0072
 3885.0000     8.1863    11.1843   220.5166
 3885.5000     8.9150    11.1392   219.0258
 3886.0000     9.3627    11.1067   219.5261
 3886.5000     9.5515    11.1068   226.1292
 3887.0000     9.3638    11.1224   237.0191
 3887.5000     9.0372    11.1380   247.9090
 3888.0000     8.0460    11.2470   255.8660
 3888.5000     5.9965    11.3248   251.7122
 3889.0000     6.0590    11.3560   246.3020
 3889.5000     6.6642    11.4960   241.1920
 3890.0000     7.2041    11.4184   233.9783
 3890.5000     6.2678    11.4806   233.9867
 3891.0000     5.1343    11.4963   238.2408
 3891.5000     4.1768    11.5119   239.9582
 3892.0000     3.9158    11.5120   240.4577
 3892.5000     3.6779    11.5121   236.7872
 3893.0000     4.1788    11.4966   232.9981
 3893.5000     3.6789    11.4811   236.2354
 3894.0000     3.8198    11.4389   241.2145
 3894.5000     4.6511    11.3568   244.2029
 3895.0000     5.4052    11.2657   245.4494
 3895.5000     6.3340    11.1691   243.9320
 3896.0000     6.7796    11.0282   239.1937
 3896.5000     6.5639    10.9684   242.2916
 3897.0000     6.1856    10.9529   249.9384
 3897.5000     5.1435    10.9530   252.9424
 3898.0000     5.3914    10.9530   258.6528
 3898.5000     4.5855    10.9531   262.1389
 3899.0000     4.4258    10.9998   266.6204
 3899.5000     3.9716    11.0777   261.2492
 3900.0000     3.7557    11.0778   252.3025
 3900.5000     3.3224    11.0524   244.4602
 3901.0000     3.5073    11.0316   243.7516
 3901.5000     3.3926    11.0162   245.9995
 3902.0000     3.6572    11.0165   248.4964
 3902.5000     4.1857    11.0478   244.3836
 3903.0000     5.9613    11.0947   244.7808
 3903.5000     6.4103    11.1105   245.0376
 3904.0000     5.7296    11.1263   249.2767
 3904.5000     5.2939    11.1110   248.7856
