~VERSION INFORMATION
 VERS.               1.20:   CWLS LOG ASCII STANDARD - VERSION 1.20
 WRAP.                 NO:   ONE LINE PER DEPTH STEP
~WELL INFORMATION
#MNEM.UNIT      DATA TYPE    INFORMATION
#----------   ------------   ------------------------------
 STRT.F         3541.0000:   START DEPTH
 STOP.F         5482.5000:   STOP DEPTH
 STEP.F            0.5000:   STEP LENGTH
 NULL.          -999.2500:   NO VALUE
 COMP.            COMPANY:   Fenix & Scisson, Inc.
 WELL.               WELL:   44-1 TPX 10
 FLD .              FIELD:   N.P.R. 3
 LOC .           LOCATION:   10-38N-78W-NATRONA-WY
 STAT.              STATE:   WY
 COUN.             COUNTY:   Natrona
 SRVC.    SERVICE COMPANY:   Dresser Atlas
 DATE.            LOGDATE:   12/17/1977
~CURVE INFORMATION
#MNEM.UNIT       API CODE    CURVE DESCRIPTION
#----------   ------------   ------------------------------
 DEPT.F                  :
 DPHI.none   42 890 12 00:   Den. Porosity, Ss [%]
 CALI.inches 42 280 00 00:   Caliper
 GR  .GAPI   42 310 00 00:   Gamma Ray
~PARAMETER INFORMATION
#MNEM.UNIT          VALUE    DESCRIPTION
#----------   ------------   ------------------------------
 EKB .F         5240.0000:   Kelly bushing
 EGL .F         5230.0000:   Ground level
 EDF .F            0.0000:   Drilling floor
 EPD .F           10.0000:   Permanent datum
 TD  .F         1932.0000:   Total depth
 DATE.mm/dd/yyyy 12/17/1977:   Date Logged
 DD  .ft             5471:   Depth Driller
 DL  .ft             5471:   Depth Logger
 BLI .ft             5469:   Bottom Log Interval
 TLI .ft             3550:   Top Log Interval
 CSS .inch          8.625:   Casing Size
 CTD1.ft             3023:   Casing Driller 1
 BS  .inch          7.875:   Bit Size
 DFT .                KCL:   Type Fluid In Hole
 DFD .lb/gal          9.5:   Mud Weight
 DFV .sec              38:   Viscosity
 DFPH.               11.0:   pH
 DFL .cc              8.4:   Fluid Loss
 WSS .            Mud Pit:   Source Of Sample
 RM  .ohmm           .385:   Rm
 EMT .F                78:   Rm Meas. Temp.
 RMF .ohmm            .22:   Rmf
 MFT .F                70:   Rmf Meas. Temp.
 RMC .ohmm             .8:   Rmc
 MCST.F                70:   Rmc Meas. Temp.
 MFSS.               meas:   Source Rmf.
 MCSS.               meas:   Source Rmc.
 RMB .ohmm            .16:   Rm. At BHT
 BHT .F               176:   BHT.
 TCS .hh:mm        19 hrs:   Time Circ. Stopped
 MRT .F               176:   Maximum Recorded Temp.
 LUN .               6134:   Logging Unit Number
 LUL .           Gillette:   Logging Unit Location
 ENGI.              Hoyer:   Recorded By
 WITN.     Mr. Harrington:   Witnessed By
 DGBY.              Burke:   Digitized By
~A  DEPTH     DPHI       CALI         GR
# ...
 4906.0000    -0.6184     9.4494   263.2013
 4906.5000    -0.1079     9.4506   264.2015
 4907.0000    -0.4798     9.4800   253.8844
 4907.5000    -0.4506     9.4797   250.2777
 4908.0000    -1.8426     9.4794   245.9284
 4908.5000    -2.0914     9.4791   243.8171
 4909.0000    -1.9077     9.5100   242.9300
 4909.5000    -1.9095     9.5079   242.5829
 4910.0000    -2.6236     9.5057   242.0904
 4910.5000    -2.4075     9.5035   239.9866
 4911.0000    -1.6983     9.5013   237.1634
 4911.5000    -2.6889     9.4990   232.6714
 4912.0000    -3.1225     9.4968   231.9073
 4912.5000    -2.6200     9.4946   233.4063
 4913.0000    -1.2658     9.4924   236.8948
 4913.5000    -0.1013     9.4901   238.8904
 4914.0000    -0.0099     9.4879   244.2502
 4914.5000     0.0502     9.4857   254.8029
 4915.0000    -0.7857     9.4835   259.0616
 4915.5000    -1.5645     9.4812   263.5455
 4916.0000    -2.8896     9.4790   269.0839
 4916.5000    -2.2739     9.4768   270.3928
 4917.0000    -2.2446     9.4746   274.2599
 4917.5000    -1.7830     9.4723   272.6450
 4918.0000    -1.4354     9.4701   269.0440
 4918.5000    -1.3535     9.4679   262.6465
 4919.0000    -2.0661     9.4657   254.3207
 4919.5000    -2.3775     9.4634   253.1334
 4920.0000    -2.5945     9.4612   251.8939
 4920.5000    -1.5156     9.4590   256.1302
 4921.0000    -1.1157     9.4568   253.3978
 4921.5000    -0.3738     9.4545   251.4108
 4922.0000     0.7649     9.4523   254.9005
 4922.5000     0.1764     9.4501   254.4065
 4923.0000     0.3909     9.4479   257.8725
 4923.5000     0.6054     9.4456   258.1499
 4924.0000     0.8053     9.4434   257.0396
 4924.5000     0.4476     9.4412   254.4274
 4925.0000     0.0135     9.4390   255.4285
 4925.5000     0.5369     9.4367   260.4100
 4926.0000    -0.7007     9.4345   261.4090
 4926.5000    -1.2208     9.4323   258.6767
 4927.0000    -1.5069     9.4301   260.9222
 4927.5000    -1.8795     9.4278   261.6736
 4928.0000    -1.3870     9.4256   265.1621
 4928.5000    -1.3789     9.4234   268.1530
 4929.0000    -1.5757     9.4211   267.1624
 4929.5000    -1.7627     9.4189   270.1545
 4930.0000    -1.3937     9.4167   271.4023
 4930.5000    -1.2723     9.4145   263.3107
 4931.0000    -0.3782     9.4122   254.7414
 4931.5000    -0.5344     9.4100   247.7262
 4932.0000    -1.0611     9.4078   243.5533
 4932.5000    -0.5682     9.4056   241.5685
 4933.0000    -1.3779     9.4033   239.7379
 4933.5000    -2.1164     9.4011   240.3341
 4934.0000    -2.0563     9.3989   239.5924
 4934.5000    -2.2746     9.3967   239.0984
 4935.0000    -2.6161     9.3944   240.8460
 4935.5000    -2.7720     9.3922   240.6256
 4936.0000    -2.5577     9.3900   236.9398
 4936.5000    -2.3030     9.3878   233.4254
 4937.0000    -1.9741     9.3855   234.6460
 4937.5000    -2.1170     9.3833   233.6543
 4938.0000    -2.5955     9.3986   235.5073
 4938.5000    -2.5296     9.4156   242.4457
 4939.0000    -2.3971     9.4288   259.3000
 4939.5000    -1.7574     9.4284   263.6036
 4940.0000    -1.4821     9.4281   271.0048
 4940.5000    -1.2757     9.4278   270.0143
 4941.0000    -1.3400     9.4431   265.6892
 4941.5000    -1.8664     9.4584   261.9021
 4942.0000    -2.3005     9.4894   257.5884
 4942.5000    -1.8697     9.4891   253.3631
 4943.0000    -2.0568     9.5044   247.3959
 4943.5000    -1.9040     9.4884   243.4194
 4944.0000    -2.5857     9.4569   237.7011
 4944.5000    -3.4831     9.4569   237.6622
 4945.0000    -2.8670     9.4569   237.4789
 4945.5000    -2.5074     9.4569   236.7204
 4946.0000    -0.9295     9.4569   238.0165
 4946.5000    -0.5555     9.4569   240.7126
 4947.0000    -1.1440     9.4569   234.9942
 4947.5000    -1.0819     9.4569   235.7444
 4948.0000    -0.8694     9.4569   237.2434
 4948.5000    -1.2731     9.4569   243.7180
 4949.0000    -1.9672     9.4569   248.9483
 4949.5000    -2.2649     9.4569   256.5193
 4950.0000    -2.4311     9.4569   269.1602
 4950.5000    -3.1331     9.4568   277.5791
 4951.0000    -3.3819     9.4568   271.4115
 4951.5000    -3.9731     9.4568   263.6541
 4952.0000    -3.6610     9.4568   260.6722
 4952.5000    -2.6078     9.4568   262.6689
 4953.0000    -1.3414     9.4568   259.4389
 4953.5000    -0.4881     9.4568   258.1803
 4954.0000    -0.8595     9.4568   256.6648
 4954.5000    -1.4480     9.4568   255.9698
 4955.0000    -1.3879     9.4568   257.9665
 4955.5000    -3.3359     9.4568   258.9667
 4956.0000    -3.6769     9.4568   258.2238
 4956.5000    -2.7168     9.4568   258.7967
 4957.0000    -1.3008     9.4568   258.8943
 4957.5000    -1.0076     9.4568   260.7758
 4958.0000    -0.1632     9.4568   266.9537
 4958.5000    -0.2267     9.4568   268.2026
 4959.0000    -0.9697     9.4568   267.4622
 4959.5000    -0.4422     9.4568   268.7112
 4960.0000     0.3555     9.4568   266.4765
 4960.5000    -0.3236     9.4568   264.4895
 4961.0000    -1.0691     9.4568   264.4952
 4961.5000    -1.1606     9.4568   266.2422
 4962.0000    -1.1960     9.4567   269.4819
 4962.5000    -1.0124     9.4567   271.4774
 4963.0000    -1.3852     9.4567   273.2782
 4963.5000    -1.6340     9.4567   274.5271
 4964.0000    -1.5117     9.4567   273.4839
 4964.5000    -2.2856     9.4567   272.9898
 4965.0000    -2.3629     9.4567   272.2494
 4965.5000    -2.7201     9.4567   269.5376
 4966.0000    -2.5035     9.4567   267.0336
 4966.5000    -1.7063     9.4567   263.0571
 4967.0000    -1.9242     9.4567   257.5876
 4967.5000    -2.0490     9.4567   258.6219
 4968.0000    -1.0009     9.4567   259.8368
 4968.5000    -1.2497     9.4567   258.1010
 4969.0000    -1.2856     9.4567   257.1105
 4969.5000    -1.7182     9.4567   254.8759
 4970.0000    -2.1762     9.4567   257.8668
 4970.5000    -3.0484     9.4567   259.6134
 4971.0000    -2.7717     9.4567   259.1194
 4971.5000    -3.3915     9.4567   259.8719
 4972.0000    -3.4359     9.4567   260.8792
 4972.5000    -2.1890     9.4567   265.8537
 4973.0000    -1.1109     9.4567   266.3574
 4973.5000    -0.7728     9.4567   264.7820
 4974.0000    -0.7834     9.4566   262.5117
 4974.5000    -1.8112     9.4566   260.8964
 4975.0000    -2.8478     9.4566   260.4036
 4975.5000    -2.3244     9.4566   265.0253
 4976.0000    -2.2330     9.4566   266.3569
 4976.5000    -3.1617     9.4566   265.3960
 4977.0000    -3.3483     9.4566   266.9169
 4977.5000    -2.5164     9.4566   267.3470
 4978.0000    -2.6108     9.4566   266.1784
 4978.5000    -2.3221     9.4566   264.1724
 4979.0000    -1.6879     9.4566   260.1959
 4979.5000    -1.5657     9.4566   259.2042
 4980.0000    -1.6295     9.4566   262.3788
 4980.5000    -2.0637     9.4566   265.6848
 4981.0000    -2.7140     9.4566   267.9291
 4981.5000    -2.2834     9.4566   264.6862
 4982.0000    -1.1896     9.4566   264.9530
 4982.5000    -0.8346     9.4566   264.9589
 4983.0000    -2.2576     9.4566   265.2126
 4983.5000    -2.2541     9.4566   266.7104
 4984.0000    -1.9163     9.4566   264.9734
 4984.5000    -2.3247     9.4566   265.1508
 4985.0000    -3.0986     9.4566   267.2227
 4985.5000    -3.5636     9.4565   267.2044
 4986.0000    -4.4301     9.4565   269.7342
 4986.5000    -4.3445     9.4565   271.9950
 4987.0000    -2.1790     9.4565   271.7213
 4987.5000    -1.0996     9.4565   272.9713
 4988.0000    -1.4410     9.4565   273.4726
 4988.5000    -2.0855     9.4565   269.7461
 4989.0000    -2.7817     9.4565   269.2521
 4989.5000    -3.9437     9.4565   269.0093
 4990.0000    -5.0308     9.4565   267.7700
 4990.5000    -4.7858     9.4565   267.2632
 4991.0000    -4.7110     9.4565   266.0749
 4991.5000    -4.0980     9.4565   264.5497
 4992.0000    -3.4935     9.4565   267.2929
 4992.5000    -3.7423     9.4565   269.0396
 4993.0000    -3.9313     9.4565   271.7816
 4993.5000    -3.5571     9.4565   274.0260
 4994.0000    -3.1279     9.4565   276.7680
 4994.5000    -2.2346     9.4565   277.0217
 4995.0000    -2.3299     9.4875   280.4602
 4995.5000    -1.7452     9.5028   281.0127
 4996.0000    -2.2411     9.5044   277.6750
 4996.5000    -2.8795     9.5178   275.1731
