~VERSION INFORMATION
 VERS.               2.10:   CWLS LOG ASCII STANDARD - VERSION 2.10
 WRAP.                 NO:   ONE LINE PER DEPTH STEP
~WELL INFORMATION
#MNEM.UNIT      DATA TYPE    INFORMATION
#----------   ------------   ------------------------------
 STRT.F         3538.2156:   START DEPTH
 STOP.F         5485.2939:   STOP DEPTH
 STEP.F            0.5000:   STEP LENGTH
 NULL.          -999.2500:   NO VALUE
 COMP. Fenix & Scisson,Inc.:   COMPANY
 WELL.        44-1 TPX 10:   WELL
 FLD .           N.P.R. 3:   FIELD
 LOC . 10-38N-78W-NATRONA-WY:   LOCATION
 STAT.                 WY:   STATE
 COUN.            Natrona:   COUNTY
 SRVC.      Dresser Atlas:   SERVICE COMPANY
 DATE.                   :   LOGDATE
 APIN.         4902510439:   API NUMBER
~CURVE INFORMATION
#MNEM.UNIT       API CODE    CURVE DESCRIPTION
#----------   ------------   ------------------------------
 DEPT.F                  :
 GR  .API    06 310 01 00:   Gamma Ray
 LLS .ohmm   11 220 06 00:   Dual Laterolog, shallow
 LLD .ohmm   11 220 04 00:   Dual Laterolog, Deep
~PARAMETER INFORMATION
#MNEM.UNIT          VALUE    DESCRIPTION
#----------   ------------   ------------------------------
 EKB .F         5240.0000:   Kelly bushing
 EGL .F         5230.0000:   Ground level
 EDF .F            0.0000:   Drilling floor
 EPD .F           10.0000:   Permanent datum
 TD  .F         2250.0000:   Total depth
 NRUN.             1.0000:   Number of Runs
#--RUN 1---   ------------   The following are for Run 1---
 RUN .             1.0000:   Run 1
 DATE.mm/dd/yyyy 12-17-1977:   Date Logged
 DD  .ft             5471:   Depth Driller
 DL  .ft             5471:   Depth Logger
 BLI .ft             5461:   Bottom Log Interval
 TLI .ft             3550:   Top Log Interval
 CSS .inch          8.625:   Casing Size
 CTD1.ft             3023:   Casing Driller 1
 CTL1.ft              n/a:   Casing Logger 1
 BS  .inch          7.875:   Bit Size
 DFT .                kcl:   Type Fluid In Hole
 DFD .lb/gal          9.5:   Mud Weight
 DFV .sec              38:   Viscosity
 DFPH.               11.0:   pH
 DFL .cc              8.4:   Fluid Loss
 WSS .            mud pit:   Source Of Sample
 RM  .ohmm           .385:   Rm
 EMT .F                78:   Rm Meas. Temp.
 RMF .ohmm            .22:   Rmf
 MFT .F                70:   Rmf Meas. Temp.
 RMC .ohmm             .8:   Rmc
 MCST.F                70:   Rmc Meas. Temp.
 MFSS.               meas:   Source Rmf.
 MCSS.               meas:   Source Rmc.
 RMB .ohmm            .16:   Rm. At BHT
 BHT .F               176:   BHT.
 TCS .hh:mm        10 hrs:   Time Circ. Stopped
 MRT .F               176:   Maximum Recorded Temp.
 LUN .               6134:   Logging Unit Number
 LUL .           Gillette:   Logging Unit Location
 ENGI.              Hoyer:   Recorded By
 WITN.      Mr. Harington:   Witnessed By
 DGBY.              Burke:   Digitized By
~A  DEPTH       GR        LLS        LLD
# ...
 4175.2160    47.8909    17.7453    16.4976
 4175.7160    48.2105    17.3764    16.4960
 4176.2160    51.6155    17.6337    16.8639
 4176.7160    55.6447    17.7664    17.5827
 4177.2160    59.6739    17.7735    17.9606
 4177.7160    63.7032    17.4726    16.2565
 4178.2160    68.0529    16.1058    15.2470
 4178.7160    71.5372    14.9015    13.5093
 4179.2160    74.2761    13.5928    10.7585
 4179.7160    76.7667    12.1377    10.1625
 4180.2160    75.6767    11.3907    10.2508
 4180.7160    71.0660    11.5582    11.6304
 4181.2160    71.0720    12.6859    12.5756
 4181.7160    68.5936    13.5677    13.0297
 4182.2160    70.0903    14.2196    13.0284
 4182.7160    73.5746    14.2252    12.9349
 4183.2160    74.8229    14.0302    12.9336
 4183.7160    74.8290    13.9350    12.7498
 4184.2160    74.0897    13.8419    12.6582
 4184.7160    73.1019    13.4609    12.3017
 4185.2160    75.0956    13.0836    11.2142
 4185.7160    73.3640    12.3443    10.5930
 4186.2160    69.8918    11.5288     9.7255
 4186.7160    66.9165    11.0523     9.5872
 4187.2160    65.4303    10.8226     9.5863
 4187.7160    66.6801    10.7502     9.7921
 4188.2160    64.6986    10.7555     9.5845
 4188.7160    59.9841    10.9915    10.0725
 4189.2160    57.2035    11.3151    10.7373
 4189.7160    53.0402    12.0325    13.0212
 4190.2160    49.5680    15.0423    16.1017
 4190.7160    49.0426    16.7396    17.0428
 4191.2160    47.5925    17.5997    17.7842
 4191.7160    48.0970    17.2356    15.4247
 4192.2160    47.3562    16.0604    13.5699
 4192.7160    46.3699    15.2877    13.0858
 4193.2160    47.3698    15.1855    15.6584
 4193.7160    46.3820    15.7749    16.8111
 4194.2160    46.6365    17.1492    18.9485
 4194.7160    47.8848    18.1589    19.6326
 4195.2160    49.1377    17.9099    19.9125
 4195.7160    50.4139    17.2920    18.4118
 4196.2160    51.1328    17.4221    18.1501
 4196.7160    45.4260    17.5532    19.0747
 4197.2160    45.9290    18.3325    20.6340
 4197.7160    45.4366    19.4466    21.8540
 4198.2160    47.1833    20.4023    22.7795
 4198.7160    46.6909    20.9985    22.9399
 4199.2160    48.9345    21.4591    23.2669
 4199.7160    50.9282    21.4676    22.7731
 4200.2160    57.6778    20.4347    21.5114
 4200.7160    64.8718    18.6401    18.5973
 4201.2160    67.8712    16.7351    15.7924
 4201.7160    67.3924    13.8822    13.2588
 4202.2160    68.9011    13.2718    12.7037
 4202.7160    66.4347    13.4683    13.0756
 4203.2160    66.7057    13.8618    13.6372
 4203.7160    68.9598    14.3685    13.8316
 4204.2160    70.9654    14.3742    13.7319
 4204.7160    74.4617    13.9772    12.7475
 4205.2160    81.2936    11.0025    10.4573
 4205.7160    87.1731     9.0902     8.1670
 4206.2160    88.1805     7.1772     5.8467
 4206.7160    86.4594     6.2444     5.5145
 4207.2160    86.4819     6.2035     5.2167
 4207.7160    89.2329     6.1195     5.3287
 4208.2160    92.7292     5.8601     5.0335
 4208.7160    93.2442     5.2039     4.6543
 4209.2160    97.3974     4.8498     4.3653
 4209.7160   100.9866     4.5845     4.1529
 4210.2160   103.2407     4.3338     3.6796
 4210.7160   105.4948     4.2442     3.2847
 4211.2160   107.2475     4.2471     2.9873
 4211.7160   103.5433     4.3410     3.0514
 4212.2160   100.3316     4.4685     3.4188
 4212.7160   102.0888     4.6668     3.8033
 4213.2160   101.8583     4.9851     4.1123
 4213.7160   105.6076     5.1965     4.2007
 4214.2160   107.3648     4.9122     4.0534
 4214.7160   106.8814     4.6766     3.8561
 4215.2160   107.1525     4.4834     3.8013
 4215.7160   107.1705     4.4865     3.7739
 4216.2160   106.9397     4.5210     3.7467
 4216.7160   102.9304     4.5882     3.8001
 4217.2160    99.2325     4.6896     3.9092
 4217.7160    98.3031     4.8656     4.1377
 4218.2160    95.5882     5.3152     4.7359
 4218.7160    85.1715     5.9386     5.4383
 4219.2160    81.2144     7.0962     6.6908
 4219.7160    78.2511     7.8982     7.9433
 4220.2160    72.3064     9.3047     9.1958
 4220.7160    70.7970    10.2830    10.4238
 4221.2160    66.1358    10.8901    11.1117
 4221.7160    64.9071    11.4515    11.6832
 4222.2160    67.4142    11.6217    11.8578
 4222.7160    66.6824    11.7946    12.2713
 4223.2160    68.4441    11.8868    12.4458
 4223.7160    68.1763    11.8933    12.3560
 4224.2160    69.2255    11.8999    12.3547
 4224.7160    69.5192    11.8206    12.0926
 4225.2160    73.4897    11.7435    11.8361
 4225.7160    75.7438    11.6669    11.7510
 4226.2160    75.2650    11.5907    11.5838
 4226.7160    74.7816    11.5165    11.4136
 4227.2160    79.0278    11.3594    11.1767
 4227.7160    81.0334    11.2065    10.9394
 4228.2160    80.8030    11.0546    10.7838
 4228.7160    81.5670    10.7525    10.6304
 4229.2160    81.3405    10.5317    10.3311
 4229.7160    80.8617    10.2424    10.1842
 4230.2160    81.1282     9.8906     9.8273
 4230.7160    81.1462     9.5508     9.5507
 4231.2160    82.6550     9.4212     9.2819
 4231.7160    82.9620     9.4266     9.2151
 4232.2160    79.4612     9.5025     9.3575
 4232.7160    81.7198     9.5722     9.5465
 4233.2160    81.9863     9.5096     9.6139
 4233.7160    84.4888     9.2496     9.2110
 4234.2160    85.9976     8.9956     8.7628
 4234.7160    86.5125     8.7485     8.4558
 4235.2160    87.5244     8.4480     8.2177
 4235.7160    90.2753     8.2160     7.9864
 4236.2160    89.7764     8.1044     7.7616
 4236.7160    89.3176     7.9381     7.6986
 4237.2160    90.3340     7.7573     7.3658
 4237.7160    90.6005     7.1450     6.9244
 4238.2160    93.1030     6.9487     6.6818
 4238.7160    94.1103     7.0021     6.6811
 4239.2160    91.4000     7.0559     6.7763
 4239.7160    89.1820     7.1608     6.9215
 4240.2160    87.9302     7.3190     7.1205
 4240.7160    85.4894     7.4808     7.2734
 4241.2160    86.7457     7.5383     7.2211
 4241.7160    88.2470     7.5962     7.1183
 4242.2160    86.0286     7.5404     7.1175
 4242.7160    86.5396     7.2368     6.8680
 4243.2160    88.5413     6.9883     6.6274
 4243.7160    88.2277     6.6531     6.4868
 4244.2160    89.0665     6.5620     6.3945
 4244.7160    90.8740     6.4730     6.0402
 4245.2160    91.3307     6.4775     5.7055
 4245.7160    91.0964     6.4351     5.5449
 4246.2160    91.1141     6.3480     5.4273
 4246.7160    93.1158     6.2176     5.5834
 4247.2160    95.1175     6.0899     5.4973
 4247.7160    94.6311     6.0502     5.3489
 4248.2160    96.1360     6.0544     5.3865
 4248.7160    93.6691     6.0577     5.4631
 4249.2160    94.4348     6.1043     5.5803
 4249.7160    96.4581     6.2392     5.6197
 4250.2160    95.4542     5.9399     5.5396
 4250.7160    94.4710     5.7768     5.4221
 4251.2160    95.4824     5.8211     5.1582
 4251.7160    94.9961     5.8694     4.8307
 4252.2160    94.2649     5.9118     4.5321
 4252.7160    95.5247     5.9150     4.1954
 4253.2160    98.5202     5.9605     3.9913
 4253.7160   100.0250     6.0491     4.9050
 4254.2160   103.0498     6.0947     4.8352
 4254.7160   105.8086     5.8446     4.7665
 4255.2160   105.5368     5.6840     4.7660
 4255.7160   100.3335     5.5673     4.6982
 4256.2160    99.8472     5.4914     4.5659
 4256.7160   101.3555     5.4560     4.4690
 4257.2160    98.1398     5.4987     4.4369
 4257.7160    98.6508     5.5409     4.5644
 4258.2160    98.6889     5.6233     4.6624
 4258.7160    96.9299     5.6264     4.6288
 4259.2160    96.2087     5.6697     4.6615
 4259.7160    95.4775     5.7132     4.7278
 4260.2160    97.6717     5.7164     4.7271
 4260.7160   100.3760     5.7196     4.6269
 4261.2160   103.7222     5.5607     4.4331
 4261.7160   104.2297     5.4427     4.2778
 4262.2160   102.2597     5.4127     4.3079
 4262.7160   100.7832     5.4550     4.3382
 4263.2160    97.5675     5.5756     4.5267
 4263.7160    97.0847     5.8630     4.8254
 4264.2160    96.0207     6.1216     5.1074
 4264.7160    95.3738     6.3463     5.2918
 4265.2160    95.8848     6.4407     5.3670
 4265.7160    97.3932     6.2638     5.3284
