~Version Information
 VERS.                2.00:   CWLS log ASCII Standard -VERSION 2.00
 WRAP.                  NO:   One line per frame
~Well Information Block
#MNEM.UNIT              Data                Description
#--------- -------------------------------  -------------------------------
 STRT.F                          546.0000:   Starting Depth
 STOP.F                            2.2500:   Ending Depth
 STEP.F                           -0.5000:   Level Spacing
 NULL.                          -999.2500:   Absent Value
 COMP.     FLUOR DANIEL (NPSOR), INC.    :   Company
 WELL.     58 X 10                       :   Well
 FLD .     NPR NO.3                      :   Field
 LOC .     SEC.10/TWP.38N/RGE.78W        :   Location
 CNTY.     NATRONA                       :   County
 STAT.     WYOMING                       :   State
 SRVC.     ATLAS WIRELINE SERVICES       :   Service Company
 LIC .                                   :   License Number
 DATE.     21-AUGUST-1994                :   Log Date
 API .     4902522641                    :   API Number
~Curve Information Block
#MNEM.UNIT       API Codes    Curve Description
#---------    -------------   -------------------------------
 DEPT.F        0   0  0  0:   Depth
 CILD.MMHO     0   0  0  0:   Conductivity of Deep Induction
 GR  .API      0   0  0  0:   Gamma ray counts
 TEN .LBF      0   0  0  0:   Differential Tension
 RILM.OHMM     0   0  0  0:   Resistivity from CILM
 RILD.OHMM     0   0  0  0:   Resistivity from CILD
#  Curve Data
~A
# ...
   154.0000    123.1098    144.7140    -33.0669      8.0453      8.1228
   153.5000    121.5561    142.9865    -34.8679      8.1413      8.2267
   153.0000    119.8465    143.5352    -38.7664      8.2593      8.3440
   152.5000    118.1390    146.7195    -41.9445      8.3943      8.4646
   152.0000    116.4370    146.3004    -39.8065      8.5330      8.5883
   151.5000    114.8535    142.6523    -37.5363      8.6596      8.7067
   151.0000    113.4794    141.9915    -38.1250      8.7674      8.8122
   150.5000    112.2630    142.7552    -38.7844      8.8523      8.9077
   150.0000    111.1801    140.7171    -37.7718      8.9218      8.9944
   149.5000    110.3610    138.2192    -36.2572      8.9826      9.0612
   149.0000    109.8210    136.8206    -32.2001      9.0234      9.1057
   148.5000    109.4651    135.0092    -28.6599      9.0467      9.1353
   148.0000    109.0119    133.3792    -28.0216      9.0781      9.1733
   147.5000    108.3837    134.4988    -29.3245      9.1275      9.2265
   147.0000    107.9311    138.5526    -31.3146      9.1787      9.2652
   146.5000    107.9605    140.9442    -32.1720      9.2103      9.2626
   146.0000    108.2967    138.8295    -29.7189      9.2043      9.2339
   145.5000    108.7737    134.6328    -27.4860      9.1650      9.1934
   145.0000    109.5105    131.5034    -32.1022      9.1118      9.1315
   144.5000    110.7208    131.7825    -35.2309      9.0461      9.0317
   144.0000    112.4114    135.5461    -30.9267      8.9601      8.8959
   143.5000    114.2997    140.2579    -29.2818      8.8536      8.7489
   143.0000    116.0069    145.1251    -35.3346      8.7334      8.6202
   142.5000    117.5031    149.5545    -36.5030      8.6152      8.5104
   142.0000    118.7639    151.3412    -35.1561      8.5215      8.4201
   141.5000    119.5027    149.2710    -42.5576      8.4612      8.3680
   141.0000    119.6104    143.9932    -49.7736      8.4267      8.3605
   140.5000    119.2952    138.1740    -46.1129      8.4120      8.3826
   140.0000    118.8645    135.1904    -38.8369      8.4254      8.4129
   139.5000    118.4446    137.0215    -34.8908      8.4704      8.4428
   139.0000    117.9848    141.6242    -33.3536      8.5256      8.4757
   138.5000    117.4120    145.3973    -31.0466      8.5640      8.5170
   138.0000    116.8494    145.0908    -30.3185      8.5842      8.5580
   137.5000    116.2971    142.7026    -33.0757      8.5990      8.5987
   137.0000    115.7592    142.0584    -35.6188      8.6097      8.6386
   136.5000    115.4934    143.5562    -32.6551      8.6135      8.6585
   136.0000    115.4166    142.3659    -28.4833      8.6160      8.6643
   135.5000    114.9614    137.9544    -29.8888      8.6301      8.6986
   135.0000    114.0093    134.8358    -31.7905      8.6652      8.7712
   134.5000    112.9774    134.6062    -27.2216      8.7271      8.8513
   134.0000    112.1344    136.2364    -22.8106      8.8057      8.9179
   133.5000    111.4718    138.8959    -25.9894      8.8717      8.9709
   133.0000    110.9581    139.7995    -28.9229      8.9034      9.0124
   132.5000    110.6239    138.8520    -24.7410      8.9030      9.0396
   132.0000    110.4986    138.5757    -17.9355      8.8916      9.0499
   131.5000    110.4870    138.7243    -16.3224      8.9004      9.0508
   131.0000    110.3486    137.7413    -20.6076      8.9511      9.0622
   130.5000    110.0112    137.2373    -23.2440      9.0267      9.0900
   130.0000    109.5651    138.0157    -21.7861      9.0863      9.1270
   129.5000    109.3657    138.8644    -22.9247      9.1012      9.1436
   129.0000    109.6757    138.2938    -27.8666      9.0876      9.1178
   128.5000    110.2978    136.9334    -33.3374      9.0758      9.0664
   128.0000    110.7390    134.3478    -37.2811      9.0684      9.0302
   127.5000    110.8357    132.4958    -38.7289      9.0595      9.0224
   127.0000    110.7184    133.3867    -34.8655      9.0561      9.0319
   126.5000    110.4061    137.1566    -26.6963      9.0577      9.0575
   126.0000    109.7169    140.1942    -19.4675      9.0625      9.1144
   125.5000    108.6634    139.5674    -20.2712      9.0888      9.2027
   125.0000    107.6427    137.1373    -29.9568      9.1592      9.2900
   124.5000    107.0081    136.1428    -38.0433      9.2685      9.3451
   124.0000    106.6762    135.7478    -38.0167      9.3727      9.3742
   123.5000    106.5943    134.7458    -33.9184      9.4316      9.3814
   123.0000    106.8440    133.6491    -30.3322      9.4453      9.3594
   122.5000    107.3255    134.3543    -30.6714      9.4314      9.3174
   122.0000    107.8475    136.2657    -34.8167      9.3971      9.2723
   121.5000    108.4702    136.4717    -35.9232      9.3380      9.2191
   121.0000    109.4206    135.2247    -32.0305      9.2405      9.1390
   120.5000    110.6889    135.7764    -27.6571      9.1149      9.0343
   120.0000    112.1091    136.6929    -23.5789      8.9993      8.9199
   119.5000    113.3597    136.1084    -24.8685      8.9193      8.8215
   119.0000    114.1516    134.6757    -34.1487      8.8668      8.7603
   118.5000    114.2831    132.5736    -41.4913      8.8210      8.7502
   118.0000    113.9667    130.4170    -39.8803      8.7705      8.7745
   117.5000    113.6418    131.9598    -33.6833      8.7252      8.7996
   117.0000    113.4411    136.0007    -28.7938      8.7080      8.8151
   116.5000    113.0385    137.3987    -25.2262      8.7386      8.8465
   116.0000    112.2036    134.9076    -23.1681      8.8232      8.9124
   115.5000    111.1915    131.3182    -24.4018      8.9426      8.9935
   115.0000    110.6553    127.2076    -28.3199      9.0446      9.0371
   114.5000    111.2264    123.9326    -34.0093      9.0688      8.9907
   114.0000    113.0009    126.1989    -39.0821      8.9873      8.8495
   113.5000    115.3471    133.5072    -40.6162      8.8275      8.6695
   113.0000    117.7511    139.8992    -40.3957      8.6305      8.4925
   112.5000    120.4165    143.7576    -40.0685      8.4081      8.3045
   112.0000    123.4331    148.1598    -39.2154      8.1585      8.1016
   111.5000    126.2263    152.8578    -39.5664      7.9091      7.9223
   111.0000    128.1948    153.9627    -43.5601      7.7167      7.8006
   110.5000    128.9998    150.8052    -46.4070      7.6202      7.7520
   110.0000    128.3944    148.8527    -45.6969      7.6253      7.7885
   109.5000    126.5645    150.1102    -45.9534      7.7137      7.9011
   109.0000    124.0654    149.9846    -46.9688      7.8660      8.0603
   108.5000    121.3264    145.9696    -43.6763      8.0693      8.2422
   108.0000    118.4205    141.0210    -37.6709      8.3143      8.4445
   107.5000    115.3980    136.8613    -34.1701      8.5846      8.6657
   107.0000    112.6134    135.6256    -31.2738      8.8515      8.8799
   106.5000    110.4095    139.4980    -30.8889      9.0713      9.0572
   106.0000    108.7274    144.5543    -34.0310      9.2050      9.1973
   105.5000    107.3897    146.3850    -34.7282      9.2659      9.3119
   105.0000    106.3662    142.4366    -34.7852      9.3032      9.4015
   104.5000    105.6278    136.3705    -39.7961      9.3513      9.4672
   104.0000    105.1489    134.4294    -40.6684      9.4175      9.5103
   103.5000    104.9781    137.0436    -33.4463      9.4903      9.5258
   103.0000    105.1246    139.2274    -27.9822      9.5487      9.5125
   102.5000    105.3528    139.2000    -24.8087      9.5765      9.4919
   102.0000    105.4695    138.6599    -19.6307      9.5793      9.4814
   101.5000    105.3589    138.0029    -21.6944      9.5773      9.4914
   101.0000    105.0187    138.1241    -31.8106      9.5701      9.5221
   100.5000    104.6268    139.2889    -37.1090      9.5462      9.5578
   100.0000    104.3774    140.8403    -36.7009      9.5239      9.5806
    99.5000    104.1980    141.6101    -37.4448      9.5370      9.5971
    99.0000    103.8574    140.0153    -39.3642      9.6042      9.6286
    98.5000    103.2286    138.0381    -38.7942      9.7310      9.6872
