~Version Information
 VERS.                2.00:   CWLS log ASCII Standard -VERSION 2.00
 WRAP.                  NO:   One line per frame
~Well Information Block
#MNEM.UNIT              Data                Description
#--------- -------------------------------  -------------------------------
 STRT.F                          546.0000:   Starting Depth
 STOP.F                            2.2500:   Ending Depth
 STEP.F                           -0.5000:   Level Spacing
 NULL.                          -999.2500:   Absent Value
 COMP.     FLUOR DANIEL (NPSOR), INC.    :   Company
 WELL.     58 X 10                       :   Well
 FLD .     NPR NO.3                      :   Field
 LOC .     SEC.10/TWP.38N/RGE.78W        :   Location
 CNTY.     NATRONA                       :   County
 STAT.     WYOMING                       :   State
 SRVC.     ATLAS WIRELINE SERVICES       :   Service Company
 LIC .                                   :   License Number
 DATE.     21-AUGUST-1994                :   Log Date
 API .     4902522641                    :   API Number
~Curve Information Block
#MNEM.UNIT       API Codes    Curve Description
#---------    -------------   -------------------------------
 DEPT.F        0   0  0  0:   Depth
 CILD.MMHO     0   0  0  0:   Conductivity of Deep Induction
 GR  .API      0   0  0  0:   Gamma ray counts
 TEN .LBF      0   0  0  0:   Differential Tension
 RILM.OHMM     0   0  0  0:   Resistivity from CILM
 RILD.OHMM     0   0  0  0:   Resistivity from CILD
#  Curve Data
~A
# ...
   378.0000     36.8105     80.6847     25.5797     28.0127     27.1661
   377.5000     37.5135     83.8061     29.2175     27.9083     26.6570
   377.0000     37.8561     85.5711     25.4120     27.4357     26.4158
   376.5000     38.0792     86.5845     21.4872     26.2886     26.2611
   376.0000     38.6316     86.9877     22.2885     24.8378     25.8855
   375.5000     39.5031     85.6284     24.2039     23.7466     25.3145
   375.0000     40.0879     84.5696     22.9677     23.3653     24.9452
   374.5000     39.8976     84.4418     19.3818     23.6969     25.0642
   374.0000     38.8905     83.1071     17.0974     24.5788     25.7132
   373.5000     37.1583     80.5537     16.8589     25.7964     26.9119
   373.0000     35.0571     79.0166     17.3341     27.1693     28.5249
   372.5000     33.1969     77.7488     16.8323     28.4917     30.1233
   372.0000     32.0639     74.5922     15.4922     29.4765     31.1878
   371.5000     31.7412     71.3383     17.4076     30.1557     31.5048
   371.0000     31.9923     72.6277     22.6096     31.0401     31.2575
   370.5000     32.3555     77.4811     22.9982     32.2895     30.9066
   370.0000     32.5612     80.8536     15.4495     33.0200     30.7114
   369.5000     32.7941     82.4488      9.7225     32.2175     30.4933
   369.0000     33.3638     83.9839     13.3764     30.2038     29.9726
   368.5000     34.2527     85.1047     18.5675     28.1176     29.1948
   368.0000     35.1559     85.6646     15.5401     26.7322     28.4447
   367.5000     35.7481     85.3528      7.8611     26.1915     27.9735
   367.0000     35.9769     82.5331      6.8091     26.1635     27.7956
   366.5000     36.0804     77.9332     13.2230     26.3026     27.7159
   366.0000     36.1169     74.9699     16.7280     26.6852     27.6878
   365.5000     36.0492     75.4273     14.9291     27.4473     27.7399
   365.0000     36.2467     74.8471     12.8869     28.0658     27.5887
   364.5000     37.4378     70.7379     13.9730     27.6433     26.7110
   364.0000     40.1273     67.4021     14.2950     26.1687     24.9207
   363.5000     44.4340     69.7259     12.8805     24.3971     22.5053
   363.0000     49.7765     76.8992     12.3247     22.5590     20.0898
   362.5000     55.7660     85.2430     12.2244     20.4479     17.9321
   362.0000     62.0480     94.2669      8.0371     18.1456     16.1165
   361.5000     68.2986    106.3806      1.1041     15.9679     14.6416
   361.0000     74.5598    120.1969      0.5829     14.1082     13.4120
   360.5000     80.9117    131.4976      6.9729     12.6292     12.3591
   360.0000     86.9182    138.7655     10.2373     11.5414     11.5051
   359.5000     91.9134    140.9843      6.9833     10.8367     10.8798
   359.0000     95.4846    138.9046      2.6367     10.4736     10.4729
   358.5000     97.5227    136.5900      0.0631     10.3782     10.2540
   358.0000     98.2273    135.4411     -1.2328     10.4468     10.1805
   357.5000     98.3410    132.8254     -0.7918     10.5514     10.1687
   357.0000     99.4372    130.4785      0.8165     10.5534     10.0566
   356.5000    103.7036    131.6140      2.1091     10.3496      9.6429
   356.0000    112.5999    133.2964      3.9699      9.8797      8.8810
   355.5000    125.7255    131.6853      5.6553      9.1365      7.9538
   355.0000    140.3560    130.0298      5.5242      8.2703      7.1247
   354.5000    152.4939    131.2159      3.3126      7.4874      6.5576
   354.0000    159.4191    133.0701      2.1011      6.8714      6.2728
   353.5000    161.6874    135.3074      3.3126      6.3767      6.1848
   353.0000    161.8289    138.5989      5.4583      5.9920      6.1794
   352.5000    161.0124    140.0334      7.7565      5.8251      6.2107
   352.0000    157.5027    138.6796      8.1276      6.0087      6.3491
   351.5000    149.6138    137.2374      5.4174      6.6059      6.6839
   351.0000    138.3745    136.2877      1.6046      7.5365      7.2268
   350.5000    127.0253    135.2624     -2.1786      8.5141      7.8724
   350.0000    118.7195    134.6582     -4.6018      9.1797      8.4232
   349.5000    114.6801    135.0111     -3.6490      9.4041      8.7199
   349.0000    113.9749    135.4646     -0.7100      9.3026      8.7739
   348.5000    114.9884    137.1982      1.1535      9.0486      8.6965
   348.0000    116.4745    141.0461      1.5000      8.7705      8.5856
   347.5000    117.9442    143.6952     -0.8232      8.5402      8.4786
   347.0000    119.2560    143.0726     -4.3170      8.3938      8.3853
   346.5000    120.1409    141.4867     -5.4366      8.3439      8.3236
   346.0000    120.2765    141.1083     -3.5725      8.3794      8.3142
   345.5000    119.8774    141.0399     -1.9029      8.4672      8.3419
   345.0000    119.4882    141.1139     -1.4884      8.5559      8.3690
   344.5000    119.5827    141.8271     -2.7084      8.5992      8.3624
   344.0000    120.3305    144.1571     -4.7223      8.5874      8.3104
   343.5000    121.3339    147.3061     -5.9884      8.5436      8.2417
   343.0000    121.9897    148.0720     -5.4171      8.4852      8.1974
   342.5000    122.1581    145.3754     -4.8257      8.4169      8.1861
   342.0000    122.2069    141.5566     -4.7293      8.3591      8.1828
   341.5000    122.4272    139.4512     -0.0467      8.3374      8.1681
   341.0000    122.9765    139.3643      5.2674      8.3468      8.1316
   340.5000    123.9295    139.2697      2.8447      8.3430      8.0691
   340.0000    125.5083    139.5644     -0.2086      8.2801      7.9676
   339.5000    127.9222    144.0524      3.9077      8.1487      7.8172
   339.0000    131.2059    149.6930      3.7061      7.9775      7.6216
   338.5000    135.3139    149.8223     -7.5356      7.7936      7.3902
   338.0000    139.8838    145.9486    -18.0770      7.5942      7.1488
   337.5000    144.5774    143.7148    -17.0806      7.3632      6.9167
   337.0000    149.9331    142.4666     -6.2864      7.0915      6.6696
   336.5000    157.4258    143.2324      0.7555      6.7679      6.3522
   336.0000    168.4375    146.8448     -1.9608      6.3852      5.9369
   335.5000    182.0019    149.9465     -6.9448      5.9916      5.4944
   335.0000    193.6136    150.4648     -7.9574      5.6836      5.1649
   334.5000    198.7878    152.0439     -8.4229      5.5000      5.0305
   334.0000    198.0191    155.4483    -10.1297      5.3610      5.0500
   333.5000    195.2018    157.5327    -12.8048      5.1627      5.1229
   333.0000    192.9558    155.5220    -15.5651      4.9483      5.1825
   332.5000    190.8368    149.6495    -15.1786      4.8988      5.2401
   332.0000    185.8998    145.7013     -9.8741      5.1516      5.3792
   331.5000    175.9691    145.9868     -5.2823      5.6842      5.6828
   331.0000    163.0321    145.7783     -4.9648      6.3404      6.1338
   330.5000    151.2494    144.0354     -3.8942      6.9096      6.6116
   330.0000    142.9713    145.2380     -2.5803      7.2588      6.9944
   329.5000    139.1396    148.0139     -6.6581      7.3721      7.1870
   329.0000    139.7718    149.5339    -10.6887      7.3182      7.1545
   328.5000    144.1718    150.3751     -8.7864      7.1736      6.9362
   328.0000    151.6040    150.4950     -8.4238      6.9625      6.5961
   327.5000    160.7533    149.7909    -10.9672      6.6926      6.2207
   327.0000    168.6959    151.0779    -10.4292      6.4163      5.9278
   326.5000    172.7786    154.7701     -6.9174      6.1936      5.7878
   326.0000    173.6873    158.1050     -4.4991      5.9975      5.7575
   325.5000    173.9126    158.6223     -6.5795      5.7594      5.7500
   325.0000    174.9381    156.0192    -10.0961      5.5306      5.7163
   324.5000    176.0850    153.3336    -10.6442      5.4770      5.6791
   324.0000    174.9024    153.3848     -8.8846      5.6983      5.7175
   323.5000    169.4695    155.7952     -6.1662      6.1230      5.9008
   323.0000    161.0608    160.3186     -1.2557      6.5600      6.2088
   322.5000    152.9193    164.8289      1.8529      6.8658      6.5394
