~Version Information
 VERS.                2.00:   CWLS log ASCII Standard -VERSION 2.00
 WRAP.                  NO:   One line per frame
~Well Information Block
#MNEM.UNIT              Data                Description
#--------- -------------------------------  -------------------------------
 STRT.F                          546.0000:   Starting Depth
 STOP.F                            2.2500:   Ending Depth
 STEP.F                           -0.5000:   Level Spacing
 NULL.                          -999.2500:   Absent Value
 COMP.     FLUOR DANIEL (NPSOR), INC.    :   Company
 WELL.     58 X 10                       :   Well
 FLD .     NPR NO.3                      :   Field
 LOC .     SEC.10/TWP.38N/RGE.78W        :   Location
 CNTY.     NATRONA                       :   County
 STAT.     WYOMING                       :   State
 SRVC.     ATLAS WIRELINE SERVICES       :   Service Company
 LIC .                                   :   License Number
 DATE.     21-AUGUST-1994                :   Log Date
 API .     4902522641                    :   API Number
~Curve Information Block
#MNEM.UNIT       API Codes    Curve Description
#---------    -------------   -------------------------------
 DEPT.F        0   0  0  0:   Depth
 CILD.MMHO     0   0  0  0:   Conductivity of Deep Induction
 GR  .API      0   0  0  0:   Gamma ray counts
 TEN .LBF      0   0  0  0:   Differential Tension
 RILM.OHMM     0   0  0  0:   Resistivity from CILM
 RILD.OHMM     0   0  0  0:   Resistivity from CILD
#  Curve Data
~A
# ...
   322.0000    146.8674    166.9245     -4.2724      7.0264      6.8089
   321.5000    143.1581    165.0280    -16.5343      7.0916      6.9853
   321.0000    141.1105    160.1915    -21.1514      7.1408      7.0866
   320.5000    139.5133    154.8151    -13.5829      7.2501      7.1678
   320.0000    137.3582    152.0921     -3.3214      7.4409      7.2802
   319.5000    134.5643    152.6369      1.6961      7.6581      7.4314
   319.0000    131.8266    155.6222      1.8773      7.8241      7.5857
   318.5000    129.8646    156.6035     -1.1614      7.9142      7.7003
   318.0000    128.8080    153.4803     -6.7228      7.9551      7.7635
   317.5000    128.5767    150.5128     -9.3397      7.9737      7.7775
   317.0000    128.9796    149.4189     -6.7100      7.9802      7.7532
   316.5000    129.6653    148.8677     -2.8874      7.9756      7.7122
   316.0000    130.2945    149.4435     -2.6117      7.9631      7.6749
   315.5000    130.7092    150.2109     -5.5498      7.9476      7.6506
   315.0000    130.7867    148.4431    -11.1798      7.9274      7.6460
   314.5000    130.7270    146.5313    -12.8414      7.9020      7.6495
   314.0000    130.7446    146.7850     -9.8869      7.8774      7.6485
   313.5000    130.7194    146.6967    -10.0909      7.8728      7.6500
   313.0000    130.4613    144.5466    -12.8786      7.9023      7.6651
   312.5000    129.9606    143.1889    -12.9466      7.9525      7.6946
   312.0000    129.1924    145.8152    -15.7224      7.9946      7.7404
   311.5000    128.2892    150.2053    -23.0379      8.0217      7.7949
   311.0000    127.4326    150.2992    -26.1656      8.0400      7.8473
   310.5000    126.7762    145.9970    -20.1523      8.0541      7.8879
   310.0000    126.5403    143.5543    -13.1214      8.0671      7.9026
   309.5000    126.9173    147.1340    -13.8601      8.0690      7.8791
   309.0000    127.7920    152.0128    -20.5857      8.0374      7.8252
   308.5000    128.9020    152.1913    -26.0867      7.9685      7.7578
   308.0000    129.9176    151.2722    -25.7264      7.8862      7.6972
   307.5000    130.6339    154.1386    -18.7285      7.8171      7.6550
   307.0000    131.2511    155.5625    -11.0733      7.7541      7.6190
   306.5000    132.5447    151.5559    -10.8080      7.6627      7.5446
   306.0000    135.5343    147.8306    -12.9695      7.5364      7.3782
   305.5000    140.8519    148.2441     -9.4266      7.3879      7.0997
   305.0000    148.6440    150.0529     -3.9937      7.1870      6.7275
   304.5000    158.5228    149.5871     -6.5011      6.8931      6.3082
   304.0000    168.8659    146.8687    -14.3301      6.5334      5.9219
   303.5000    177.1501    147.0281    -16.6237      6.1769      5.6449
   303.0000    182.6389    151.5395    -14.4155      5.8461      5.4753
   302.5000    186.3398    155.1552    -16.4215      5.5258      5.3665
   302.0000    189.0223    155.9775    -20.0031      5.2560      5.2904
   301.5000    190.2233    157.5721    -20.5305      5.1416      5.2570
   301.0000    188.2584    159.5724    -23.8489      5.2519      5.3118
   300.5000    181.9799    159.0948    -27.2017      5.5536      5.4951
   300.0000    172.8293    156.2482    -24.4851      5.9370      5.7861
   299.5000    163.5165    152.0179    -20.6366      6.2979      6.1156
   299.0000    155.5728    147.2151    -18.6321      6.5922      6.4279
   298.5000    149.3512    143.7114    -14.5952      6.8191      6.6956
   298.0000    144.7758    142.5822    -12.7676      6.9980      6.9072
   297.5000    141.1395    143.4887    -17.1355      7.1500      7.0852
   297.0000    137.7211    144.0071    -24.4345      7.2905      7.2611
   296.5000    134.4543    143.4290    -31.1448      7.4302      7.4375
   296.0000    131.5347    142.6010    -33.3621      7.5732      7.6026
   295.5000    128.9890    141.5170    -28.4092      7.7189      7.7526
   295.0000    126.8476    139.3322    -19.6902      7.8547      7.8835
   294.5000    125.2948    136.1242    -16.1973      7.9621      7.9812
   294.0000    124.8367    134.5514    -17.3167      8.0258      8.0105
   293.5000    126.0870    137.7843    -18.2744      8.0334      7.9310
   293.0000    129.0278    143.4899    -18.5129      7.9713      7.7503
   292.5000    133.2051    147.0522    -18.0237      7.8281      7.5072
   292.0000    138.3301    146.3481    -15.0530      7.6078      7.2291
   291.5000    144.2692    143.6100    -10.2541      7.3427      6.9315
   291.0000    150.9229    142.2248     -7.9574      7.0564      6.6259
   290.5000    158.7076    142.1867    -10.8973      6.7358      6.3009
   290.0000    167.9858    140.2014    -21.6214      6.3741      5.9529
   289.5000    177.6884    137.7047    -31.9899      6.0234      5.6278
   289.0000    186.4968    136.6091    -34.7215      5.7449      5.3620
   288.5000    193.7373    136.0275    -33.3100      5.5260      5.1616
   288.0000    198.8243    136.4659    -32.4984      5.3184      5.0296
   287.5000    201.0044    139.3510    -26.6076      5.1416      4.9750
   287.0000    200.1035    144.1070    -15.6990      5.0632      4.9974
   286.5000    196.5051    149.4171    -11.7016      5.0840      5.0889
   286.0000    191.1821    151.6485    -15.7633      5.1445      5.2306
   285.5000    185.4127    149.2565    -17.3801      5.2425      5.3934
   285.0000    179.5537    144.4934    -16.7811      5.4521      5.5694
   284.5000    172.8591    140.7534    -17.9892      5.7955      5.7851
   284.0000    165.4046    138.2956    -17.2877      6.1620      6.0458
   283.5000    159.0245    138.0647    -12.1985      6.3946      6.2883
   283.0000    156.3018    140.1088     -8.5882      6.4384      6.3979
   282.5000    158.7758    141.6848     -6.4886      6.3520      6.2982
   282.0000    167.2809    140.6375     -4.5985      6.1855      5.9780
   281.5000    181.6321    138.8684     -4.1391      5.9277      5.5056
   281.0000    199.6159    138.9437     -6.3513      5.5819      5.0096
   280.5000    218.6948    140.7515     -8.0227      5.1911      4.5726
   280.0000    240.3473    142.1878     -9.3083      4.7411      4.1606
   279.5000    269.6433    139.8550    -13.0946      4.1956      3.7086
   279.0000    305.8860    134.3704    -21.0682      3.6384      3.2692
   278.5000    341.9465    127.6982    -28.4544      3.2182      2.9244
   278.0000    368.9585    123.3387    -29.2611      2.9819      2.7103
   277.5000    381.0566    123.1925    -23.4576      2.8556      2.6243
   277.0000    380.2256    127.0591    -17.2380      2.7490      2.6300
   276.5000    372.6382    129.2277    -16.0759      2.6607      2.6836
   276.0000    360.4949    127.3756    -19.4395      2.6582      2.7740
   275.5000    341.2517    125.9197    -24.1883      2.7991      2.9304
   275.0000    313.2200    127.7801    -28.3638      3.1072      3.1926
   274.5000    278.3245    129.4425    -29.9684      3.5757      3.5929
   274.0000    242.0895    127.6520    -23.8846      4.1665      4.1307
   273.5000    210.9884    126.8265    -12.8170      4.8145      4.7396
   273.0000    186.0833    131.4404     -9.0436      5.4289      5.3739
   272.5000    167.5866    137.5581    -14.3402      5.9669      5.9671
   272.0000    153.8549    138.9597    -21.8685      6.4284      6.4996
   271.5000    143.2014    138.5985    -27.6733      6.8239      6.9832
   271.0000    134.8801    139.7876    -31.3894      7.1760      7.4140
   270.5000    128.7437    140.7579    -31.4641      7.5013      7.7674
   270.0000    124.3520    141.1598    -28.0048      7.7903      8.0417
   269.5000    121.0409    141.1334    -22.7417      8.0283      8.2617
   269.0000    118.3817    139.2677    -20.2206      8.2209      8.4472
   268.5000    116.4959    135.6345    -22.7835      8.3752      8.5840
   268.0000    115.6005    132.3098    -28.1930      8.4935      8.6505
   267.5000    115.4545    130.5574    -30.6610      8.5882      8.6614
   267.0000    115.5641    130.5601    -27.3826      8.6778      8.6532
   266.5000    115.4795    131.0842    -21.9688      8.7759      8.6595
