~Version Information
 VERS.                2.00:   CWLS log ASCII Standard -VERSION 2.00
 WRAP.                  NO:   One line per frame
~Well Information Block
#MNEM.UNIT              Data                Description
#--------- -------------------------------  -------------------------------
 STRT.F                          546.0000:   Starting Depth
 STOP.F                            2.2500:   Ending Depth
 STEP.F                           -0.5000:   Level Spacing
 NULL.                          -999.2500:   Absent Value
 COMP.     FLUOR DANIEL (NPSOR), INC.    :   Company
 WELL.     58 X 10                       :   Well
 FLD .     NPR NO.3                      :   Field
 LOC .     SEC.10/TWP.38N/RGE.78W        :   Location
 CNTY.     NATRONA                       :   County
 STAT.     WYOMING                       :   State
 SRVC.     ATLAS WIRELINE SERVICES       :   Service Company
 LIC .                                   :   License Number
 DATE.     21-AUGUST-1994                :   Log Date
 API .     4902522641                    :   API Number
~Curve Information Block
#MNEM.UNIT       API Codes    Curve Description
#---------    -------------   -------------------------------
 DEPT.F        0   0  0  0:   Depth
 CILD.MMHO     0   0  0  0:   Conductivity of Deep Induction
 GR  .API      0   0  0  0:   Gamma ray counts
 TEN .LBF      0   0  0  0:   Differential Tension
 RILM.OHMM     0   0  0  0:   Resistivity from CILM
 RILD.OHMM     0   0  0  0:   Resistivity from CILD
#  Curve Data
~A
# ...
   266.0000    114.9988    131.1677    -19.1317      8.8805      8.6957
   265.5000    114.2585    130.9891    -17.2188      8.9735      8.7521
   265.0000    113.6077    131.0818    -15.3851      9.0434      8.8022
   264.5000    113.1356    131.2961    -12.4190      9.0986      8.8389
   264.0000    112.7597    130.1879    -10.2032      9.1543      8.8684
   263.5000    112.3202    129.5811    -14.3515      9.2056      8.9031
   263.0000    111.9435    132.1015    -22.6511      9.2312      8.9331
   262.5000    111.8697    136.1453    -27.9584      9.2172      8.9390
   262.0000    112.1891    137.9334    -31.2115      9.1696      8.9135
   261.5000    112.8885    136.4349    -32.9879      9.1106      8.8583
   261.0000    113.9328    132.9076    -27.5308      9.0540      8.7771
   260.5000    115.0264    130.3690    -16.3599      8.9907      8.6937
   260.0000    115.9723    131.0081     -8.3195      8.9210      8.6227
   259.5000    116.7900    132.3783     -6.8741      8.8610      8.5624
   259.0000    117.2801    133.2314     -8.8609      8.8066      8.5266
   258.5000    117.3876    134.8891    -13.4950      8.7385      8.5188
   258.0000    117.5498    135.8741    -18.4064      8.6585      8.5070
   257.5000    118.2203    134.0370    -24.5293      8.5864      8.4588
   257.0000    119.4857    132.1116    -31.8029      8.5298      8.3692
   256.5000    121.1224    131.8390    -33.8879      8.4723      8.2561
   256.0000    122.6908    131.1990    -27.2734      8.3917      8.1506
   255.5000    123.9907    130.6824    -23.0827      8.2874      8.0651
   255.0000    125.2338    132.0889    -26.0217      8.1719      7.9851
   254.5000    126.5751    133.9610    -32.6362      8.0603      7.9004
   254.0000    127.9753    132.5298    -40.1157      7.9616      7.8140
   253.5000    129.7881    128.8262    -43.3008      7.8658      7.7049
   253.0000    132.8111    126.7169    -39.3319      7.7484      7.5295
   252.5000    137.9701    128.4650    -31.9762      7.5806      7.2479
   252.0000    146.2122    130.8850    -24.3036      7.3210      6.8394
   251.5000    157.5746    129.9781    -18.5010      6.9417      6.3462
   251.0000    169.5626    127.3178    -13.4886      6.5099      5.8975
   250.5000    178.1578    126.5890     -8.3616      6.1378      5.6130
   250.0000    182.2253    127.4758     -6.7088      5.8432      5.4877
   249.5000    183.7534    127.4714    -11.4393      5.5498      5.4421
   249.0000    184.6147    125.8174    -19.3202      5.2574      5.4167
   248.5000    184.8267    125.2621    -25.4535      5.1121      5.4105
   248.0000    182.3354    129.6621    -24.0669      5.2530      5.4844
   247.5000    174.9127    136.5686    -16.6884      5.6769      5.7171
   247.0000    163.6460    138.4186    -13.5389      6.2316      6.1108
   246.5000    152.3817    134.8096    -16.6994      6.7370      6.5625
   246.0000    143.4936    131.7634    -18.0914      7.1146      6.9690
   245.5000    137.3160    131.6935    -16.6152      7.3642      7.2825
   245.0000    133.3697    132.0584    -16.8894      7.5249      7.4980
   244.5000    130.6712    131.1579    -18.6065      7.6487      7.6528
   244.0000    128.5047    129.3326    -23.2910      7.7648      7.7818
   243.5000    126.7768    129.0143    -29.1098      7.8821      7.8879
   243.0000    125.3603    130.7622    -28.8905      7.9994      7.9770
   242.5000    124.1940    131.9468    -25.4757      8.0968      8.0519
   242.0000    123.3795    131.5724    -26.2849      8.1566      8.1051
   241.5000    123.0706    130.6574    -24.2661      8.1824      8.1254
   241.0000    123.4296    130.0305    -15.8780      8.1866      8.1018
   240.5000    124.3546    129.8125    -11.9606      8.1739      8.0415
   240.0000    125.4780    129.8823    -14.9514      8.1397      7.9695
   239.5000    126.8321    129.3934    -17.8480      8.0791      7.8844
   239.0000    128.8848    128.8277    -21.4897      7.9945      7.7589
   238.5000    131.8699    128.9572    -25.6432      7.8804      7.5832
   238.0000    135.6735    130.1972    -24.4101      7.7245      7.3706
   237.5000    139.6266    130.8868    -20.9550      7.5477      7.1620
   237.0000    142.8218    130.6498    -20.4445      7.3896      7.0017
   236.5000    144.8057    132.1669    -20.2932      7.2490      6.9058
   236.0000    145.6310    134.9704    -21.3872      7.0924      6.8667
   235.5000    145.6054    134.2766    -26.2507      6.9261      6.8679
   235.0000    145.1404    129.6382    -29.7997      6.8233      6.8899
   234.5000    143.9299    125.8170    -29.3700      6.8633      6.9478
   234.0000    141.1411    124.1042    -23.9675      7.0635      7.0851
   233.5000    136.7422    124.2129    -15.6221      7.3729      7.3130
   233.0000    131.6710    125.3887    -13.8223      7.7144      7.5947
   232.5000    126.8684    124.6486    -19.7826      8.0204      7.8822
   232.0000    123.0523    121.5961    -21.1624      8.2526      8.1266
   231.5000    120.4780    120.1109    -15.6017      8.4148      8.3003
   231.0000    118.8964    122.5412    -14.1233      8.5356      8.4107
   230.5000    117.8871    126.7439    -16.3083      8.6358      8.4827
   230.0000    116.9776    129.0399    -16.0473      8.7160      8.5486
   229.5000    115.9362    129.8540    -14.0873      8.7624      8.6254
   229.0000    115.0320    132.1605    -12.9759      8.7710      8.6932
   228.5000    114.5101    133.9297    -13.8927      8.7648      8.7328
   228.0000    114.1228    131.7398    -16.9287      8.7826      8.7625
   227.5000    113.6820    129.2371    -18.5516      8.8409      8.7965
   227.0000    113.1473    129.4134    -17.1556      8.9252      8.8380
   226.5000    112.3957    129.8451    -18.8188      9.0168      8.8971
   226.0000    111.3970    129.6296    -21.5717      9.1054      8.9769
   225.5000    110.4407    130.3759    -21.1835      9.1808      9.0546
   225.0000    109.8024    132.6232    -20.3319      9.2401      9.1073
   224.5000    109.4093    134.0370    -22.5520      9.2885      9.1400
   224.0000    109.1454    131.1393    -23.7229      9.3257      9.1621
   223.5000    109.1851    124.9055    -21.4275      9.3391      9.1588
   223.0000    109.6726    122.5022    -20.0784      9.3191      9.1180
   222.5000    110.3709    126.1010    -20.9593      9.2753      9.0604
   222.0000    110.8827    131.8104    -19.1168      9.2265      9.0185
   221.5000    111.0382    134.5807    -15.2698      9.1743      9.0059
   221.0000    110.9384    133.5543    -15.5864      9.1176      9.0140
   220.5000    110.7088    130.9131    -17.8983      9.0830      9.0327
   220.0000    110.2261    127.7883    -18.8063      9.1041      9.0723
   219.5000    109.4575    124.3206    -23.4941      9.1773      9.1360
   219.0000    108.6896    123.3305    -31.8432      9.2759      9.2005
   218.5000    108.1731    125.7038    -31.9484      9.3790      9.2444
   218.0000    107.9007    128.7397    -20.2374      9.4651      9.2678
   217.5000    107.9346    130.2339    -11.4527      9.5031      9.2649
   217.0000    108.4554    129.8841    -16.2455      9.4805      9.2204
   216.5000    109.4663    128.9739    -25.6267      9.4055      9.1352
   216.0000    110.7287    128.4565    -28.5199      9.2853      9.0311
   215.5000    112.0594    128.8984    -25.4544      9.1284      8.9238
   215.0000    113.4428    131.6164    -21.1341      8.9627      8.8150
   214.5000    114.9413    132.9512    -21.3134      8.8169      8.7001
   214.0000    116.4793    131.1072    -26.2093      8.7065      8.5852
   213.5000    117.7781    130.7173    -28.7084      8.6348      8.4905
   213.0000    118.5322    134.1598    -27.5409      8.5936      8.4365
   212.5000    118.7869    136.9590    -29.3788      8.5628      8.4184
   212.0000    119.1097    137.0785    -34.4857      8.5170      8.3956
   211.5000    120.2646    134.1859    -36.4765      8.4351      8.3150
   211.0000    122.5381    131.3361    -32.9275      8.3279      8.1607
   210.5000    125.0727    130.7589    -27.3811      8.2368      7.9953
