~Version Information
 VERS.                2.00:   CWLS log ASCII Standard -VERSION 2.00
 WRAP.                  NO:   One line per frame
~Well Information Block
#MNEM.UNIT              Data                Description
#--------- -------------------------------  -------------------------------
 STRT.F                          546.0000:   Starting Depth
 STOP.F                            2.2500:   Ending Depth
 STEP.F                           -0.5000:   Level Spacing
 NULL.                          -999.2500:   Absent Value
 COMP.     FLUOR DANIEL (NPSOR), INC.    :   Company
 WELL.     58 X 10                       :   Well
 FLD .     NPR NO.3                      :   Field
 LOC .     SEC.10/TWP.38N/RGE.78W        :   Location
 CNTY.     NATRONA                       :   County
 STAT.     WYOMING                       :   State
 SRVC.     ATLAS WIRELINE SERVICES       :   Service Company
 LIC .                                   :   License Number
 DATE.     21-AUGUST-1994                :   Log Date
 API .     4902522641                    :   API Number
~Curve Information Block
#MNEM.UNIT       API Codes    Curve Description
#---------    -------------   -------------------------------
 DEPT.F        0   0  0  0:   Depth
 CILD.MMHO     0   0  0  0:   Conductivity of Deep Induction
 GR  .API      0   0  0  0:   Gamma ray counts
 TEN .LBF      0   0  0  0:   Differential Tension
 RILM.OHMM     0   0  0  0:   Resistivity from CILM
 RILD.OHMM     0   0  0  0:   Resistivity from CILD
#  Curve Data
~A
# ...
   490.0000     86.1254     98.4306     77.8107     11.7952     11.6110
   489.5000     86.4259     97.4868     74.3178     11.7814     11.5706
   489.0000     86.5390     97.8624     80.5596     11.7478     11.5555
   488.5000     86.4969     98.4360     86.9061     11.7051     11.5611
   488.0000     86.4098     98.0262     82.0239     11.6754     11.5728
   487.5000     86.3146     96.4845     72.4524     11.6718     11.5855
   487.0000     86.1007     93.7759     69.4232     11.7062     11.6143
   486.5000     85.6824     90.7730     69.2155     11.7913     11.6710
   486.0000     85.1397     89.6771     69.2807     11.9093     11.7454
   485.5000     84.6286     90.5609     74.9254     12.0071     11.8163
   485.0000     84.1578     92.1385     82.6135     12.0563     11.8824
   484.5000     83.7650     92.4596     85.9758     12.0782     11.9382
   484.0000     83.4760     90.7794     85.5113     12.0953     11.9795
   483.5000     83.2064     89.6720     82.8304     12.1140     12.0183
   483.0000     82.9074     90.7654     78.4768     12.1441     12.0616
   482.5000     82.5015     90.9845     74.4328     12.1976     12.1210
   482.0000     81.8832     89.0659     72.4497     12.2722     12.2125
   481.5000     81.1201     88.2672     73.7896     12.3597     12.3274
   481.0000     80.3762     89.0859     76.7789     12.4496     12.4415
   480.5000     79.7741     89.5513     77.5325     12.5393     12.5354
   480.0000     79.4669     89.4255     76.6306     12.6164     12.5839
   479.5000     79.4686     89.2313     76.5126     12.6625     12.5836
   479.0000     79.6528     90.5854     77.4892     12.6692     12.5545
   478.5000     80.0014     93.9942     75.7013     12.6353     12.4998
   478.0000     80.5665     95.7403     70.6276     12.5721     12.4121
   477.5000     81.2737     93.6585     67.9936     12.4960     12.3041
   477.0000     81.9411     90.5208     68.2166     12.4140     12.2039
   476.5000     82.3871     88.1849     67.0698     12.3229     12.1378
   476.0000     82.6228     86.2913     67.4093     12.2306     12.1032
   475.5000     82.7926     87.3006     69.0364     12.1618     12.0784
   475.0000     82.7908     90.7937     67.4077     12.1440     12.0786
   474.5000     82.4753     92.1440     64.5493     12.1816     12.1248
   474.0000     81.8958     90.6038     67.3562     12.2507     12.2106
   473.5000     81.1766     89.6099     74.9510     12.3300     12.3188
   473.0000     80.2298     90.1807     81.3240     12.4117     12.4642
   472.5000     79.1298     90.4249     82.2750     12.5115     12.6375
   472.0000     78.0254     88.8442     80.8469     12.6309     12.8163
   471.5000     76.9857     87.4321     81.3203     12.7499     12.9894
   471.0000     75.9304     87.8301     83.2616     12.8689     13.1699
   470.5000     74.8293     87.7274     84.1220     12.9946     13.3637
   470.0000     73.8580     85.9960     85.7385     13.1164     13.5395
   469.5000     73.1755     85.3976     89.7697     13.2336     13.6658
   469.0000     72.6700     86.1524     93.6347     13.3486     13.7608
   468.5000     72.0890     84.7922     93.1238     13.4460     13.8717
   468.0000     71.3394     82.1158     91.7626     13.5229     14.0175
   467.5000     70.4229     80.7062     92.3976     13.5945     14.1999
   467.0000     69.5751     81.0453     93.7545     13.6743     14.3729
   466.5000     69.1103     82.2719     93.6319     13.7784     14.4696
   466.0000     68.9781     83.6273     93.9217     13.9207     14.4973
   465.5000     68.9220     84.0136     92.5840     14.0994     14.5092
   465.0000     68.9380     84.0280     91.7464     14.2798     14.5058
   464.5000     69.1054     84.8231     97.7836     14.3895     14.4706
   464.0000     69.3414     84.9066    105.1570     14.3850     14.4214
   463.5000     69.4486     84.2607    106.3462     14.2931     14.3991
   463.0000     69.2702     86.0969    105.9850     14.1840     14.4362
   462.5000     68.7743     89.3199    105.5815     14.1303     14.5403
   462.0000     67.9995     89.2248    102.5306     14.1753     14.7060
   461.5000     66.8297     87.3575    102.2808     14.3243     14.9634
   461.0000     65.2514     88.1727    105.7984     14.5868     15.3253
   460.5000     63.4101     88.6621    108.5513     15.0043     15.7704
   460.0000     61.3408     85.9846    109.2805     15.5796     16.3024
   459.5000     59.0534     83.2708    109.7396     16.2074     16.9338
   459.0000     56.8747     82.3633    111.5665     16.7412     17.5825
   458.5000     55.1123     82.5415    114.7617     17.1773     18.1448
   458.0000     53.8308     84.0005    118.2579     17.6285     18.5767
   457.5000     52.9925     87.1927    121.3232     18.1221     18.8706
   457.0000     52.4539     89.6534    121.2448     18.5620     19.0643
   456.5000     52.0198     89.4153    117.2566     18.8528     19.2235
   456.0000     51.5781     88.1311    115.2442     19.0057     19.3881
   455.5000     51.2253     87.4699    116.4304     19.0757     19.5216
   455.0000     51.1130     86.2631    117.5397     19.0904     19.5645
   454.5000     51.1463     84.8201    119.3492     19.0732     19.5518
   454.0000     51.0284     84.0933    122.4788     19.0897     19.5969
   453.5000     50.7514     82.8803    125.3806     19.1436     19.7039
   453.0000     50.4387     81.7869    125.1470     19.2123     19.8261
   452.5000     49.9037     82.3072    121.8926     19.3483     20.0386
   452.0000     48.9421     83.5267    119.5838     19.5954     20.4323
   451.5000     47.7267     83.0128    121.6059     19.8675     20.9527
   451.0000     46.6927     80.8969    124.4351     20.0125     21.4166
   450.5000     46.0229     79.4061    123.8580     20.0601     21.7283
   450.0000     45.5362     79.9557    121.9512     20.2441     21.9606
   449.5000     44.9685     81.7717    120.1254     20.7144     22.2378
   449.0000     44.2316     82.1668    119.9046     21.3457     22.6083
   448.5000     43.3497     80.3996    122.1845     21.8634     23.0682
   448.0000     42.4549     78.9241    125.3830     22.1334     23.5544
   447.5000     41.8291     79.6513    125.5670     22.2474     23.9068
   447.0000     41.6799     81.2607    124.5937     22.3917     23.9924
   446.5000     41.8167     83.2201    125.8518     22.6469     23.9139
   446.0000     41.8416     84.1752    127.1767     23.0182     23.8997
   445.5000     41.4171     84.0134    125.9070     23.4784     24.1446
   445.0000     40.5379     84.9137    121.6880     23.9368     24.6683
   444.5000     39.6024     87.6744    115.7810     24.2382     25.2510
   444.0000     39.0581     89.5986    111.7419     24.3036     25.6029
   443.5000     38.9771     89.8456    112.2269     24.2027     25.6561
   443.0000     38.9714     89.9528    112.4385     24.0614     25.6598
   442.5000     38.6848     91.0977    107.7327     24.0203     25.8499
   442.0000     38.3295     91.9893    103.2400     24.1440     26.0896
   441.5000     38.2640     90.3076    102.9976     24.2779     26.1342
   441.0000     38.2909     88.2610    102.0539     24.2585     26.1159
   440.5000     38.0024     88.9150    100.3203     24.2723     26.3141
   440.0000     37.1743     90.5333    100.7784     24.6216     26.9003
   439.5000     35.8830     90.9786    101.6077     25.2222     27.8683
   439.0000     34.6843     91.2769     99.5355     25.6750     28.8315
   438.5000     34.1012     89.8811     97.9068     25.8176     29.3245
   438.0000     34.2349     86.1959     96.5786     25.9470     29.2100
   437.5000     35.2120     83.2582     95.0587     26.2747     28.3994
   437.0000     37.4525     82.5490     94.2017     26.3801     26.7005
   436.5000     41.2241     82.2776     95.0166     25.4875     24.2576
   436.0000     46.3390     82.1722     96.5996     23.5054     21.5801
   435.5000     52.0714     85.9462     99.2751     21.1029     19.2044
   435.0000     57.9115     95.2321    100.7317     18.7856     17.2677
   434.5000     63.6773    104.4823     97.8254     16.6902     15.7042
