~Version Information
 VERS.                2.00:   CWLS log ASCII Standard -VERSION 2.00
 WRAP.                  NO:   One line per frame
~Well Information Block
#MNEM.UNIT              Data                Description
#--------- -------------------------------  -------------------------------
 STRT.F                          546.0000:   Starting Depth
 STOP.F                            2.2500:   Ending Depth
 STEP.F                           -0.5000:   Level Spacing
 NULL.                          -999.2500:   Absent Value
 COMP.     FLUOR DANIEL (NPSOR), INC.    :   Company
 WELL.     58 X 10                       :   Well
 FLD .     NPR NO.3                      :   Field
 LOC .     SEC.10/TWP.38N/RGE.78W        :   Location
 CNTY.     NATRONA                       :   County
 STAT.     WYOMING                       :   State
 SRVC.     ATLAS WIRELINE SERVICES       :   Service Company
 LIC .                                   :   License Number
 DATE.     21-AUGUST-1994                :   Log Date
 API .     4902522641                    :   API Number
~Curve Information Block
#MNEM.UNIT       API Codes    Curve Description
#---------    -------------   -------------------------------
 DEPT.F        0   0  0  0:   Depth
 CILD.MMHO     0   0  0  0:   Conductivity of Deep Induction
 GR  .API      0   0  0  0:   Gamma ray counts
 TEN .LBF      0   0  0  0:   Differential Tension
 RILM.OHMM     0   0  0  0:   Resistivity from CILM
 RILD.OHMM     0   0  0  0:   Resistivity from CILD
#  Curve Data
~A
# ...
    98.0000    102.3444    137.5744    -35.3010      9.8896      9.7709
    97.5000    101.4848    138.0164    -29.6680     10.0060      9.8537
    97.0000    100.9259    137.8172    -24.4531     10.0357      9.9083
    96.5000    100.6548    138.5940    -23.6021     10.0162      9.9349
    96.0000    100.5213    139.7249    -26.9056      9.9958      9.9481
    95.5000    100.4118    137.4564    -30.5915      9.9908      9.9590
    95.0000    100.2787    132.7077    -31.6160     10.0001      9.9722
    94.5000    100.1424    129.7951    -35.3946     10.0230      9.9858
    94.0000     99.9268    131.6301    -40.0782     10.0606     10.0073
    93.5000     99.4072    136.2545    -36.8806     10.1065     10.0596
    93.0000     98.5770    138.1351    -29.8073     10.1461     10.1444
    92.5000     97.7493    135.0705    -29.3993     10.1773     10.2302
    92.0000     97.0245    131.6912    -32.0912     10.2243     10.3067
    91.5000     96.2731    131.2279    -32.0689     10.3129     10.3871
    91.0000     95.5164    133.0206    -29.9434     10.4334     10.4694
    90.5000     94.8845    135.3860    -27.5601     10.5489     10.5391
    90.0000     94.4713    135.3486    -26.9843     10.6321     10.5852
    89.5000     94.4130    131.3797    -26.8623     10.6758     10.5918
    89.0000     94.7900    127.8062    -25.5230     10.6748     10.5496
    88.5000     95.4856    127.3054    -26.7948     10.6138     10.4728
    88.0000     96.3865    128.6533    -27.5686     10.4862     10.3749
    87.5000     97.4456    132.0732    -27.8678     10.3198     10.2621
    87.0000     98.6612    136.1594    -33.7037     10.1614     10.1357
    86.5000     99.9904    136.6939    -39.2498     10.0309     10.0010
    86.0000    101.4520    135.2737    -33.2374      9.9098      9.8569
    85.5000    102.8579    137.1206    -24.6043      9.7828      9.7221
    85.0000    104.2275    140.9134    -26.7860      9.6556      9.5944
    84.5000    105.7485    142.0147    -32.9202      9.5344      9.4564
    84.0000    107.4609    139.6106    -32.1467      9.4068      9.3057
    83.5000    109.1768    138.0574    -28.4519      9.2628      9.1595
    83.0000    110.9122    139.5730    -31.1567      9.1096      9.0161
    82.5000    112.7474    140.5698    -36.4756      8.9486      8.8694
    82.0000    114.6972    140.5991    -37.5772      8.7694      8.7186
    81.5000    116.6017    141.4579    -35.0796      8.5820      8.5762
    81.0000    118.2153    141.3626    -32.2205      8.4262      8.4591
    80.5000    119.3719    140.8611    -27.6476      8.3268      8.3772
    80.0000    120.2421    142.0446    -23.4472      8.2624      8.3166
    79.5000    121.1046    142.4695    -21.8746      8.2055      8.2573
    79.0000    122.1879    140.9319    -23.2193      8.1544      8.1841
    78.5000    123.5239    139.9438    -27.0648      8.1075      8.0956
    78.0000    125.0707    141.2014    -30.9758      8.0494      7.9955
    77.5000    126.8920    141.3690    -31.6026      7.9558      7.8807
    77.0000    129.0711    137.5738    -27.8151      7.8149      7.7477
    76.5000    131.6012    133.4146    -24.6184      7.6436      7.5987
    76.0000    134.4730    132.1852    -26.2053      7.4716      7.4364
    75.5000    137.6823    132.2627    -28.1884      7.3098      7.2631
    75.0000    141.1176    133.7799    -26.2703      7.1592      7.0863
    74.5000    144.4247    135.9638    -27.3228      7.0253      6.9240
    74.0000    147.3403    135.8531    -34.2134      6.9084      6.7870
    73.5000    150.1602    133.3373    -35.7588      6.7889      6.6596
    73.0000    153.3318    130.8571    -27.5821      6.6424      6.5218
    72.5000    157.0165    129.9943    -19.2302      6.4744      6.3688
    72.0000    161.0543    133.3387    -17.8446      6.3186      6.2091
    71.5000    164.9670    136.6418    -20.6210      6.1920      6.0618
    71.0000    168.4029    134.2987    -25.8445      6.0765      5.9381
    70.5000    171.5761    128.7682    -31.6874      5.9505      5.8283
    70.0000    174.7300    126.2536    -35.4291      5.8234      5.7231
    69.5000    177.7554    125.9167    -38.9247      5.7182      5.6257
    69.0000    181.5131    126.7730    -40.5147      5.6358      5.5092
    68.5000    186.0185    129.6123    -36.4417      5.5608      5.3758
    68.0000    186.3077    132.5824    -30.5467      5.4868      5.3675
    67.5000    180.4736    133.1301    -30.3149      5.4207      5.5410
    67.0000    173.5860    131.9030    -33.5183      5.3769      5.7608
    66.5000    168.1443    129.5432    -34.9316      5.3674      5.9473
    66.0000    168.6640    127.6490    -33.0620      5.3971      5.9289
    65.5000    186.1737    127.9790    -31.7535      5.5558      5.3713
    65.0000    210.5491    129.3185    -30.9386      5.9442      4.7495
    64.5000    219.0615    128.4658    -31.2701      6.0789      4.5649
    64.0000    210.4536    125.3239    -35.8195      5.7390      4.7516
    63.5000    199.0144    123.7753    -40.3930      5.8201      5.0248
    63.0000    190.2045    126.6136    -38.3589      6.8937      5.2575
    62.5000    176.8900    131.0847    -30.3524      8.5546      5.6532
    62.0000    137.2525    133.7185    -24.5247      8.9354      7.2858
    61.5000    110.4715    135.1668    -27.5534      7.1194      9.0521
    61.0000    165.8836    138.1728    -34.9179      5.3502      6.0283
    60.5000    279.8362    139.4565    -35.2058      4.5094      3.5735
    60.0000    384.5735    136.0080    -32.7494      3.7697      2.6003
    59.5000    458.3330    131.4628    -36.4871      2.8434      2.1818
    59.0000    362.7920    129.7496    -40.4162      2.8844      2.7564
    58.5000     64.0945    128.2896    -37.5797      7.1001     15.6020
    58.0000   -150.7334    122.0001    -31.3955  10000.0000  10000.0000
    57.5000   -170.6739    108.8571    -28.9204  10000.0000  10000.0000
    57.0000    -96.6372     92.6322    -32.5176  10000.0000  10000.0000
    56.5000    -36.2709     80.4499    -37.6721  10000.0000  10000.0000
    56.0000     -4.4305     73.3012    -39.0891  10000.0000  10000.0000
    55.5000     30.4391     67.9948    -38.8024  10000.0000     32.8524
    55.0000    112.9265     64.1272    -37.1170  10000.0000      8.8553
    54.5000    206.5162     65.1558    -33.9120  10000.0000      4.8422
    54.0000    241.7673     70.5863    -31.9673  10000.0000      4.1362
    53.5000    234.7798     75.2626    -32.7170  10000.0000      4.2593
    53.0000    220.2924     76.4922    -34.7505  10000.0000      4.5394
    52.5000    212.6997     76.0454    -35.2528  10000.0000      4.7015
    52.0000    226.2235     74.1661    -32.5331  10000.0000      4.4204
    51.5000    248.5815     71.2663    -29.3956  10000.0000      4.0228
    51.0000    255.5810     70.7714    -31.8383  10000.0000      3.9127
    50.5000    245.6426     73.1309    -39.2120  10000.0000      4.0710
    50.0000    234.8872     76.3549    -43.7522  10000.0000      4.2574
    49.5000    228.2699     78.5130    -40.8746  10000.0000      4.3808
    49.0000    224.6093     77.9986    -35.9415  10000.0000      4.4522
    48.5000    218.5756     74.6671    -33.9529  10000.0000      4.5751
    48.0000    209.1438     72.2636    -31.7883  10000.0000      4.7814
    47.5000    202.6564     73.3946    -30.4725  10000.0000      4.9345
    47.0000    201.6019     75.4990    -32.6762  10000.0000      4.9603
    46.5000    202.4307     75.1480    -32.5222  10000.0000      4.9400
    46.0000    203.0723     73.6181    -27.7843  10000.0000      4.9244
    45.5000    203.0737     73.6358    -25.1433  10000.0000      4.9243
    45.0000    202.5279     74.8348    -27.6147  10000.0000      4.9376
    44.5000    201.4326     76.2195    -32.7896  10000.0000      4.9644
    44.0000    200.0500     77.6115    -37.1582  10000.0000      4.9987
    43.5000    199.2011     78.6646    -37.9274  10000.0000      5.0201
    43.0000    199.4438     80.3273    -37.4217  10000.0000      5.0139
    42.5000    202.7061     82.2282    -38.5419  10000.0000      4.9333
