~Version Information
 VERS.                2.00:   CWLS log ASCII Standard -VERSION 2.00
 WRAP.                  NO:   One line per frame
~Well Information Block
#MNEM.UNIT              Data                Description
#--------- -------------------------------  -------------------------------
 STRT.F                          546.0000:   Starting Depth
 STOP.F                            2.2500:   Ending Depth
 STEP.F                           -0.5000:   Level Spacing
 NULL.                          -999.2500:   Absent Value
 COMP.     FLUOR DANIEL (NPSOR), INC.    :   Company
 WELL.     58 X 10                       :   Well
 FLD .     NPR NO.3                      :   Field
 LOC .     SEC.10/TWP.38N/RGE.78W        :   Location
 CNTY.     NATRONA                       :   County
 STAT.     WYOMING                       :   State
 SRVC.     ATLAS WIRELINE SERVICES       :   Service Company
 LIC .                                   :   License Number
 DATE.     21-AUGUST-1994                :   Log Date
 API .     4902522641                    :   API Number
~Curve Information Block
#MNEM.UNIT       API Codes    Curve Description
#---------    -------------   -------------------------------
 DEPT.F        0   0  0  0:   Depth
 CILD.MMHO     0   0  0  0:   Conductivity of Deep Induction
 GR  .API      0   0  0  0:   Gamma ray counts
 TEN .LBF      0   0  0  0:   Differential Tension
 RILM.OHMM     0   0  0  0:   Resistivity from CILM
 RILD.OHMM     0   0  0  0:   Resistivity from CILD
#  Curve Data
~A
# ...
    42.0000    208.9110     81.3546    -38.6859  10000.0000      4.7867
    41.5000    213.5518     78.3164    -33.4222  10000.0000      4.6827
    41.0000    213.6588     77.5212    -25.0551  10000.0000      4.6804
    40.5000    211.3929     79.1572    -23.2166  10000.0000      4.7305
    40.0000    210.0682     78.2849    -29.3032  10000.0000      4.7604
    39.5000    210.1846     74.3126    -34.7962  10000.0000      4.7577
    39.0000    209.7839     72.3148    -36.6891  10000.0000      4.7668
    38.5000    208.2608     74.4388    -37.4793  10000.0000      4.8017
    38.0000    207.3848     75.7322    -38.0448  10000.0000      4.8220
    37.5000    206.5325     73.7627    -37.9868  10000.0000      4.8419
    37.0000    204.1366     72.6151    -36.8092    225.1659      4.8987
    36.5000    200.7198     72.0238    -33.8187    218.3636      4.9821
    36.0000    178.7438     69.1302    -29.1989    216.3559      5.5946
    35.5000    117.0253     66.0122    -27.2563    214.9615      8.5452
    35.0000     44.9110     66.4981    -32.2931    214.1460     22.2662
    34.5000      6.6325     68.6801    -37.8346    214.2349    150.7735
    34.0000      0.1113     70.2671    -35.9443    214.4237   8984.5547
    33.5000      0.1307     71.7059    -31.0941    214.1466   7648.7773
    33.0000      0.1723     73.1432    -28.8649    214.1703   5802.5938
    32.5000      0.2030     73.2678    -27.4155    214.1504   4926.6680
    32.0000      0.2149     70.8571    -26.5085    213.6409   4652.9414
    31.5000      0.2088     67.3901    -30.8508    213.5155   4789.5820
    31.0000      0.1945     65.0819    -37.6666    213.7266   5141.8750
    30.5000      0.1957     64.1358    -38.9537    213.7504   5110.2891
    30.0000      0.2034     65.0559    -34.6504    213.8419   4917.1523
    29.5000      0.2144     69.2784   -250.0000    214.1194   4664.0938
    29.0000      0.2652     74.1750   -250.0000    214.3405   3771.2651
    28.5000      0.3147     75.1288   -250.0000    214.5264   3177.9092
    28.0000      0.3272     73.3944   -250.0000    214.3952   3056.3667
    27.5000      0.3203     71.7933   -250.0000    213.7004   3122.4160
    27.0000      0.0000     70.6375   -250.0000    212.8181      0.2000
    26.5000      0.0000     69.6569   -250.0000    211.5207      0.2000
    26.0000      0.0000     69.5885   -250.0000    209.8455      0.2000
    25.5000      0.0000     69.7272   -250.0000    208.9630      0.2000
    25.0000      0.0000     69.3222   -250.0000    208.9882      0.2000
    24.5000      0.0000     68.9690   -250.0000    208.7627      0.2000
    24.0000      0.0000     70.3251   -250.0000    208.1771      0.2000
    23.5000      0.0000     73.2697   -250.0000      0.2000      0.2000
    23.0000      0.0000     76.2714   -250.0000      0.2000      0.2000
    22.5000      0.0000     75.6404   -250.0000      0.2000      0.2000
    22.0000      0.0000     65.7237   -250.0000      0.2000      0.2000
    21.5000      0.0000     50.9576   -250.0000      0.2000      0.2000
    21.0000      0.0000     44.3833   -250.0000      0.2000      0.2000
    20.5000      0.0000     48.9557   -250.0000      0.2000      0.2000
    20.0000      0.0000     53.4143   -250.0000      0.2000      0.2000
    19.5000      0.0000     51.4534   -250.0000      0.2000      0.2000
    19.0000      0.0000     48.4952   -250.0000      0.2000      0.2000
    18.5000      0.0000     48.8064   -250.0000      0.2000      0.2000
    18.0000      0.0000     50.6355   -250.0000      0.2000      0.2000
    17.5000      0.0000     50.5939   -250.0000      0.2000      0.2000
    17.0000      0.0000     49.9454   -250.0000      0.2000      0.2000
    16.5000      0.0000     52.2029   -250.0000      0.2000      0.2000
    16.0000      0.0000     55.7259   -250.0000      0.2000      0.2000
    15.5000      0.0000     57.6765   -250.0000      0.2000      0.2000
    15.0000      0.0000     59.1576   -250.0000      0.2000      0.2000
    14.5000      0.0000     62.2925   -250.0000      0.2000      0.2000
    14.0000      0.0000     65.7976   -250.0000      0.2000      0.2000
    13.5000      0.0000     68.7532   -250.0000      0.2000      0.2000
    13.0000      0.0000     68.0980   -250.0000      0.2000      0.2000
    12.5000      0.0000     59.8223   -250.0000      0.2000      0.2000
    12.0000      0.0000     45.5249   -250.0000      0.2000      0.2000
    11.5000      0.0000     31.2501   -250.0000      0.2000      0.2000
    11.0000      0.0000     20.2429   -250.0000      0.2000      0.2000
    10.5000      0.0000     13.1385   -250.0000      0.2000      0.2000
    10.0000      0.0000     10.0279   -250.0000      0.2000      0.2000
     9.5000      0.0000     10.3549   -250.0000      0.2000      0.2000
     9.0000      0.0000     11.7458   -250.0000      0.2000      0.2000
     8.5000      0.0000     11.9210   -250.0000      0.2000      0.2000
     8.0000      0.0000     11.0238   -250.0000      0.2000      0.2000
     7.5000      0.0000     10.5090   -250.0000      0.2000      0.2000
     7.0000      0.0000     10.2916   -250.0000      0.2000      0.2000
     6.5000      0.0000      9.7265   -250.0000      0.2000      0.2000
     6.0000      0.0000      9.9109   -250.0000      0.2000      0.2000
     5.5000      0.0000      9.9109   -250.0000      0.2000      0.2000
     5.0000      0.0000      9.9109   -250.0000      0.2000      0.2000
     4.5000      0.0000      9.9109   -250.0000      0.2000      0.2000
     4.0000      0.0000      9.9109   -250.0000      0.2000      0.2000
     3.5000      0.0000      9.9109   -250.0000      0.2000      0.2000
     3.0000      0.0000      9.9109   -250.0000      0.2000      0.2000
     2.5000      0.0000      9.9109   -250.0000      0.2000      0.2000
