~Version Information
 VERS.                2.00:   CWLS log ASCII Standard -VERSION 2.00
 WRAP.                  NO:   One line per frame
~Well Information Block
#MNEM.UNIT              Data                Description
#--------- -------------------------------  -------------------------------
 STRT.F                          546.0000:   Starting Depth
 STOP.F                            2.2500:   Ending Depth
 STEP.F                           -0.5000:   Level Spacing
 NULL.                          -999.2500:   Absent Value
 COMP.     FLUOR DANIEL (NPSOR), INC.    :   Company
 WELL.     58 X 10                       :   Well
 FLD .     NPR NO.3                      :   Field
 LOC .     SEC.10/TWP.38N/RGE.78W        :   Location
 CNTY.     NATRONA                       :   County
 STAT.     WYOMING                       :   State
 SRVC.     ATLAS WIRELINE SERVICES       :   Service Company
 LIC .                                   :   License Number
 DATE.     21-AUGUST-1994                :   Log Date
 API .     4902522641                    :   API Number
~Curve Information Block
#MNEM.UNIT       API Codes    Curve Description
#---------    -------------   -------------------------------
 DEPT.F        0   0  0  0:   Depth
 CILD.MMHO     0   0  0  0:   Conductivity of Deep Induction
 GR  .API      0   0  0  0:   Gamma ray counts
 TEN .LBF      0   0  0  0:   Differential Tension
 RILM.OHMM     0   0  0  0:   Resistivity from CILM
 RILD.OHMM     0   0  0  0:   Resistivity from CILD
#  Curve Data
~A
   546.0000      0.0000      0.0000   -250.0000      0.2000      0.2000
   545.5000      0.0000      0.0000   -250.0000      0.2000      0.2000
   545.0000      0.0000      0.0000   -250.0000      0.2000      0.2000
   544.5000      0.0000      0.0000   -250.0000      0.2000      0.2000
   544.0000      0.0000      0.0000   -250.0000      0.2000      0.2000
   543.5000      0.0000      0.0000   -250.0000      0.2000      0.2000
   543.0000      0.0000      0.0000   -250.0000      0.2000      0.2000
   542.5000      0.0000      0.0000   -250.0000      0.2000      0.2000
   542.0000      0.0000      0.0000   -250.0000      0.2000      0.2000
   541.5000      0.0000      0.0000   -250.0000      0.2000      0.2000
   541.0000      0.0000      0.0000   -250.0000      0.2000      0.2000
   540.5000      0.0000      0.0000   -250.0000      0.2000      0.2000
   540.0000      0.0000      0.0000   -250.0000      0.2000      0.2000
   539.5000      0.0000      0.0000   -250.0000      0.2000      0.2000
   539.0000      0.0000      0.0000   -250.0000      0.2000      0.2000
   538.5000      0.0000      0.0000   -250.0000      0.2000      0.2000
   538.0000      0.0000      0.0000   -250.0000      0.2000      0.2000
   537.5000      0.0000      0.0000   -250.0000      0.2000      0.2000
   537.0000      0.0000      0.0000   -250.0000      0.2000      0.2000
   536.5000      0.0000      0.0000   -250.0000      0.2000      0.2000
   536.0000      0.0000      0.0000   -125.6941      0.2000      0.2000
   535.5000      0.0000      0.0000   -122.4941      0.2000      0.2000
   535.0000      0.0000      0.0000   -119.9766      0.2000      0.2000
   534.5000      0.0000      0.0000   -107.4924      0.2000      0.2000
   534.0000      0.0000      0.0000    -38.2906      0.2000      0.2000
   533.5000      0.0000      0.0000    127.2301      0.2000      0.2000
   533.0000      0.0000      0.0000    317.0171      0.2000      0.2000
   532.5000      0.0000      0.0000    415.8284      0.2000      0.2000
   532.0000      0.0000      0.0000    415.0898      0.2000      0.2000
   531.5000      0.0000      0.0000    383.6536      0.2000      0.2000
   531.0000      0.0000      0.0000    356.1082      0.2000      0.2000
   530.5000      0.0000      0.0000    333.7058      0.2000      0.2000
   530.0000      0.0000      0.0000    315.8621     12.4993      0.2000
   529.5000      0.0000      0.0000    299.3621     12.4850      0.2000
   529.0000      0.0000      0.0000    289.6956     12.4749      0.2000
   528.5000      0.0000      0.0000    286.3630     12.4784      0.2000
   528.0000      0.0000      0.0000    281.0505     12.4860      0.2000
   527.5000      0.0000      0.0000    272.7319     12.4964      0.2000
   527.0000      0.0000      0.0000    271.4238     12.5265      0.2000
   526.5000      0.0000      0.0000    273.0552     12.5923      0.2000
   526.0000      0.0000      0.0000    266.6289     12.6660      0.2000
   525.5000      0.0000      0.0000    253.2954     12.6736      0.2000
   525.0000      0.0000      0.0000    240.4315     12.5917      0.2000
   524.5000      0.0000      0.0000    227.7401     12.5016      0.2000
   524.0000      0.0000      0.0000    215.7316     12.4987      0.2000
   523.5000      0.0000      0.0000    209.9922     12.6014      0.2000
   523.0000      0.0000      0.0000    206.7729     12.7421      0.2000
   522.5000      0.0000      0.0000    200.3969     12.8418      0.2000
   522.0000      0.0000      0.0000    192.7914     12.8740      0.2000
   521.5000      0.0000      0.0000    185.6900     12.8351      0.2000
   521.0000      0.0000      0.0000    174.8846     12.7226      0.2000
   520.5000      0.0000      0.0000    164.6066     12.5741      0.2000
   520.0000     81.4465      0.0000    159.7444     12.4557     12.2780
   519.5000     81.8666      0.0000    155.5347     12.4031     12.2150
   519.0000     82.3922      0.0000    150.6239     12.4069     12.1371
   518.5000     82.9737      0.0000    149.5003     12.4230     12.0520
   518.0000     83.5773      0.0000    149.5708     12.4032     11.9650
   517.5000     84.3292      0.0000    146.9749     12.3093     11.8583
   517.0000     85.3837      0.0000    143.6059     12.0965     11.7118
   516.5000     86.7683      0.0000    141.5691     11.7483     11.5250
   516.0000     88.2901      0.0000    141.7966     11.3727     11.3263
   515.5000     89.8672      0.0000    141.2629     11.1294     11.1275
   515.0000     91.4249      0.0000    136.2227     11.0291     10.9379
   514.5000     92.7306      0.0000    133.5961     10.9388     10.7839
   514.0000     93.8596      0.0000    138.0634     10.7751     10.6542
   513.5000     95.4018      0.0000    140.7032     10.5608     10.4820
   513.0000     97.5648      0.0000    138.4087     10.3237     10.2496
   512.5000     99.9216     94.3380    136.3984     10.0756     10.0078
   512.0000    102.2058     96.6999    136.5338      9.8449      9.7842
   511.5000    104.0512    100.3206    136.7242      9.6838      9.6106
   511.0000    105.2876    102.5245    135.9943      9.6145      9.4978
   510.5000    106.4409    102.3216    133.0944      9.5918      9.3949
   510.0000    108.7352    101.8825    127.8645      9.5206      9.1967
   509.5000    113.6264    101.1620    119.4041      9.3250      8.8008
   509.0000    122.4742    100.4971    111.3756      8.9672      8.1650
   508.5000    135.4776    102.4862    106.4862      8.4287      7.3813
   508.0000    150.6338    108.4104    104.3795      7.7589      6.6386
   507.5000    164.5837    115.0191    105.7169      7.0832      6.0759
   507.0000    174.5605    119.0630    112.8893      6.4868      5.7287
   506.5000    179.9072    120.8110    119.4746      5.9691      5.5584
   506.0000    182.3512    120.4055    121.2567      5.5325      5.4839
   505.5000    183.3997    117.0675    119.1647      5.2640      5.4526
   505.0000    181.9185    112.0068    114.9261      5.2837      5.4970
   504.5000    175.3175    108.0353    110.1773      5.6594      5.7039
   504.0000    162.8620    106.1479    109.3028      6.3596      6.1402
   503.5000    147.3228    105.5468    111.1499      7.2345      6.7878
   503.0000    132.5275    105.8608    110.8919      8.0679      7.5456
   502.5000    121.0177    106.5163    108.4345      8.7046      8.2633
   502.0000    113.2345    106.0905    106.2330      9.1301      8.8312
   501.5000    108.3568    103.5545    104.1898      9.4254      9.2288
   501.0000    105.0996    101.5435    101.5753      9.6783      9.5148
   500.5000    102.3865    101.4459    100.6152      9.9132      9.7669
   500.0000     99.8853    101.0577    100.4618     10.1114     10.0115
   499.5000     97.7603    100.1668     98.8371     10.2833     10.2291
   499.0000     95.8097    100.3592     95.7053     10.4555     10.4374
   498.5000     93.9778    100.7153     93.0735     10.6161     10.6408
   498.0000     92.5232    100.7818     90.8390     10.7445     10.8081
   497.5000     91.7077    100.6081     89.2329     10.8621     10.9042
   497.0000     91.2899     99.3887     87.6079     11.0038     10.9541
   496.5000     90.7975     97.9928     84.0595     11.1720     11.0135
   496.0000     90.1921     98.0135     82.3015     11.3256     11.0874
   495.5000     89.6842     98.4088     86.3019     11.4317     11.1502
   495.0000     89.2849     99.4173     92.2137     11.4986     11.2001
   494.5000     88.8772    102.3371     93.5813     11.5385     11.2515
   494.0000     88.5235    104.6637     91.3469     11.5598     11.2964
   493.5000     88.3049    103.1064     90.6329     11.5820     11.3244
   493.0000     88.0813     98.3546     91.0638     11.6180     11.3532
   492.5000     87.6506     94.0562     90.2797     11.6593     11.4089
   492.0000     87.0433     92.7575     89.2238     11.7043     11.4885
   491.5000     86.4593     94.8077     90.6033     11.7507     11.5661
   491.0000     86.0311     97.9657     91.3798     11.7837     11.6237
   490.5000     85.9037     99.2983     86.4028     11.7953     11.6409
