~Version Information
 VERS.                2.00:   CWLS log ASCII Standard -VERSION 2.00
 WRAP.                  NO:   One line per frame
~Well Information Block
#MNEM.UNIT              Data                Description
#--------- -------------------------------  -------------------------------
 STRT.F                          546.0000:   Starting Depth
 STOP.F                            2.2500:   Ending Depth
 STEP.F                           -0.5000:   Level Spacing
 NULL.                          -999.2500:   Absent Value
 COMP.     FLUOR DANIEL (NPSOR), INC.    :   Company
 WELL.     58 X 10                       :   Well
 FLD .     NPR NO.3                      :   Field
 LOC .     SEC.10/TWP.38N/RGE.78W        :   Location
 CNTY.     NATRONA                       :   County
 STAT.     WYOMING                       :   State
 SRVC.     ATLAS WIRELINE SERVICES       :   Service Company
 LIC .                                   :   License Number
 DATE.     21-AUGUST-1994                :   Log Date
 API .     4902522641                    :   API Number
~Curve Information Block
#MNEM.UNIT       API Codes    Curve Description
#---------    -------------   -------------------------------
 DEPT.F        0   0  0  0:   Depth
 CILD.MMHO     0   0  0  0:   Conductivity of Deep Induction
 GR  .API      0   0  0  0:   Gamma ray counts
 TEN .LBF      0   0  0  0:   Differential Tension
 RILM.OHMM     0   0  0  0:   Resistivity from CILM
 RILD.OHMM     0   0  0  0:   Resistivity from CILD
#  Curve Data
~A
# ...
   434.0000     69.2620    107.6448     92.1871     14.9279     14.4379
   433.5000     74.2979    107.5650     88.0102     13.6284     13.4593
   433.0000     78.2064    108.2390     87.8815     12.8095     12.7867
   432.5000     80.6539    108.6085     89.5172     12.3738     12.3987
   432.0000     81.7043    107.4067     88.4122     12.1903     12.2393
   431.5000     81.6329    106.8624     84.5530     12.1558     12.2500
   431.0000     80.8881    108.8055     81.3182     12.2180     12.3628
   430.5000     79.7853    110.3893     79.8042     12.3595     12.5336
   430.0000     78.3881    109.0408     79.2192     12.5780     12.7570
   429.5000     76.8212    106.1095     80.1079     12.8550     13.0172
   429.0000     75.1890    105.9747     81.1367     13.1454     13.2998
   428.5000     73.4686    107.5652     82.4433     13.4168     13.6112
   428.0000     71.7801    107.0771     82.9161     13.6653     13.9314
   427.5000     70.4531    105.2777     81.3661     13.8727     14.1938
   427.0000     69.7030    104.6569     80.0491     13.9997     14.3466
   426.5000     69.5726    103.4704     81.2965     14.0432     14.3735
   426.0000     69.9705    101.8671     81.8971     14.0498     14.2917
   425.5000     70.6623    102.6314     79.6562     14.0487     14.1518
   425.0000     71.4104    104.8172     76.7432     14.0184     14.0036
   424.5000     72.1003    105.0160     77.7332     13.9260     13.8696
   424.0000     72.7544    103.8923     83.7551     13.7857     13.7449
   423.5000     73.3520    103.7837     88.0190     13.6392     13.6329
   423.0000     73.7920    104.4280     84.5954     13.5227     13.5516
   422.5000     73.9945    105.3753     75.0748     13.4527     13.5145
   422.0000     73.9611    106.9486     66.1597     13.4389     13.5206
   421.5000     73.7646    108.4177     62.3453     13.4805     13.5566
   421.0000     73.4610    108.1190     65.0663     13.5535     13.6127
   420.5000     73.0973    106.0989     69.4430     13.6397     13.6804
   420.0000     72.7706    103.0182     69.4598     13.7471     13.7418
   419.5000     72.4030     99.7448     66.6748     13.8696     13.8116
   419.0000     71.7867     98.0833     67.0680     13.9679     13.9302
   418.5000     70.9961     98.6454     71.8745     14.0111     14.0853
   418.0000     70.3600     99.2405     75.7415     14.0338     14.2126
   417.5000     69.8940     98.9335     75.1660     14.1265     14.3074
   417.0000     69.1910     98.6104     69.3381     14.3415     14.4527
   416.5000     68.1296     99.2132     60.2759     14.6358     14.6779
   416.0000     67.0378    100.3251     53.7196     14.9218     14.9170
   415.5000     66.2394    100.2821     54.4474     15.1289     15.0968
   415.0000     65.7857     98.8430     56.0291     15.2308     15.2009
   414.5000     65.6278     99.1694     53.3116     15.2582     15.2375
   414.0000     65.6436    102.5522     53.0474     15.2608     15.2338
   413.5000     65.7207    105.8099     57.9805     15.2569     15.2159
   413.0000     65.8242    105.8046     60.9671     15.2435     15.1920
   412.5000     65.8397    103.1460     60.0319     15.2305     15.1884
   412.0000     65.6188    100.4319     56.9420     15.2388     15.2395
   411.5000     65.1329     99.0863     49.9008     15.2818     15.3532
   411.0000     64.4766     98.5337     42.0519     15.3697     15.5095
   410.5000     63.7762     98.2679     39.3520     15.5135     15.6798
   410.0000     63.0433     98.3449     45.5170     15.7156     15.8621
   409.5000     62.2672     98.8156     52.6326     15.9557     16.0598
   409.0000     61.5031     99.7890     52.9358     16.1802     16.2593
   408.5000     60.8181    100.2474     51.9348     16.3309     16.4425
   408.0000     60.2427    100.2983     51.6395     16.4255     16.5995
   407.5000     59.7317    100.6919     45.4883     16.5324     16.7415
   407.0000     59.1104    101.2732     38.5065     16.6792     16.9175
   406.5000     58.2647    100.7337     41.3912     16.8589     17.1631
   406.0000     57.3471     99.3163     50.8243     17.0789     17.4377
   405.5000     56.6393     97.8902     58.0857     17.3234     17.6556
   405.0000     56.2252     97.0791     58.4526     17.5263     17.7856
   404.5000     56.0226     96.3852     55.2843     17.6508     17.8499
   404.0000     55.9380     96.1301     55.9830     17.7483     17.8769
   403.5000     55.8561     97.0851     55.9861     17.8560     17.9032
   403.0000     55.7378     98.7854     48.2980     17.9227     17.9412
   402.5000     55.7162    100.1992     42.0403     17.8682     17.9481
   402.0000     55.8788    101.1479     47.2540     17.6681     17.8959
   401.5000     56.0694    101.9559     57.2067     17.4156     17.8350
   401.0000     56.1134    102.4095     63.1563     17.2654     17.8211
   400.5000     55.8998    102.0872     61.2482     17.2788     17.8891
   400.0000     55.4489    101.2906     51.5206     17.3989     18.0346
   399.5000     54.8533    100.0727     39.9236     17.5778     18.2304
   399.0000     54.1039     98.6599     35.6362     17.8085     18.4829
   398.5000     53.1501     98.4119     37.7309     18.1120     18.8147
   398.0000     52.0310    100.1868     40.2743     18.4979     19.2193
   397.5000     50.8463    102.3150     40.4451     18.8679     19.6671
   397.0000     49.7945    103.0316     40.0215     19.0863     20.0825
   396.5000     49.0623    102.5059     38.7079     19.1706     20.3822
   396.0000     48.6702    102.6942     34.3223     19.2666     20.5464
   395.5000     48.5340    104.0424     30.3548     19.4500     20.6041
   395.0000     48.5979    103.5468     31.0392     19.6744     20.5770
   394.5000     48.8349    101.5173     34.6642     19.8410     20.4771
   394.0000     49.1891    101.0824     36.1892     19.8987     20.3297
   393.5000     49.5652    101.4360     35.5828     19.8598     20.1754
   393.0000     49.9125    100.8447     32.7869     19.7828     20.0350
   392.5000     50.2516    100.6763     30.7330     19.7189     19.8998
   392.0000     50.4850    101.4124     31.1198     19.6641     19.8079
   391.5000     50.6209    102.7200     34.5678     19.5750     19.7547
   391.0000     50.8267    103.8251     41.4220     19.4225     19.6747
   390.5000     51.1659    102.5416     45.2654     19.2195     19.5443
   390.0000     51.4913     98.2621     38.8826     19.0659     19.4208
   389.5000     51.6358     94.9205     29.2870     19.0462     19.3664
   389.0000     51.4906     94.8022     25.3260     19.1441     19.4210
   388.5000     50.9996     95.5961     23.3587     19.3060     19.6080
   388.0000     50.2289     94.4074     21.6733     19.5189     19.9089
   387.5000     49.3726     92.6419     24.4799     19.7770     20.2542
   387.0000     48.6145     91.7953     28.9350     20.0764     20.5700
   386.5000     47.8818     91.0999     33.5851     20.4480     20.8848
   386.0000     46.9929     89.2627     39.8220     20.9264     21.2798
   385.5000     45.8473     89.2144     41.3497     21.4806     21.8116
   385.0000     44.5217     92.3729     35.5892     22.0141     22.4610
   384.5000     43.2482     94.6038     29.1122     22.4539     23.1224
   384.0000     42.2162     92.4075     25.3589     22.8230     23.6876
   383.5000     41.3609     89.8398     23.2462     23.2383     24.1774
   383.0000     40.4761     89.8951     22.5377     23.7939     24.7060
   382.5000     39.5157     89.6800     20.5271     24.4454     25.3064
   382.0000     38.5684     87.5130     16.2504     25.0764     25.9279
   381.5000     37.5988     85.0873     13.5966     25.6512     26.5966
   381.0000     36.5359     82.5107     13.0345     26.2253     27.3703
   380.5000     35.5068     81.0415     13.5450     26.8324     28.1636
   380.0000     34.7372     81.7293     13.7262     27.4443     28.7876
   379.5000     34.4804     81.6106     11.0248     27.9442     29.0020
   379.0000     34.9151     79.2766      9.4757     28.1739     28.6409
   378.5000     35.8462     78.2288     15.3885     28.1205     27.8969
