~Version Information
 VERS.                2.00:   CWLS log ASCII Standard -VERSION 2.00
 WRAP.                  NO:   One line per frame
~Well Information Block
#MNEM.UNIT              Data                Description
#--------- -------------------------------  -------------------------------
 STRT.F                          546.0000:   Starting Depth
 STOP.F                            2.2500:   Ending Depth
 STEP.F                           -0.5000:   Level Spacing
 NULL.                          -999.2500:   Absent Value
 COMP.     FLUOR DANIEL (NPSOR), INC.    :   Company
 WELL.     58 X 10                       :   Well
 FLD .     NPR NO.3                      :   Field
 LOC .     SEC.10/TWP.38N/RGE.78W        :   Location
 CNTY.     NATRONA                       :   County
 STAT.     WYOMING                       :   State
 SRVC.     ATLAS WIRELINE SERVICES       :   Service Company
 LIC .                                   :   License Number
 DATE.     21-AUGUST-1994                :   Log Date
 API .     4902522641                    :   API Number
~Curve Information Block
#MNEM.UNIT       API Codes    Curve Description
#---------    -------------   -------------------------------
 DEPT.F        0   0  0  0:   Depth
 CILD.MMHO     0   0  0  0:   Conductivity of Deep Induction
 GR  .API      0   0  0  0:   Gamma ray counts
 TEN .LBF      0   0  0  0:   Differential Tension
 RILM.OHMM     0   0  0  0:   Resistivity from CILM
 RILD.OHMM     0   0  0  0:   Resistivity from CILD
#  Curve Data
~A
# ...
   210.0000    126.5094    130.8801    -28.6425      8.1875      7.9045
   209.5000    126.3594    128.1325    -33.3042      8.1580      7.9139
   209.0000    125.2047    125.3561    -31.4211      8.0991      7.9869
   208.5000    123.7523    126.0695    -25.6697      8.0027      8.0807
   208.0000    122.3060    128.0521    -26.2858      7.9533      8.1762
   207.5000    120.4638    127.0786    -32.5252      8.0599      8.3012
   207.0000    117.5183    123.5616    -35.9821      8.3440      8.5093
   206.5000    113.6260    120.7276    -33.6961      8.7285      8.8008
   206.0000    109.7773    119.9411    -26.9968      9.1104      9.1093
   205.5000    106.6212    120.1222    -22.4404      9.4167      9.3790
   205.0000    104.2847    118.6833    -22.3952      9.6177      9.5891
   204.5000    102.8536    117.3420    -23.0309      9.7330      9.7226
   204.0000    102.2668    118.7824    -22.8527      9.7960      9.7783
   203.5000    102.2708    121.4377    -23.4951      9.8166      9.7780
   203.0000    102.6996    122.2737    -24.1072      9.7980      9.7371
   202.5000    103.2883    121.9141    -23.4859      9.7585      9.6816
   202.0000    103.6501    122.3153    -25.4550      9.7242      9.6478
   201.5000    103.4936    123.9355    -29.3047      9.7071      9.6624
   201.0000    102.9393    124.1015    -28.4358      9.7092      9.7145
   200.5000    102.2650    121.3304    -23.2865      9.7349      9.7785
   200.0000    101.6805    118.3907    -19.9680      9.7886      9.8347
   199.5000    101.1141    118.7265    -20.5921      9.8639      9.8898
   199.0000    100.4446    118.9194    -24.8480      9.9471      9.9557
   198.5000     99.6737    115.9207    -30.9846     10.0331     10.0327
   198.0000     98.7501    114.7368    -33.4777     10.1213     10.1266
   197.5000     97.5439    118.4120    -34.1576     10.2125     10.2518
   197.0000     96.0714    121.2705    -34.6251     10.3073     10.4089
   196.5000     94.3464    120.7939    -30.8834     10.4160     10.5992
   196.0000     92.5731    120.5963    -26.0647     10.5383     10.8023
   195.5000     91.3981    119.3905    -28.0533     10.6574     10.9411
   195.0000     90.9400    115.3855    -33.8065     10.7707     10.9963
   194.5000     90.5428    113.2096    -34.3631     10.9153     11.0445
   194.0000     89.8070    116.9237    -28.8274     11.1081     11.1350
   193.5000     88.9007    122.4312    -24.7459     11.2813     11.2485
   193.0000     88.1676    124.9756    -26.6469     11.3174     11.3420
   192.5000     88.0155    124.8830    -30.9999     11.2082     11.3616
   192.0000     88.3137    124.0339    -33.0940     11.0950     11.3233
   191.5000     88.5062    122.4405    -33.1611     11.0935     11.2986
   191.0000     88.2811    120.0979    -27.9282     11.1933     11.3274
   190.5000     87.7903    118.2960    -21.0011     11.3253     11.3908
   190.0000     87.2148    116.8876    -23.1202     11.4448     11.4659
   189.5000     86.6987    115.8263    -31.5196     11.5416     11.5342
   189.0000     86.3473    115.8634    -29.7113     11.6185     11.5811
   188.5000     86.3319    116.3696    -19.3010     11.6503     11.5832
   188.0000     86.6543    115.4645    -19.2492     11.6287     11.5401
   187.5000     87.0739    112.6005    -31.7871     11.6005     11.4845
   187.0000     87.2516    112.3647    -38.8454     11.5973     11.4611
   186.5000     87.0683    117.6312    -32.6069     11.6158     11.4852
   186.0000     86.5244    125.1133    -25.5013     11.6505     11.5574
   185.5000     85.6422    128.7071    -26.8928     11.7008     11.6765
   185.0000     84.6529    127.9610    -31.1027     11.7735     11.8129
   184.5000     83.8067    126.7275    -34.0871     11.8845     11.9322
   184.0000     83.0570    126.0668    -36.8885     12.0266     12.0399
   183.5000     82.2339    123.4315    -35.6789     12.1739     12.1604
   183.0000     81.3375    121.0294    -28.2250     12.3034     12.2944
   182.5000     80.4198    121.4005    -25.6917     12.4062     12.4347
   182.0000     79.4156    120.9473    -31.6736     12.4916     12.5920
   181.5000     78.0911    118.6225    -35.3834     12.5846     12.8055
   181.0000     76.4151    117.8870    -34.5900     12.7122     13.0864
   180.5000     74.8957    118.2411    -35.2543     12.8770     13.3519
   180.0000     74.1186    117.6490    -37.1377     13.0362     13.4919
   179.5000     74.0749    118.2408    -36.0342     13.1380     13.4998
   179.0000     74.3805    118.7709    -32.9403     13.1977     13.4444
   178.5000     74.8078    117.0875    -34.3952     13.2427     13.3676
   178.0000     75.5469    114.0304    -39.0537     13.1999     13.2368
   177.5000     76.9104    113.4922    -36.1828     12.9496     13.0021
   177.0000     79.0218    117.0635    -30.6748     12.5018     12.6547
   176.5000     81.6164    122.6494    -33.7129     12.0118     12.2524
   176.0000     84.2906    127.0791    -38.4922     11.6160     11.8637
   175.5000     86.6233    129.6882    -36.5298     11.3283     11.5442
   175.0000     88.5654    132.4350    -31.5004     11.1007     11.2911
   174.5000     90.3126    134.9768    -28.1689     10.9128     11.0727
   174.0000     92.0530    134.7103    -24.7202     10.7645     10.8633
   173.5000     93.8395    133.9418    -21.2841     10.6354     10.6565
   173.0000     95.8065    133.9226    -23.3008     10.4974     10.4377
   172.5000     98.0372    133.1487    -30.3057     10.3291     10.2002
   172.0000    100.5008    130.6800    -35.4758     10.1263      9.9502
   171.5000    103.0396    130.9395    -38.1936      9.9010      9.7050
   171.0000    105.3269    136.1188    -39.0318      9.6758      9.4942
   170.5000    107.3407    142.2592    -35.3708      9.4612      9.3161
   170.0000    109.0855    142.4276    -29.6927      9.2562      9.1671
   169.5000    110.4316    137.6459    -26.3017      9.0765      9.0554
   169.0000    111.4373    136.0734    -27.7541      8.9572      8.9737
   168.5000    112.2337    141.0164    -31.4235      8.9128      8.9100
   168.0000    112.7716    144.7987    -36.0480      8.9110      8.8675
   167.5000    112.9389    141.0698    -38.1802      8.9094      8.8543
   167.0000    112.8535    135.9078    -32.6701      8.8981      8.8610
   166.5000    112.5898    136.5426    -23.4335      8.8930      8.8818
   166.0000    112.0077    138.8983    -23.8635      8.9076      8.9280
   165.5000    111.1691    136.8129    -32.5618      8.9383      8.9953
   165.0000    110.3478    132.2554    -36.2386      8.9679      9.0623
   164.5000    109.6239    130.8239    -30.3082      8.9904      9.1221
   164.0000    108.9476    134.8506    -22.7545      9.0201      9.1787
   163.5000    108.3634    139.7723    -20.4859      9.0731      9.2282
   163.0000    107.8560    141.0635    -24.0349      9.1420      9.2716
   162.5000    107.5275    138.9388    -28.9491      9.1907      9.2999
   162.0000    107.7278    138.5120    -33.0727      9.1821      9.2827
   161.5000    108.5835    140.6313    -35.1561      9.1142      9.2095
   161.0000    109.8642    141.0022    -32.3260      9.0204      9.1021
   160.5000    111.2505    137.8257    -27.9109      8.9279      8.9887
   160.0000    112.5956    135.3125    -30.2725      8.8401      8.8813
   159.5000    113.9435    134.5117    -37.4238      8.7494      8.7763
   159.0000    115.3842    133.4247    -39.5378      8.6505      8.6667
   158.5000    116.8343    134.8994    -38.5264      8.5459      8.5591
   158.0000    118.2159    139.1540    -37.3488      8.4461      8.4591
   157.5000    119.6346    141.2805    -36.9254      8.3502      8.3588
   157.0000    121.1954    140.5569    -38.0838      8.2444      8.2511
   156.5000    122.7683    140.5695    -39.1714      8.1322      8.1454
   156.0000    124.0156    141.1026    -35.1290      8.0372      8.0635
   155.5000    124.6765    142.1681    -28.8503      7.9769      8.0208
   155.0000    124.7256    143.7266    -27.0630      7.9567      8.0176
   154.5000    124.2042    145.1541    -30.0541      7.9799      8.0513
