~Version Information
 VERS.                2.00:   CWLS log ASCII Standard -VERSION 2.00
 WRAP.                  NO:   One line per frame
~Well Information Block
#MNEM.UNIT              Data                Description
#--------- -------------------------------  -------------------------------
 STRT.F                          631.0000:   Starting Depth
 STOP.F                           -8.7500:   Ending Depth
 STEP.F                           -0.5000:   Level Spacing
 NULL.                          -999.2500:   Absent Value
 COMP.     FLUOR DANIEL                  :   Company
 WELL.     48X10                         :   Well
 FLD .                                   :   Field
 LOC .                                   :   Location
 PROV.                                   :   Province
 SRVC.                                   :   Service Company
 LIC .                                   :   License Number
 DATE.                                   :   Log Date
 UWI .                                   :   Unique Well ID
~Curve Information Block
#MNEM.UNIT       API Codes    Curve Description
#---------    -------------   -------------------------------
 DEPT.F        0   0  0  0:   Depth
 CILD.MMHO     0   0  0  0:   Conductivity of Deep Induction
 GR  .API      0   0  0  0:   Gamma ray counts
 TEN .LBF      0   0  0  0:   Differential Tension
 RILM.OHMM     0   0  0  0:   Resistivity from CILM
 RILD.OHMM     0   0  0  0:   Resistivity from CILD
#  Curve Data
~A
# ...
   183.0000    122.7505    108.9812    -12.0374      8.4210      8.1466
   182.5000    121.7279    108.4289    -10.4490      8.4942      8.2150
   182.0000    120.4656    109.0511    -10.2266      8.5862      8.3011
   181.5000    118.9763    107.8091    -10.7839      8.6974      8.4050
   181.0000    118.5461    105.5647    -14.0861      8.7301      8.4355
   180.5000    120.0364    106.2893    -16.2382      8.6180      8.3308
   180.0000    122.7221    107.4124    -15.1643      8.4230      8.1485
   179.5000    124.5856    106.2171    -16.4364      8.2929      8.0266
   179.0000    125.6827    106.5004    -20.0913      8.2181      7.9565
   178.5000    126.6127    107.7374    -21.7224      8.1558      7.8981
   178.0000    126.4922    106.3515    -20.1294      8.1638      7.9056
   177.5000    126.0025    105.1562    -17.6592      8.1966      7.9363
   177.0000    126.6999    106.9367    -17.4768      8.1500      7.8927
   176.5000    127.7892    108.6180    -17.0406      8.0782      7.8254
   176.0000    128.4279    109.9506    -13.1778      8.0368      7.7865
   175.5000    128.4792    111.9906     -9.6325      8.0335      7.7834
   175.0000    127.7062    112.1240     -7.1998      8.0837      7.8305
   174.5000    126.0029    109.9605     -5.3665      8.1965      7.9363
   174.0000    123.7846    109.2708     -7.8592      8.3483      8.0786
   173.5000    121.8534    111.0221    -12.7133      8.4851      8.2066
   173.0000    120.8427    111.7364    -12.9954      8.5585      8.2752
   172.5000    119.2757    108.1605    -10.3974      8.6749      8.3839
   172.0000    117.5358    101.8734     -9.9238      8.8078      8.5080
   171.5000    117.0351    100.2713    -10.3499      8.8468      8.5444
   171.0000    117.9315    105.0073    -10.8019      8.7772      8.4795
   170.5000    120.2762    109.1526    -13.8217      8.6002      8.3142
   170.0000    122.1590    109.4927    -17.6040      8.4632      8.1861
   169.5000    122.3367    108.8791    -19.5508      8.4505      8.1742
   169.0000    123.1667    106.7559    -19.6539      8.3916      8.1191
   168.5000    126.0879    103.4135    -19.3150      8.1908      7.9310
   168.0000    129.3047    102.6155    -17.5747      7.9805      7.7337
   167.5000    131.1265    104.3051    -13.2071      7.8662      7.6262
   167.0000    130.4633    105.6246     -8.4012      7.9074      7.6650
   166.5000    128.4444    105.7599     -6.0048      8.0357      7.7855
   166.0000    127.7167    104.8938     -5.7645      8.0830      7.8298
   165.5000    127.8122    104.2467     -5.8862      8.0767      7.8240
   165.0000    126.5673    105.5475     -7.5311      8.1588      7.9009
   164.5000    124.1997    106.8459    -12.9756      8.3195      8.0515
   164.0000    121.3122    106.2684    -19.6524      8.5243      8.2432
   163.5000    118.8868    104.9695    -21.6160      8.7042      8.4114
   163.0000    118.4875    103.9314    -17.7983      8.7346      8.4397
   162.5000    121.1416    102.5009    -13.4328      8.5367      8.2548
   162.0000    125.2928    103.3190    -10.2965      8.2445      7.9813
   161.5000    128.5681    108.3467     -7.5692      8.0277      7.7780
   161.0000    130.8531    112.9834     -7.2797      7.8831      7.6422
   160.5000    134.8080    113.4628     -9.2256      7.6448      7.4180
   160.0000    141.3258    112.7310    -11.2017      7.2820      7.0758
   159.5000    146.3412    114.1742    -12.1969      7.0254      6.8333
   159.0000    147.2811    115.5265    -12.4718      6.9793      6.7897
   158.5000    145.5454    115.8345    -12.2467      7.0649      6.8707
   158.0000    141.9306    116.3392    -12.3305      7.2500      7.0457
   157.5000    136.7628    117.9807    -11.7541      7.5322      7.3119
   157.0000    131.2383    118.8699    -10.8858      7.8593      7.6197
   156.5000    127.9016    118.3358    -11.2026      8.0709      7.8185
   156.0000    127.2419    117.0074    -10.8705      8.1141      7.8590
   155.5000    126.6224    116.1973    -10.1117      8.1551      7.8975
   155.0000    124.2621    115.6403    -11.0889      8.3152      8.0475
   154.5000    122.3528    114.9567    -13.1098      8.4493      8.1731
   154.0000    121.7504    114.8319    -12.8759      8.4925      8.2135
   153.5000    120.8574    115.1179    -12.4089      8.5574      8.2742
   153.0000    119.8208    115.7496    -12.6660      8.6340      8.3458
   152.5000    119.7485    115.7937    -14.2588      8.6394      8.3508
   152.0000    119.7355    114.9472    -16.3556      8.6404      8.3517
   151.5000    117.7915    112.9223    -16.1491      8.7880      8.4896
   151.0000    116.1469    111.9332    -10.8812      8.9169      8.6098
   150.5000    116.5526    114.1565     -5.6053      8.8847      8.5798
   150.0000    117.3481    116.2591     -7.1815      8.8224      8.5217
   149.5000    116.6909    114.2878    -12.1674      8.8738      8.5696
   149.0000    115.3688    111.2686    -14.4164      8.9792      8.6679
   148.5000    114.1466    110.3569    -14.4356      9.0788      8.7607
   148.0000    114.0443    109.5169    -15.7545      9.0872      8.7685
   147.5000    115.5237    109.1863    -18.5724      8.9667      8.6562
   147.0000    117.9675    110.5620    -20.6735      8.7744      8.4769
   146.5000    120.2625    110.2305    -20.6400      8.6012      8.3151
   146.0000    120.7060    107.9247    -17.7193      8.5685      8.2846
   145.5000    120.0999    107.8608    -14.8321      8.6133      8.3264
   145.0000    120.4659    110.2018    -14.5717      8.5862      8.3011
   144.5000    121.2239    111.4961    -15.7453      8.5307      8.2492
   144.0000    120.1037    111.2127    -16.9629      8.6130      8.3261
   143.5000    117.5496    110.7804    -18.3256      8.8067      8.5070
   143.0000    115.3871    111.5379    -17.4579      8.9777      8.6665
   142.5000    115.2704    114.1981    -15.0865      8.9871      8.6753
   142.0000    117.1795    116.0146    -15.5111      8.8355      8.5339
   141.5000    117.3975    114.4121    -18.4793      8.8185      8.5181
   141.0000    114.4883    110.9671    -18.2225      9.0507      8.7345
   140.5000    110.7815    107.4033    -15.4266      9.3649      9.0268
   140.0000    108.6762    103.9606    -14.6031      9.5533      9.2016
   139.5000    107.7101    101.6777    -16.2047      9.6423      9.2842
   139.0000    106.6413    102.6900    -15.1368      9.7427      9.3772
   138.5000    104.7803    105.9780    -12.9329      9.9226      9.5438
   138.0000    103.9823    107.9745    -15.3442     10.0018      9.6170
   137.5000    103.8788    107.8183    -20.6335     10.0121      9.6266
   137.0000    102.7030    107.2224    -22.0558     10.1314      9.7368
   136.5000    102.5788    107.0508    -18.4220     10.1442      9.7486
   136.0000    105.6755    107.8818    -15.3964      9.8352      9.4629
   135.5000    108.8098    109.2532    -15.3131      9.5411      9.1904
   135.0000    110.0388    108.9100    -17.5903      9.4305      9.0877
   134.5000    110.6978    106.9126    -22.2321      9.3723      9.0336
   134.0000    110.8794    104.6904    -24.5287      9.3563      9.0188
   133.5000    110.3754    105.0428    -20.5122      9.4007      9.0600
   133.0000    111.5648    108.6403    -13.8748      9.2967      8.9634
   132.5000    114.9928    111.5164    -10.9327      9.0096      8.6962
   132.0000    117.3850    109.8231     -9.6587      8.8195      8.5190
   131.5000    118.3878    106.7632     -7.8373      8.7422      8.4468
   131.0000    120.0484    106.4137     -8.0624      8.6171      8.3300
   130.5000    122.0257    108.5994    -10.4438      8.4727      8.1950
   130.0000    122.9887    110.7825    -12.5105      8.4042      8.1308
   129.5000    122.7658    110.4706    -13.7354      8.4199      8.1456
   129.0000    122.2767    110.0854    -16.8134      8.4547      8.1782
   128.5000    122.4239    111.9190    -18.4125      8.4442      8.1683
   128.0000    123.3117    113.1313    -15.2744      8.3814      8.1095
   127.5000    124.6169    112.2021    -11.0050      8.2907      8.0246
