~Version Information
 VERS.                2.00:   CWLS log ASCII Standard -VERSION 2.00
 WRAP.                  NO:   One line per frame
~Well Information Block
#MNEM.UNIT              Data                Description
#--------- -------------------------------  -------------------------------
 STRT.F                          631.0000:   Starting Depth
 STOP.F                           -8.7500:   Ending Depth
 STEP.F                           -0.5000:   Level Spacing
 NULL.                          -999.2500:   Absent Value
 COMP.     FLUOR DANIEL                  :   Company
 WELL.     48X10                         :   Well
 FLD .                                   :   Field
 LOC .                                   :   Location
 PROV.                                   :   Province
 SRVC.                                   :   Service Company
 LIC .                                   :   License Number
 DATE.                                   :   Log Date
 UWI .                                   :   Unique Well ID
~Curve Information Block
#MNEM.UNIT       API Codes    Curve Description
#---------    -------------   -------------------------------
 DEPT.F        0   0  0  0:   Depth
 CILD.MMHO     0   0  0  0:   Conductivity of Deep Induction
 GR  .API      0   0  0  0:   Gamma ray counts
 TEN .LBF      0   0  0  0:   Differential Tension
 RILM.OHMM     0   0  0  0:   Resistivity from CILM
 RILD.OHMM     0   0  0  0:   Resistivity from CILD
#  Curve Data
~A
   631.0000    110.6599      0.0000    248.5167      9.3756      9.0367
   630.5000    114.9753      0.0000    252.8993      9.0110      8.6975
   630.0000    119.2471      0.0000    252.8304      8.6770      8.3859
   629.5000    122.7542      0.0000    245.4500      8.4208      8.1464
   629.0000    124.1105      0.0000    236.2535      8.3257      8.0573
   628.5000    122.5430      0.0000    235.3587      8.4358      8.1604
   628.0000    119.0903      0.0000    238.2995      8.6888      8.3970
   627.5000    114.8748      0.0000    235.3846      9.0192      8.7051
   627.0000    110.6908      0.0000    228.7563      9.3729      9.0342
   626.5000    106.0666      0.0000    223.2514      9.7975      9.4280
   626.0000    101.4894      0.0000    216.5304     10.2575      9.8532
   625.5000    101.2698      0.0000    209.3822     10.2807      9.8746
   625.0000    108.5865      0.0000    206.3697      9.5615      9.2093
   624.5000    120.9786      0.0000    209.3071      8.5486      8.2659
   624.0000    137.0500      0.0000    212.7195      7.5160      7.2966
   623.5000    159.0289      0.0000    211.0209      6.4504      6.2882
   623.0000    186.0117      0.0000    205.3537      5.4942      5.3760
   622.5000    215.2130      0.0000    201.4564      4.7346      4.6466
   622.0000    246.6892      0.0000    201.5440      4.1205      4.0537
   621.5000    278.8645      0.0000    203.3169      3.6382      3.5860
   621.0000    304.4856      0.0000    202.4891      3.3279      3.2842
   620.5000    312.8928      0.0000    199.7472      3.2374      3.1960
   620.0000    298.9841      0.0000    198.5370      3.3900      3.3447
   619.5000    266.4883      0.0000    195.8560      3.8097      3.7525
   619.0000    228.1577      0.0000    189.5154      4.4611      4.3829
   618.5000    195.6346      0.0000    184.5881      5.2183      5.1116
   618.0000    174.0056      0.0000    183.4453      5.8822      5.7469
   617.5000    160.6753      0.0000    184.5484      6.3826      6.2237
   617.0000    151.6289      0.0000    186.7429      6.7737      6.5950
   616.5000    143.2673      0.0000    186.6783      7.1804      6.9800
   616.0000    134.7719      0.0000    183.4209      7.6469      7.4199
   615.5000    126.3483      0.0000    179.0282      8.1734      7.9146
   615.0000    118.3816      0.0000    172.9297      8.7427      8.4473
   614.5000    112.7915      0.0000    167.4721      9.1919      8.8659
   614.0000    110.5451      0.0000    167.5749      9.3857      9.0461
   613.5000    110.2249    102.6763    169.6269      9.4140      9.0724
   613.0000    109.5095    103.4946    166.7185      9.4778      9.1316
   612.5000    107.5383    102.5519    160.4162      9.6583      9.2990
   612.0000    105.3764    101.8849    155.4792      9.8642      9.4898
   611.5000    105.3089    102.9480    156.4641      9.8708      9.4959
   611.0000    108.4658    103.0487    160.5431      9.5725      9.2195
   610.5000    112.4301    101.2729    158.3813      9.2225      8.8944
   610.0000    114.3417    101.2482    151.3239      9.0628      8.7457
   609.5000    114.1713    104.0032    151.9253      9.0768      8.7588
   609.0000    113.8594    105.4808    159.0050      9.1025      8.7828
   608.5000    112.5672    103.9834    161.3971      9.2109      8.8836
   608.0000    109.5324    103.6532    158.0074      9.4758      9.1297
   607.5000    106.1871    106.2235    153.6870      9.7860      9.4173
   607.0000    104.7190    107.9951    150.7081      9.9286      9.5494
   606.5000    104.9919    105.9645    149.1642      9.9018      9.5245
   606.0000    105.3907    102.8032    148.1861      9.8628      9.4885
   605.5000    105.4657    101.7287    146.2945      9.8555      9.4818
   605.0000    105.0315    101.9529    141.0289      9.8979      9.5210
   604.5000    104.8804    102.6918    135.5719      9.9127      9.5347
   604.0000    104.8204    104.3119    135.0680      9.9186      9.5401
   603.5000    103.7000    106.0228    135.6884     10.0301      9.6432
   603.0000    103.9842    107.0397    132.9294     10.0016      9.6168
   602.5000    109.9441    107.0800    129.6930      9.4389      9.0955
   602.0000    120.2096    105.4369    129.9745      8.6051      8.3188
   601.5000    129.1423    103.8048    132.9397      7.9909      7.7434
   601.0000    136.2556    103.8711    134.1014      7.5611      7.3391
   600.5000    144.5404    104.9886    129.7677      7.1154      6.9185
   600.0000    153.5779    105.5813    124.5702      6.6855      6.5114
   599.5000    157.7344    104.3935    122.2046      6.5047      6.3398
   599.0000    153.3391    102.8528    122.5042      6.6962      6.5215
   598.5000    143.6404    102.8531    124.9835      7.1613      6.9618
   598.0000    134.0687    104.8846    128.0222      7.6882      7.4589
   597.5000    127.5442    107.0322    126.8412      8.0943      7.8404
   597.0000    124.6032    107.4141    122.2656      8.2917      8.0255
   596.5000    124.3279    106.3389    116.7638      8.3106      8.0432
   596.0000    124.2681    105.8707    112.8045      8.3148      8.0471
   595.5000    123.3304    105.8841    113.4929      8.3801      8.1083
   595.0000    120.8919    104.6341    117.7477      8.5549      8.2719
   594.5000    117.7770    102.4998    118.8414      8.7891      8.4906
   594.0000    116.6724    100.2902    115.7328      8.8753      8.5710
   593.5000    116.8655     99.7688    114.7883      8.8601      8.5568
   593.0000    114.7571    101.2934    114.5891      9.0288      8.7141
   592.5000    111.1400    102.4925    109.3419      9.3336      8.9977
   592.0000    107.8755    101.8187    102.6502      9.6269      9.2699
   591.5000    105.6285    101.2847    102.0222      9.8398      9.4671
   591.0000    105.6087    100.9158    102.6474      9.8417      9.4689
   590.5000    107.5289    100.2104     97.3633      9.6591      9.2998
   590.0000    108.2685    100.4662     91.9172      9.5906      9.2363
   589.5000    106.5477    102.3964     91.9276      9.7516      9.3855
   589.0000    105.3556    103.8946     93.0091      9.8662      9.4917
   588.5000    107.2838    105.2191     91.4606      9.6821      9.3211
   588.0000    109.3093    107.5664     91.9273      9.4958      9.1484
   587.5000    108.3608    109.7261     95.9508      9.5821      9.2284
   587.0000    107.3770    109.2765     97.2666      9.6733      9.3130
   586.5000    108.3810    107.3313     93.3364      9.5803      9.2267
   586.0000    108.6402    104.7355     90.1073      9.5566      9.2047
   585.5000    106.2286    101.8013     90.3379      9.7820      9.4137
   585.0000    103.1568     99.8979     90.7408     10.0850      9.6940
   584.5000    102.4360     99.8038     90.2894     10.1589      9.7622
   584.0000    103.8182    100.3134     89.4894     10.0182      9.6322
   583.5000    104.0905     99.7890     87.7012      9.9910      9.6070
   583.0000    102.2860     99.0546     85.4595     10.1744      9.7765
   582.5000    101.7222     99.2881     83.1098     10.2331      9.8307
   582.0000    103.2178     98.8737     80.6981     10.0788      9.6883
   581.5000    104.2845     96.9978     79.1560      9.9716      9.5892
   581.0000    103.2684     96.8957     77.5749     10.0737      9.6835
   580.5000    101.1567     97.5962     75.2414     10.2927      9.8857
   580.0000     98.9628     96.3516     71.6863     10.5304     10.1048
   579.5000     96.7526     94.9854     69.4881     10.7814     10.3356
   579.0000     94.5274     95.1853     69.1331     11.0464     10.5789
   578.5000     93.1152     94.8547     71.2422     11.2214     10.7394
   578.0000     91.7986     93.2670     75.1499     11.3897     10.8934
   577.5000     89.8113     91.9106     79.9265     11.6535     11.1345
   577.0000     88.3920     91.4597     81.4627     11.8495     11.3132
   576.5000     88.7154     92.0085     78.3188     11.8042     11.2720
   576.0000     90.9270     92.4135     71.7390     11.5039     10.9978
   575.5000     94.2216     91.9815     65.8577     11.0838     10.6133
