~Version Information
 VERS.                2.00:   CWLS log ASCII Standard -VERSION 2.00
 WRAP.                  NO:   One line per frame
~Well Information Block
#MNEM.UNIT              Data                Description
#--------- -------------------------------  -------------------------------
 STRT.F                          631.0000:   Starting Depth
 STOP.F                           -8.7500:   Ending Depth
 STEP.F                           -0.5000:   Level Spacing
 NULL.                          -999.2500:   Absent Value
 COMP.     FLUOR DANIEL                  :   Company
 WELL.     48X10                         :   Well
 FLD .                                   :   Field
 LOC .                                   :   Location
 PROV.                                   :   Province
 SRVC.                                   :   Service Company
 LIC .                                   :   License Number
 DATE.                                   :   Log Date
 UWI .                                   :   Unique Well ID
~Curve Information Block
#MNEM.UNIT       API Codes    Curve Description
#---------    -------------   -------------------------------
 DEPT.F        0   0  0  0:   Depth
 CILD.MMHO     0   0  0  0:   Conductivity of Deep Induction
 GR  .API      0   0  0  0:   Gamma ray counts
 TEN .LBF      0   0  0  0:   Differential Tension
 RILM.OHMM     0   0  0  0:   Resistivity from CILM
 RILD.OHMM     0   0  0  0:   Resistivity from CILD
#  Curve Data
~A
# ...
   239.0000     99.1795     87.6458    -10.3377     10.5065     10.0827
   238.5000     97.4191     89.0721    -13.2367     10.7045     10.2649
   238.0000     97.0758     91.4397    -12.3897     10.7439     10.3012
   237.5000     99.9601     94.4237    -11.3725     10.4210     10.0040
   237.0000    103.2496     96.7808    -12.4397     10.0756      9.6853
   236.5000    105.0527     99.1836    -13.2611      9.8958      9.5190
   236.0000    106.6765    101.4741    -14.2252      9.7393      9.3741
   235.5000    107.7034    100.6487    -15.0704      9.6429      9.2848
   235.0000    106.4389     97.9019    -14.0611      9.7619      9.3951
   234.5000    104.5725     96.8034    -15.2729      9.9431      9.5627
   234.0000    105.3821     95.6784    -19.2693      9.8637      9.4893
   233.5000    107.2343     93.9925    -17.9453      9.6867      9.3254
   233.0000    107.7140     94.8267    -12.8387      9.6419      9.2838
   232.5000    107.7497     96.4667    -11.4421      9.6386      9.2808
   232.0000    107.6139     95.8816    -14.7471      9.6512      9.2925
   231.5000    105.0402     93.3096    -14.9392      9.8971      9.5202
   231.0000    101.1029     90.9832     -9.8021     10.2984      9.8909
   230.5000     98.1311     90.8624     -4.2816     10.6235     10.1904
   230.0000     95.5652     93.2774     -3.2797     10.9212     10.4641
   229.5000     94.4684     94.6165     -5.7136     11.0536     10.5856
   229.0000     96.3580     93.7260     -8.3177     10.8274     10.3780
   228.5000     99.1471     93.2763    -12.6108     10.5100     10.0860
   228.0000     99.9414     94.0831    -18.0581     10.4230     10.0059
   227.5000     99.8046     93.5473    -22.3339     10.4379     10.0196
   227.0000     99.9926     92.3470    -22.9735     10.4175     10.0007
   226.5000    100.0427     93.7798    -19.8820     10.4120      9.9957
   226.0000    100.5134     97.8883    -16.6685     10.3613      9.9489
   225.5000    101.9839    101.1830    -16.6975     10.2058      9.8055
   225.0000    104.4156    101.9910    -17.0318      9.9586      9.5771
   224.5000    106.7391    100.9954    -15.6706      9.7334      9.3686
   224.0000    108.5668    101.3584    -16.5548      9.5633      9.2109
   223.5000    109.9967    102.7685    -17.6665      9.4343      9.0912
   223.0000    111.3064    103.1346    -14.5952      9.3191      8.9842
   222.5000    111.5947    102.9794    -10.6436      9.2941      8.9610
   222.0000    110.7943    102.9929    -10.5301      9.3638      9.0257
   221.5000    110.4755    102.4484    -12.4806      9.3918      9.0518
   221.0000    111.8904    102.1637    -15.4373      9.2687      8.9373
   220.5000    114.6971    103.5503    -17.0516      9.0337      8.7186
   220.0000    117.5505    105.9265    -16.6582      8.8067      8.5070
   219.5000    119.0699    107.7091    -16.3193      8.6904      8.3984
   219.0000    120.0631    109.0152    -16.4090      8.6160      8.3290
   218.5000    122.4454    111.1061    -13.1650      8.4427      8.1669
   218.0000    126.9682    111.6300     -9.0195      8.1322      7.8760
   217.5000    131.5145    108.7361     -9.6801      7.8422      7.6037
   217.0000    133.3844    106.9256    -14.2426      7.7289      7.4971
   216.5000    132.0214    109.2113    -17.2203      7.8112      7.5745
   216.0000    130.2076    112.4189    -17.3993      7.9235      7.6800
   215.5000    130.0295    114.9735    -16.5237      7.9346      7.6906
   215.0000    130.4588    117.3254    -14.1755      7.9077      7.6653
   214.5000    129.8889    116.5972     -9.8405      7.9435      7.6989
   214.0000    128.7609    111.2049     -4.5646      8.0153      7.7663
   213.5000    127.9990    105.8427     -2.6379      8.0646      7.8126
   213.0000    126.4124    104.3389     -5.6346      8.1691      7.9106
   212.5000    125.6245    105.2499    -10.2977      8.2220      7.9602
   212.0000    126.2480    106.4812    -14.2572      8.1801      7.9209
   211.5000    124.2976    107.9828    -18.2722      8.3127      8.0452
   211.0000    120.4949    109.7090    -18.4641      8.5841      8.2991
   210.5000    121.2805    110.6986    -13.2202      8.5266      8.2453
   210.0000    125.2003    109.9016     -8.6989      8.2508      7.9872
   209.5000    125.1536    108.9894     -8.4647      8.2540      7.9902
   209.0000    122.1831    109.7091    -10.0202      8.4614      8.1844
   208.5000    121.9760    111.5653    -11.5275      8.4763      8.1983
   208.0000    125.0461    112.7650    -13.7765      8.2613      7.9971
   207.5000    127.6898    111.4695    -16.5099      8.0847      7.8315
   207.0000    128.6014    108.6612    -16.6600      8.0256      7.7760
   206.5000    129.2234    108.7644    -13.6057      7.9857      7.7385
   206.0000    132.0827    112.0584    -10.0842      7.8075      7.5710
   205.5000    137.0954    113.8409     -9.3906      7.5134      7.2942
   205.0000    140.4123    112.9339    -11.5446      7.3307      7.1219
   204.5000    139.5443    110.9891    -16.3538      7.3777      7.1662
   204.0000    137.6337    109.2681    -21.1807      7.4831      7.2657
   203.5000    137.1442    110.6204    -22.0588      7.5107      7.2916
   203.0000    136.4425    116.0600    -18.7633      7.5504      7.3291
   202.5000    135.0651    119.4211    -14.8239      7.6298      7.4038
   202.0000    134.7180    116.9139    -11.9304      7.6501      7.4229
   201.5000    134.4718    113.7593    -10.0778      7.6645      7.4365
   201.0000    133.0091    113.4836    -11.6852      7.7514      7.5183
   200.5000    130.7049    114.4799    -14.5961      7.8924      7.6508
   200.0000    128.5231    115.8604    -14.7150      8.0306      7.7807
   199.5000    125.6821    115.7002    -13.8882      8.2181      7.9566
   199.0000    122.8260    112.0893    -15.7999      8.4157      8.1416
   198.5000    122.8080    108.4457    -20.8465      8.4169      8.1428
   198.0000    126.2732    108.6418    -24.2530      8.1784      7.9193
   197.5000    127.0317    110.9645    -20.5085      8.1280      7.8721
   197.0000    122.2507    112.0789    -14.6470      8.4566      8.1799
   196.5000    118.4095    111.9787    -14.8931      8.7405      8.4453
   196.0000    118.2055    112.0830    -16.6438      8.7561      8.4598
   195.5000    118.2474    112.1674    -16.6655      8.7529      8.4568
   195.0000    118.6169    113.1486    -17.6979      8.7247      8.4305
   194.5000    121.1089    115.5844    -17.4027      8.5391      8.2570
   194.0000    123.2777    115.3540    -13.9202      8.3838      8.1118
   193.5000    124.3451    110.4636    -11.5906      8.3094      8.0421
   193.0000    125.3354    107.6362    -11.9429      8.2416      7.9786
   192.5000    125.7635    110.1869    -12.9338      8.2126      7.9514
   192.0000    124.9964    112.8686    -12.8182      8.2647      8.0002
   191.5000    124.9625    113.3351    -10.5490      8.2670      8.0024
   191.0000    127.3916    113.7401     -7.4319      8.1043      7.8498
   190.5000    130.6598    114.4504     -6.7289      7.8952      7.6535
   190.0000    130.7462    115.4567     -9.0567      7.8898      7.6484
   189.5000    127.6531    116.9316    -11.3875      8.0871      7.8337
   189.0000    126.8895    118.2919    -11.9868      8.1374      7.8809
   188.5000    130.3675    119.3921    -12.9939      7.9134      7.6706
   188.0000    133.7023    119.6127    -12.6401      7.7100      7.4793
   187.5000    133.5789    117.0234     -9.4166      7.7173      7.4862
   187.0000    132.2642    111.8956     -7.9337      7.7964      7.5606
   186.5000    131.0868    107.6978    -11.1572      7.8686      7.6285
   186.0000    128.8151    107.0489    -14.2896      8.0119      7.7631
   185.5000    125.4850    109.3019    -12.5437      8.2315      7.9691
   185.0000    124.0422    111.8011    -10.1397      8.3304      8.0618
   184.5000    125.3041    113.0336    -10.7790      8.2437      7.9806
   184.0000    125.8975    112.5983    -14.3667      8.2036      7.9430
   183.5000    124.3801    111.0481    -14.8788      8.3070      8.0399
