~Version Information
 VERS.                2.00:   CWLS log ASCII Standard -VERSION 2.00
 WRAP.                  NO:   One line per frame
~Well Information Block
#MNEM.UNIT              Data                Description
#--------- -------------------------------  -------------------------------
 STRT.F                          631.0000:   Starting Depth
 STOP.F                           -8.7500:   Ending Depth
 STEP.F                           -0.5000:   Level Spacing
 NULL.                          -999.2500:   Absent Value
 COMP.     FLUOR DANIEL                  :   Company
 WELL.     48X10                         :   Well
 FLD .                                   :   Field
 LOC .                                   :   Location
 PROV.                                   :   Province
 SRVC.                                   :   Service Company
 LIC .                                   :   License Number
 DATE.                                   :   Log Date
 UWI .                                   :   Unique Well ID
~Curve Information Block
#MNEM.UNIT       API Codes    Curve Description
#---------    -------------   -------------------------------
 DEPT.F        0   0  0  0:   Depth
 CILD.MMHO     0   0  0  0:   Conductivity of Deep Induction
 GR  .API      0   0  0  0:   Gamma ray counts
 TEN .LBF      0   0  0  0:   Differential Tension
 RILM.OHMM     0   0  0  0:   Resistivity from CILM
 RILD.OHMM     0   0  0  0:   Resistivity from CILD
#  Curve Data
~A
# ...
   575.0000     97.0070     92.5487     67.1491     10.7519     10.3085
   574.5000     97.9659     93.3436     74.3230     10.6422     10.2076
   574.0000     97.0901     91.2688     78.3636     10.7423     10.2997
   573.5000     95.5612     87.3425     74.8610     10.9217     10.4645
   573.0000     94.0489     85.7181     69.6297     11.1051     10.6328
   572.5000     92.0609     87.3211     68.1751     11.3558     10.8624
   572.0000     90.9738     89.7033     69.8233     11.4977     10.9922
   571.5000     91.7164     91.9799     69.6629     11.4004     10.9032
   571.0000     91.3796     94.1157     64.7796     11.4443     10.9434
   570.5000     88.2769     94.3693     58.8028     11.8656     11.3280
   570.0000     85.8415     92.4865     57.2997     12.2187     11.6494
   569.5000     86.1068     91.7765     59.2106     12.1793     11.6135
   569.0000     87.3892     92.9421     60.9893     11.9920     11.4431
   568.5000     87.8285     93.7146     62.7583     11.9291     11.3858
   568.0000     87.5179     94.3346     64.8000     11.9735     11.4262
   567.5000     87.0441     95.9676     64.2925     12.0418     11.4884
   567.0000     86.4154     97.2005     62.3700     12.1337     11.5720
   566.5000     86.1772     98.1413     62.7610     12.1688     11.6040
   566.0000     86.5526     98.7578     64.4026     12.1135     11.5537
   565.5000     87.6228     97.8154     62.3713     11.9585     11.4126
   565.0000     88.5729     96.3096     58.0345     11.8241     11.2901
   564.5000     89.0255     96.6455     56.0373     11.7612     11.2327
   564.0000     89.3054     97.8081     55.0418     11.7226     11.1975
   563.5000     90.2067     98.6164     54.4242     11.6000     11.0856
   563.0000     91.3551     99.8642     54.9262     11.4475     10.9463
   562.5000     92.4065    100.4351     54.5553     11.3114     10.8218
   562.0000     93.9813     99.9484     51.9357     11.1134     10.6404
   561.5000     95.5495     99.2449     49.1599     10.9230     10.4658
   561.0000     94.9489     98.3344     47.7212     10.9952     10.5320
   560.5000     90.3502     96.3124     49.0925     11.5808     11.0680
   560.0000     85.3295     93.2323     53.1398     12.2957     11.7193
   559.5000     85.3511     90.7716     55.7680     12.2924     11.7163
   559.0000     90.3157     90.6440     55.2059     11.5854     11.0723
   558.5000     97.6495     92.8120     51.8887     10.6781     10.2407
   558.0000    107.7047     95.7949     45.6737      9.6428      9.2846
   557.5000    118.9328    101.1332     40.0261      8.7007      8.4081
   557.0000    130.5598    109.7078     38.4837      7.9014      7.6593
   556.5000    146.0055    117.0234     37.8054      7.0420      6.8491
   556.0000    163.9077    117.6929     34.5138      6.2536      6.1010
   555.5000    175.3016    112.5525     33.9596      5.8377      5.7045
   555.0000    174.2785    106.0609     39.7384      5.8727      5.7379
   554.5000    162.6216    101.4615     46.0102      6.3043      6.1492
   554.0000    145.0562     98.8934     47.8951      7.0894      6.8939
   553.5000    127.4944     97.7467     47.9310      8.0975      7.8435
   553.0000    116.2958     96.7275     48.4303      8.9051      8.5988
   552.5000    111.3714     94.6148     47.1536      9.3135      8.9790
   552.0000    106.7135     92.5247     42.8275      9.7358      9.3709
   551.5000    102.1031     92.5280     39.5152     10.1934      9.7940
   551.0000    101.1583     92.9243     40.1743     10.2925      9.8855
   550.5000    101.1812     91.6444     41.1643     10.2901      9.8833
   550.0000     99.4870     89.8935     39.9135     10.4726     10.0516
   549.5000     98.0673     89.7898     37.0791     10.6307     10.1971
   549.0000     98.4908     91.2319     32.5395     10.5830     10.1532
   548.5000     99.0818     92.0968     28.2845     10.5173     10.0927
   548.0000     97.8249     91.9649     29.0473     10.6581     10.2223
   547.5000     95.3670     91.3944     36.2968     10.9449     10.4858
   547.0000     94.0687     91.0100     44.5684     11.1026     10.6305
   546.5000     93.5418     89.9135     46.1712     11.1680     10.6904
   546.0000     91.4140     87.9191     41.3775     11.4398     10.9392
   545.5000     89.5691     87.0447     37.2731     11.6865     11.1646
   545.0000     90.5679     87.4061     35.9555     11.5516     11.0414
   544.5000     92.3982     86.8501     34.1554     11.3124     10.8227
   544.0000     92.1191     86.4618     33.4673     11.3483     10.8555
   543.5000     91.6296     87.5608     34.8124     11.4117     10.9135
   543.0000     91.3998     87.6848     36.4685     11.4417     10.9409
   542.5000     90.2151     86.4159     36.9977     11.5989     11.0846
   542.0000     89.3234     85.9329     33.5674     11.7201     11.1953
   541.5000     89.6047     85.1313     28.4730     11.6816     11.1601
   541.0000     88.4044     84.4046     26.0086     11.8477     11.3117
   540.5000     85.4193     84.8866     25.8259     12.2821     11.7070
   540.0000     83.1941     85.4256     25.8314     12.6272     12.0201
   539.5000     82.2014     84.6971     27.1572     12.7875     12.1652
   539.0000     83.2452     84.5936     27.5738     12.6191     12.0127
   538.5000     85.3691     85.2166     25.4770     12.2897     11.7138
   538.0000     85.5101     85.4285     23.8455     12.2684     11.6945
   537.5000     84.4530     84.6873     23.4948     12.4296     11.8409
   537.0000     86.0980     83.6214     22.1787     12.1806     11.6147
   536.5000     88.2861     82.8212     21.6727     11.8644     11.3268
   536.0000     86.9789     83.2818     25.4623     12.0513     11.4970
   535.5000     84.5541     84.2735     27.5199     12.4140     11.8267
   535.0000     83.9713     84.6026     24.0514     12.5045     11.9088
   534.5000     84.1631     83.5586     18.8886     12.4746     11.8817
   534.0000     83.2823     81.7880     16.5691     12.6131     12.0073
   533.5000     82.2702     80.5931     17.7113     12.7762     12.1551
   533.0000     82.7228     80.4045     19.4270     12.7028     12.0886
   532.5000     84.1968     80.1072     18.1615     12.4693     11.8769
   532.0000     85.0611     80.1369     18.6193     12.3364     11.7563
   531.5000     84.6075     81.4496     24.9048     12.4058     11.8193
   531.0000     84.1220     82.7888     30.8648     12.4810     11.8875
   530.5000     85.7402     81.9555     30.3503     12.2339     11.6631
   530.0000     87.9702     79.5192     25.1848     11.9090     11.3675
   529.5000     87.9169     78.2734     21.0426     11.9166     11.3744
   529.0000     86.4864     79.2455     21.4110     12.1232     11.5625
   528.5000     86.0913     79.6097     24.9325     12.1816     11.6156
   528.0000     86.0161     78.5636     26.7305     12.1927     11.6257
   527.5000     86.2791     78.9625     24.1923     12.1537     11.5903
   527.0000     87.1143     80.7029     20.5488     12.0316     11.4792
   526.5000     87.4642     80.4372     20.5408     11.9812     11.4332
   526.0000     87.0395     78.7132     20.9071     12.0425     11.4890
   525.5000     86.1623     78.1683     17.5942     12.1710     11.6060
   525.0000     85.6157     79.0839     11.9816     12.2525     11.6801
   524.5000     86.0141     80.3183      9.3245     12.1930     11.6260
   524.0000     85.8159     80.5976     12.5565     12.2226     11.6528
   523.5000     84.0528     79.0692     19.6685     12.4918     11.8973
   523.0000     82.5408     76.4486     27.4146     12.7322     12.1152
   522.5000     82.9612     75.0941     29.8122     12.6644     12.0538
   522.0000     84.6945     75.4137     26.1187     12.3924     11.8071
   521.5000     84.4926     75.6602     20.7244     12.4235     11.8354
   521.0000     81.4673     75.0672     17.3283     12.9087     12.2749
   520.5000     79.4787     74.9645     17.1566     13.2488     12.5820
   520.0000     79.5573     75.4120     20.5982     13.2350     12.5696
   519.5000     78.8871     75.6264     22.8204     13.3534     12.6763
