~Version Information
 VERS.                2.00:   CWLS log ASCII Standard -VERSION 2.00
 WRAP.                  NO:   One line per frame
~Well Information Block
#MNEM.UNIT              Data                Description
#--------- -------------------------------  -------------------------------
 STRT.F                          631.0000:   Starting Depth
 STOP.F                           -8.7500:   Ending Depth
 STEP.F                           -0.5000:   Level Spacing
 NULL.                          -999.2500:   Absent Value
 COMP.     FLUOR DANIEL                  :   Company
 WELL.     48X10                         :   Well
 FLD .                                   :   Field
 LOC .                                   :   Location
 PROV.                                   :   Province
 SRVC.                                   :   Service Company
 LIC .                                   :   License Number
 DATE.                                   :   Log Date
 UWI .                                   :   Unique Well ID
~Curve Information Block
#MNEM.UNIT       API Codes    Curve Description
#---------    -------------   -------------------------------
 DEPT.F        0   0  0  0:   Depth
 CILD.MMHO     0   0  0  0:   Conductivity of Deep Induction
 GR  .API      0   0  0  0:   Gamma ray counts
 TEN .LBF      0   0  0  0:   Differential Tension
 RILM.OHMM     0   0  0  0:   Resistivity from CILM
 RILD.OHMM     0   0  0  0:   Resistivity from CILD
#  Curve Data
~A
# ...
   519.0000     77.8146     75.9917     18.7221     13.5475     12.8511
   518.5000     78.5107     76.4760     14.2188     13.4209     12.7371
   518.0000     79.8908     76.4219     14.7608     13.1768     12.5171
   517.5000     80.7744     75.7859     17.9270     13.0252     12.3802
   517.0000     82.1495     74.7035     17.8895     12.7960     12.1729
   516.5000     83.1541     72.6545     16.7393     12.6336     12.0259
   516.0000     80.9494     70.8635     17.4390     12.9955     12.3534
   515.5000     76.6377     71.3262     19.0784     13.7669     13.0484
   515.0000     74.3460     72.9227     19.1156     14.2154     13.4506
   514.5000     74.7882     73.8687     19.0482     14.1266     13.3711
   514.0000     75.7622     74.6199     19.5804     13.9349     13.1992
   513.5000     76.4064     75.4985     18.7663     13.8109     13.0879
   513.0000     77.0300     75.8006     17.4631     13.6930     12.9820
   512.5000     77.8846     75.4384     18.8838     13.5346     12.8395
   512.0000     78.3490     74.3269     20.3487     13.4501     12.7634
   511.5000     77.4220     73.4088     16.4627     13.6199     12.9162
   511.0000     74.7258     73.1591     11.9041     14.1391     13.3823
   510.5000     72.4203     73.6901     13.5816     14.6155     13.8083
   510.0000     73.1857     75.5060     17.1196     14.4538     13.6639
   509.5000     75.6943     77.4589     16.9248     13.9481     13.2110
   509.0000     76.8382     77.8582     14.5384     13.7291     13.0144
   508.5000     77.3237     77.8883     13.4096     13.6382     12.9326
   508.0000     78.7949     77.4110     11.8483     13.3699     12.6912
   507.5000     79.5851     76.0342      9.9985     13.2301     12.5652
   507.0000     77.9340     75.2707      9.1338     13.5256     12.8314
   506.5000     75.0153     74.7881      9.6346     14.0815     13.3306
   506.0000     72.6916     72.4864     10.6424     14.5578     13.7568
   505.5000     72.2748     71.0594     11.2112     14.6467     13.8361
   505.0000     73.3539     72.8608      7.4554     14.4188     13.6325
   504.5000     74.9273     76.1161      0.5292     14.0989     13.3463
   504.0000     75.7256     77.8566      0.3507     13.9420     13.2056
   503.5000     74.7785     77.9779      6.8497     14.1286     13.3728
   503.0000     72.0883     77.2561     11.0867     14.6868     13.8719
   502.5000     69.6017     75.3616      9.4626     15.2435     14.3675
   502.0000     68.6535     74.0828      6.4477     15.4671     14.5659
   501.5000     69.0144     74.8777      5.8447     15.3812     14.4897
   501.0000     69.2734     76.8492      8.8258     15.3202     14.4356
   500.5000     69.0557     78.1979     12.3491     15.3714     14.4811
   500.0000     70.4010     78.1997     12.1921     15.0600     14.2043
   499.5000     73.6259     76.9266      8.8822     14.3625     13.5822
   499.0000     76.3491     75.8029      6.6328     13.8219     13.0977
   498.5000     78.2217     74.6742      7.2550     13.4732     12.7842
   498.0000     79.8296     72.1820      8.4595     13.1875     12.5267
   497.5000     80.3448     69.8529      7.9428     13.0985     12.4464
   497.0000     80.1142     69.5257      8.5162     13.1382     12.4822
   496.5000     79.7583     70.6984     11.3250     13.1999     12.5379
   496.0000     79.9471     72.4751     13.1421     13.1671     12.5083
   495.5000     80.8998     73.0524     12.1652     13.0039     12.3610
   495.0000     80.6543     72.2012     10.5271     13.0456     12.3986
   494.5000     77.6517     71.4617      9.6859     13.5774     12.8780
   494.0000     73.4139     70.8792      9.5852     14.4063     13.6214
   493.5000     70.0803     69.0049     10.4883     15.1331     14.2693
   493.0000     67.9589     67.0782     11.4161     15.6350     14.7148
   492.5000     66.8205     67.0501     13.9412     15.9184     14.9655
   492.0000     66.5970     69.5495     16.8031     15.9752     15.0157
   491.5000     67.0651     73.1274     16.6054     15.8566     14.9109
   491.0000     67.6157     75.1873     11.7413     15.7194     14.7895
   490.5000     68.9816     73.9238      7.3764     15.3890     14.4966
   490.0000     71.7021     71.1962      4.6583     14.7706     13.9466
   489.5000     74.4125     70.9641      3.9324     14.2020     13.4386
   489.0000     75.5705     72.8696      5.0261     13.9722     13.2327
   488.5000     75.5399     71.9211      7.2761     13.9782     13.2380
   488.0000     75.7655     68.2346     10.2358     13.9343     13.1986
   487.5000     75.9311     66.7084     12.4586     13.9022     13.1698
   487.0000     75.9121     69.2070     13.7402     13.9059     13.1731
   486.5000     77.2810     71.5648     14.7657     13.6461     12.9398
   486.0000     79.8967     70.3287     14.1288     13.1758     12.5162
   485.5000     80.0720     67.3396     10.1355     13.1454     12.4888
   485.0000     75.7891     66.5506      6.9705     13.9297     13.1945
   484.5000     69.3253     67.2489      8.2612     15.3080     14.4247
   484.0000     64.1510     65.6771     11.9606     16.6248     15.5882
   483.5000     61.3115     62.2672     13.5951     17.4485     16.3102
   483.0000     59.0192     60.0766     13.4856     18.1754     16.9436
   482.5000     56.6651     61.4316     14.1090     18.9879     17.6476
   482.0000     55.4989     65.7670     12.7676     19.4179     18.0184
   481.5000     57.8695     71.1272      7.9367     18.5634     17.2803
   481.0000     63.1096     76.3006      3.3821     16.9177     15.8455
   480.5000     68.0250     80.4809      2.3204     15.6189     14.7005
   480.0000     72.4833     83.3264      0.7735     14.6021     13.7963
   479.5000     78.7893     86.1312     -1.2407     13.3709     12.6921
   479.0000     85.1055     88.6693      1.3310     12.3296     11.7501
   478.5000     89.2647     89.3938      6.8652     11.7282     11.2026
   478.0000     91.5622     89.5195      7.8659     11.4205     10.9215
   477.5000     92.9230     89.6735      7.4710     11.2457     10.7616
   477.0000     92.8694     87.4632     10.2584     11.2525     10.7678
   476.5000     91.7245     83.3111     10.8976     11.3993     10.9022
   476.0000     90.6953     81.2839      7.1614     11.5347     11.0259
   475.5000     90.6069     81.8254      5.3250     11.5464     11.0367
   475.0000     90.2014     81.4772      6.4861     11.6007     11.0863
   474.5000     88.8709     79.5817      7.3438     11.7826     11.2523
   474.0000     86.8881     78.0536      4.5232     12.0645     11.5091
   473.5000     83.6082     78.5393      0.3233     12.5615     11.9605
   473.0000     80.2257     80.3170     -1.7617     13.1189     12.4648
   472.5000     78.4484     82.0067     -2.5782     13.4321     12.7472
   472.0000     77.7737     82.1216     -4.8507     13.5550     12.8578
   471.5000     77.7278     82.3262     -7.7153     13.5634     12.8654
   471.0000     79.5441     83.5616     -6.6337     13.2373     12.5716
   470.5000     82.6353     84.7854     -2.5708     12.7169     12.1014
   470.0000     83.8661     85.0556      0.2696     12.5210     11.9238
   469.5000     82.7282     84.9885      0.0979     12.7019     12.0878
   469.0000     82.4474     85.6146      1.2868     12.7474     12.1289
   468.5000     84.8398     86.7274      5.0554     12.3701     11.7869
   468.0000     87.5804     86.5371      9.8735     11.9645     11.4181
   467.5000     88.2103     84.3909     13.6664     11.8750     11.3365
   467.0000     87.7600     82.3974     17.2233     11.9389     11.3947
   466.5000     88.3244     80.8287     16.7680     11.8590     11.3219
   466.0000     88.2135     79.2318      9.2769     11.8746     11.3361
   465.5000     86.1464     77.5448      2.5916     12.1734     11.6081
   465.0000     83.9510     76.0729      7.2904     12.5077     11.9117
   464.5000     83.5169     77.0131     16.0152     12.5759     11.9736
   464.0000     84.1952     80.9087     15.6724     12.4696     11.8772
   463.5000     85.5116     82.1641     10.0809     12.2682     11.6943
