~Version Information
 VERS.                2.00:   CWLS log ASCII Standard -VERSION 2.00
 WRAP.                  NO:   One line per frame
~Well Information Block
#MNEM.UNIT              Data                Description
#--------- -------------------------------  -------------------------------
 STRT.F                          631.0000:   Starting Depth
 STOP.F                           -8.7500:   Ending Depth
 STEP.F                           -0.5000:   Level Spacing
 NULL.                          -999.2500:   Absent Value
 COMP.     FLUOR DANIEL                  :   Company
 WELL.     48X10                         :   Well
 FLD .                                   :   Field
 LOC .                                   :   Location
 PROV.                                   :   Province
 SRVC.                                   :   Service Company
 LIC .                                   :   License Number
 DATE.                                   :   Log Date
 UWI .                                   :   Unique Well ID
~Curve Information Block
#MNEM.UNIT       API Codes    Curve Description
#---------    -------------   -------------------------------
 DEPT.F        0   0  0  0:   Depth
 CILD.MMHO     0   0  0  0:   Conductivity of Deep Induction
 GR  .API      0   0  0  0:   Gamma ray counts
 TEN .LBF      0   0  0  0:   Differential Tension
 RILM.OHMM     0   0  0  0:   Resistivity from CILM
 RILD.OHMM     0   0  0  0:   Resistivity from CILD
#  Curve Data
~A
# ...
   463.0000     86.2613     78.9633      7.0473     12.1564     11.5927
   462.5000     86.5983     76.2747      4.8245     12.1068     11.5476
   462.0000     87.0111     76.2697      1.6702     12.0466     11.4928
   461.5000     87.4588     75.9211      1.0532     11.9820     11.4340
   461.0000     86.3882     75.5805      2.6065     12.1377     11.5757
   460.5000     84.4814     76.9880      5.2612     12.4252     11.8369
   460.0000     83.9302     78.9034      6.4343     12.5109     11.9147
   459.5000     83.8610     78.7505      3.6801     12.5218     11.9245
   459.0000     82.3442     77.2646     -1.8611     12.7642     12.1441
   458.5000     80.0112     76.1132     -5.3326     13.1560     12.4983
   458.0000     79.4753     75.6250     -5.3467     13.2494     12.5825
   457.5000     81.1757     75.8425     -2.7773     12.9574     12.3190
   457.0000     82.9869     77.1817     -0.6262     12.6603     12.0501
   456.5000     83.4342     78.1693      0.1226     12.5890     11.9855
   456.0000     83.9303     76.9790     -1.2962     12.5109     11.9146
   455.5000     85.3855     75.8703     -3.6655     12.2872     11.7116
   455.0000     84.6954     76.4023     -2.8591     12.3923     11.8070
   454.5000     81.0797     77.0809     -0.4197     12.9736     12.3335
   454.0000     77.8442     77.3282      0.1101     13.5420     12.8462
   453.5000     76.5456     78.5468      0.2593     13.7844     13.0641
   453.0000     76.1983     80.8683      2.7535     13.8507     13.1237
   452.5000     75.5274     81.9712      3.9979     13.9807     13.2402
   452.0000     74.7402     81.1474      1.9938     14.1362     13.3797
   451.5000     74.8813     79.6697     -1.9721     14.1081     13.3545
   451.0000     76.0658     78.7254     -5.5095     13.8762     13.1465
   450.5000     76.4768     78.8917     -4.0675     13.7975     13.0759
   450.0000     76.5753     79.9392      0.3459     13.7788     13.0590
   449.5000     77.6609     79.8732      3.7033     13.5757     12.8765
   449.0000     78.5738     78.9140      5.8835     13.4095     12.7269
   448.5000     77.4463     78.0413      5.8313     13.6154     12.9122
   448.0000     74.7444     76.3098     -0.0122     14.1354     13.3789
   447.5000     72.8683     75.2713     -5.6587     14.5205     13.7234
   447.0000     72.8644     76.8731     -5.1624     14.5213     13.7241
   446.5000     74.0018     78.3224     -2.0090     14.2853     13.5132
   446.0000     75.3350     77.9974     -3.1543     14.0184     13.2740
   445.5000     75.5472     78.1637     -9.8719     13.9768     13.2368
   445.0000     73.8386     80.7065    -16.9156     14.3187     13.5430
   444.5000     71.8677     84.0791    -14.3121     14.7345     13.9144
   444.0000     70.8533     85.5433     -2.7493     14.9581     14.1137
   443.5000     70.7559     83.9004      4.4576     14.9799     14.1331
   443.0000     70.6782     81.3268      1.0370     14.9974     14.1486
   442.5000     69.8685     79.3889     -4.7653     15.1818     14.3126
   442.0000     68.7191     78.2397     -6.2415     15.4514     14.5520
   441.5000     68.7478     77.4416     -4.4859     15.4445     14.5459
   441.0000     68.6970     76.5321     -5.2131     15.4567     14.5567
   440.5000     66.2470     76.8709     -8.7264     16.0650     15.0950
   440.0000     64.0479     78.6942     -8.5214     16.6534     15.6133
   439.5000     65.7618     79.3497     -4.6244     16.1912     15.2064
   439.0000     68.1232     77.2873     -3.8473     15.5950     14.6793
   438.5000     66.9908     75.8005     -3.6960     15.8753     14.9274
   438.0000     64.7570     77.4923     -0.3828     16.4590     15.4423
   437.5000     64.4119     80.8447      1.5912     16.5530     15.5251
   437.0000     64.5780     82.6787      1.4497     16.5076     15.4851
   436.5000     63.4490     81.8133      3.5417     16.8211     15.7607
   436.0000     61.3006     79.0922      6.5114     17.4518     16.3130
   435.5000     59.7479     76.6690      6.6624     17.9379     16.7370
   435.0000     60.3857     74.8404      3.8772     17.7350     16.5602
   434.5000     62.3670     73.9269      2.0371     17.1330     16.0341
   434.0000     63.5071     75.1929      0.0790     16.8047     15.7463
   433.5000     63.5944     77.8631     -3.6158     16.7801     15.7247
   433.0000     64.3476     79.2350     -4.8355     16.5706     15.5406
   432.5000     65.6830     78.8543     -0.1379     16.2119     15.2246
   432.0000     65.8294     77.7851      4.3200     16.1735     15.1908
   431.5000     65.4314     76.6390      2.3763     16.2783     15.2832
   431.0000     65.0009     75.1838     -3.0332     16.3932     15.3844
   430.5000     63.4806     73.6905     -6.3519     16.8122     15.7528
   430.0000     61.0279     73.2046     -6.2217     17.5353     16.3859
   429.5000     60.5469     73.4152     -3.7012     17.6844     16.5161
   429.0000     62.4451     73.9978      0.5179     17.1101     16.0141
   428.5000     65.0727     74.4842      1.9630     16.3739     15.3674
   428.0000     65.6985     73.4480     -0.4654     16.2078     15.2210
   427.5000     62.9536     70.7638     -4.7470     16.9625     15.8847
   427.0000     59.6065     68.2487     -6.0512     17.9835     16.7767
   426.5000     58.5394     67.1100     -3.7847     18.3354     17.0825
   426.0000     58.5401     67.3653     -4.0702     18.3351     17.0823
   425.5000     58.0317     67.6549     -9.0185     18.5077     17.2320
   425.0000     58.3201     66.5546    -10.9760     18.4094     17.1467
   424.5000     59.8945     65.3690     -7.8495     17.8909     16.6960
   424.0000     62.1903     66.2219     -3.8021     17.1850     16.0797
   423.5000     65.3557     68.0642     -2.8899     16.2984     15.3009
   423.0000     68.3668     66.9328     -4.7675     15.5360     14.6270
   422.5000     68.8100     63.5368     -5.0813     15.4297     14.5328
   422.0000     67.9338     62.4847     -2.0557     15.6412     14.7202
   421.5000     69.5135     63.9873      0.3337     15.2640     14.3857
   421.0000     72.5000     65.1804      2.2707     14.5985     13.7931
   420.5000     73.1744     65.2305      3.6865     14.4562     13.6660
   420.0000     71.7105     64.4447      0.8275     14.7688     13.9450
   419.5000     70.0705     62.4490     -4.1587     15.1354     14.2713
   419.0000     67.7352     58.4041     -6.8338     15.6899     14.7634
   418.5000     65.3176     52.9861     -7.0330     16.3085     15.3098
   418.0000     64.1774     49.7310     -7.1028     16.6175     15.5818
   417.5000     65.3628     51.8990     -6.3721     16.2965     15.2992
   417.0000     68.3765     58.7283     -5.6376     15.5336     14.6249
   416.5000     72.2485     64.4917     -6.3733     14.6523     13.8411
   416.0000     75.4646     65.5785     -6.7423     13.9929     13.2512
   415.5000     77.2854     65.9484     -4.5927     13.6453     12.9391
   415.0000     75.7644     67.4005     -0.4981     13.9345     13.1988
   414.5000     72.3071     66.9068      1.6318     14.6398     13.8299
   414.0000     70.7982     65.3649     -0.1751     14.9705     14.1247
   413.5000     70.1434     65.2750     -6.2446     15.1187     14.2565
   413.0000     67.4579     64.5040    -11.3311     15.7585     14.8241
   412.5000     65.0100     61.0598    -11.6565     16.3907     15.3822
   412.0000     64.9678     57.7934    -10.3334     16.4021     15.3922
   411.5000     65.3444     57.8160     -9.3553     16.3014     15.3035
   411.0000     64.7424     60.7414     -6.6508     16.4630     15.4458
   410.5000     63.0691     64.0362     -5.4815     16.9293     15.8556
   410.0000     60.4653     64.8087     -8.9761     17.7100     16.5384
   409.5000     58.1824     62.5025     -8.2320     18.4562     17.1873
   409.0000     58.6828     59.6874     -0.8793     18.2873     17.0408
   408.5000     62.0210     59.4070      1.9246     17.2351     16.1236
   408.0000     66.1820     62.6039     -4.2175     16.0818     15.1098
   407.5000     71.4402     68.4419    -13.1726     14.8280     13.9977
