~Version Information
 VERS.                2.00:   CWLS log ASCII Standard -VERSION 2.00
 WRAP.                  NO:   One line per frame
~Well Information Block
#MNEM.UNIT              Data                Description
#--------- -------------------------------  -------------------------------
 STRT.F                          631.0000:   Starting Depth
 STOP.F                           -8.7500:   Ending Depth
 STEP.F                           -0.5000:   Level Spacing
 NULL.                          -999.2500:   Absent Value
 COMP.     FLUOR DANIEL                  :   Company
 WELL.     48X10                         :   Well
 FLD .                                   :   Field
 LOC .                                   :   Location
 PROV.                                   :   Province
 SRVC.                                   :   Service Company
 LIC .                                   :   License Number
 DATE.                                   :   Log Date
 UWI .                                   :   Unique Well ID
~Curve Information Block
#MNEM.UNIT       API Codes    Curve Description
#---------    -------------   -------------------------------
 DEPT.F        0   0  0  0:   Depth
 CILD.MMHO     0   0  0  0:   Conductivity of Deep Induction
 GR  .API      0   0  0  0:   Gamma ray counts
 TEN .LBF      0   0  0  0:   Differential Tension
 RILM.OHMM     0   0  0  0:   Resistivity from CILM
 RILD.OHMM     0   0  0  0:   Resistivity from CILD
#  Curve Data
~A
# ...
    71.0000    124.2288    102.4240     -4.5741      8.3175      8.0497
    70.5000    118.0385    100.9543     -6.3248      8.7690      8.4718
    70.0000    113.8394    101.1497    -13.9940      9.1042      8.7843
    69.5000    112.2352    101.8648    -21.8743      9.2391      8.9099
    69.0000    114.1303    102.9145    -22.9183      9.0801      8.7619
    68.5000    117.0332    106.2588    -20.2673      8.8470      8.5446
    68.0000    118.6549    109.9497    -19.2467      8.7218      8.4278
    67.5000    119.9913    110.0669    -15.3546      8.6213      8.3339
    67.0000    121.6358    105.5375     -8.7053      8.5008      8.2213
    66.5000    122.9154    100.1628     -7.2111      8.4093      8.1357
    66.0000    123.8458     98.2511    -10.4786      8.3441      8.0746
    65.5000    124.3388     99.6793    -12.1414      8.3099      8.0425
    65.0000    123.5802    101.0228    -11.4573      8.3626      8.0919
    64.5000    121.4063    101.7599    -11.5412      8.5174      8.2368
    64.0000    119.3934    102.6249    -13.7433      8.6660      8.3757
    63.5000    118.3726    102.9214    -17.9038      8.7434      8.4479
    63.0000    118.6376    103.1591    -20.6583      8.7231      8.4290
    62.5000    120.9039    102.2550    -20.6732      8.5540      8.2710
    62.0000    124.7078    101.8038    -17.4262      8.2845      8.0187
    61.5000    126.7257    104.2713    -14.3689      8.1482      7.8911
    61.0000    126.6996    105.0548    -12.6032      8.1500      7.8927
    60.5000    128.9138    100.5918    -11.8636      8.0055      7.7571
    60.0000    127.3078     98.9395    -12.5001      8.1098      7.8550
    59.5000    105.2570    104.4835    -14.4851      9.8759      9.5006
    59.0000     64.1339    107.7726    -14.6934     16.6295     15.5924
    58.5000     44.4894    103.9297    -14.6281     24.6978     22.4772
    58.0000     70.3754    100.3711    -14.8739     15.0658     14.2095
    57.5000    109.4956    100.6122    -12.9741      9.4791      9.1328
    57.0000    123.3813    101.2454    -12.1637      8.3765      8.1050
    56.5000    140.5516    101.7361    -15.4623      7.3232      7.1148
    56.0000    228.2806    103.4586    -20.4673      4.4587      4.3806
    55.5000    317.2266    104.4888    -21.5998      3.1926      3.1523
    55.0000    252.6914    102.7663    -17.3954      4.0210      3.9574
    54.5000     70.8623     96.5366    -12.1414     14.9561     14.1119
    54.0000    -69.2792     85.8497    -12.9256    -13.6464  10000.0000
    53.5000   -133.4986     74.4484    -18.3342     -7.2728  10000.0000
    53.0000   -148.8329     66.4825    -21.7444     -6.5431  10000.0000
    52.5000   -120.2500     63.2327    -21.4479     -8.0483  10000.0000
    52.0000    -82.1345     64.7201    -18.7785    -11.6098  10000.0000
    51.5000    -64.9498     67.5644    -15.1646    -14.5033  10000.0000
    51.0000    -69.8216     68.0404    -11.9566    -13.5462  10000.0000
    50.5000    -91.3931     66.7661     -8.9423    -10.4829  10000.0000
    50.0000   -118.6091     65.8934     -5.9722     -8.1560  10000.0000
    49.5000   -137.1598     65.9596     -7.8995     -7.0842  10000.0000
    49.0000   -142.5157     66.6901    -13.3971     -6.8252  10000.0000
    48.5000   -139.2633     67.6488    -15.0603     -6.9802  10000.0000
    48.0000   -131.4789     67.3765    -11.2527     -7.3812  10000.0000
    47.5000   -122.2328     67.3047     -6.6710     -7.9219  10000.0000
    47.0000   -108.5480     68.9219     -5.8411     -8.8851  10000.0000
    46.5000    -95.5652     70.0400     -9.6115    -10.0437  10000.0000
    46.0000    -94.6446     68.3679    -16.3626    -10.1374  10000.0000
    45.5000   -106.0596     66.8425    -22.3806     -9.0860  10000.0000
    45.0000   -112.0194     67.6045    -23.8077     -8.6192  10000.0000
    44.5000   -109.2246     67.6503    -19.6887     -8.8320  10000.0000
    44.0000   -110.6047     65.6191    -15.0844     -8.7256  10000.0000
    43.5000   -114.6354     63.2253    -12.6566     -8.4292  10000.0000
    43.0000   -113.1821     61.7429    -11.8697     -8.5337  10000.0000
    42.5000   -111.1733     61.6049    -10.6872     -8.6826  10000.0000
    42.0000   -116.5788     62.4856     -8.1148     -8.2933  10000.0000
    41.5000   -117.4628     61.9765     -8.4634     -8.2330  10000.0000
    41.0000   -109.4044     61.6804    -13.0570     -8.8180  10000.0000
    40.5000   -105.5697     64.2018    -15.9591     -9.1266  10000.0000
    40.0000   -117.6219     66.6423    -14.6037     -8.2222  10000.0000
    39.5000   -135.2782     65.5319    -14.9392     -7.1799  10000.0000
    39.0000   -140.9297     64.0240    -17.8233     -6.8999  10000.0000
    38.5000   -131.4402     65.1866    -16.9937     -7.3833  10000.0000
    38.0000   -113.4327     67.0709    -10.7085     -8.5155  10000.0000
    37.5000    -97.3383     68.5096     -6.8171     -9.8679  10000.0000
    37.0000    -85.5221     70.1959     -9.7274    -11.1704  10000.0000
    36.5000    -70.9800     71.1574    -14.5659    -13.3369  10000.0000
    36.0000    -59.6819     70.5060    -15.7243    -15.7030  10000.0000
    35.5000    -67.5208     68.7320    -14.4713    -13.9820  10000.0000
    35.0000    -91.9311     66.0023    -14.8142    -10.4241  10000.0000
    34.5000   -109.5786     62.9534    -14.6037     -8.8045  10000.0000
    34.0000   -102.1078     60.1476    -13.4014     -9.4244  10000.0000
    33.5000    -78.7900     58.3159    -14.1395    -12.0788  10000.0000
    33.0000    -58.3745     58.3360    -18.8658    -16.0322  10000.0000
    32.5000    -47.1512     58.5777    -22.9885    -19.5499  10000.0000
    32.0000    -52.1694     56.6037    -22.8110    -17.8033  10000.0000
    31.5000    -70.5524     53.9273    -18.6880    -13.4134  10000.0000
    31.0000    -77.7428     53.4817    -15.5440    -12.2335  10000.0000
    30.5000    -67.7075     55.1044    -14.2319    -13.9455  10000.0000
    30.0000    -65.5582     55.8290    -10.8305    -14.3764  10000.0000
    29.5000    -68.9539     54.1218     -5.9960    -13.7073  10000.0000
    29.0000    -58.3089     51.3573     -3.9552    -16.0491  10000.0000
    28.5000    -42.0988     49.7950     -5.3686    -21.6925  10000.0000
    28.0000    -44.0392     50.7717     -5.8045    -20.8163  10000.0000
    27.5000    -58.7303     52.6493     -3.0351    -15.9413  10000.0000
    27.0000    -72.6116     52.2379      0.4679    -13.0529  10000.0000
    26.5000    -81.0843     50.5277     -1.8944    -11.7530  10000.0000
    26.0000    -85.9606     49.8613     -9.4568    -11.1160  10000.0000
    25.5000    -92.7191     49.3994    -13.2440    -10.3392  10000.0000
    25.0000   -103.5721     48.6911    -12.0673     -9.2961  10000.0000
    24.5000   -105.4177     49.0213    -12.6624     -9.1393  10000.0000
    24.0000    -93.6710     50.9420    -18.2173    -10.2385  10000.0000
    23.5000    -74.8413     52.8541    -23.2392    -12.6837  10000.0000
    23.0000    -63.6903     53.0278    -22.3565    -14.7732  10000.0000
    22.5000    -74.3078     52.0105    -16.5212    -12.7701  10000.0000
    22.0000    -99.6024     51.5208    -13.7143     -9.6523  10000.0000
    21.5000   -113.3025     50.5832    -14.4905     -8.5250  10000.0000
    21.0000   -108.2410     48.6922    -10.7824     -8.9094  10000.0000
    20.5000    -99.6498     47.0308     -4.9114     -9.6479  10000.0000
    20.0000    -97.5559     46.5026     -7.0385     -9.8468  10000.0000
    19.5000    -92.3828     46.4388    -15.8646    -10.3753  10000.0000
    19.0000    -79.8996     45.5505    -18.7715    -11.9190  10000.0000
    18.5000    -76.3461     41.7860    -12.4952    -12.4462  10000.0000
    18.0000    -91.2465     37.6836     -5.8395    -10.4991  10000.0000
    17.5000   -108.2141     38.9411     -4.1358     -8.9115  10000.0000
    17.0000   -114.6765     44.2743     -7.4002     -8.4263  10000.0000
    16.5000   -115.0131     47.4529    -13.1705     -8.4024  10000.0000
    16.0000   -109.4027     45.7800    -16.8458     -8.8181  10000.0000
    15.5000    -92.7336     43.4198    -18.3326    -10.3377  10000.0000
