~Version Information
 VERS.                2.00:   CWLS log ASCII Standard -VERSION 2.00
 WRAP.                  NO:   One line per frame
~Well Information Block
#MNEM.UNIT              Data                Description
#--------- -------------------------------  -------------------------------
 STRT.F                          631.0000:   Starting Depth
 STOP.F                           -8.7500:   Ending Depth
 STEP.F                           -0.5000:   Level Spacing
 NULL.                          -999.2500:   Absent Value
 COMP.     FLUOR DANIEL                  :   Company
 WELL.     48X10                         :   Well
 FLD .                                   :   Field
 LOC .                                   :   Location
 PROV.                                   :   Province
 SRVC.                                   :   Service Company
 LIC .                                   :   License Number
 DATE.                                   :   Log Date
 UWI .                                   :   Unique Well ID
~Curve Information Block
#MNEM.UNIT       API Codes    Curve Description
#---------    -------------   -------------------------------
 DEPT.F        0   0  0  0:   Depth
 CILD.MMHO     0   0  0  0:   Conductivity of Deep Induction
 GR  .API      0   0  0  0:   Gamma ray counts
 TEN .LBF      0   0  0  0:   Differential Tension
 RILM.OHMM     0   0  0  0:   Resistivity from CILM
 RILD.OHMM     0   0  0  0:   Resistivity from CILD
#  Curve Data
~A
# ...
   295.0000    152.3701    106.9921     -8.8892      6.7399      6.5630
   294.5000    145.1992    105.8932    -15.5864      7.0822      6.8871
   294.0000    142.9296    106.1870    -25.0176      7.1979      6.9965
   293.5000    142.0366    107.0949    -29.3663      7.2445      7.0404
   293.0000    140.0397    107.1588    -26.0363      7.3508      7.1408
   292.5000    136.4025    107.4219    -20.1550      7.5527      7.3312
   292.0000    132.2283    108.0366    -16.7735      7.7986      7.5627
   291.5000    128.7962    106.8113    -13.6381      8.0131      7.7642
   291.0000    124.9845    104.0141    -11.8718      8.2655      8.0010
   290.5000    121.7491    102.8405    -13.1339      8.4926      8.2136
   290.0000    121.4846    102.9366    -12.6846      8.5118      8.2315
   289.5000    123.9575    102.0271    -10.0455      8.3363      8.0673
   289.0000    125.6568    100.7223     -8.6443      8.2198      7.9582
   288.5000    126.3220    100.6647     -5.1237      8.1751      7.9163
   288.0000    127.7172    101.9197     -0.2382      8.0830      7.8298
   287.5000    129.9474    103.8755     -3.4026      7.9398      7.6954
   287.0000    132.2274    104.6888    -13.4731      7.7986      7.5627
   286.5000    135.6687    103.0486    -17.4384      7.5948      7.3709
   286.0000    138.9247    101.7515    -13.2309      7.4115      7.1981
   285.5000    140.1833    102.1949     -9.6298      7.3430      7.1335
   285.0000    141.9060    101.9528    -10.0592      7.2513      7.0469
   284.5000    146.4338    100.4008    -12.0277      7.0208      6.8290
   284.0000    151.4948     99.3537    -12.4714      6.7799      6.6009
   283.5000    152.8359     99.3880     -9.3693      6.7188      6.5430
   283.0000    149.2558    100.5453     -5.0706      6.8844      6.6999
   282.5000    143.3319    102.9888     -4.5033      7.1771      6.9768
   282.0000    137.9373    104.4940     -6.0176      7.4662      7.2497
   281.5000    134.1371    104.4348     -5.9173      7.6842      7.4551
   281.0000    132.3846    102.8663     -6.5008      7.7891      7.5537
   280.5000    131.9443    100.5648    -10.7195      7.8159      7.5790
   280.0000    129.9269     99.3746    -16.2144      7.9411      7.6966
   279.5000    126.8338    101.5197    -18.8874      8.1411      7.8843
   279.0000    125.5488    105.2768    -16.6655      8.2271      7.9650
   278.5000    126.7260    105.6478    -11.7818      8.1482      7.8910
   278.0000    128.5037    102.6833     -8.3607      8.0319      7.7819
   277.5000    130.1350    101.1276     -8.9420      7.9280      7.6843
   277.0000    130.0522    102.4647    -12.0777      7.9332      7.6892
   276.5000    128.0012    102.9368    -13.8638      8.0644      7.8124
   276.0000    126.1855    102.0251    -13.4987      8.1843      7.9248
   275.5000    125.1275    101.2229    -12.7429      8.2558      7.9918
   275.0000    122.8669    101.2690    -11.5229      8.4128      8.1389
   274.5000    120.0674    101.3315     -8.3198      8.6157      8.3287
   274.0000    119.7254    100.5480     -6.0259      8.6411      8.3524
   273.5000    120.3246     98.1605     -4.8681      8.5966      8.3109
   273.0000    118.8425     96.4775     -4.7790      8.7076      8.4145
   272.5000    116.7558     98.4454     -9.4919      8.8687      8.5649
   272.0000    116.1794    101.4233    -16.3968      8.9143      8.6074
   271.5000    115.9393    101.7818    -18.6425      8.9334      8.6252
   271.0000    114.8036    101.7290    -16.0744      9.0250      8.7105
   270.5000    113.7711    103.4915    -12.8603      9.1099      8.7896
   270.0000    114.0455    104.5512     -9.8918      9.0871      8.7684
   269.5000    114.7718    104.4510     -8.2466      9.0276      8.7129
   269.0000    115.1028    104.2941     -5.7743      9.0007      8.6879
   268.5000    115.9118    103.7757     -2.8283      8.9356      8.6273
   268.0000    117.3006    102.2983     -3.9098      8.8261      8.5251
   267.5000    116.2645    100.4717     -9.9964      8.9075      8.6011
   267.0000    113.1642     99.3587    -14.1428      9.1605      8.8367
   266.5000    110.4559     99.1653    -14.2838      9.3936      9.0534
   266.0000    109.5381     97.4922    -13.5164      9.4753      9.1292
   265.5000    110.9803     94.5964    -14.4326      9.3475      9.0106
   265.0000    114.3643     94.1282    -15.6639      9.0609      8.7440
   264.5000    118.1334     96.8041    -15.2097      8.7617      8.4650
   264.0000    121.0800     99.8742    -13.4792      8.5412      8.2590
   263.5000    122.3411    101.7916    -12.3058      8.4502      8.1739
   263.0000    121.5620    102.8432    -11.4000      8.5061      8.2263
   262.5000    120.7143    102.5912     -9.4919      8.5679      8.2840
   262.0000    120.5032    102.1216     -8.0584      8.5835      8.2985
   261.5000    120.5141    102.4797     -7.1730      8.5827      8.2978
   261.0000    120.4123    104.0267     -7.9642      8.5902      8.3048
   260.5000    121.6172    104.8620     -9.1573      8.5022      8.2225
   260.0000    123.1584    102.9995     -8.4820      8.3922      8.1196
   259.5000    124.2914     99.5803     -7.2282      8.3131      8.0456
   259.0000    126.2539     97.6969     -4.7958      8.1797      7.9206
   258.5000    128.8294     98.4592     -3.3706      8.0109      7.7622
   258.0000    128.6685    100.0568     -7.3694      8.0213      7.7719
   257.5000    126.5439    100.6292    -12.8539      8.1603      7.9024
   257.0000    126.7933     99.3741    -11.1679      8.1438      7.8869
   256.5000    126.7435     98.4677     -7.4390      8.1471      7.8899
   256.0000    123.8924     98.6079     -9.7957      8.3408      8.0715
   255.5000    120.8344     98.9904    -15.6056      8.5591      8.2758
   255.0000    119.6700     98.6889    -18.9991      8.6453      8.3563
   254.5000    118.4343     97.2114    -17.4445      8.7386      8.4435
   254.0000    117.1617     95.9427    -16.2507      8.8369      8.5352
   253.5000    115.9645     96.6426    -16.9861      8.9314      8.6233
   253.0000    113.2555     97.6610    -17.9117      9.1529      8.8296
   252.5000    111.0467     96.4729    -16.9925      9.3417      9.0052
   252.0000    111.6363     94.0092    -15.3500      9.2905      8.9577
   251.5000    112.3584     93.3495    -14.1703      9.2286      8.9001
   251.0000    111.4756     95.3127    -15.0142      9.3044      8.9706
   250.5000    112.2006     97.3768    -17.6284      9.2421      8.9126
   250.0000    115.4743     95.7774    -19.1336      8.9707      8.6599
   249.5000    117.0355     92.0853    -18.0481      8.8468      8.5444
   249.0000    113.5535     89.8517    -15.5565      9.1280      8.8064
   248.5000    109.2115     90.2014    -14.5601      9.5047      9.1565
   248.0000    110.3107     92.5823    -13.5493      9.4064      9.0653
   247.5000    115.3196     95.9911    -10.6729      8.9831      8.6715
   247.0000    117.1006     98.9476     -8.8914      8.8417      8.5397
   246.5000    114.9455    100.1247    -10.8086      9.0134      8.6998
   246.0000    113.4760     99.5515    -16.5295      9.1344      8.8124
   245.5000    113.6677     98.4195    -20.7037      9.1185      8.7976
   245.0000    112.8405     99.0156    -16.6435      9.1878      8.8621
   244.5000    112.4379     99.9225     -6.6243      9.2219      8.8938
   244.0000    113.5636     98.8934     -0.6304      9.1271      8.8056
   243.5000    113.5487     97.4601     -2.4800      9.1284      8.8068
   243.0000    112.3305     95.7921    -10.2361      9.2310      8.9023
   242.5000    112.9409     92.9125    -17.5723      9.1793      8.8542
   242.0000    113.4665     92.1696    -16.8854      9.1352      8.8132
   241.5000    111.7463     96.0061    -11.4762      9.2811      8.9488
   241.0000    108.8775     99.6290     -9.3107      9.5349      9.1846
   240.5000    105.2650     97.9696     -9.3071      9.8751      9.4998
   240.0000    101.4298     92.3664     -7.7629     10.2638      9.8590
   239.5000     99.8319     88.3289     -7.0302     10.4349     10.0168
