~Version Information
 VERS.                2.00:   CWLS log ASCII Standard -VERSION 2.00
 WRAP.                  NO:   One line per frame
~Well Information Block
#MNEM.UNIT              Data                Description
#--------- -------------------------------  -------------------------------
 STRT.F                          631.0000:   Starting Depth
 STOP.F                           -8.7500:   Ending Depth
 STEP.F                           -0.5000:   Level Spacing
 NULL.                          -999.2500:   Absent Value
 COMP.     FLUOR DANIEL                  :   Company
 WELL.     48X10                         :   Well
 FLD .                                   :   Field
 LOC .                                   :   Location
 PROV.                                   :   Province
 SRVC.                                   :   Service Company
 LIC .                                   :   License Number
 DATE.                                   :   Log Date
 UWI .                                   :   Unique Well ID
~Curve Information Block
#MNEM.UNIT       API Codes    Curve Description
#---------    -------------   -------------------------------
 DEPT.F        0   0  0  0:   Depth
 CILD.MMHO     0   0  0  0:   Conductivity of Deep Induction
 GR  .API      0   0  0  0:   Gamma ray counts
 TEN .LBF      0   0  0  0:   Differential Tension
 RILM.OHMM     0   0  0  0:   Resistivity from CILM
 RILD.OHMM     0   0  0  0:   Resistivity from CILD
#  Curve Data
~A
# ...
   351.0000    129.0165    122.8149    -10.8052      7.9989      7.7509
   350.5000    128.0135    120.3020     -9.4794      8.0636      7.8117
   350.0000    128.9770    117.6147     -8.2207      8.0015      7.7533
   349.5000    134.7052    116.4935    -10.5423      7.6508      7.4236
   349.0000    144.5670    116.7547    -12.1817      7.1140      6.9172
   348.5000    155.6679    115.6781     -9.0741      6.5934      6.4239
   348.0000    169.0708    113.8989     -7.2874      6.0580      5.9147
   347.5000    185.1798    113.2587    -10.4087      5.5194      5.4002
   347.0000    199.5435    114.3136    -11.9426      5.1140      5.0114
   346.5000    210.6058    117.6969    -10.3990      4.8401      4.7482
   346.0000    217.4741    121.5940     -8.1087      4.6844      4.5982
   345.5000    216.5790    122.4533     -5.9823      4.7041      4.6173
   345.0000    206.4791    120.4379     -4.5628      4.9388      4.8431
   344.5000    192.0468    118.7076     -5.6605      5.3178      5.2071
   344.0000    179.7047    118.3039     -9.4879      5.6914      5.5647
   343.5000    170.5815    117.3714    -12.8268      6.0031      5.8623
   343.0000    162.3343    116.5864    -14.6827      6.3158      6.1601
   342.5000    154.7522    117.2233    -15.6190      6.6334      6.4619
   342.0000    149.0567    117.3387    -15.7914      6.8939      6.7089
   341.5000    144.7756    114.3363    -15.6447      7.1035      6.9072
   341.0000    140.0229    111.4994    -15.0045      7.3517      7.1417
   340.5000    134.9921    111.8104    -11.4241      7.6340      7.4078
   340.0000    132.1544    113.5518     -7.7119      7.8031      7.5669
   339.5000    132.7538    113.8569     -9.7149      7.7668      7.5327
   339.0000    133.5852    113.7268    -14.4387      7.7169      7.4859
   338.5000    131.9289    115.0900    -13.6640      7.8168      7.5798
   338.0000    128.5011    117.1001     -9.7127      8.0321      7.7820
   337.5000    124.0852    118.0259    -11.8264      8.3274      8.0590
   337.0000    120.1362    118.5178    -18.7816      8.6106      8.3239
   336.5000    119.7335    119.3732    -20.1187      8.6405      8.3519
   336.0000    123.2874    116.6747    -14.8602      8.3831      8.1111
   335.5000    129.0229    111.4965    -10.8650      7.9985      7.7506
   335.0000    136.5471    111.1397    -11.1901      7.5445      7.3235
   334.5000    145.5887    115.0041    -12.8533      7.0627      6.8687
   334.0000    153.5919    116.7408    -14.1953      6.6849      6.5108
   333.5000    159.3054    115.9144    -14.2810      6.4389      6.2772
   333.0000    163.4739    114.7609    -14.6973      6.2706      6.1172
   332.5000    168.6599    114.1438    -16.6893      6.0731      5.9291
   332.0000    176.3661    116.0284    -16.8372      5.8016      5.6700
   331.5000    183.5252    120.0571    -14.9301      5.5702      5.4488
   331.0000    185.7031    123.1778    -14.4543      5.5035      5.3849
   330.5000    182.8764    124.3743    -14.6662      5.5905      5.4682
   330.0000    177.0959    122.7435    -12.2363      5.7771      5.6467
   329.5000    167.3275    117.5481     -8.0139      6.1227      5.9763
   329.0000    154.5865    111.7249     -4.7656      6.6407      6.4689
   328.5000    143.3683    109.8207     -4.5323      7.1752      6.9750
   328.0000    134.8544    112.0848     -6.6728      7.6421      7.4154
   327.5000    126.6183    113.9697     -7.2218      8.1554      7.8978
   327.0000    120.8128    112.3043     -6.5767      8.5607      8.2773
   326.5000    122.0304    109.0885     -6.9326      8.4724      8.1947
   326.0000    131.1290    107.4765     -7.1169      7.8660      7.6261
   325.5000    145.3804    107.1446     -7.0211      7.0731      6.8785
   325.0000    162.9518    104.9064     -7.1672      6.2912      6.1368
   324.5000    187.3328    100.1271     -5.5855      5.4546      5.3381
   324.0000    221.0810     95.5651     -4.1739      4.6066      4.5232
   323.5000    258.5637     93.1696     -6.2946      3.9283      3.8675
   323.0000    294.7866     92.1301     -9.1226      3.4389      3.3923
   322.5000    328.3882     94.0128     -9.9640      3.0827      3.0452
   322.0000    350.7522     99.7253     -8.2939      2.8839      2.8510
   321.5000    350.6023    104.1971     -5.6855      2.8852      2.8522
   321.0000    326.2637    103.9180     -5.1228      3.1030      3.0650
   320.5000    285.3247    102.1996     -5.6861      3.5546      3.5048
   320.0000    238.7771    102.1214     -5.5964      4.2594      4.1880
   319.5000    196.9864    103.2001     -6.7002      5.1817      5.0765
   319.0000    168.8767    103.8644    -10.1766      6.0651      5.9215
   318.5000    154.5843    104.1257    -12.9482      6.6408      6.4690
   318.0000    146.4755    104.9425    -14.8913      7.0187      6.8271
   317.5000    136.9216    107.4263    -15.1115      7.5232      7.3034
   317.0000    128.1844    111.3839    -12.5349      8.0525      7.8013
   316.5000    125.6504    113.2849     -8.4619      8.2203      7.9586
   316.0000    127.2946    110.6653     -6.4816      8.1107      7.8558
   315.5000    127.7814    105.7205     -7.7915      8.0788      7.8259
   315.0000    127.6360    102.5700     -8.8551      8.0883      7.8348
   314.5000    128.4859    101.9737     -8.7413      8.0330      7.7830
   314.0000    127.8900    102.2827     -9.2937      8.0717      7.8192
   313.5000    125.6403    101.9237    -10.7738      8.2210      7.9592
   313.0000    123.8763    101.8204    -12.2827      8.3419      8.0726
   312.5000    121.1476    103.6056    -15.0652      8.5362      8.2544
   312.0000    117.6312    105.1693    -17.9450      8.8004      8.5011
   311.5000    116.7156    105.2204    -18.2628      8.8719      8.5678
   311.0000    117.5337    105.4280    -16.2708      8.8080      8.5082
   310.5000    117.8351    106.0939    -13.3556      8.7846      8.4864
   310.0000    117.6833    105.3042    -10.0650      8.7964      8.4974
   309.5000    118.9775    103.1913     -6.9613      8.6974      8.4050
   309.0000    121.2027    101.5455     -6.7207      8.5322      8.2506
   308.5000    122.4836    102.2049     -9.0716      8.4400      8.1644
   308.0000    122.1461    105.8699     -9.9564      8.4641      8.1869
   307.5000    121.1316    109.3180     -9.4004      8.5374      8.2555
   307.0000    119.9645    110.5110    -10.8135      8.6233      8.3358
   306.5000    119.2739    110.5656    -12.7905      8.6750      8.3841
   306.0000    119.8481    110.4756    -12.7450      8.6320      8.3439
   305.5000    121.9770    108.3692    -11.4753      8.4762      8.1983
   305.0000    125.0990    105.0014    -11.0742      8.2577      7.9937
   304.5000    127.4302    102.3383    -12.0149      8.1017      7.8474
   304.0000    128.6893    100.9683    -11.2393      8.0199      7.7707
   303.5000    128.4089    100.0524     -6.9824      8.0380      7.7876
   303.0000    126.2836     99.6178     -6.7545      8.1777      7.9187
   302.5000    124.1837     99.3120    -13.5356      8.3206      8.0526
   302.0000    123.4985     99.7015    -18.9131      8.3683      8.0973
   301.5000    122.7851    102.1786    -17.8623      8.4186      8.1443
   301.0000    122.9205    107.1655    -14.5580      8.4090      8.1353
   300.5000    127.5864    111.0563    -11.7730      8.0915      7.8378
   300.0000    137.8486    110.3665    -10.3358      7.4711      7.2543
   299.5000    150.5614    106.4601     -9.3827      6.8231      6.6418
   299.0000    162.5459    103.5461     -8.2951      6.3073      6.1521
   298.5000    172.7675    102.1447     -6.6908      5.9253      5.7881
   298.0000    181.4225    100.7040     -5.0804      5.6363      5.5120
   297.5000    190.1586    100.0743     -5.3573      5.3718      5.2588
   297.0000    196.7683    101.7793    -10.1672      5.1876      5.0821
   296.5000    194.9741    104.3799    -16.3925      5.2363      5.1289
   296.0000    182.8510    106.2961    -15.6828      5.5912      5.4689
   295.5000    166.2022    107.2943     -9.9534      6.1651      6.0168
