~Version Information
 VERS.                2.00:   CWLS log ASCII Standard -VERSION 2.00
 WRAP.                  NO:   One line per frame
~Well Information Block
#MNEM.UNIT              Data                Description
#--------- -------------------------------  -------------------------------
 STRT.F                          631.0000:   Starting Depth
 STOP.F                           -8.7500:   Ending Depth
 STEP.F                           -0.5000:   Level Spacing
 NULL.                          -999.2500:   Absent Value
 COMP.     FLUOR DANIEL                  :   Company
 WELL.     48X10                         :   Well
 FLD .                                   :   Field
 LOC .                                   :   Location
 PROV.                                   :   Province
 SRVC.                                   :   Service Company
 LIC .                                   :   License Number
 DATE.                                   :   Log Date
 UWI .                                   :   Unique Well ID
~Curve Information Block
#MNEM.UNIT       API Codes    Curve Description
#---------    -------------   -------------------------------
 DEPT.F        0   0  0  0:   Depth
 CILD.MMHO     0   0  0  0:   Conductivity of Deep Induction
 GR  .API      0   0  0  0:   Gamma ray counts
 TEN .LBF      0   0  0  0:   Differential Tension
 RILM.OHMM     0   0  0  0:   Resistivity from CILM
 RILD.OHMM     0   0  0  0:   Resistivity from CILD
#  Curve Data
~A
# ...
   127.0000    125.7404    112.4560     -9.1405      8.2142      7.9529
   126.5000    124.7713    114.9515     -9.5303      8.2801      8.0147
   126.0000    121.7555    116.5797    -12.2079      8.4922      8.2132
   125.5000    120.8789    116.2602    -16.6530      8.5559      8.2727
   125.0000    125.2350    116.2199    -19.5359      8.2484      7.9850
   124.5000    131.4554    117.1626    -18.7191      7.8459      7.6071
   124.0000    134.3247    115.7672    -16.4523      7.6731      7.4446
   123.5000    133.6505    111.4710    -14.9877      7.7130      7.4822
   123.0000    131.8866    108.7245    -12.6130      7.8194      7.5823
   122.5000    130.7089    109.7475     -8.9097      7.8921      7.6506
   122.0000    129.9820    110.9531     -6.5523      7.9376      7.6934
   121.5000    129.1772    109.6131     -7.3401      7.9887      7.7413
   121.0000    128.8206    106.7272     -9.0411      8.0115      7.7627
   120.5000    130.2548    105.2467     -9.6752      7.9205      7.6773
   120.0000    132.3529    105.6280     -8.1658      7.7910      7.5556
   119.5000    132.5429    107.2192     -7.2703      7.7795      7.5447
   119.0000    131.5941    109.4816     -9.5602      7.8374      7.5991
   118.5000    131.9606    111.3117    -12.6114      7.8149      7.5780
   118.0000    133.2533    111.0654    -13.4935      7.7367      7.5045
   117.5000    133.9661    109.4597    -13.6451      7.6943      7.4646
   117.0000    134.5931    108.7645    -12.8963      7.6574      7.4298
   116.5000    134.5101    108.6881    -10.0391      7.6622      7.4344
   116.0000    133.8160    107.9499     -9.7249      7.7032      7.4729
   115.5000    133.9721    108.0906    -13.3837      7.6940      7.4642
   115.0000    135.2663    109.3449    -14.0059      7.6181      7.3928
   114.5000    136.0826    108.7880    -12.8911      7.5710      7.3485
   114.0000    136.1496    105.8608    -13.2818      7.5672      7.3449
   113.5000    136.3216    104.0628    -12.6255      7.5573      7.3356
   113.0000    136.2532    104.7887    -11.1096      7.5613      7.3393
   112.5000    135.4371    106.4233    -12.4653      7.6082      7.3835
   112.0000    133.8727    108.7018    -13.8089      7.6998      7.4698
   111.5000    132.5168    111.4998    -15.1649      7.7811      7.5462
   111.0000    130.3416    112.9428    -19.3776      7.9150      7.6721
   110.5000    126.1856    111.0415    -22.7963      8.1843      7.9248
   110.0000    121.1344    108.6205    -21.7346      8.5372      8.2553
   109.5000    118.9457    108.8326    -19.5139      8.6998      8.4072
   109.0000    121.9390    107.9973    -18.9542      8.4790      8.2008
   108.5000    126.5343    103.3858    -19.5389      8.1610      7.9030
   108.0000    127.9504    100.3546    -18.5882      8.0677      7.8155
   107.5000    127.8658    103.2182    -14.4082      8.0733      7.8207
   107.0000    129.0194    108.0004    -10.1867      7.9988      7.7508
   106.5000    130.3652    110.0264     -8.2316      7.9136      7.6708
   106.0000    131.3389    109.6973     -8.7450      7.8531      7.6139
   105.5000    132.5778    109.5518    -11.2179      7.7774      7.5427
   105.0000    132.0114    110.4249    -14.8459      7.8118      7.5751
   104.5000    130.0582    109.0636    -17.1443      7.9328      7.6889
   104.0000    129.2856    104.4995    -17.0809      7.9818      7.7348
   103.5000    130.0130    100.6285    -15.8295      7.9357      7.6915
   103.0000    129.2396    101.1464    -14.4582      7.9847      7.7376
   102.5000    125.7399    103.0619    -15.1728      8.2142      7.9529
   102.0000    122.5946    103.1645    -17.3624      8.4321      8.1570
   101.5000    125.1673    104.6866    -17.7284      8.2530      7.9893
   101.0000    132.4100    108.2475    -15.8960      7.7876      7.5523
   100.5000    138.2417    108.8118    -14.4244      7.4493      7.2337
   100.0000    140.6975    106.6870    -13.3895      7.3154      7.1074
    99.5000    142.9476    106.1068    -12.4159      7.1970      6.9956
    99.0000    145.7173    105.9703    -14.1425      7.0563      6.8626
    98.5000    147.6887    104.8700    -17.7879      6.9595      6.7710
    98.0000    147.6007    103.1468    -18.4476      6.9638      6.7750
    97.5000    144.8146    100.7405    -14.2639      7.1015      6.9054
    97.0000    141.2731     99.1993     -9.4437      7.2847      7.0785
    96.5000    138.2311     99.5905     -8.9948      7.4498      7.2343
    96.0000    134.1586     99.6310    -11.6104      7.6829      7.4539
    95.5000    129.6218     98.3689    -13.1501      7.9604      7.7147
    95.0000    126.1510     98.0172    -12.3275      8.1866      7.9270
    94.5000    123.0165    100.0128    -11.2188      8.4022      8.1290
    94.0000    119.7017    101.6562    -12.3992      8.6429      8.3541
    93.5000    117.1932     98.4485    -17.2682      8.8344      8.5329
    93.0000    116.0161     90.8876    -22.4587      8.9273      8.6195
    92.5000    116.4772     85.2519    -22.8985      8.8907      8.5854
    92.0000    116.8394     87.0947    -19.6963      8.8622      8.5588
    91.5000    116.0956     95.5369    -17.0718      8.9210      8.6136
    91.0000    118.7425    104.4301    -15.3445      8.7152      8.4216
    90.5000    127.2998    108.0620    -13.4246      8.1103      7.8555
    90.0000    136.9603    106.7864    -11.5635      7.5210      7.3014
    89.5000    142.9191    106.2630     -9.1472      7.1984      6.9970
    89.0000    144.8687    108.1385     -8.5604      7.0988      6.9028
    88.5000    144.2802    110.1895    -12.6965      7.1286      6.9310
    88.0000    142.4685    111.3810    -15.8951      7.2219      7.0191
    87.5000    139.7527    111.1902    -11.4677      7.3663      7.1555
    87.0000    136.9819    109.0566     -5.4995      7.5198      7.3002
    86.5000    136.8467    107.1397     -7.7671      7.5275      7.3074
    86.0000    138.3727    106.5895    -16.7119      7.4420      7.2269
    85.5000    137.6617    104.7264    -22.9198      7.4816      7.2642
    85.0000    134.2890    102.5169    -22.9378      7.6752      7.4466
    84.5000    130.2719    102.3846    -19.8213      7.9194      7.6763
    84.0000    128.0401    104.2587    -14.3091      8.0619      7.8101
    83.5000    127.8030    105.6418     -8.6437      8.0773      7.8245
    83.0000    128.6430    105.4293     -8.3219      8.0229      7.7734
    82.5000    130.0270    104.1112    -13.5475      7.9348      7.6907
    82.0000    132.5730    102.7957    -18.0294      7.7777      7.5430
    81.5000    135.5806    102.1232    -17.3310      7.5999      7.3757
    81.0000    137.5619    102.0907    -14.4289      7.4872      7.2695
    80.5000    138.0905    103.3443    -13.5942      7.4577      7.2416
    80.0000    137.7828    105.1217    -14.1358      7.4748      7.2578
    79.5000    139.2970    106.4662    -12.7371      7.3911      7.1789
    79.0000    143.9128    106.8488    -10.0708      7.1473      6.9486
    78.5000    147.4480    107.7710     -8.8352      6.9712      6.7821
    78.0000    147.5565    108.8337     -9.2662      6.9659      6.7771
    77.5000    148.5143    107.6200     -9.6889      6.9197      6.7334
    77.0000    151.8544    104.3428    -11.4482      6.7634      6.5853
    76.5000    151.2627    100.4646    -16.8210      6.7906      6.6110
    76.0000    146.9517     96.0692    -21.8673      6.9954      6.8050
    75.5000    144.0893     93.3236    -19.5099      7.1383      6.9401
    75.0000    142.7225     93.9212    -14.8855      7.2086      7.0066
    74.5000    140.7417     94.9428    -14.1386      7.3131      7.1052
    74.0000    139.9356     95.2824    -12.4763      7.3564      7.1461
    73.5000    141.7205     98.1232     -7.5911      7.2611      7.0561
    73.0000    143.4203    104.4169     -5.7477      7.1726      6.9725
    72.5000    143.2840    109.1354     -7.0379      7.1796      6.9791
    72.0000    139.7336    108.6535     -7.2913      7.3674      7.1565
    71.5000    132.5382    105.2284     -5.9167      7.7798      7.5450
