~Version Information
 VERS.                2.00:   CWLS log ASCII Standard -VERSION 2.00
 WRAP.                  NO:   One line per frame
~Well Information Block
#MNEM.UNIT              Data                Description
#--------- -------------------------------  -------------------------------
 STRT.F                          631.0000:   Starting Depth
 STOP.F                           -8.7500:   Ending Depth
 STEP.F                           -0.5000:   Level Spacing
 NULL.                          -999.2500:   Absent Value
 COMP.     FLUOR DANIEL                  :   Company
 WELL.     48X10                         :   Well
 FLD .                                   :   Field
 LOC .                                   :   Location
 PROV.                                   :   Province
 SRVC.                                   :   Service Company
 LIC .                                   :   License Number
 DATE.                                   :   Log Date
 UWI .                                   :   Unique Well ID
~Curve Information Block
#MNEM.UNIT       API Codes    Curve Description
#---------    -------------   -------------------------------
 DEPT.F        0   0  0  0:   Depth
 CILD.MMHO     0   0  0  0:   Conductivity of Deep Induction
 GR  .API      0   0  0  0:   Gamma ray counts
 TEN .LBF      0   0  0  0:   Differential Tension
 RILM.OHMM     0   0  0  0:   Resistivity from CILM
 RILD.OHMM     0   0  0  0:   Resistivity from CILD
#  Curve Data
~A
# ...
   407.0000     78.6033     74.8470    -15.7862     13.4042     12.7221
   406.5000     85.2202     81.3912    -11.2453     12.3122     11.7343
   406.0000     90.0749     87.9810     -6.6395     11.6178     11.1019
   405.5000     96.5302     93.9590     -6.7731     10.8073     10.3595
   405.0000    104.8859     98.9352     -6.1274      9.9122      9.5342
   404.5000    110.4333    102.6730     -3.2913      9.3956      9.0552
   404.0000    111.3721    104.6380     -3.2742      9.3134      8.9789
   403.5000    110.1674    105.0055     -7.3529      9.4191      9.0771
   403.0000    109.2763    103.4259    -10.9001      9.4988      9.1511
   402.5000    109.1727    100.9275    -10.0504      9.5082      9.1598
   402.0000    109.9370    101.4245     -6.2763      9.4396      9.0961
   401.5000    110.8152    104.8523     -4.7116      9.3620      9.0240
   401.0000    112.3203    107.7871     -6.3675      9.2319      8.9031
   400.5000    116.0528    107.7933    -10.1736      8.9244      8.6168
   400.0000    122.7606    106.5617    -13.3355      8.4203      8.1459
   399.5000    133.0009    107.3738    -10.6820      7.7519      7.5187
   399.0000    144.3828    112.4247     -2.6248      7.1234      6.9260
   398.5000    156.7188    118.3524      0.9138      6.5480      6.3809
   398.0000    172.8768    120.7874     -3.4550      5.9215      5.7845
   397.5000    189.2220    117.8473     -5.5196      5.3989      5.2848
   397.0000    193.2843    111.6520      0.0326      5.2831      5.1737
   396.5000    181.1687    106.4217      3.9189      5.6443      5.5197
   396.0000    161.9549    104.0764     -0.2233      6.3309      6.1746
   395.5000    143.6310    102.8405     -5.5385      7.1617      6.9623
   395.0000    129.8220    101.6954     -6.7344      7.9477      7.7029
   394.5000    123.5753    101.6856     -7.9541      8.3629      8.0922
   394.0000    125.5000    104.0783     -9.9531      8.2305      7.9681
   393.5000    131.8783    108.3409     -9.6319      7.8199      7.5827
   393.0000    136.6934    111.7189     -7.3548      7.5362      7.3156
   392.5000    137.3763    113.2801     -5.4741      7.4976      7.2793
   392.0000    136.0040    114.1842     -5.3317      7.5755      7.3527
   391.5000    135.0729    113.5352     -6.3611      7.6293      7.4034
   391.0000    133.1017    112.2659     -6.0933      7.7458      7.5130
   390.5000    130.3552    113.4388     -5.2021      7.9142      7.6713
   390.0000    128.8833    116.1958     -7.7421      8.0075      7.7590
   389.5000    128.7675    116.6430    -13.1586      8.0149      7.7659
   389.0000    130.5450    113.9798    -17.6568      7.9023      7.6602
   388.5000    133.5238    111.8934    -17.2374      7.7206      7.4893
   388.0000    135.2564    112.8559    -13.5133      7.6187      7.3934
   387.5000    136.1241    115.4757    -11.0944      7.5686      7.3462
   387.0000    138.0883    116.1062    -12.3833      7.4578      7.2417
   386.5000    138.1704    113.7649    -13.7186      7.4532      7.2374
   386.0000    135.4804    111.0885    -11.3795      7.6057      7.3811
   385.5000    132.6970    111.8039     -7.8638      7.7702      7.5360
   385.0000    131.2663    115.0325     -7.2642      7.8575      7.6181
   384.5000    130.2800    117.4103     -8.8206      7.9189      7.6758
   384.0000    130.7070    117.6526     -8.5345      7.8922      7.6507
   383.5000    132.0445    115.7851     -6.0725      7.8098      7.5732
   383.0000    132.8014    113.9204     -3.8985      7.7639      7.5300
   382.5000    133.0330    115.4259     -3.2629      7.7500      7.5169
   382.0000    133.3480    119.6160     -4.7934      7.7311      7.4992
   381.5000    135.7873    122.6579     -8.8938      7.5880      7.3645
   381.0000    142.8097    123.6118    -12.4111      7.2041      7.0023
   380.5000    153.8740    123.1095    -11.8633      6.6723      6.4988
   380.0000    166.2502    122.0261     -9.3543      6.1633      6.0150
   379.5000    178.6518    121.0371     -7.3548      5.7257      5.5975
   379.0000    188.2956    121.0924     -5.6230      5.4261      5.3108
   378.5000    195.1228    122.9323     -4.9645      5.2322      5.1250
   378.0000    204.2633    122.5218     -4.9901      4.9934      4.8956
   377.5000    213.4344    117.4507     -3.7234      4.7748      4.6853
   377.0000    212.6813    112.7920     -2.7886      4.7920      4.7019
   376.5000    198.7390    113.1569     -4.0043      5.1351      5.0317
   376.0000    177.1383    116.6107     -5.2738      5.7757      5.6453
   375.5000    155.4245    119.5893     -4.8407      6.6040      6.4340
   375.0000    140.3909    120.5324     -5.9451      7.3319      7.1230
   374.5000    133.0618    119.6199     -7.5274      7.7482      7.5153
   374.0000    132.0560    118.1416     -5.6785      7.8091      7.5725
   373.5000    135.2838    115.4642     -3.9180      7.6171      7.3919
   373.0000    139.6367    113.0085     -6.5514      7.3726      7.1614
   372.5000    143.9614    112.8516     -7.9623      7.1448      6.9463
   372.0000    150.6393    114.0766     -4.4564      6.8195      6.6384
   371.5000    160.5202    115.7038     -0.4435      6.3890      6.2297
   371.0000    170.2951    117.7714      0.4419      6.0134      5.8722
   370.5000    178.8943    120.7467     -1.8202      5.7177      5.5899
   370.0000    188.4824    124.5144     -7.5600      5.4206      5.3055
   369.5000    197.7190    127.9490    -12.1033      5.1621      5.0577
   369.0000    199.0643    128.2431    -11.2609      5.1265      5.0235
   368.5000    189.5080    125.7580     -6.4776      5.3906      5.2768
   368.0000    175.8994    123.2296     -3.8488      5.8174      5.6851
   367.5000    167.1546    123.0908     -7.5045      6.1292      5.9825
   367.0000    165.8473    126.4001    -12.7450      6.1787      6.0296
   366.5000    169.9119    130.2761    -12.6971      6.0273      5.8854
   366.0000    176.3702    130.1957     -7.6634      5.8015      5.6699
   365.5000    180.2240    125.0378     -4.0763      5.6746      5.5487
   365.0000    178.3784    119.5129     -5.7596      5.7347      5.6061
   364.5000    171.2885    117.0836     -9.9784      5.9777      5.8381
   364.0000    162.9350    118.8293    -12.3647      6.2919      6.1374
   363.5000    155.2178    123.1194    -12.4333      6.6130      6.4426
   363.0000    148.3994    125.4021    -10.9965      6.9252      6.7386
   362.5000    142.8946    122.9779     -9.4105      7.1997      6.9982
   362.0000    140.8602    119.4269     -8.7257      7.3067      7.0992
   361.5000    140.7642    117.6486    -10.5576      7.3119      7.1041
   361.0000    140.2418    117.8969    -12.6255      7.3399      7.1305
   360.5000    139.7136    119.9243    -12.8188      7.3685      7.1575
   360.0000    139.9381    120.1406    -11.5720      7.3563      7.1460
   359.5000    139.0926    117.9662    -11.1877      7.4023      7.1895
   359.0000    136.8227    117.4731    -10.4212      7.5288      7.3087
   358.5000    136.4294    119.4542     -9.2153      7.5512      7.3298
   358.0000    138.6610    121.7076     -8.7587      7.4261      7.2118
   357.5000    139.3685    122.8177     -9.4422      7.3872      7.1752
   357.0000    136.1009    122.6675    -10.6903      7.5700      7.3475
   356.5000    132.5793    122.9315    -10.8992      7.7773      7.5427
   356.0000    131.6337    122.6118     -7.0437      7.8349      7.5968
   355.5000    131.8501    118.2793     -3.8784      7.8217      7.5844
   355.0000    132.2422    112.5477     -4.5729      7.7977      7.5619
   354.5000    134.2814    111.1734     -5.6093      7.6757      7.4470
   354.0000    136.9116    114.8840     -1.8642      7.5238      7.3040
   353.5000    135.6654    120.7730      0.3831      7.5950      7.3711
   353.0000    130.9388    125.4004     -6.1796      7.8778      7.6372
   352.5000    128.6458    126.5569    -15.8383      8.0227      7.7733
   352.0000    129.9641    125.6439    -17.5390      7.9388      7.6944
   351.5000    130.2964    124.2523    -12.9296      7.9179      7.6748
