~VERSION INFORMATION
 VERS.               2.10:   CWLS LOG ASCII STANDARD - VERSION 2.10
 WRAP.                 NO:   ONE LINE PER DEPTH STEP
~WELL INFORMATION
#MNEM.UNIT      DATA TYPE    INFORMATION
#----------   ------------   ------------------------------
 STRT.F            0.0000:   START DEPTH
 STOP.F         5499.9595:   STOP DEPTH
 STEP.F            0.5000:   STEP LENGTH
 NULL.          -999.2500:   NO VALUE
 COMP. Tesoro Petroleum Corporation:   COMPANY
 WELL.            51 x 28:   WELL
 FLD .           N.P.R. 3:   FIELD
 LOC . 28-39N-78W-NATRONA-WY:   LOCATION
 STAT.                 WY:   STATE
 COUN.            Natrona:   COUNTY
 SRVC.                   :   SERVICE COMPANY
 DATE.         07/07/1968:   LOGDATE
~CURVE INFORMATION
#MNEM.UNIT       API CODE    CURVE DESCRIPTION
#----------   ------------   ------------------------------
 DEPT.F                  :
 RO  .m2/m               :   Resisitivity Ohms
 SN  .m2/m               :   Reisistivity Ohms
 ASN .m2/m               :   Reisistivity Ohms
 Ind .None               :   Induction
 Ind .None               :   Induction
 Con .millimhos/m        :   Conductivitity
 Con .millimhos/m        :   Conductivitity
~PARAMETER INFORMATION
#MNEM.UNIT          VALUE    DESCRIPTION
#----------   ------------   ------------------------------
 EKB .F         5008.0000:   Kelly bushing
 EGL .F         4997.0000:   Ground level
 EDF .F            0.0000:   Drilling floor
 EPD .F            7.0000:   Permanent datum
 TD  .F         5500.0000:   Total depth
 NRUN.             3.0000:   Number of Runs
#--RUN 1---   ------------   The following are for Run 1---
 RUN .             1.0000:   Run 1
 DATE.mm/dd/yyyy 07/07/1968:   Date Logged
 DD  .ft              450:   Depth Driller
 DL  .ft              455:   Depth Logger
 BLI .ft              450:   Bottom Log Interval
 TLI .ft               38:   Top Log Interval
 CSS .inch             20:   Casing Size
 CTD1.ft               38:   Casing Driller 1
 CTL1.ft               38:   Casing Logger 1
 BS  .inch             15:   Bit Size
 DFT .     water base mud:   Type Fluid In Hole
 DFD .lb/gal          9.3:   Mud Weight
 DFV .sec              48:   Viscosity
 DFPH.                  8:   pH
 DFL .ml              7.6:   Fluid Loss
 WSS .           flo line:   Source Of Sample
 RM  .ohmm            2.7:   Rm
 EMT .F                93:   Rm Meas. Temp.
 RMF .ohmm            2.1:   Rmf
 MFT .F               100:   Rmf Meas. Temp.
 RMC .ohmm            2.3:   Rmc
 MCST.F               100:   Rmc Meas. Temp.
 MCSS.       fann mud kit:   Source Rmc.
 TCS .hh:mm       3 hours:   Time Circ. Stopped
 LUN .               7949:   Logging Unit Number
 LUL .          Newcastle:   Logging Unit Location
 ENGI.            Custard:   Recorded By
 WITN.            Mr. May:   Witnessed By
 DGBY.              Burke:   Digitized By
#--RUN 2---   ------------   The following are for Run 2---
 RUN .             2.0000:   Run 2
 DATE.mm/dd/yyyy 09/01/1968:   Date Logged
 DD  .ft             2955:   Depth Driller
 DL  .ft             2955:   Depth Logger
 BLI .ft             2950:   Bottom Log Interval
 TLI .ft              444:   Top Log Interval
 CSS .inch         10-3/4:   Casing Size
 CTD1.ft              340:   Casing Driller 1
 CTL1.ft              454:   Casing Logger 1
 BS  .inch          7-7/8:   Bit Size
 DFT .               "  ":   Type Fluid In Hole
 DFD .lb/gal          9.6:   Mud Weight
 DFV .sec              52:   Viscosity
 DFPH.                 85:   pH
 DFL .ml                6:   Fluid Loss
 WSS .              circ.:   Source Of Sample
 RM  .ohmm            2.5:   Rm
 EMT .F                52:   Rm Meas. Temp.
 RMF .ohmm           1.10:   Rmf
 MFT .F               100:   Rmf Meas. Temp.
 RMC .ohmm           1.63:   Rmc
 MCST.F               100:   Rmc Meas. Temp.
 MCSS.               "  ":   Source Rmc.
 RMB .ohmm           1.30:   Rm. At BHT
 BHT .F               104:   BHT.
 TCS .hh:mm       2 hours:   Time Circ. Stopped
 MRT .F               104:   Maximum Recorded Temp.
 LUN .               7949:   Logging Unit Number
 LUL .          Newcastle:   Logging Unit Location
 ENGI.               "  ":   Recorded By
 WITN.               "  ":   Witnessed By
 DGBY.               "  ":   Digitized By
#--RUN 3---   ------------   The following are for Run 3---
 RUN .             3.0000:   Run 3
 DATE.mm/dd/yyyy 09/18/1968:   Date Logged
 DD  .ft             5495:   Depth Driller
 DL  .ft             5503:   Depth Logger
 BLI .ft             5498:   Bottom Log Interval
 TLI .ft             2900:   Top Log Interval
 CSS .inch         10-3/4:   Casing Size
 CTD1.ft              450:   Casing Driller 1
 CTL1.ft              454:   Casing Logger 1
 BS  .inch              9:   Bit Size
 DFT .               "  ":   Type Fluid In Hole
 DFD .lb/gal          9.4:   Mud Weight
 DFV .sec              58:   Viscosity
 DFPH.                9.5:   pH
 DFL .ml               11:   Fluid Loss
 WSS .                pit:   Source Of Sample
 RM  .ohmm            1.7:   Rm
 EMT .F                56:   Rm Meas. Temp.
 RMF .ohmm            .64:   Rmf
 MFT .F               100:   Rmf Meas. Temp.
 RMC .ohmm            1.6:   Rmc
 MCST.F               100:   Rmc Meas. Temp.
 MCSS.               "  ":   Source Rmc.
 RMB .ohmm             .6:   Rm. At BHT
 BHT .F               160:   BHT.
 TCS .hh:mm         3 hrs:   Time Circ. Stopped
 MRT .F               160:   Maximum Recorded Temp.
 LUN .               "  ":   Logging Unit Number
 LUL .               "  ":   Logging Unit Location
 ENGI.               "  ":   Recorded By
 WITN.               "  ":   Witnessed By
 DGBY.               "  ":   Digitized By
~A  DEPTH       RO         SN        ASN        Ind        I          C          Con
# ...
 3003.0000  -999.2500     6.4040   302.2847     6.5263  -999.2500  -999.2500   576.2484
 3003.5000  -999.2500     6.3310   308.4384     6.4518  -999.2500  -999.2500   575.8579
 3004.0000  -999.2500     6.2570   300.0015     6.2960  -999.2500  -999.2500   576.2377
 3004.5000  -999.2500     6.1071   296.9386     6.1490  -999.2500  -999.2500   577.7672
 3005.0000  -999.2500     5.8045   293.8757     6.1426  -999.2500  -999.2500   578.9140
 3005.5000  -999.2500     5.7305   290.8128     6.1154  -999.2500  -999.2500   581.2137
 3006.0000  -999.2500     5.7353   285.4458     6.0882  -999.2500  -999.2500   582.7626
 3006.5000  -999.2500     5.7391   280.0788     6.0610  -999.2500  -999.2500   583.1230
 3007.0000  -999.2500     5.7431   278.9511     6.0338  -999.2500  -999.2500   582.7310
 3007.5000  -999.2500     5.7478   282.8384     6.0066  -999.2500  -999.2500   581.5719
 3008.0000  -999.2500     5.7516   284.4027     5.9795  -999.2500  -999.2500   581.9500
 3008.5000  -999.2500     5.8323   279.0735     5.9523  -999.2500  -999.2500   583.0983
 3009.0000  -999.2500     5.7593   276.7975     5.9251  -999.2500  -999.2500   582.7064
 3009.5000  -999.2500     5.7631   276.8446     5.8979  -999.2500  -999.2500   582.3159
 3010.0000  -999.2500     5.7670   276.8823     5.8706  -999.2500  -999.2500   582.6935
 3010.5000  -999.2500     5.6938   273.0432     5.7191  -999.2500  -999.2500   583.4560
 3011.0000  -999.2500     5.5440   267.6609     5.7224  -999.2500  -999.2500   584.9873
 3011.5000  -999.2500     5.4710   266.2425     5.7250  -999.2500  -999.2500   586.9025
 3012.0000  -999.2500     5.3212   266.2896     5.7277  -999.2500  -999.2500   588.0493
 3012.5000  -999.2500     5.2481   264.0230     5.6841  -999.2500  -999.2500   589.5789
 3013.0000  -999.2500     5.2529   259.4524     5.6115  -999.2500  -999.2500   591.1116
 3013.5000  -999.2500     5.1799   254.1137     5.5389  -999.2500  -999.2500   592.6412
 3014.0000  -999.2500     5.1837   249.5336     5.4663  -999.2500  -999.2500   592.2507
 3014.5000  -999.2500     5.1876   251.1168     5.3938  -999.2500  -999.2500   591.8602
 3015.0000  -999.2500     5.1914   246.5461     5.3212  -999.2500  -999.2500   591.4697
 3015.5000  -999.2500     5.1953   248.1199     5.2486  -999.2500  -999.2500   592.2324
 3016.0000  -999.2500     5.1991   248.9256     5.1760  -999.2500  -999.2500   592.6104
 3016.5000  -999.2500     5.1261   246.6591     5.1034  -999.2500  -999.2500   593.7571
 3017.0000  -999.2500     4.9003   239.6720     5.0308  -999.2500  -999.2500   595.2867
 3017.5000  -999.2500     4.8263   236.6333     4.9582  -999.2500  -999.2500   596.8177
 3018.0000  -999.2500     4.7542   228.3482     4.8856  -999.2500  -999.2500   598.7332
 3018.5000  -999.2500     4.6803   219.9373     4.8130  -999.2500  -999.2500   601.0330
 3019.0000  -999.2500     4.6072   213.8306     4.7404  -999.2500  -999.2500   604.1014
 3019.5000  -999.2500     4.5342   213.8682     4.6678  -999.2500  -999.2500   606.0168
 3020.0000  -999.2500     4.3856   213.1378     4.6066  -999.2500  -999.2500   607.1636
 3020.5000  -999.2500     4.3116   211.6300     4.5780  -999.2500  -999.2500   608.3289
 3021.0000  -999.2500     4.2396   210.1409     4.5493  -999.2500  -999.2500   609.0729
 3021.5000  -999.2500     4.2434   209.4011     4.5207  -999.2500  -999.2500   609.0652
 3022.0000  -999.2500     4.2472   209.5403     4.4920  -999.2500  -999.2500   609.4449
 3022.5000  -999.2500     4.2511   206.4136     4.4633  -999.2500  -999.2500   610.2058
 3023.0000  -999.2500     4.2550   201.8142     4.4347  -999.2500  -999.2500   612.1212
 3023.5000  -999.2500     4.2597   200.3445     4.4060  -999.2500  -999.2500   614.4210
 3024.0000  -999.2500     4.2636   197.3194     4.3773  -999.2500  -999.2500   615.9521
 3024.5000  -999.2500     4.2674   192.7487     4.3487  -999.2500  -999.2500   616.7146
 3025.0000  -999.2500     4.2712   191.2408     4.3200  -999.2500  -999.2500   618.2772
 3025.5000  -999.2500     4.1972   192.0465     4.2914  -999.2500  -999.2500   620.5439
 3026.0000  -999.2500     4.2020   191.3161     4.2627  -999.2500  -999.2500   620.5378
 3026.5000  -999.2500     4.2059   189.8177     4.2340  -999.2500  -999.2500   619.7629
 3027.0000  -999.2500     4.2097   189.8647     4.2054  -999.2500  -999.2500   618.6038
 3027.5000  -999.2500     4.1367   192.2065     4.1767  -999.2500  -999.2500   617.8306
 3028.0000  -999.2500     4.0637   189.9400     4.1480  -999.2500  -999.2500   618.2077
 3028.5000  -999.2500     4.0685   185.3694     4.1194  -999.2500  -999.2500   619.7372
 3029.0000  -999.2500     4.0723   183.0983     4.0907  -999.2500  -999.2500   622.4213
 3029.5000  -999.2500     4.0762   184.6774     4.0620  -999.2500  -999.2500   624.7211
 3030.0000  -999.2500     4.0800   181.5151     4.0394  -999.2500  -999.2500   627.7895
 3030.5000  -999.2500     4.0060   177.0808     4.0207  -999.2500  -999.2500   630.4736
 3031.0000  -999.2500     4.0108   174.0463     4.0020  -999.2500  -999.2500   632.3890
 3031.5000  -999.2500     4.0147   174.8425     3.9833  -999.2500  -999.2500   632.7673
 3032.0000  -999.2500     4.0185   168.7452     3.9646  -999.2500  -999.2500   632.7609
 3032.5000  -999.2500     4.0223   168.0054     3.9459  -999.2500  -999.2500   632.7546
 3033.0000  -999.2500     3.8725   168.8205     3.9272  -999.2500  -999.2500   632.3628
 3033.5000  -999.2500     3.8773   170.3942     3.9085  -999.2500  -999.2500   631.2037
 3034.0000  -999.2500     3.8033   168.1183     3.8898  -999.2500  -999.2500   629.6602
 3034.5000  -999.2500     3.8081   166.6293     3.8711  -999.2500  -999.2500   630.8070
 3035.0000  -999.2500     3.7341   164.3625     3.8488  -999.2500  -999.2500   633.1068
 3035.5000  -999.2500     3.7389   162.0963     3.6973  -999.2500  -999.2500   635.7908
 3036.0000  -999.2500     3.6649   162.1352     3.6999  -999.2500  -999.2500   640.0122
 3036.5000  -999.2500     3.5927   156.0366     3.7026  -999.2500  -999.2500   643.1523
 3037.0000  -999.2500     3.5198   153.7701     3.6275  -999.2500  -999.2500   647.0532
 3037.5000  -999.2500     3.4406   154.5758     3.5531  -999.2500  -999.2500   649.6002
 3038.0000  -999.2500     3.3738   156.9176     3.5564  -999.2500  -999.2500   650.3642
 3038.5000  -999.2500     3.4554   157.7233     3.5590  -999.2500  -999.2500   648.8192
 3039.0000  -999.2500     3.4593   158.5195     3.5616  -999.2500  -999.2500   646.8914
 3039.5000  -999.2500     3.5400   157.7891     3.5643  -999.2500  -999.2500   645.1210
 3040.0000  -999.2500     3.6207   167.0528     3.6446  -999.2500  -999.2500   635.3485
 3040.5000  -999.2500     3.8551   179.3792     3.7242  -999.2500  -999.2500   629.1932
 3041.0000  -999.2500     4.0127   184.7932     4.0350  -999.2500  -999.2500   622.6536
 3041.5000  -999.2500     4.1702   188.7018     4.3458  -999.2500  -999.2500   619.5729
 3042.0000  -999.2500     4.4058   193.3945     4.6566  -999.2500  -999.2500   616.4922
 3042.5000  -999.2500     4.5713   200.7108     4.8904  -999.2500  -999.2500   611.4899
 3043.0000  -999.2500     4.8745   212.8857     4.9700  -999.2500  -999.2500   601.4913
 3043.5000  -999.2500     5.0321   225.0607     5.2808  -999.2500  -999.2500   591.8610
 3044.0000  -999.2500     5.1128   237.2356     5.4376  -999.2500  -999.2500   585.6292
 3044.5000  -999.2500     5.1166   249.4106     5.4408  -999.2500  -999.2500   584.1769
 3045.0000  -999.2500     4.9667   258.8396     5.1353  -999.2500  -999.2500   592.6259
 3045.5000  -999.2500     4.5862   261.1720     4.7521  -999.2500  -999.2500   600.7799
 3046.0000  -999.2500     4.1289   236.3923     4.5236  -999.2500  -999.2500   611.7349
 3046.5000  -999.2500     3.8253   195.2045     4.0646  -999.2500  -999.2500   622.6899
 3047.0000  -999.2500     3.6754   182.9533     3.6820  -999.2500  -999.2500   633.3941
 3047.5000  -999.2500     3.8331   186.8312     3.5299  -999.2500  -999.2500   635.2535
 3048.0000  -999.2500     3.9146   190.7091     3.5332  -999.2500  -999.2500   638.3218
