~VERSION INFORMATION
 VERS.               2.10:   CWLS LOG ASCII STANDARD - VERSION 2.10
 WRAP.                 NO:   ONE LINE PER DEPTH STEP
~WELL INFORMATION
#MNEM.UNIT      DATA TYPE    INFORMATION
#----------   ------------   ------------------------------
 STRT.F            0.0000:   START DEPTH
 STOP.F         5499.9595:   STOP DEPTH
 STEP.F            0.5000:   STEP LENGTH
 NULL.          -999.2500:   NO VALUE
 COMP. Tesoro Petroleum Corporation:   COMPANY
 WELL.            51 x 28:   WELL
 FLD .           N.P.R. 3:   FIELD
 LOC . 28-39N-78W-NATRONA-WY:   LOCATION
 STAT.                 WY:   STATE
 COUN.            Natrona:   COUNTY
 SRVC.                   :   SERVICE COMPANY
 DATE.         07/07/1968:   LOGDATE
~CURVE INFORMATION
#MNEM.UNIT       API CODE    CURVE DESCRIPTION
#----------   ------------   ------------------------------
 DEPT.F                  :
 RO  .m2/m               :   Resisitivity Ohms
 SN  .m2/m               :   Reisistivity Ohms
 ASN .m2/m               :   Reisistivity Ohms
 Ind .None               :   Induction
 Ind .None               :   Induction
 Con .millimhos/m        :   Conductivitity
 Con .millimhos/m        :   Conductivitity
~PARAMETER INFORMATION
#MNEM.UNIT          VALUE    DESCRIPTION
#----------   ------------   ------------------------------
 EKB .F         5008.0000:   Kelly bushing
 EGL .F         4997.0000:   Ground level
 EDF .F            0.0000:   Drilling floor
 EPD .F            7.0000:   Permanent datum
 TD  .F         5500.0000:   Total depth
 NRUN.             3.0000:   Number of Runs
#--RUN 1---   ------------   The following are for Run 1---
 RUN .             1.0000:   Run 1
 DATE.mm/dd/yyyy 07/07/1968:   Date Logged
 DD  .ft              450:   Depth Driller
 DL  .ft              455:   Depth Logger
 BLI .ft              450:   Bottom Log Interval
 TLI .ft               38:   Top Log Interval
 CSS .inch             20:   Casing Size
 CTD1.ft               38:   Casing Driller 1
 CTL1.ft               38:   Casing Logger 1
 BS  .inch             15:   Bit Size
 DFT .     water base mud:   Type Fluid In Hole
 DFD .lb/gal          9.3:   Mud Weight
 DFV .sec              48:   Viscosity
 DFPH.                  8:   pH
 DFL .ml              7.6:   Fluid Loss
 WSS .           flo line:   Source Of Sample
 RM  .ohmm            2.7:   Rm
 EMT .F                93:   Rm Meas. Temp.
 RMF .ohmm            2.1:   Rmf
 MFT .F               100:   Rmf Meas. Temp.
 RMC .ohmm            2.3:   Rmc
 MCST.F               100:   Rmc Meas. Temp.
 MCSS.       fann mud kit:   Source Rmc.
 TCS .hh:mm       3 hours:   Time Circ. Stopped
 LUN .               7949:   Logging Unit Number
 LUL .          Newcastle:   Logging Unit Location
 ENGI.            Custard:   Recorded By
 WITN.            Mr. May:   Witnessed By
 DGBY.              Burke:   Digitized By
#--RUN 2---   ------------   The following are for Run 2---
 RUN .             2.0000:   Run 2
 DATE.mm/dd/yyyy 09/01/1968:   Date Logged
 DD  .ft             2955:   Depth Driller
 DL  .ft             2955:   Depth Logger
 BLI .ft             2950:   Bottom Log Interval
 TLI .ft              444:   Top Log Interval
 CSS .inch         10-3/4:   Casing Size
 CTD1.ft              340:   Casing Driller 1
 CTL1.ft              454:   Casing Logger 1
 BS  .inch          7-7/8:   Bit Size
 DFT .               "  ":   Type Fluid In Hole
 DFD .lb/gal          9.6:   Mud Weight
 DFV .sec              52:   Viscosity
 DFPH.                 85:   pH
 DFL .ml                6:   Fluid Loss
 WSS .              circ.:   Source Of Sample
 RM  .ohmm            2.5:   Rm
 EMT .F                52:   Rm Meas. Temp.
 RMF .ohmm           1.10:   Rmf
 MFT .F               100:   Rmf Meas. Temp.
 RMC .ohmm           1.63:   Rmc
 MCST.F               100:   Rmc Meas. Temp.
 MCSS.               "  ":   Source Rmc.
 RMB .ohmm           1.30:   Rm. At BHT
 BHT .F               104:   BHT.
 TCS .hh:mm       2 hours:   Time Circ. Stopped
 MRT .F               104:   Maximum Recorded Temp.
 LUN .               7949:   Logging Unit Number
 LUL .          Newcastle:   Logging Unit Location
 ENGI.               "  ":   Recorded By
 WITN.               "  ":   Witnessed By
 DGBY.               "  ":   Digitized By
#--RUN 3---   ------------   The following are for Run 3---
 RUN .             3.0000:   Run 3
 DATE.mm/dd/yyyy 09/18/1968:   Date Logged
 DD  .ft             5495:   Depth Driller
 DL  .ft             5503:   Depth Logger
 BLI .ft             5498:   Bottom Log Interval
 TLI .ft             2900:   Top Log Interval
 CSS .inch         10-3/4:   Casing Size
 CTD1.ft              450:   Casing Driller 1
 CTL1.ft              454:   Casing Logger 1
 BS  .inch              9:   Bit Size
 DFT .               "  ":   Type Fluid In Hole
 DFD .lb/gal          9.4:   Mud Weight
 DFV .sec              58:   Viscosity
 DFPH.                9.5:   pH
 DFL .ml               11:   Fluid Loss
 WSS .                pit:   Source Of Sample
 RM  .ohmm            1.7:   Rm
 EMT .F                56:   Rm Meas. Temp.
 RMF .ohmm            .64:   Rmf
 MFT .F               100:   Rmf Meas. Temp.
 RMC .ohmm            1.6:   Rmc
 MCST.F               100:   Rmc Meas. Temp.
 MCSS.               "  ":   Source Rmc.
 RMB .ohmm             .6:   Rm. At BHT
 BHT .F               160:   BHT.
 TCS .hh:mm         3 hrs:   Time Circ. Stopped
 MRT .F               160:   Maximum Recorded Temp.
 LUN .               "  ":   Logging Unit Number
 LUL .               "  ":   Logging Unit Location
 ENGI.               "  ":   Recorded By
 WITN.               "  ":   Witnessed By
 DGBY.               "  ":   Digitized By
~A  DEPTH       RO         SN        ASN        Ind        I          C          Con
# ...
 2730.0000  -999.2500    12.4511  -999.2500     6.1866  -999.2500  -999.2500   562.5958
 2730.5000  -999.2500    12.2992  -999.2500     6.1113  -999.2500  -999.2500   563.3471
 2731.0000  -999.2500    11.9948  -999.2500     6.1141  -999.2500  -999.2500   564.8669
 2731.5000  -999.2500    11.3824  -999.2500     5.5718  -999.2500  -999.2500   566.3867
 2732.0000  -999.2500    10.5394  -999.2500     4.9629  -999.2500  -999.2500   568.6753
 2732.5000  -999.2500     9.9269   500.0917     4.8881  -999.2500  -999.2500   572.8853
 2733.0000  -999.2500     9.3913   436.9724     4.8134  -999.2500  -999.2500   577.0955
 2733.5000  -999.2500     9.0095   423.9191     4.8162  -999.2500  -999.2500   580.5369
 2734.0000  -999.2500     8.7734   414.7179     4.7408  -999.2500  -999.2500   581.6943
 2734.5000  -999.2500     8.3233   401.6646     4.5119  -999.2500  -999.2500   582.1506
 2735.0000  -999.2500     8.0951   384.7592     4.2836  -999.2500  -999.2500   584.7078
 2735.5000  -999.2500     7.7133   359.0710     3.9777  -999.2500  -999.2500   589.6865
 2736.0000  -999.2500     6.9471   346.0751     3.6689  -999.2500  -999.2500   594.6652
 2736.5000  -999.2500     6.1810   299.0317     3.1884  -999.2500  -999.2500   601.1685
 2737.0000  -999.2500     5.1842   244.7296     2.4442  -999.2500  -999.2500   616.7086
 2737.5000  -999.2500     4.2643   204.6504     2.0612  -999.2500  -999.2500   635.2321
 2738.0000  -999.2500     3.8025   180.8763     1.7553  -999.2500  -999.2500   656.8340
 2738.5000  -999.2500     3.3367   167.8230     1.6029  -999.2500  -999.2500   678.9620
 2739.0000  -999.2500     3.1187   157.0809     1.2205  -999.2500  -999.2500   704.6762
 2739.5000  -999.2500     3.0443   143.2572     0.9916  -999.2500  -999.2500   735.6735
 2740.0000  -999.2500     2.8168   137.9081     0.9168  -999.2500  -999.2500    50.3289
 2740.5000  -999.2500     2.5887   132.5590     0.8420  -999.2500  -999.2500    73.4332
 2741.0000  -999.2500     2.5912   131.0606     0.8444  -999.2500  -999.2500    86.4172
 2741.5000  -999.2500     2.5937   128.0241     0.8471  -999.2500  -999.2500    88.7057
 2742.0000  -999.2500     2.5961   123.3102     0.9264  -999.2500  -999.2500    93.6844
 2742.5000  -999.2500     2.6023   127.3522     1.0057  -999.2500  -999.2500   108.6555
 2743.0000  -999.2500     2.9211   140.4930     1.0850  -999.2500  -999.2500   106.3321
 2743.5000  -999.2500     3.2959   145.1593     1.2413  -999.2500  -999.2500    78.8295
 2744.0000  -999.2500     3.6827   154.4481     1.7058  -999.2500  -999.2500    42.6451
 2744.5000  -999.2500     3.9926   168.3593     1.8621  -999.2500  -999.2500  -999.2500
 2745.0000  -999.2500     5.3018   212.3169     1.7103  -999.2500  -999.2500   742.4648
 2745.5000  -999.2500     6.4572   258.2472     2.3415  -999.2500  -999.2500   722.7739
 2746.0000  -999.2500     6.8440   327.9742     2.9480  -999.2500  -999.2500   700.7658
 2746.5000  -999.2500     7.2308   335.7221     3.4125  -999.2500  -999.2500   661.8386
 2747.0000  -999.2500     7.5466   354.2559     3.6459  -999.2500  -999.2500   630.5969
 2747.5000  -999.2500     7.7744   370.4784     3.7252  -999.2500  -999.2500   609.0681
 2748.0000  -999.2500     8.2380   385.9305     3.8815  -999.2500  -999.2500   603.4603
 2748.5000  -999.2500     8.7017   415.0539     4.1149  -999.2500  -999.2500   600.7527
 2749.0000  -999.2500     9.1654   455.2024     4.5023  -999.2500  -999.2500   598.0450
 2749.5000  -999.2500    10.6190   498.5462     5.2105  -999.2500  -999.2500   590.7255
 2750.0000  -999.2500    12.5188   498.5996     6.3816  -999.2500  -999.2500   581.2697
 2750.5000  -999.2500    14.4186   498.6576     7.0520  -999.2500  -999.2500   570.4084
 2751.0000  -999.2500    19.0138   498.7156     9.0574  -999.2500  -999.2500   559.5473
 2751.5000  -999.2500    20.8772   498.7737    10.3880  -999.2500  -999.2500   548.6861
 2752.0000  -999.2500    21.1716   498.8317    12.6830  -999.2500  -999.2500   537.6022
 2752.5000  -999.2500    21.0972   498.8897    13.1475  -999.2500  -999.2500   534.5087
 2753.0000  -999.2500    20.7153   498.9477    12.9186  -999.2500  -999.2500   531.8025
 2753.5000  -999.2500    20.0260   499.0057    12.3045  -999.2500  -999.2500   534.5444
 2754.0000  -999.2500    19.2598   499.0637    11.6904  -999.2500  -999.2500   536.7638
 2754.5000  -999.2500    19.0317   499.1217    10.9223  -999.2500  -999.2500   538.6636
 2755.0000  -999.2500    19.0342   499.1797    10.4623  -999.2500  -999.2500   541.7207
 2755.5000  -999.2500    19.1918   499.2378    10.2286  -999.2500  -999.2500   541.7033
 2756.0000  -999.2500    19.5106   499.2958    10.4935  -999.2500  -999.2500   541.6859
 2756.5000  -999.2500    19.8108   499.3538    11.0859  -999.2500  -999.2500   540.5154
 2757.0000  -999.2500    20.2745   499.4118    11.5504  -999.2500  -999.2500   538.9608
 2757.5000  -999.2500    20.1232   499.4698    11.8608  -999.2500  -999.2500   536.6374
 2758.0000  -999.2500    19.5877   499.5278    11.5549  -999.2500  -999.2500   535.8514
 2758.5000  -999.2500    18.9752   499.5858    11.1720  -999.2500  -999.2500   535.8339
 2759.0000  -999.2500    18.4396   499.6439    10.8660  -999.2500  -999.2500   537.7972
 2759.5000  -999.2500    18.1347   499.7019    10.7142  -999.2500  -999.2500   540.4109
 2760.0000  -999.2500    17.5148   499.7599    10.5573  -999.2500  -999.2500   539.2361
 2760.5000  -999.2500    16.8851   499.8179     9.8718  -999.2500  -999.2500   539.6074
 2761.0000  -999.2500    16.5279   499.8759     9.4118  -999.2500  -999.2500   542.2759
 2761.5000  -999.2500    16.6079   499.9339     9.1829  -999.2500  -999.2500   544.9487
 2762.0000  -999.2500    16.3797   499.9919     8.9540  -999.2500  -999.2500   547.6214
 2762.5000  -999.2500    15.6136   500.0500     8.8022  -999.2500  -999.2500   548.7613
 2763.0000  -999.2500    15.1549   500.1080     8.7269  -999.2500  -999.2500   549.1245
 2763.5000  -999.2500    14.8499   500.1660     8.4215  -999.2500  -999.2500   549.4910
 2764.0000  -999.2500    14.6986   500.2240     8.2697  -999.2500  -999.2500   550.6422
 2764.5000  -999.2500    14.6242   500.2820     7.9584  -999.2500  -999.2500   552.6311
 2765.0000  -999.2500    14.7042   500.3401     7.5043  -999.2500  -999.2500   555.9675
 2765.5000  -999.2500    14.9372   500.3981     7.4290  -999.2500  -999.2500   557.1074
 2766.0000  -999.2500    14.8622   500.4561     7.6629  -999.2500  -999.2500   557.4742
 2766.5000  -999.2500    14.7878   500.5141     8.1274  -999.2500  -999.2500   556.2996
 2767.0000  -999.2500    15.0215   500.5721     8.5148  -999.2500  -999.2500   555.1292
 2767.5000  -999.2500    15.8695   500.6301     9.0564  -999.2500  -999.2500   552.8058
 2768.0000  -999.2500    16.6406   500.6881     9.9061  -999.2500  -999.2500   549.7139
 2768.5000  -999.2500    17.3348   500.7462    10.7558  -999.2500  -999.2500   545.0845
 2769.0000  -999.2500    17.6528   500.8042    10.8351  -999.2500  -999.2500   542.3768
 2769.5000  -999.2500    17.7241   500.8622    10.6425  -999.2500  -999.2500   540.4309
 2770.0000  -999.2500    16.4205   500.9202     9.7555  -999.2500  -999.2500   540.0356
 2770.5000  -999.2500    13.9633   500.9782     8.8685  -999.2500  -999.2500   546.5004
 2771.0000  -999.2500    13.1971   501.0362     7.9814  -999.2500  -999.2500   558.5521
 2771.5000  -999.2500    12.5847   501.0942     7.0944  -999.2500  -999.2500   570.6039
 2772.0000  -999.2500    11.7416   501.1523     6.2073  -999.2500  -999.2500   582.6556
 2772.5000  -999.2500    10.5912   501.2103     5.3203  -999.2500  -999.2500   592.1131
 2773.0000  -999.2500     9.5148   500.5324     4.6903  -999.2500  -999.2500   593.6531
 2773.5000  -999.2500     8.9820   472.1557     4.6926  -999.2500  -999.2500   592.5028
 2774.0000  -999.2500     8.9850   449.8464     4.6178  -999.2500  -999.2500   590.9675
 2774.5000  -999.2500     9.1412   442.1847     4.6206  -999.2500  -999.2500   590.5859
 2775.0000  -999.2500     9.2974   444.5122     4.6228  -999.2500  -999.2500   590.5893
