~VERSION INFORMATION
 VERS.               2.10:   CWLS LOG ASCII STANDARD - VERSION 2.10
 WRAP.                 NO:   ONE LINE PER DEPTH STEP
~WELL INFORMATION
#MNEM.UNIT      DATA TYPE    INFORMATION
#----------   ------------   ------------------------------
 STRT.F            0.0000:   START DEPTH
 STOP.F         5494.0205:   STOP DEPTH
 STEP.F            0.5000:   STEP LENGTH
 NULL.          -999.2500:   NO VALUE
 COMP. Tesoro Petroleum Corporation:   COMPANY
 WELL.            51-X-28:   WELL
 FLD .           N.P.R. 3:   FIELD
 LOC . 28-39N-78W-NATRONA-WY:   LOCATION
 STAT.                 WY:   STATE
 COUN.            Natrona:   COUNTY
 SRVC.              Welex:   SERVICE COMPANY
 DATE.                   :   LOGDATE
~CURVE INFORMATION
#MNEM.UNIT       API CODE    CURVE DESCRIPTION
#----------   ------------   ------------------------------
 DEPT.F                  :
 GD  .std.den.units      :   Gamma Density
 RhoG.APO                :   Gamma
 GR.API        	         :   Gamma
~PARAMETER INFORMATION
#MNEM.UNIT          VALUE    DESCRIPTION
#----------   ------------   ------------------------------
 EKB .F         5008.0000:   Kelly bushing
 EGL .F         4997.0000:   Ground level
 EDF .F            0.0000:   Drilling floor
 EPD .F           11.0000:   Permanent datum
 TD  .F         4830.0000:   Total depth
 NRUN.             1.0000:   Number of Runs
#--RUN 1---   ------------   The following are for Run 1---
 RUN .             1.0000:   Run 1
 DATE.mm/dd/yyyy 09/18/1968:   Date Logged
 DD  .ft             5495:   Depth Driller
 DL  .ft             5498:   Depth Logger
 BLI .ft             5496:   Bottom Log Interval
 TLI .ft             2500:   Top Log Interval
 CSS .inch          10.75:   Casing Size
 CTD1.ft              450:   Casing Driller 1
 CTL1.ft              454:   Casing Logger 1
 BS  .inch              9:   Bit Size
 DFT .     water base mud:   Type Fluid In Hole
 DFD .lb/gal          9.4:   Mud Weight
 DFV .sec              58:   Viscosity
 DFPH.                9.5:   pH
 DFL .ml               11:   Fluid Loss
 WSS .                pit:   Source Of Sample
 RM  .ohmm            1.7:   Rm
 EMT .F                56:   Rm Meas. Temp.
 RMF .ohmm            .64:   Rmf
 MFT .F               100:   Rmf Meas. Temp.
 RMC .ohmm            1.6:   Rmc
 MCST.F               100:   Rmc Meas. Temp.
 MFSS.               fann:   Source Rmf.
 MCSS.            mud kit:   Source Rmc.
 RMB .ohmm            .60:   Rm. At BHT
 BHT .F               160:   BHT.
 TCS .hh:mm        3 hrs.:   Time Circ. Stopped
 MRT .F               160:   Maximum Recorded Temp.
 LUL .          Newcastle:   Logging Unit Location
 ENGI.        Mr. Custard:   Recorded By
 WITN.            Mr. May:   Witnessed By
 DGBY.          Mr. Burke:   Digitized By
~A  DEPTH       GD       RhoG       GR
# ...
 4004.0000  1160.0924  -999.2500   374.0696
 4004.5000  1157.0107  -999.2500   375.7176
 4005.0000  1160.0924  -999.2500   376.2571
 4005.5000  1160.0924  -999.2500   380.5770
 4006.0000  1165.4854  -999.2500   379.6657
 4006.5000  1172.4191  -999.2500   381.2915
 4007.0000  1170.0033  -999.2500   382.4540
 4007.5000  1163.9446  -999.2500   383.3860
 4008.0000  1166.2557  -999.2500   382.9355
 4008.5000  1164.7150  -999.2500   382.4851
 4009.0000  1166.2557  -999.2500   381.5738
 4009.5000  1163.1741  -999.2500   380.4321
 4010.0000  1150.0770  -999.2500   379.2904
 4010.5000  1146.2250  -999.2500   376.7493
 4011.0000  1143.1433  -999.2500   377.6194
 4011.5000  1145.4546  -999.2500   379.7849
 4012.0000  1155.6228  -999.2500   379.7952
 4012.5000  1165.0986  -999.2500   380.0360
 4013.0000  1173.1896  -999.2500   381.6593
 4013.5000  1174.7303  -999.2500   383.0522
 4014.0000  1180.1233  -999.2500   384.2146
 4014.5000  1190.1387  -999.2500   384.6858
 4015.0000  1224.0370  -999.2500   380.3183
 4015.5000  1244.8383  -999.2500   378.7157
 4016.0000  1282.4818  -999.2500   377.5402
 4016.5000  1358.4987  -999.2500   375.4355
 4017.0000  1434.5154  -999.2500   370.4705
 4017.5000  1510.5321  -999.2500   363.0255
 4018.0000  1391.1927  -999.2500   358.4682
 4018.5000  1234.7831  -999.2500   358.2719
 4019.0000  1335.0428  -999.2500   358.0518
 4019.5000  1435.3026  -999.2500   358.7560
 4020.0000  1535.5624  -999.2500   358.3055
 4020.5000  -999.2500  -999.2500   357.1613
 4021.0000  -999.2500  -999.2500   359.0175
 4021.5000  1052.2605  -999.2500   359.0279
 4022.0000  1061.2850  -999.2500   360.8815
 4022.5000  1082.7930  -999.2500   364.1177
 4023.0000  1106.9337  -999.2500   371.2355
 4023.5000  1135.4391  -999.2500   379.4797
 4024.0000  1158.5516  -999.2500   387.7238
 4024.5000  1180.1233  -999.2500   395.2660
 4025.0000  1196.3020  -999.2500   397.1198
 4025.5000  1133.1279  -999.2500   398.5129
 4026.0000  1127.7350  -999.2500   397.1430
 4026.5000  1135.4391  -999.2500   392.7755
 4027.0000  1138.5208  -999.2500   391.6338
 4027.5000  1125.9358  -999.2500   391.8746
 4028.0000  1122.3420  -999.2500   391.6519
 4028.5000  1125.4237  -999.2500   393.0474
 4029.0000  1140.8320  -999.2500   393.2882
 4029.5000  1146.2250  -999.2500   392.1464
 4030.0000  1151.6179  -999.2500   389.6069
 4030.5000  1160.0924  -999.2500   385.4860
 4031.0000  1167.7966  -999.2500   377.6623
 4031.5000  1171.6487  -999.2500   375.0176
 4032.0000  1168.9814  -999.2500   369.1577
 4032.5000  1147.0016  -999.2500   366.8475
 4033.0000  1091.5254  -999.2500   365.2613
 4033.5000  1083.0509  -999.2500   366.6568
 4034.0000  1075.3467  -999.2500   368.2800
 4034.5000  1063.0200  -999.2500   370.5946
 4035.0000  1052.1689  -999.2500   371.9874
 4035.5000  1032.8142  -999.2500   373.3777
 4036.0000  1013.4595  -999.2500   371.3169
 4036.5000   994.1047  -999.2500   370.8638
 4037.0000   975.9630  -999.2500   370.8768
 4037.5000   976.7335  -999.2500   371.3480
 4038.0000   981.3560  -999.2500   372.9875
 4038.5000   987.5193  -999.2500   373.2124
 4039.0000   992.9122  -999.2500   368.6141
 4039.5000   989.8305  -999.2500   370.0095
 4040.0000   989.8305  -999.2500   364.0291
 4040.5000   992.9122  -999.2500   362.8874
 4041.0000   985.9785  -999.2500   364.0498
 4041.5000   980.5855  -999.2500   366.1339
 4042.0000   974.4222  -999.2500   366.3721
 4042.5000   992.9122  -999.2500   365.2327
 4043.0000  1004.4684  -999.2500   363.8609
 4043.5000  1008.3205  -999.2500   360.0538
 4044.0000   999.8459  -999.2500   355.1527
 4044.5000   975.1926  -999.2500   350.2517
 4045.0000   962.0955  -999.2500   345.2405
 4045.5000   966.9496  -999.2500   343.1771
 4046.0000   979.0447  -999.2500   342.7263
 4046.5000   983.6672  -999.2500   343.4282
 4047.0000   979.8151  -999.2500   344.3603
 4047.5000   981.3560  -999.2500   343.4490
 4048.0000   985.9785  -999.2500   343.6924
 4048.5000   992.9122  -999.2500   343.9331
 4049.0000  1002.1572  -999.2500   345.3260
 4049.5000   998.3051  -999.2500   347.1797
 4050.0000  1002.9276  -999.2500   348.1117
 4050.5000  1015.8705  -999.2500   350.1958
 4051.0000  1032.9738  -999.2500   351.5886
 4051.5000  1034.5146  -999.2500   354.5944
 4052.0000  1034.5146  -999.2500   358.9826
 4052.5000  1036.0554  -999.2500   370.0793
 4053.0000  1042.2188  -999.2500   372.1963
 4053.5000  1052.2343  -999.2500   373.5298
 4054.0000  1080.7396  -999.2500   368.9345
 4054.5000  1090.7550  -999.2500   368.4814
 4055.0000  1098.4592  -999.2500   368.9552
 4055.5000  1100.0000  -999.2500   371.5002
 4056.0000  1026.0400  -999.2500   376.3492
 4056.5000  1013.7134  -999.2500   377.7421
 4057.0000  1019.1063  -999.2500   378.2465
 4057.5000   992.1418  -999.2500   377.5324
 4058.0000   965.9476  -999.2500   373.6010
 4058.5000   960.5547  -999.2500   371.3319
 4059.0000   962.0955  -999.2500   369.2711
 4059.5000   963.6364  -999.2500   367.6660
 4060.0000   971.3405  -999.2500   367.9094
 4060.5000   976.0400  -999.2500   369.5327
 4061.0000   989.8305  -999.2500   372.3080
 4061.5000   993.6826  -999.2500   376.7107
 4062.0000  1005.1080  -999.2500   381.6164
 4062.5000  1019.5461  -999.2500   384.5528
 4063.0000  1032.9738  -999.2500   384.3328
 4063.5000  1030.6626  -999.2500   383.1910
 4064.0000  1019.8767  -999.2500   380.2060
 4064.5000  1013.7134  -999.2500   378.8339
 4065.0000  1017.5655  -999.2500   378.1530
 4065.5000  1017.4885  -999.2500   378.1634
 4066.0000  1015.2542  -999.2500   379.7866
 4066.5000  1009.8613  -999.2500   381.8707
 4067.0000  1013.7134  -999.2500   383.9769
 4067.5000  1019.8767  -999.2500   389.5175
 4068.0000  1022.1880  -999.2500   392.5035
 4068.5000  1036.0554  -999.2500   393.4329
 4069.0000  1038.3667  -999.2500   384.9205
 4069.5000  1039.9076  -999.2500   382.3963
 4070.0000  1039.9076  -999.2500   377.7984
 4070.5000  1035.9010  -999.2500   377.3454
 4071.0000  1019.1063  -999.2500   376.8975
 4071.5000  1004.4684  -999.2500   375.7558
 4072.0000   989.0601  -999.2500   373.2316
 4072.5000   978.2743  -999.2500   369.7848
 4073.0000   971.3405  -999.2500   365.7928
 4073.5000   982.8968  -999.2500   361.7445
 4074.0000   986.7488  -999.2500   362.2157
 4074.5000   979.0447  -999.2500   364.7606
 4075.0000   942.0647  -999.2500   364.7710
 4075.5000   938.8799  -999.2500   366.6247
 4076.0000   949.9913  -999.2500   369.8608
 4076.5000   962.0955  -999.2500   368.7191
 4077.0000   969.0293  -999.2500   367.5774
 4077.5000   968.2589  -999.2500   366.6659
 4078.0000   964.4068  -999.2500   365.0617
 4078.5000   958.2435  -999.2500   362.4748
 4079.0000   957.4730  -999.2500   358.8657
 4079.5000   962.0955  -999.2500   357.7240
 4080.0000   971.3405  -999.2500   357.2735
 4080.5000   982.8968  -999.2500   353.5973
 4081.0000   988.2897  -999.2500   353.1442
 4081.5000   983.6672  -999.2500   353.3876
 4082.0000   985.2080  -999.2500   354.5500
 4082.5000   989.0601  -999.2500   357.3253
 4083.0000  1000.6163  -999.2500   357.8368
 4083.5000  1010.7103  -999.2500   357.1165
 4084.0000  1020.0805  -999.2500   354.8228
 4084.5000  1023.7288  -999.2500   352.7594
 4085.0000  1022.1880  -999.2500   350.9264
 4085.5000  1024.4993  -999.2500   352.0963
 4086.0000  1025.2697  -999.2500   353.2801
 4086.5000  1020.6472  -999.2500   355.7988
 4087.0000  1000.6163  -999.2500   354.1963
 4087.5000   974.4222  -999.2500   355.3587
 4088.0000   963.6364  -999.2500   354.2170
 4088.5000   964.4315  -999.2500   355.3794
 4089.0000   972.2142  -999.2500   356.0811
 4089.5000   969.7997  -999.2500   356.0914
 4090.0000   949.7689  -999.2500   356.5626
 4090.5000   938.2126  -999.2500   356.5862
 4091.0000   931.2789  -999.2500   356.1225
 4091.5000   922.0339  -999.2500   354.9249
 4092.0000   921.2635  -999.2500   354.0695
 4092.5000   916.6410  -999.2500   355.6954
 4093.0000   912.0185  -999.2500   356.8578
 4093.5000   902.6949  -999.2500   357.7898
 4094.0000   895.7366  -999.2500   358.7219
 4094.5000   894.2990  -999.2500   358.2714
