~VERSION INFORMATION
 VERS.               2.10:   CWLS LOG ASCII STANDARD - VERSION 2.10
 WRAP.                 NO:   ONE LINE PER DEPTH STEP
~WELL INFORMATION
#MNEM.UNIT      DATA TYPE    INFORMATION
#----------   ------------   ------------------------------
 STRT.F            0.0000:   START DEPTH
 STOP.F         5494.0205:   STOP DEPTH
 STEP.F            0.5000:   STEP LENGTH
 NULL.          -999.2500:   NO VALUE
 COMP. Tesoro Petroleum Corporation:   COMPANY
 WELL.            51-X-28:   WELL
 FLD .           N.P.R. 3:   FIELD
 LOC . 28-39N-78W-NATRONA-WY:   LOCATION
 STAT.                 WY:   STATE
 COUN.            Natrona:   COUNTY
 SRVC.              Welex:   SERVICE COMPANY
 DATE.                   :   LOGDATE
~CURVE INFORMATION
#MNEM.UNIT       API CODE    CURVE DESCRIPTION
#----------   ------------   ------------------------------
 DEPT.F                  :
 GD  .std.den.units      :   Gamma Density
 RhoG.APO                :   Gamma
 GR.API        	         :   Gamma
~PARAMETER INFORMATION
#MNEM.UNIT          VALUE    DESCRIPTION
#----------   ------------   ------------------------------
 EKB .F         5008.0000:   Kelly bushing
 EGL .F         4997.0000:   Ground level
 EDF .F            0.0000:   Drilling floor
 EPD .F           11.0000:   Permanent datum
 TD  .F         4830.0000:   Total depth
 NRUN.             1.0000:   Number of Runs
#--RUN 1---   ------------   The following are for Run 1---
 RUN .             1.0000:   Run 1
 DATE.mm/dd/yyyy 09/18/1968:   Date Logged
 DD  .ft             5495:   Depth Driller
 DL  .ft             5498:   Depth Logger
 BLI .ft             5496:   Bottom Log Interval
 TLI .ft             2500:   Top Log Interval
 CSS .inch          10.75:   Casing Size
 CTD1.ft              450:   Casing Driller 1
 CTL1.ft              454:   Casing Logger 1
 BS  .inch              9:   Bit Size
 DFT .     water base mud:   Type Fluid In Hole
 DFD .lb/gal          9.4:   Mud Weight
 DFV .sec              58:   Viscosity
 DFPH.                9.5:   pH
 DFL .ml               11:   Fluid Loss
 WSS .                pit:   Source Of Sample
 RM  .ohmm            1.7:   Rm
 EMT .F                56:   Rm Meas. Temp.
 RMF .ohmm            .64:   Rmf
 MFT .F               100:   Rmf Meas. Temp.
 RMC .ohmm            1.6:   Rmc
 MCST.F               100:   Rmc Meas. Temp.
 MFSS.               fann:   Source Rmf.
 MCSS.            mud kit:   Source Rmc.
 RMB .ohmm            .60:   Rm. At BHT
 BHT .F               160:   BHT.
 TCS .hh:mm        3 hrs.:   Time Circ. Stopped
 MRT .F               160:   Maximum Recorded Temp.
 LUL .          Newcastle:   Logging Unit Location
 ENGI.        Mr. Custard:   Recorded By
 WITN.            Mr. May:   Witnessed By
 DGBY.          Mr. Burke:   Digitized By
~A  DEPTH       GD       RhoG       GR
# ...
 4186.0000   951.9567  -999.2500   210.8364
 4186.5000   978.0073  -999.2500   212.4892
 4187.0000  1020.4732  -999.2500   215.4712
 4187.5000  1038.9407  -999.2500   218.4783
 4188.0000  1055.8673  -999.2500   220.5639
 4188.5000  1076.6461  -999.2500   221.2669
 4189.0000  1088.1799  -999.2500   222.4308
 4189.5000  1085.8462  -999.2500   221.5209
 4190.0000  1063.4817  -999.2500   219.2285
 4190.5000  1043.4283  -999.2500   219.2403
 4191.0000  1023.1957  -999.2500   218.0077
 4191.5000   998.6936  -999.2500   215.1193
 4192.0000   991.7374  -999.2500   213.0574
 4192.5000   991.7150  -999.2500   212.8358
 4193.0000  1000.1671  -999.2500   213.7722
 4193.5000  1020.9458  -999.2500   215.8577
 4194.0000  1099.5039  -999.2500   216.0970
 4194.5000  1164.0360  -999.2500   215.6504
 4195.0000  1238.2843  -999.2500   216.3539
 4195.5000  1312.5325  -999.2500   218.2368
 4196.0000  1417.8931  -999.2500   219.6037
 4196.5000  1558.7924  -999.2500   219.3846
 4197.0000  -999.2500  -999.2500   219.3994
 4197.5000   414.9164  -999.2500   216.4157
 4198.0000   534.8568  -999.2500   213.2017
 4198.5000   572.6562  -999.2500   212.5193
 4199.0000   552.4475  -999.2500   213.4557
 4199.5000  -999.2500  -999.2500   215.0804
 4200.0000  -999.2500  -999.2500   218.0876
 4200.5000   561.7906  -999.2500   220.7717
 4201.0000   379.3642  -999.2500   223.7093
 4201.5000   337.1542  -999.2500   226.6469
 4202.0000   420.1283  -999.2500   227.1512
 4202.5000   503.1024  -999.2500   224.1788
 4203.0000   589.0746  -999.2500   225.8106
 4203.5000   585.1448  -999.2500   227.2119
 4204.0000   601.3564  -999.2500   226.9957
 4204.5000   276.7491  -999.2500   225.4063
 4205.0000   176.2926  -999.2500   223.1210
 4205.5000   311.4864  -999.2500   223.1398
 4206.0000   446.6801  -999.2500   223.6195
 4206.5000   604.3182  -999.2500   224.7904
 4207.0000   562.4758  -999.2500   221.5882
 4207.5000   382.9158  -999.2500   219.7637
 4208.0000   436.8932  -999.2500   219.3170
 4208.5000   485.5880  -999.2500   220.4926
 4209.0000    88.0234  -999.2500   220.7419
 4209.5000   146.5562  -999.2500   221.6777
 4210.0000  -130.8178  -999.2500   219.8571
 4210.5000    -6.5899  -999.2500   219.8768
 4211.0000   124.4187  -999.2500   217.7383
 4211.5000    26.7213  -999.2500   212.3976
 4212.0000   -14.4463  -999.2500   210.4910
 4212.5000  -104.0499  -999.2500   211.6619
 4213.0000  -999.2500  -999.2500   213.2937
 4213.5000  -999.2500  -999.2500   214.0038
 4214.0000  1595.5046  -999.2500   214.0226
 4214.5000  1428.2963  -999.2500   214.5023
 4215.0000  1483.6610  -999.2500   215.5005
 4215.5000  1574.5485  -999.2500   215.9290
 4216.0000  -173.3057  -999.2500   217.8461
 4216.5000   -21.4982  -999.2500   218.9603
 4217.0000   153.1398  -999.2500   217.1358
 4217.5000     5.2082  -999.2500   214.3849
 4218.0000   108.6245  -999.2500   215.5606
 4218.5000   212.0409  -999.2500   214.6577
 4219.0000   264.2568  -999.2500   214.6766
 4219.5000   271.6734  -999.2500   215.6171
 4220.0000   226.9687  -999.2500   217.2488
 4220.5000   380.6779  -999.2500   218.4198
 4221.0000   465.7471  -999.2500   217.7474
 4221.5000   517.7471  -999.2500   216.6189
 4222.0000   571.2491  -999.2500   215.9464
 4222.5000   376.3114  -999.2500   215.7302
 4223.0000   319.5865  -999.2500   215.7537
 4223.5000   -56.6598  -999.2500   215.3070
 4224.0000  -147.8445  -999.2500   215.5610
 4224.5000   -81.1425  -999.2500   214.8886
 4225.0000   -14.4405  -999.2500   213.9858
 4225.5000    52.2616  -999.2500   214.7006
 4226.0000    85.3942  -999.2500   215.6411
 4226.5000   177.1772  -999.2500   217.5033
 4227.0000   310.8703  -999.2500   217.5221
 4227.5000   444.5634  -999.2500   216.6193
 4228.0000   603.3239  -999.2500   216.6381
 4228.5000   439.3457  -999.2500   216.6570
 4229.0000   237.5264  -999.2500   216.4452
 4229.5000   214.3425  -999.2500   215.0405
 4230.0000    20.0290  -999.2500   213.4877
 4230.5000   148.3820  -999.2500   214.2025
 4231.0000   335.0824  -999.2500   214.9126
 4231.5000   180.3340  -999.2500   215.6227
 4232.0000   152.9236  -999.2500   215.1760
 4232.5000   261.0513  -999.2500   214.9644
 4233.0000  -999.2500  -999.2500   217.0617
 4233.5000  1561.7766  -999.2500   218.9239
 4234.0000  1602.2782  -999.2500   219.8728
 4234.5000  -999.2500  -999.2500   220.1143
 4235.0000    61.8982  -999.2500   218.5243
 4235.5000  -251.5259  -999.2500   217.6214
 4236.0000  -323.1884  -999.2500   216.9444
 4236.5000  -341.0896  -999.2500   216.2767
 4237.0000  -373.9775  -999.2500   212.3784
 4237.5000  -999.2500  -999.2500   211.4756
 4238.0000  1603.6335  -999.2500   210.7796
 4238.5000  1295.4447  -999.2500   210.8221
 4239.0000  1287.7181  -999.2500   210.3538
 4239.5000  1246.7998  -999.2500   210.1685
 4240.0000  1198.0883  -999.2500   212.4962
 4240.5000  1155.9077  -999.2500   213.6671
 4241.0000  1134.3135  -999.2500   214.8381
 4241.5000  1126.5869  -999.2500   217.3915
 4242.0000  1122.7123  -999.2500   219.2536
 4242.5000  1142.7151  -999.2500   220.6550
 4243.0000  1145.7799  -999.2500   220.2129
 4243.5000  1122.6393  -999.2500   220.4622
 4244.0000  1099.5044  -999.2500   219.3290
 4244.5000  1078.6807  -999.2500   218.8870
 4245.0000  1076.3527  -999.2500   219.1410
 4245.5000  1091.7329  -999.2500   221.2336
 4246.0000  1147.2633  -999.2500   222.1741
 4246.5000  1218.0177  -999.2500   221.7321
 4247.0000  1288.7722  -999.2500   221.5198
 4247.5000  1366.4744  -999.2500   221.3090
 4248.0000  1519.9552  -999.2500   218.7932
 4248.5000  -999.2500  -999.2500   218.1208
 4249.0000  -999.2500  -999.2500   221.1398
 4249.5000  -999.2500  -999.2500   216.3199
 4250.0000  1388.1653  -999.2500   218.1821
 4250.5000  1225.4310  -999.2500   219.8138
 4251.0000  1217.0579  -999.2500   221.4456
 4251.5000  1259.4027  -999.2500   221.2332
 4252.0000  1265.5492  -999.2500   221.0221
 4252.5000  1245.4902  -999.2500   221.2820
 4253.0000  1253.1719  -999.2500   222.4426
 4253.5000  1297.0631  -999.2500   216.9362
 4254.0000  1401.3236  -999.2500   215.1117
 4254.5000  1505.8029  -999.2500   214.2089
 4255.0000  1052.7720  -999.2500   211.2324
 4255.5000  1055.0608  -999.2500   209.1775
 4256.0000  1071.2170  -999.2500   208.5004
 4256.5000  1103.6189  -999.2500   210.3672
 4257.0000  1200.4634  -999.2500   210.8470
 4257.5000  1297.3079  -999.2500   208.8756
 4258.0000  1415.6698  -999.2500   206.0506
 4258.5000  1563.2836  -999.2500   201.7348
 4259.0000  -999.2500  -999.2500   195.7196
 4259.5000  1176.4979  -999.2500   195.0472
 4260.0000  1133.4353  -999.2500   195.0661
 4260.5000  1196.2490  -999.2500   196.2370
 4261.0000  1277.6270  -999.2500   197.6384
 4261.5000  1319.0363  -999.2500   198.3484
 4262.0000  1358.6952  -999.2500   199.7502
 4262.5000  1440.7133  -999.2500   199.3125
 4263.0000  1190.7998  -999.2500   199.3313
 4263.5000  1155.8530  -999.2500   200.7327
 4264.0000  1215.2959  -999.2500   203.2861
 4264.5000  1274.7389  -999.2500   204.2266
 4265.0000  1334.1818  -999.2500   206.0887
 4265.5000  1393.6246  -999.2500   207.0293
 4266.0000  1415.9045  -999.2500   210.0435
 4266.5000  1242.6066  -999.2500   210.7715
 4267.0000  1172.4044  -999.2500   211.9292
 4267.5000  1197.8057  -999.2500   212.8697
 4268.0000  1172.3539  -999.2500   214.7319
 4268.5000  1202.9492  -999.2500   215.6723
 4269.0000  1221.7096  -999.2500   217.0737
 4269.5000  1240.4700  -999.2500   217.7838
 4270.0000  1266.7325  -999.2500   218.4939
 4270.5000  1348.9823  -999.2500   218.5127
 4271.0000  1431.2322  -999.2500   217.8286
 4271.5000  1513.4821  -999.2500   216.6708
 4272.0000  1603.6034  -999.2500   215.1178
 4272.5000    55.8169  -999.2500   215.1366
 4273.0000  -153.6355  -999.2500   216.3075
 4273.5000  -999.2500  -999.2500   217.4784
 4274.0000  1489.3864  -999.2500   218.6446
 4274.5000  -999.2500  -999.2500   214.0599
 4275.0000   -75.6685  -999.2500   211.3138
 4275.5000    49.5399  -999.2500   211.3327
 4276.0000   174.7484  -999.2500   212.3051
 4276.5000   179.5857  -999.2500   214.1400
