~VERSION INFORMATION
 VERS.               2.10:   CWLS LOG ASCII STANDARD - VERSION 2.10
 WRAP.                 NO:   ONE LINE PER DEPTH STEP
~WELL INFORMATION
#MNEM.UNIT      DATA TYPE    INFORMATION
#----------   ------------   ------------------------------
 STRT.F            0.0000:   START DEPTH
 STOP.F         5494.0205:   STOP DEPTH
 STEP.F            0.5000:   STEP LENGTH
 NULL.          -999.2500:   NO VALUE
 COMP. Tesoro Petroleum Corporation:   COMPANY
 WELL.            51-X-28:   WELL
 FLD .           N.P.R. 3:   FIELD
 LOC . 28-39N-78W-NATRONA-WY:   LOCATION
 STAT.                 WY:   STATE
 COUN.            Natrona:   COUNTY
 SRVC.              Welex:   SERVICE COMPANY
 DATE.                   :   LOGDATE
~CURVE INFORMATION
#MNEM.UNIT       API CODE    CURVE DESCRIPTION
#----------   ------------   ------------------------------
 DEPT.F                  :
 GD  .std.den.units      :   Gamma Density
 RhoG.APO                :   Gamma
 GR.API        	         :   Gamma
~PARAMETER INFORMATION
#MNEM.UNIT          VALUE    DESCRIPTION
#----------   ------------   ------------------------------
 EKB .F         5008.0000:   Kelly bushing
 EGL .F         4997.0000:   Ground level
 EDF .F            0.0000:   Drilling floor
 EPD .F           11.0000:   Permanent datum
 TD  .F         4830.0000:   Total depth
 NRUN.             1.0000:   Number of Runs
#--RUN 1---   ------------   The following are for Run 1---
 RUN .             1.0000:   Run 1
 DATE.mm/dd/yyyy 09/18/1968:   Date Logged
 DD  .ft             5495:   Depth Driller
 DL  .ft             5498:   Depth Logger
 BLI .ft             5496:   Bottom Log Interval
 TLI .ft             2500:   Top Log Interval
 CSS .inch          10.75:   Casing Size
 CTD1.ft              450:   Casing Driller 1
 CTL1.ft              454:   Casing Logger 1
 BS  .inch              9:   Bit Size
 DFT .     water base mud:   Type Fluid In Hole
 DFD .lb/gal          9.4:   Mud Weight
 DFV .sec              58:   Viscosity
 DFPH.                9.5:   pH
 DFL .ml               11:   Fluid Loss
 WSS .                pit:   Source Of Sample
 RM  .ohmm            1.7:   Rm
 EMT .F                56:   Rm Meas. Temp.
 RMF .ohmm            .64:   Rmf
 MFT .F               100:   Rmf Meas. Temp.
 RMC .ohmm            1.6:   Rmc
 MCST.F               100:   Rmc Meas. Temp.
 MFSS.               fann:   Source Rmf.
 MCSS.            mud kit:   Source Rmc.
 RMB .ohmm            .60:   Rm. At BHT
 BHT .F               160:   BHT.
 TCS .hh:mm        3 hrs.:   Time Circ. Stopped
 MRT .F               160:   Maximum Recorded Temp.
 LUL .          Newcastle:   Logging Unit Location
 ENGI.        Mr. Custard:   Recorded By
 WITN.            Mr. May:   Witnessed By
 DGBY.          Mr. Burke:   Digitized By
~A  DEPTH       GD       RhoG       GR
# ...
 2730.0000  1067.6577  -999.2500   229.3987
 2730.5000  1070.7318  -999.2500   230.3604
 2731.0000  1083.1414  -999.2500   231.4955
 2731.5000  1098.6879  -999.2500   232.6575
 2732.0000  1092.3151  -999.2500   234.2796
 2732.5000  1089.9838  -999.2500   237.9723
 2733.0000  1092.2810  -999.2500   244.1634
 2733.5000  1113.1295  -999.2500   251.1996
 2734.0000  1150.8835  -999.2500   258.2358
 2734.5000  1207.4106  -999.2500   265.2720
 2735.0000  1263.9379  -999.2500   272.3082
 2735.5000  1320.4650  -999.2500   278.7652
 2736.0000  1415.0457  -999.2500   280.6174
 2736.5000  1503.5781  -999.2500   282.6996
 2737.0000  1556.3698  -999.2500   283.4015
 2737.5000  -999.2500  -999.2500   283.1831
 2738.0000  -999.2500  -999.2500   282.2746
 2738.5000  -999.2500  -999.2500   277.9792
 2739.0000  -999.2500  -999.2500   273.6582
 2739.5000   -35.4530  -999.2500   269.7683
 2740.0000  -999.2500  -999.2500   269.4379
 2740.5000  1574.7853  -999.2500   271.7531
 2741.0000  1576.7855  -999.2500   271.5347
 2741.5000  -283.0805  -999.2500   269.7059
 2742.0000  -373.2047  -999.2500   259.1910
 2742.5000  1524.6261  -999.2500   244.3451
 2743.0000  1237.5277  -999.2500   230.4015
 2743.5000  1141.3760  -999.2500   228.1125
 2744.0000  1144.4502  -999.2500   225.8236
 2744.5000  1147.7941  -999.2500   223.9948
 2745.0000  1096.5027  -999.2500   222.6261
 2745.5000  1086.4208  -999.2500   221.0274
 2746.0000  1076.8392  -999.2500   219.8724
 2746.5000  1069.3997  -999.2500   220.4001
 2747.0000  1063.2003  -999.2500   220.8324
 2747.5000  1049.1130  -999.2500   218.5464
 2748.0000  1018.7505  -999.2500   217.4077
 2748.5000  1000.5540  -999.2500   215.8090
 2749.0000   999.7504  -999.2500   213.5201
 2749.5000  1004.6182  -999.2500   213.2988
 2750.0000  1017.1159  -999.2500   212.1631
 2750.5000  1015.9420  -999.2500   211.7144
 2751.0000  1021.3303  -999.2500   212.1916
 2751.5000  1027.4957  -999.2500   214.3233
 2752.0000  1029.0286  -999.2500   215.8937
 2752.5000  1025.9161  -999.2500   215.2152
 2753.0000  1023.5850  -999.2500   213.6165
 2753.5000  1025.1135  -999.2500   212.2478
 2754.0000  1016.5916  -999.2500   211.3392
 2754.5000  1006.5206  -999.2500   210.2006
 2755.0000  1008.8296  -999.2500   209.9793
 2755.5000  1007.6356  -999.2500   209.9939
 2756.0000   994.1082  -999.2500   210.0056
 2756.5000   988.6816  -999.2500   211.4604
 2757.0000   994.8470  -999.2500   214.0158
 2757.5000  1014.1260  -999.2500   215.7951
 2758.0000  1045.0463  -999.2500   216.2669
 2758.5000  1050.4847  -999.2500   216.5087
 2759.0000  1047.8713  -999.2500   217.9007
 2759.5000  1043.4454  -999.2500   219.9830
 2760.0000  1039.5687  -999.2500   222.2953
 2760.5000  1047.2754  -999.2500   224.8376
 2761.0000  1042.6216  -999.2500   227.1499
 2761.5000  1038.7406  -999.2500   227.6217
 2762.0000  1034.0869  -999.2500   226.2010
 2762.5000  1035.6155  -999.2500   223.9670
 2763.0000  1043.3264  -999.2500   223.0585
 2763.5000  1047.9462  -999.2500   221.9169
 2764.0000  1048.7020  -999.2500   221.2414
 2764.5000  1039.1670  -999.2500   220.5629
 2765.0000  1040.9357  -999.2500   221.0347
 2765.5000  1041.6958  -999.2500   221.9666
 2766.0000  1041.6746  -999.2500   221.5182
 2766.5000  1041.6576  -999.2500   221.2998
 2767.0000  1038.5493  -999.2500   222.2319
 2767.5000  1041.6235  -999.2500   225.0653
 2768.0000  1043.9292  -999.2500   230.7703
 2768.5000  1047.7720  -999.2500   235.6133
 2769.0000  1060.8925  -999.2500   240.6863
 2769.5000  1081.8723  -999.2500   245.2992
 2770.0000  1109.0304  -999.2500   247.1514
 2770.5000  1116.4788  -999.2500   248.3104
 2771.0000  1120.3298  -999.2500   244.8741
 2771.5000  1106.6224  -999.2500   244.1954
 2772.0000  1053.0582  -999.2500   241.4305
 2772.5000  1046.0862  -999.2500   239.3877
 2773.0000  1045.2964  -999.2500   239.4023
 2773.5000  1046.8248  -999.2500   239.6441
 2774.0000  1054.5359  -999.2500   241.4962
 2774.5000  1058.3829  -999.2500   242.1981
 2775.0000  1061.4572  -999.2500   241.7497
 2775.5000  1065.5748  -999.2500   240.1480
 2776.0000  1066.8326  -999.2500   239.9296
 2776.5000  1055.2195  -999.2500   238.7939
 2777.0000  1052.8883  -999.2500   238.5755
 2777.5000  1055.9624  -999.2500   238.6008
 2778.0000  1052.0773  -999.2500   240.4753
 2778.5000  1052.8330  -999.2500   243.9050
 2779.0000  1055.1345  -999.2500   246.4473
 2779.5000  1058.9816  -999.2500   247.3793
 2780.0000  1059.7372  -999.2500   247.3909
 2780.5000  1065.4850  -999.2500   246.7124
 2781.0000  1072.8365  -999.2500   243.7333
 2781.5000  1070.5055  -999.2500   244.7483
 2782.0000  1074.3481  -999.2500   243.9663
 2782.5000  1075.1039  -999.2500   245.1488
 2783.0000  1075.8640  -999.2500   244.4702
 2783.5000  1073.5244  -999.2500   245.6352
 2784.0000  1067.3250  -999.2500   246.1070
 2784.5000  1066.4014  -999.2500   245.6585
 2785.0000  1068.8369  -999.2500   242.9095
 2785.5000  1068.0344  -999.2500   240.3905
 2786.0000  1060.9199  -999.2500   239.7091
 2786.5000  1057.1893  -999.2500   240.8740
 2787.0000  1061.0364  -999.2500   241.8059
 2787.5000  1069.5201  -999.2500   242.5078
 2788.0000  1084.9591  -999.2500   243.2470
 2788.5000  1088.8060  -999.2500   244.1416
 2789.0000  1096.5171  -999.2500   242.3157
 2789.5000  1113.2676  -999.2500   242.0944
 2790.0000  1135.9706  -999.2500   243.7195
 2790.5000  1158.6737  -999.2500   245.1086
 2791.0000  1172.1804  -999.2500   246.2735
 2791.5000  1173.7131  -999.2500   247.4355
 2792.0000  1164.4183  -999.2500   249.0576
 2792.5000  1153.5823  -999.2500   249.9895
 2793.0000  1145.0645  -999.2500   250.2313
 2793.5000  1132.6827  -999.2500   245.7368
 2794.0000  1126.4833  -999.2500   240.5950
 2794.5000  1121.8296  -999.2500   239.9165
 2795.0000  1115.5651  -999.2500   239.4681
 2795.5000  1114.8397  -999.2500   239.4798
 2796.0000  1112.5050  -999.2500   241.5620
 2796.5000  1120.2117  -999.2500   243.6442
 2797.0000  1137.9691  -999.2500   245.2663
 2797.5000  1153.4081  -999.2500   248.7289
 2798.0000  1160.3462  -999.2500   251.5014
 2798.5000  1163.4247  -999.2500   247.8321
 2799.0000  1157.9938  -999.2500   248.5671
 2799.5000  1151.0216  -999.2500   249.0087
 2800.0000  1123.9568  -999.2500   248.5573
 2800.5000  1119.1886  -999.2500   248.2535
 2801.0000  1120.0063  -999.2500   245.0474
 2801.5000  1126.9075  -999.2500   242.5316
 2802.0000  1132.2739  -999.2500   240.4758
 2802.5000  1133.0143  -999.2500   241.8710
 2803.0000  1131.4147  -999.2500   243.2662
 2803.5000  1130.6094  -999.2500   244.6693
 2804.0000  1131.3292  -999.2500   245.6586
 2804.5000  1126.6326  -999.2500   246.9953
 2805.0000  1128.7729  -999.2500   247.9304
 2805.5000  1145.8708  -999.2500   248.6354
 2806.0000  1168.8207  -999.2500   248.6502
 2806.5000  1204.7994  -999.2500   247.5147
 2807.0000  1240.7781  -999.2500   246.6056
 2807.5000  1279.3920  -999.2500   246.8541
 2808.0000  1296.3503  -999.2500   246.1788
 2808.5000  1308.6719  -999.2500   243.4329
 2809.0000  1323.6838  -999.2500   243.6782
 2809.5000  1368.6138  -999.2500   245.0766
 2810.0000  1391.2316  -999.2500   245.7816
 2810.5000  1378.0400  -999.2500   246.9467
 2811.0000  1373.3601  -999.2500   246.2677
 2811.5000  1353.2241  -999.2500   246.0561
 2812.0000  1315.8833  -999.2500   244.6868
 2812.5000  1274.5908  -999.2500   244.9354
 2813.0000  1233.2982  -999.2500   242.4196
 2813.5000  1212.3984  -999.2500   241.9743
 2814.0000  1203.0817  -999.2500   241.7590
 2814.5000  1202.2305  -999.2500   242.2377
 2815.0000  1202.9952  -999.2500   241.5623
 2815.5000  1210.6693  -999.2500   241.3433
 2816.0000  1208.3077  -999.2500   242.9723
 2816.5000  1196.6725  -999.2500   244.1374
 2817.0000  1202.0388  -999.2500   244.6086
 2817.5000  1201.2229  -999.2500   239.7959
 2818.0000  1193.4517  -999.2500   237.7401
 2818.5000  1179.4982  -999.2500   235.6689
 2819.0000  1186.4100  -999.2500   236.4812
 2819.5000  1221.9081  -999.2500   239.6288
 2820.0000  1269.0725  -999.2500   237.8031
 2820.5000  1316.2369  -999.2500   238.7344
