~VERSION INFORMATION
 VERS.               2.10:   CWLS LOG ASCII STANDARD - VERSION 2.10
 WRAP.                 NO:   ONE LINE PER DEPTH STEP
~WELL INFORMATION
#MNEM.UNIT      DATA TYPE    INFORMATION
#----------   ------------   ------------------------------
 STRT.F            0.0000:   START DEPTH
 STOP.F         5499.9595:   STOP DEPTH
 STEP.F            0.5000:   STEP LENGTH
 NULL.          -999.2500:   NO VALUE
 COMP. Tesoro Petroleum Corporation:   COMPANY
 WELL.            51 x 28:   WELL
 FLD .           N.P.R. 3:   FIELD
 LOC . 28-39N-78W-NATRONA-WY:   LOCATION
 STAT.                 WY:   STATE
 COUN.            Natrona:   COUNTY
 SRVC.                   :   SERVICE COMPANY
 DATE.         07/07/1968:   LOGDATE
~CURVE INFORMATION
#MNEM.UNIT       API CODE    CURVE DESCRIPTION
#----------   ------------   ------------------------------
 DEPT.F                  :
 RO  .m2/m               :   Resisitivity Ohms
 SN  .m2/m               :   Reisistivity Ohms
 ASN .m2/m               :   Reisistivity Ohms
 Ind .None               :   Induction
 Ind .None               :   Induction
 Con .millimhos/m        :   Conductivitity
 Con .millimhos/m        :   Conductivitity
~PARAMETER INFORMATION
#MNEM.UNIT          VALUE    DESCRIPTION
#----------   ------------   ------------------------------
 EKB .F         5008.0000:   Kelly bushing
 EGL .F         4997.0000:   Ground level
 EDF .F            0.0000:   Drilling floor
 EPD .F            7.0000:   Permanent datum
 TD  .F         5500.0000:   Total depth
 NRUN.             3.0000:   Number of Runs
#--RUN 1---   ------------   The following are for Run 1---
 RUN .             1.0000:   Run 1
 DATE.mm/dd/yyyy 07/07/1968:   Date Logged
 DD  .ft              450:   Depth Driller
 DL  .ft              455:   Depth Logger
 BLI .ft              450:   Bottom Log Interval
 TLI .ft               38:   Top Log Interval
 CSS .inch             20:   Casing Size
 CTD1.ft               38:   Casing Driller 1
 CTL1.ft               38:   Casing Logger 1
 BS  .inch             15:   Bit Size
 DFT .     water base mud:   Type Fluid In Hole
 DFD .lb/gal          9.3:   Mud Weight
 DFV .sec              48:   Viscosity
 DFPH.                  8:   pH
 DFL .ml              7.6:   Fluid Loss
 WSS .           flo line:   Source Of Sample
 RM  .ohmm            2.7:   Rm
 EMT .F                93:   Rm Meas. Temp.
 RMF .ohmm            2.1:   Rmf
 MFT .F               100:   Rmf Meas. Temp.
 RMC .ohmm            2.3:   Rmc
 MCST.F               100:   Rmc Meas. Temp.
 MCSS.       fann mud kit:   Source Rmc.
 TCS .hh:mm       3 hours:   Time Circ. Stopped
 LUN .               7949:   Logging Unit Number
 LUL .          Newcastle:   Logging Unit Location
 ENGI.            Custard:   Recorded By
 WITN.            Mr. May:   Witnessed By
 DGBY.              Burke:   Digitized By
#--RUN 2---   ------------   The following are for Run 2---
 RUN .             2.0000:   Run 2
 DATE.mm/dd/yyyy 09/01/1968:   Date Logged
 DD  .ft             2955:   Depth Driller
 DL  .ft             2955:   Depth Logger
 BLI .ft             2950:   Bottom Log Interval
 TLI .ft              444:   Top Log Interval
 CSS .inch         10-3/4:   Casing Size
 CTD1.ft              340:   Casing Driller 1
 CTL1.ft              454:   Casing Logger 1
 BS  .inch          7-7/8:   Bit Size
 DFT .               "  ":   Type Fluid In Hole
 DFD .lb/gal          9.6:   Mud Weight
 DFV .sec              52:   Viscosity
 DFPH.                 85:   pH
 DFL .ml                6:   Fluid Loss
 WSS .              circ.:   Source Of Sample
 RM  .ohmm            2.5:   Rm
 EMT .F                52:   Rm Meas. Temp.
 RMF .ohmm           1.10:   Rmf
 MFT .F               100:   Rmf Meas. Temp.
 RMC .ohmm           1.63:   Rmc
 MCST.F               100:   Rmc Meas. Temp.
 MCSS.               "  ":   Source Rmc.
 RMB .ohmm           1.30:   Rm. At BHT
 BHT .F               104:   BHT.
 TCS .hh:mm       2 hours:   Time Circ. Stopped
 MRT .F               104:   Maximum Recorded Temp.
 LUN .               7949:   Logging Unit Number
 LUL .          Newcastle:   Logging Unit Location
 ENGI.               "  ":   Recorded By
 WITN.               "  ":   Witnessed By
 DGBY.               "  ":   Digitized By
#--RUN 3---   ------------   The following are for Run 3---
 RUN .             3.0000:   Run 3
 DATE.mm/dd/yyyy 09/18/1968:   Date Logged
 DD  .ft             5495:   Depth Driller
 DL  .ft             5503:   Depth Logger
 BLI .ft             5498:   Bottom Log Interval
 TLI .ft             2900:   Top Log Interval
 CSS .inch         10-3/4:   Casing Size
 CTD1.ft              450:   Casing Driller 1
 CTL1.ft              454:   Casing Logger 1
 BS  .inch              9:   Bit Size
 DFT .               "  ":   Type Fluid In Hole
 DFD .lb/gal          9.4:   Mud Weight
 DFV .sec              58:   Viscosity
 DFPH.                9.5:   pH
 DFL .ml               11:   Fluid Loss
 WSS .                pit:   Source Of Sample
 RM  .ohmm            1.7:   Rm
 EMT .F                56:   Rm Meas. Temp.
 RMF .ohmm            .64:   Rmf
 MFT .F               100:   Rmf Meas. Temp.
 RMC .ohmm            1.6:   Rmc
 MCST.F               100:   Rmc Meas. Temp.
 MCSS.               "  ":   Source Rmc.
 RMB .ohmm             .6:   Rm. At BHT
 BHT .F               160:   BHT.
 TCS .hh:mm         3 hrs:   Time Circ. Stopped
 MRT .F               160:   Maximum Recorded Temp.
 LUN .               "  ":   Logging Unit Number
 LUL .               "  ":   Logging Unit Location
 ENGI.               "  ":   Recorded By
 WITN.               "  ":   Witnessed By
 DGBY.               "  ":   Digitized By
~A  DEPTH       RO         SN        ASN        Ind        I          C          Con
# ...
 3230.5000  -999.2500     4.2484   215.0260     3.3011  -999.2500  -999.2500   631.7362
 3231.0000  -999.2500     4.0996   201.8213     3.0741  -999.2500  -999.2500   642.0870
 3231.5000  -999.2500     4.1077   188.8488     3.0012  -999.2500  -999.2500   646.2951
 3232.0000  -999.2500     4.0373   190.5781     3.0064  -999.2500  -999.2500   645.4941
 3232.5000  -999.2500     4.0438   185.9072     3.0105  -999.2500  -999.2500   643.1624
 3233.0000  -999.2500     4.2040   179.0528     3.0917  -999.2500  -999.2500   641.3962
 3233.5000  -999.2500     4.8346   186.2130     3.6421  -999.2500  -999.2500   632.3564
 3234.0000  -999.2500     6.5415   250.6023     4.4107  -999.2500  -999.2500   616.1724
 3234.5000  -999.2500     6.9153   319.7848     4.9541  -999.2500  -999.2500   599.9883
 3235.0000  -999.2500     6.9986   325.9872     5.4205  -999.2500  -999.2500   583.8043
 3235.5000  -999.2500     7.1588   332.9577     5.8098  -999.2500  -999.2500   576.1312
 3236.0000  -999.2500     7.8571   366.8099     5.9534  -999.2500  -999.2500   573.7994
 3236.5000  -999.2500     8.1710   396.0539     6.1788  -999.2500  -999.2500   571.4677
 3237.0000  -999.2500     8.4081   408.4007     6.4042  -999.2500  -999.2500   571.4418
 3237.5000  -999.2500     8.4915   417.6754     6.6296  -999.2500  -999.2500   571.4160
 3238.0000  -999.2500     8.7285   420.8988     6.8550  -999.2500  -999.2500   570.1906
 3238.5000  -999.2500     9.1962   435.8329     6.9133  -999.2500  -999.2500   567.7195
 3239.0000  -999.2500     9.3565   460.8747     6.9184  -999.2500  -999.2500   565.1828
 3239.5000  -999.2500     9.2860   464.0050     6.9996  -999.2500  -999.2500   564.7726
 3240.0000  -999.2500     9.2157   466.3672     7.0037  -999.2500  -999.2500   564.7468
 3240.5000  -999.2500     9.3006   469.4974     7.0849  -999.2500  -999.2500   564.7209
 3241.0000  -999.2500     9.3071   467.2368     7.0890  -999.2500  -999.2500   564.6950
 3241.5000  -999.2500     9.2351   464.2227     7.0931  -999.2500  -999.2500   564.6692
 3242.0000  -999.2500     9.3201   464.2953     7.0192  -999.2500  -999.2500   564.6433
 3242.5000  -999.2500     9.1728   462.0492     7.0244  -999.2500  -999.2500   564.6174
 3243.0000  -999.2500     9.1793   461.2817     7.0285  -999.2500  -999.2500   564.5916
 3243.5000  -999.2500     9.1087   457.2855     6.8705  -999.2500  -999.2500   564.9501
 3244.0000  -999.2500     8.8848   445.3249     6.7286  -999.2500  -999.2500   566.4550
 3244.5000  -999.2500     8.6592   428.7880     6.5786  -999.2500  -999.2500   567.5820
 3245.0000  -999.2500     8.4291   412.2512     6.2757  -999.2500  -999.2500   569.0935
 3245.5000  -999.2500     8.0604   397.1230     6.1247  -999.2500  -999.2500   571.7579
 3246.0000  -999.2500     7.8363   384.8310     6.1298  -999.2500  -999.2500   573.2758
 3246.5000  -999.2500     7.9196   385.4205     6.2110  -999.2500  -999.2500   574.0186
 3247.0000  -999.2500     8.1567   398.0796     6.3692  -999.2500  -999.2500   573.6019
 3247.5000  -999.2500     8.1632   395.8335     6.4504  -999.2500  -999.2500   572.0388
 3248.0000  -999.2500     8.0912   396.6596     6.6086  -999.2500  -999.2500   571.5925
 3248.5000  -999.2500     8.1762   404.3982     6.6899  -999.2500  -999.2500   570.8276
 3249.0000  -999.2500     8.2595   410.6006     6.6950  -999.2500  -999.2500   570.4174
 3249.5000  -999.2500     8.0354   409.1226     6.7751  -999.2500  -999.2500   570.7823
 3250.0000  -999.2500     7.3501   397.2107     6.5481  -999.2500  -999.2500   571.5251
 3250.5000  -999.2500     6.8118   376.2156     6.2451  -999.2500  -999.2500   574.1830
 3251.0000  -999.2500     6.5041   355.2205     5.9411  -999.2500  -999.2500   577.0637
 3251.5000  -999.2500     6.2935   334.2253     5.6370  -999.2500  -999.2500   580.8604
 3252.0000  -999.2500     6.0710   313.2302     5.3330  -999.2500  -999.2500   584.6571
 3252.5000  -999.2500     6.0775   294.2780     4.9519  -999.2500  -999.2500   589.0638
 3253.0000  -999.2500     6.0840   290.4813     4.8020  -999.2500  -999.2500   592.1125
 3253.5000  -999.2500     6.1673   289.7713     4.8157  -999.2500  -999.2500   592.0866
 3254.0000  -999.2500     6.0201   289.0758     4.9654  -999.2500  -999.2500   592.0608
 3254.5000  -999.2500     5.8728   284.5255     4.8925  -999.2500  -999.2500   591.6506
 3255.0000  -999.2500     5.7256   279.9753     4.8966  -999.2500  -999.2500   592.0100
 3255.5000  -999.2500     5.5783   267.7445     4.8237  -999.2500  -999.2500   593.1364
 3256.0000  -999.2500     5.5079   260.0427     4.7497  -999.2500  -999.2500   595.0916
 3256.5000  -999.2500     5.4248   253.0329     4.6008  -999.2500  -999.2500   597.8138
 3257.0000  -999.2500     5.2135   244.8918     4.4507  -999.2500  -999.2500   600.7385
 3257.5000  -999.2500     4.9910   239.5734     4.4550  -999.2500  -999.2500   605.3245
 3258.0000  -999.2500     4.9974   231.9510     4.4592  -999.2500  -999.2500   607.6045
 3258.5000  -999.2500     4.9271   229.6904     4.3862  -999.2500  -999.2500   608.3538
 3259.0000  -999.2500     5.0104   234.3712     4.3914  -999.2500  -999.2500   609.4744
 3259.5000  -999.2500     5.0169   238.2695     4.3175  -999.2500  -999.2500   609.4485
 3260.0000  -999.2500     5.1002   235.2554     4.2445  -999.2500  -999.2500   609.4227
 3260.5000  -999.2500     5.1836   239.1764     4.1716  -999.2500  -999.2500   609.3969
 3261.0000  -999.2500     5.1901   239.2652     4.1768  -999.2500  -999.2500   608.9862
 3261.5000  -999.2500     5.2735   244.1422     4.1809  -999.2500  -999.2500   608.1910
 3262.0000  -999.2500     5.4462   246.2548     4.3392  -999.2500  -999.2500   605.4695
 3262.5000  -999.2500     5.6723   252.8831     4.5744  -999.2500  -999.2500   602.3691
 3263.0000  -999.2500     5.9094   266.1175     4.6586  -999.2500  -999.2500   597.7314
 3263.5000  -999.2500     6.2233   279.3519     5.0451  -999.2500  -999.2500   595.0153
 3264.0000  -999.2500     6.4604   301.7865     5.2042  -999.2500  -999.2500   593.0679
 3264.5000  -999.2500     6.6206   312.5973     5.4394  -999.2500  -999.2500   589.5831
 3265.0000  -999.2500     6.7040   324.9441     5.7517  -999.2500  -999.2500   586.0984
 3265.5000  -999.2500     6.7873   329.6104     5.9870  -999.2500  -999.2500   582.2294
 3266.0000  -999.2500     6.7938   333.5100     6.1452  -999.2500  -999.2500   579.4796
 3266.5000  -999.2500     6.8003   329.7410     6.1493  -999.2500  -999.2500   577.1750
 3267.0000  -999.2500     6.8069   327.4804     5.9994  -999.2500  -999.2500   577.1492
 3267.5000  -999.2500     6.8133   329.0891     5.9264  -999.2500  -999.2500   579.4292
 3268.0000  -999.2500     6.7429   332.2193     5.7765  -999.2500  -999.2500   580.9406
 3268.5000  -999.2500     6.6725   326.1330     5.6155  -999.2500  -999.2500   582.0742
 3269.0000  -999.2500     6.6021   326.9590     5.3225  -999.2500  -999.2500   583.2013
 3269.5000  -999.2500     6.5317   313.9603     5.1726  -999.2500  -999.2500   585.0906
 3270.0000  -999.2500     6.3093   301.7296     5.1654  -999.2500  -999.2500   586.5641
 3270.5000  -999.2500     6.2373   298.7123     5.1556  -999.2500  -999.2500   588.1140
 3271.0000  -999.2500     6.0900   290.9347     5.1459  -999.2500  -999.2500   589.6638
 3271.5000  -999.2500     6.0981   283.4706     5.1361  -999.2500  -999.2500   591.5140
 3272.0000  -999.2500     6.3352   294.2958     5.1263  -999.2500  -999.2500   592.2634
 3272.5000  -999.2500     6.3418   298.9572     5.1166  -999.2500  -999.2500   592.2310
 3273.0000  -999.2500     6.1944   298.1236     5.1068  -999.2500  -999.2500   590.6678
 3273.5000  -999.2500     6.0488   298.3053     5.0970  -999.2500  -999.2500   589.8734
 3274.0000  -999.2500     5.8999   300.7390     5.0873  -999.2500  -999.2500   589.8475
 3274.5000  -999.2500     5.9849   305.4499     5.0775  -999.2500  -999.2500   589.4373
 3275.0000  -999.2500     6.0683   309.2467     5.0677  -999.2500  -999.2500   589.0271
 3275.5000  -999.2500     6.5359   313.9131     5.0579  -999.2500  -999.2500   589.0012
