~VERSION INFORMATION
 VERS.               2.10:   CWLS LOG ASCII STANDARD - VERSION 2.10
 WRAP.                 NO:   ONE LINE PER DEPTH STEP
~WELL INFORMATION
#MNEM.UNIT      DATA TYPE    INFORMATION
#----------   ------------   ------------------------------
 STRT.F            0.0000:   START DEPTH
 STOP.F         5494.0205:   STOP DEPTH
 STEP.F            0.5000:   STEP LENGTH
 NULL.          -999.2500:   NO VALUE
 COMP. Tesoro Petroleum Corporation:   COMPANY
 WELL.            51-X-28:   WELL
 FLD .           N.P.R. 3:   FIELD
 LOC . 28-39N-78W-NATRONA-WY:   LOCATION
 STAT.                 WY:   STATE
 COUN.            Natrona:   COUNTY
 SRVC.              Welex:   SERVICE COMPANY
 DATE.                   :   LOGDATE
~CURVE INFORMATION
#MNEM.UNIT       API CODE    CURVE DESCRIPTION
#----------   ------------   ------------------------------
 DEPT.F                  :
 GD  .std.den.units      :   Gamma Density
 RhoG.APO                :   Gamma
 GR.API        	         :   Gamma
~PARAMETER INFORMATION
#MNEM.UNIT          VALUE    DESCRIPTION
#----------   ------------   ------------------------------
 EKB .F         5008.0000:   Kelly bushing
 EGL .F         4997.0000:   Ground level
 EDF .F            0.0000:   Drilling floor
 EPD .F           11.0000:   Permanent datum
 TD  .F         4830.0000:   Total depth
 NRUN.             1.0000:   Number of Runs
#--RUN 1---   ------------   The following are for Run 1---
 RUN .             1.0000:   Run 1
 DATE.mm/dd/yyyy 09/18/1968:   Date Logged
 DD  .ft             5495:   Depth Driller
 DL  .ft             5498:   Depth Logger
 BLI .ft             5496:   Bottom Log Interval
 TLI .ft             2500:   Top Log Interval
 CSS .inch          10.75:   Casing Size
 CTD1.ft              450:   Casing Driller 1
 CTL1.ft              454:   Casing Logger 1
 BS  .inch              9:   Bit Size
 DFT .     water base mud:   Type Fluid In Hole
 DFD .lb/gal          9.4:   Mud Weight
 DFV .sec              58:   Viscosity
 DFPH.                9.5:   pH
 DFL .ml               11:   Fluid Loss
 WSS .                pit:   Source Of Sample
 RM  .ohmm            1.7:   Rm
 EMT .F                56:   Rm Meas. Temp.
 RMF .ohmm            .64:   Rmf
 MFT .F               100:   Rmf Meas. Temp.
 RMC .ohmm            1.6:   Rmc
 MCST.F               100:   Rmc Meas. Temp.
 MFSS.               fann:   Source Rmf.
 MCSS.            mud kit:   Source Rmc.
 RMB .ohmm            .60:   Rm. At BHT
 BHT .F               160:   BHT.
 TCS .hh:mm        3 hrs.:   Time Circ. Stopped
 MRT .F               160:   Maximum Recorded Temp.
 LUL .          Newcastle:   Logging Unit Location
 ENGI.        Mr. Custard:   Recorded By
 WITN.            Mr. May:   Witnessed By
 DGBY.          Mr. Burke:   Digitized By
~A  DEPTH       GD       RhoG       GR
# ...
 3458.0000  1280.6277  -999.2500   252.4126
 3458.5000  1301.4282  -999.2500   253.3454
 3459.0000  1306.7889  -999.2500   251.9817
 3459.5000  1288.1606  -999.2500   252.2326
 3460.0000  1286.5664  -999.2500   254.0898
 3460.5000  1311.9874  -999.2500   253.6464
 3461.0000  1323.5189  -999.2500   253.2029
 3461.5000  1327.4785  -999.2500   253.9098
 3462.0000  1344.2338  -999.2500   253.4664
 3462.5000  1365.0342  -999.2500   254.6376
 3463.0000  1381.1980  -999.2500   255.5703
 3463.5000  1419.0001  -999.2500   254.8968
 3464.0000  1444.4374  -999.2500   253.9975
 3464.5000  1530.1530  -999.2500   252.6338
 3465.0000  1499.0604  -999.2500   253.3407
 3465.5000  1433.7180  -999.2500   255.6580
 3466.0000  1422.0582  -999.2500   258.9698
 3466.5000  1518.1576  -999.2500   275.0207
 3467.0000  -999.2500  -999.2500   281.2490
 3467.5000  -999.2500  -999.2500   279.4252
 3468.0000  -999.2500  -999.2500   270.4057
 3468.5000   166.4128  -999.2500   250.1779
 3469.0000  -292.8827  -999.2500   240.8250
 3469.5000  -999.2500  -999.2500   241.7620
 3470.0000  1255.8516  -999.2500   249.3707
 3470.5000  1286.6984  -999.2500   251.7066
 3471.0000  1301.3994  -999.2500   253.1531
 3471.5000  1305.2352  -999.2500   250.5752
 3472.0000  1295.7607  -999.2500   247.6011
 3472.5000  1275.6031  -999.2500   245.5473
 3473.0000  1267.8101  -999.2500   246.4842
 3473.5000  1270.0635  -999.2500   249.4917
 3474.0000  1282.3632  -999.2500   251.8090
 3474.5000  1318.6198  -999.2500   255.2766
 3475.0000  1359.3068  -999.2500   258.9743
 3475.5000  1401.9519  -999.2500   262.2367
 3476.0000  1475.4705  -999.2500   262.9188
 3476.5000  1527.7880  -999.2500   260.8690
 3477.0000  1493.7036  -999.2500   256.2845
 3477.5000  1497.5026  -999.2500   253.7706
 3478.0000  1600.9979  -999.2500   256.3179
 3478.5000  -341.8282  -999.2500   260.2456
 3479.0000  -145.1538  -999.2500   264.8636
 3479.5000    51.5206  -999.2500   264.6502
 3480.0000   191.1546  -999.2500   254.5329
 3480.5000  -254.1865  -999.2500   246.0097
 3481.0000  -999.2500  -999.2500   244.6891
 3481.5000  1289.0894  -999.2500   242.8653
 3482.0000  1290.5862  -999.2500   242.1877
 3482.5000  1302.0969  -999.2500   242.4386
 3483.0000  1332.1710  -999.2500   245.4461
 3483.5000  1350.6532  -999.2500   249.1438
 3484.0000  1400.2968  -999.2500   250.5408
 3484.5000  1446.8237  -999.2500   248.2506
 3485.0000  1432.4801  -999.2500   248.0435
 3485.5000  1384.8567  -999.2500   250.3650
 3486.0000  1424.5682  -999.2500   254.7529
 3486.5000  1491.4531  -999.2500   257.0702
 3487.0000  1529.4709  -999.2500   256.6226
 3487.5000  1503.1310  -999.2500   257.1036
 3488.0000  1503.1431  -999.2500   258.2706
 3488.5000  1550.6370  -999.2500   259.6676
 3489.0000  1601.0759  -999.2500   262.4451
 3489.5000  -381.9696  -999.2500   265.4746
 3490.0000  -369.6308  -999.2500   258.8017
 3490.5000  -396.1108  -999.2500   249.3858
 3491.0000  1513.0292  -999.2500   245.7215
 3491.5000  1346.5229  -999.2500   244.8180
 3492.0000  1276.8729  -999.2500   244.8347
 3492.5000  1277.5969  -999.2500   245.3115
 3493.0000  1272.8790  -999.2500   250.1595
 3493.5000  1261.2219  -999.2500   252.9369
 3494.0000  1254.1196  -999.2500   256.1987
 3494.5000  1252.5913  -999.2500   258.2624
 3495.0000  1255.6012  -999.2500   258.7427
 3495.5000  1263.2643  -999.2500   259.4496
 3496.0000  1278.6552  -999.2500   259.0020
 3496.5000  1288.6366  -999.2500   257.6425
 3497.0000  1295.5267  -999.2500   254.6684
 3497.5000  1296.2345  -999.2500   250.3139
 3498.0000  1298.4879  -999.2500   248.7198
 3498.5000  1302.3267  -999.2500   249.1998
 3499.0000  1308.6001  -999.2500   250.3645
 3499.5000  1319.1423  -999.2500   250.1548
 3500.0000  1339.9427  -999.2500   250.1969
 3500.5000  1367.8701  -999.2500   254.1498
 3501.0000  1414.6221  -999.2500   260.3731
 3501.5000  1481.8711  -999.2500   264.9836
 3502.0000  -999.2500  -999.2500   273.0631
 3502.5000  -289.1443  -999.2500   274.9491
 3503.0000  -162.7315  -999.2500   275.8200
 3503.5000   -36.3187  -999.2500   271.4442
 3504.0000    90.0940  -999.2500   265.4556
 3504.5000   207.9271  -999.2500   252.7850
 3505.0000   -82.6957  -999.2500   247.2566
 3505.5000  -999.2500  -999.2500   249.1026
 3506.0000  -999.2500  -999.2500   257.1693
 3506.5000  1360.8373  -999.2500   260.3972
 3507.0000  1323.8806  -999.2500   263.8556
 3507.5000  1358.2051  -999.2500   268.9600
 3508.0000  1382.1713  -999.2500   274.0477
 3508.5000  1409.0554  -999.2500   275.1523
 3509.0000  1461.2354  -999.2500   271.2379
 3509.5000  1513.4152  -999.2500   268.7055
 3510.0000  1437.9346  -999.2500   268.9381
 3510.5000  1269.6536  -999.2500   271.4748
 3511.0000  1257.3345  -999.2500   273.7811
 3511.5000  1251.9490  -999.2500   275.8569
 3512.0000  1258.1217  -999.2500   276.5503
 3512.5000  1261.2109  -999.2500   276.5525
 3513.0000  1258.9071  -999.2500   274.7099
 3513.5000  1256.6014  -999.2500   274.2526
 3514.0000  1259.6925  -999.2500   276.5594
 3514.5000  1267.4043  -999.2500   278.4049
 3515.0000  1282.0497  -999.2500   279.0977
 3515.5000  1296.6951  -999.2500   277.4875
 3516.0000  1303.6564  -999.2500   274.4942
 3516.5000  1299.9510  -999.2500   270.3489
 3517.0000  1273.6071  -999.2500   270.8119
 3517.5000  1246.6499  -999.2500   277.7265
 3518.0000  1236.6401  -999.2500   280.4936
 3518.5000  1232.7957  -999.2500   282.3391
 3519.0000  1235.1162  -999.2500   283.2629
 3519.5000  1242.8279  -999.2500   282.7224
 3520.0000  1250.5396  -999.2500   280.2723
 3520.5000  1261.3329  -999.2500   276.8182
 3521.0000  1265.3099  -999.2500   272.4424
 3521.5000  1276.7581  -999.2500   271.9832
 3522.0000  1290.6331  -999.2500   274.7509
 3522.5000  1309.9009  -999.2500   275.9051
 3523.0000  1332.2506  -999.2500   275.6763
 3523.5000  1363.2451  -999.2500   274.9877
 3524.0000  1395.1278  -999.2500   271.5336
 3524.5000  1437.8208  -999.2500   268.7708
 3525.0000  1449.3844  -999.2500   269.0421
 3525.5000  1479.4382  -999.2500   268.7751
 3526.0000  1321.9425  -999.2500   268.7778
 3526.5000  1243.4695  -999.2500   268.5495
 3527.0000  1261.4669  -999.2500   266.7083
 3527.5000  1286.0939  -999.2500   265.3280
 3528.0000  1283.7900  -999.2500   263.2564
 3528.5000  1289.1924  -999.2500   262.3369
 3529.0000  1288.4294  -999.2500   258.4219
 3529.5000  1279.1920  -999.2500   256.5807
 3530.0000  1271.4952  -999.2500   254.7244
 3530.5000  1265.3395  -999.2500   253.4807
 3531.0000  1265.2262  -999.2500   249.9057
 3531.5000  1277.6812  -999.2500   247.3733
 3532.0000  1304.7314  -999.2500   246.6836
 3532.5000  1341.0392  -999.2500   249.9121
 3533.0000  1377.3469  -999.2500   253.8313
 3533.5000  1413.6545  -999.2500   254.7546
 3534.0000  1449.9623  -999.2500   249.4577
 3534.5000  1486.2699  -999.2500   246.4645
 3535.0000  1286.9806  -999.2500   251.5357
 3535.5000  1282.3638  -999.2500   252.9333
 3536.0000  1350.4904  -999.2500   254.1806
 3536.5000  1422.0260  -999.2500   259.3768
 3537.0000  1493.5616  -999.2500   260.5310
 3537.5000  1565.0973  -999.2500   264.9110
 3538.0000  -999.2500  -999.2500   267.6782
 3538.5000  1438.2426  -999.2500   276.8969
 3539.0000  1506.1130  -999.2500   278.5119
 3539.5000  1573.9836  -999.2500   281.5094
 3540.0000  -326.9659  -999.2500   285.4286
 3540.5000  -202.2653  -999.2500   286.8133
 3541.0000  -257.9373  -999.2500   289.4346
 3541.5000  -999.2500  -999.2500   296.1282
 3542.0000  -999.2500  -999.2500   297.4188
 3542.5000  1604.5065  -999.2500   293.5044
 3543.0000  1265.9586  -999.2500   291.8936
 3543.5000  1278.6367  -999.2500   290.7437
 3544.0000  1284.8075  -999.2500   292.1278
 3544.5000  1276.2850  -999.2500   287.9830
 3545.0000  1236.2864  -999.2500   289.1367
 3545.5000  1240.1478  -999.2500   289.3698
 3546.0000  1245.5483  -999.2500   294.2106
 3546.5000  1251.7191  -999.2500   296.7736
 3547.0000  1249.4154  -999.2500   297.9016
 3547.5000  1244.0281  -999.2500   297.6738
 3548.0000  1251.7417  -999.2500   295.3718
 3548.5000  1245.5858  -999.2500   293.0698
