~VERSION INFORMATION
 VERS.               2.10:   CWLS LOG ASCII STANDARD - VERSION 2.10
 WRAP.                 NO:   ONE LINE PER DEPTH STEP
~WELL INFORMATION
#MNEM.UNIT      DATA TYPE    INFORMATION
#----------   ------------   ------------------------------
 STRT.F            0.0000:   START DEPTH
 STOP.F         5499.9595:   STOP DEPTH
 STEP.F            0.5000:   STEP LENGTH
 NULL.          -999.2500:   NO VALUE
 COMP. Tesoro Petroleum Corporation:   COMPANY
 WELL.            51 x 28:   WELL
 FLD .           N.P.R. 3:   FIELD
 LOC . 28-39N-78W-NATRONA-WY:   LOCATION
 STAT.                 WY:   STATE
 COUN.            Natrona:   COUNTY
 SRVC.                   :   SERVICE COMPANY
 DATE.         07/07/1968:   LOGDATE
~CURVE INFORMATION
#MNEM.UNIT       API CODE    CURVE DESCRIPTION
#----------   ------------   ------------------------------
 DEPT.F                  :
 RO  .m2/m               :   Resisitivity Ohms
 SN  .m2/m               :   Reisistivity Ohms
 ASN .m2/m               :   Reisistivity Ohms
 Ind .None               :   Induction
 Ind .None               :   Induction
 Con .millimhos/m        :   Conductivitity
 Con .millimhos/m        :   Conductivitity
~PARAMETER INFORMATION
#MNEM.UNIT          VALUE    DESCRIPTION
#----------   ------------   ------------------------------
 EKB .F         5008.0000:   Kelly bushing
 EGL .F         4997.0000:   Ground level
 EDF .F            0.0000:   Drilling floor
 EPD .F            7.0000:   Permanent datum
 TD  .F         5500.0000:   Total depth
 NRUN.             3.0000:   Number of Runs
#--RUN 1---   ------------   The following are for Run 1---
 RUN .             1.0000:   Run 1
 DATE.mm/dd/yyyy 07/07/1968:   Date Logged
 DD  .ft              450:   Depth Driller
 DL  .ft              455:   Depth Logger
 BLI .ft              450:   Bottom Log Interval
 TLI .ft               38:   Top Log Interval
 CSS .inch             20:   Casing Size
 CTD1.ft               38:   Casing Driller 1
 CTL1.ft               38:   Casing Logger 1
 BS  .inch             15:   Bit Size
 DFT .     water base mud:   Type Fluid In Hole
 DFD .lb/gal          9.3:   Mud Weight
 DFV .sec              48:   Viscosity
 DFPH.                  8:   pH
 DFL .ml              7.6:   Fluid Loss
 WSS .           flo line:   Source Of Sample
 RM  .ohmm            2.7:   Rm
 EMT .F                93:   Rm Meas. Temp.
 RMF .ohmm            2.1:   Rmf
 MFT .F               100:   Rmf Meas. Temp.
 RMC .ohmm            2.3:   Rmc
 MCST.F               100:   Rmc Meas. Temp.
 MCSS.       fann mud kit:   Source Rmc.
 TCS .hh:mm       3 hours:   Time Circ. Stopped
 LUN .               7949:   Logging Unit Number
 LUL .          Newcastle:   Logging Unit Location
 ENGI.            Custard:   Recorded By
 WITN.            Mr. May:   Witnessed By
 DGBY.              Burke:   Digitized By
#--RUN 2---   ------------   The following are for Run 2---
 RUN .             2.0000:   Run 2
 DATE.mm/dd/yyyy 09/01/1968:   Date Logged
 DD  .ft             2955:   Depth Driller
 DL  .ft             2955:   Depth Logger
 BLI .ft             2950:   Bottom Log Interval
 TLI .ft              444:   Top Log Interval
 CSS .inch         10-3/4:   Casing Size
 CTD1.ft              340:   Casing Driller 1
 CTL1.ft              454:   Casing Logger 1
 BS  .inch          7-7/8:   Bit Size
 DFT .               "  ":   Type Fluid In Hole
 DFD .lb/gal          9.6:   Mud Weight
 DFV .sec              52:   Viscosity
 DFPH.                 85:   pH
 DFL .ml                6:   Fluid Loss
 WSS .              circ.:   Source Of Sample
 RM  .ohmm            2.5:   Rm
 EMT .F                52:   Rm Meas. Temp.
 RMF .ohmm           1.10:   Rmf
 MFT .F               100:   Rmf Meas. Temp.
 RMC .ohmm           1.63:   Rmc
 MCST.F               100:   Rmc Meas. Temp.
 MCSS.               "  ":   Source Rmc.
 RMB .ohmm           1.30:   Rm. At BHT
 BHT .F               104:   BHT.
 TCS .hh:mm       2 hours:   Time Circ. Stopped
 MRT .F               104:   Maximum Recorded Temp.
 LUN .               7949:   Logging Unit Number
 LUL .          Newcastle:   Logging Unit Location
 ENGI.               "  ":   Recorded By
 WITN.               "  ":   Witnessed By
 DGBY.               "  ":   Digitized By
#--RUN 3---   ------------   The following are for Run 3---
 RUN .             3.0000:   Run 3
 DATE.mm/dd/yyyy 09/18/1968:   Date Logged
 DD  .ft             5495:   Depth Driller
 DL  .ft             5503:   Depth Logger
 BLI .ft             5498:   Bottom Log Interval
 TLI .ft             2900:   Top Log Interval
 CSS .inch         10-3/4:   Casing Size
 CTD1.ft              450:   Casing Driller 1
 CTL1.ft              454:   Casing Logger 1
 BS  .inch              9:   Bit Size
 DFT .               "  ":   Type Fluid In Hole
 DFD .lb/gal          9.4:   Mud Weight
 DFV .sec              58:   Viscosity
 DFPH.                9.5:   pH
 DFL .ml               11:   Fluid Loss
 WSS .                pit:   Source Of Sample
 RM  .ohmm            1.7:   Rm
 EMT .F                56:   Rm Meas. Temp.
 RMF .ohmm            .64:   Rmf
 MFT .F               100:   Rmf Meas. Temp.
 RMC .ohmm            1.6:   Rmc
 MCST.F               100:   Rmc Meas. Temp.
 MCSS.               "  ":   Source Rmc.
 RMB .ohmm             .6:   Rm. At BHT
 BHT .F               160:   BHT.
 TCS .hh:mm         3 hrs:   Time Circ. Stopped
 MRT .F               160:   Maximum Recorded Temp.
 LUN .               "  ":   Logging Unit Number
 LUL .               "  ":   Logging Unit Location
 ENGI.               "  ":   Recorded By
 WITN.               "  ":   Witnessed By
 DGBY.               "  ":   Digitized By
~A  DEPTH       RO         SN        ASN        Ind        I          C          Con
# ...
 3776.5000  -999.2500     5.4224   275.0638     5.2344  -999.2500  -999.2500   586.7994
 3777.0000  -999.2500     5.1183   261.2474     4.7686  -999.2500  -999.2500   593.8241
 3777.5000  -999.2500     4.6598   252.0358     4.5444  -999.2500  -999.2500   598.1877
 3778.0000  -999.2500     4.5850   237.4520     4.4691  -999.2500  -999.2500   603.2835
 3778.5000  -999.2500     4.4340   225.0370     4.3171  -999.2500  -999.2500   606.5823
 3779.0000  -999.2500     4.4374   221.8688     4.2413  -999.2500  -999.2500   608.4770
 3779.5000  -999.2500     4.4401   219.0267     4.2434  -999.2500  -999.2500   607.6815
 3780.0000  -999.2500     4.4428   224.3963     4.3222  -999.2500  -999.2500   605.3486
 3780.5000  -999.2500     4.5224   228.9990     4.3239  -999.2500  -999.2500   603.7845
 3781.0000  -999.2500     4.5252   223.6247     4.3256  -999.2500  -999.2500   602.9481
 3781.5000  -999.2500     4.4510   215.9480     4.3272  -999.2500  -999.2500   600.6517
 3782.0000  -999.2500     4.4544   214.4116     4.3290  -999.2500  -999.2500   599.8562
 3782.5000  -999.2500     4.5340   220.5491     4.3307  -999.2500  -999.2500   600.2136
 3783.0000  -999.2500     4.5367   214.4069     4.3174  -999.2500  -999.2500   600.5778
 3783.5000  -999.2500     4.4618   213.6005     4.3002  -999.2500  -999.2500   602.0815
 3784.0000  -999.2500     4.3877   219.0581     4.2831  -999.2500  -999.2500   603.9762
 3784.5000  -999.2500     4.3142   218.8840     4.2660  -999.2500  -999.2500   605.4866
 3785.0000  -999.2500     4.2400   208.2583     4.2488  -999.2500  -999.2500   605.4597
 3785.5000  -999.2500     4.2428   212.8610     4.2317  -999.2500  -999.2500   605.4321
 3786.0000  -999.2500     4.2456   216.6966     4.2145  -999.2500  -999.2500   605.0149
 3786.5000  -999.2500     4.2489   205.9495     4.1974  -999.2500  -999.2500   604.6038
 3787.0000  -999.2500     4.2516   205.1805     4.1802  -999.2500  -999.2500   604.1926
 3787.5000  -999.2500     4.2543   208.2477     4.1631  -999.2500  -999.2500   603.7814
 3788.0000  -999.2500     4.3339   212.8509     4.1460  -999.2500  -999.2500   600.2956
 3788.5000  -999.2500     4.5672   212.0809     4.1288  -999.2500  -999.2500   598.3472
 3789.0000  -999.2500     4.6468   214.3812     4.1117  -999.2500  -999.2500   597.5516
 3789.5000  -999.2500     4.6495   216.6820     4.0945  -999.2500  -999.2500   598.2934
 3790.0000  -999.2500     4.4985   212.0746     4.0774  -999.2500  -999.2500   601.8520
 3790.5000  -999.2500     4.5781   205.1654     4.0602  -999.2500  -999.2500   605.1506
 3791.0000  -999.2500     4.4933   205.9308     4.0431  -999.2500  -999.2500   607.8140
 3791.5000  -999.2500     4.3536   205.9286     4.0260  -999.2500  -999.2500   608.9468
 3792.0000  -999.2500     4.2788   199.7864     4.0088  -999.2500  -999.2500   608.5289
 3792.5000  -999.2500     4.2046   192.8772     3.9917  -999.2500  -999.2500   607.7334
 3793.0000  -999.2500     4.2080   189.0383     3.9816  -999.2500  -999.2500   606.5536
 3793.5000  -999.2500     4.3645   199.0127     3.9838  -999.2500  -999.2500   605.3737
 3794.0000  -999.2500     4.3316   195.1733     3.9854  -999.2500  -999.2500   603.0410
 3794.5000  -999.2500     4.1433   186.7292     3.9871  -999.2500  -999.2500   601.4767
 3795.0000  -999.2500     3.9550   178.2850     3.9888  -999.2500  -999.2500   604.9088
 3795.5000  -999.2500     3.7668   172.9107     3.8364  -999.2500  -999.2500   609.1027
 3796.0000  -999.2500     3.5785   167.5364     3.7611  -999.2500  -999.2500   614.8406
 3796.5000  -999.2500     3.3903   166.7484     3.5321  -999.2500  -999.2500   622.8845
 3797.0000  -999.2500     3.2020   158.8231     3.3793  -999.2500  -999.2500   630.9501
 3797.5000  -999.2500     3.0137   146.0408     3.2269  -999.2500  -999.2500   641.0282
 3798.0000  -999.2500     2.8255   136.0617     3.0745  -999.2500  -999.2500   651.1063
 3798.5000  -999.2500     2.7011   129.9200     2.9991  -999.2500  -999.2500   661.1844
 3799.0000  -999.2500     2.6269   132.9882     2.9238  -999.2500  -999.2500   668.0976
 3799.5000  -999.2500     2.6303   125.3110     2.8488  -999.2500  -999.2500   670.7609
 3800.0000  -999.2500     2.4594   122.2396     2.8505  -999.2500  -999.2500   671.5027
 3800.5000  -999.2500     2.4630   124.5399     2.7752  -999.2500  -999.2500   671.0859
 3801.0000  -999.2500     2.4659   126.0722     2.7773  -999.2500  -999.2500   661.5880
 3801.5000  -999.2500     2.5456   131.4424     2.9331  -999.2500  -999.2500   654.2778
 3802.0000  -999.2500     2.7791   136.1492     3.0889  -999.2500  -999.2500   645.4302
 3802.5000  -999.2500     3.0125   143.7176     3.1676  -999.2500  -999.2500   640.4258
 3803.0000  -999.2500     3.0154   145.2499     3.3234  -999.2500  -999.2500   634.2686
 3803.5000  -999.2500     3.0215   146.7832     3.4021  -999.2500  -999.2500   628.8799
 3804.0000  -999.2500     3.0981   149.8505     3.4808  -999.2500  -999.2500   624.2599
 3804.5000  -999.2500     3.1016   157.5230     3.5596  -999.2500  -999.2500   622.3301
 3805.0000  -999.2500     3.4119   155.9860     3.5612  -999.2500  -999.2500   622.7276
 3805.5000  -999.2500     3.6447   154.4490     3.6400  -999.2500  -999.2500   624.2966
 3806.0000  -999.2500     3.4169   156.7498     3.5651  -999.2500  -999.2500   624.9957
 3806.5000  -999.2500     3.4205   162.1194     3.4893  -999.2500  -999.2500   625.3698
 3807.0000  -999.2500     3.1928   162.1173     3.4914  -999.2500  -999.2500   629.5892
 3807.5000  -999.2500     2.9650   159.0131     3.4931  -999.2500  -999.2500   632.2712
 3808.0000  -999.2500     2.9679   158.2758     3.4948  -999.2500  -999.2500   635.3376
 3808.5000  -999.2500     3.0477   155.9709     3.4194  -999.2500  -999.2500   637.6353
 3809.0000  -999.2500     3.0507   155.2013     3.4211  -999.2500  -999.2500   639.1644
 3809.5000  -999.2500     3.0541   156.7341     3.4228  -999.2500  -999.2500   639.9248
 3810.0000  -999.2500     3.1339   164.4067     3.4245  -999.2500  -999.2500   638.7204
 3810.5000  -999.2500     3.4442   175.1490     3.4262  -999.2500  -999.2500   634.5259
 3811.0000  -999.2500     3.7545   185.1239     3.6594  -999.2500  -999.2500   628.3686
 3811.5000  -999.2500     4.0648   195.8663     3.8922  -999.2500  -999.2500   624.1329
 3812.0000  -999.2500     4.4520   223.1046     4.1251  -999.2500  -999.2500   608.3683
 3812.5000  -999.2500     4.8392   262.6311     4.4349  -999.2500  -999.2500   594.1403
 3813.0000  -999.2500     5.4570   284.5394     4.8989  -999.2500  -999.2500   584.4938
 3813.5000  -999.2500     6.2424   314.0908     5.5232  -999.2500  -999.2500   581.4393
 3814.0000  -999.2500     7.0251   449.1174     6.3541  -999.2500  -999.2500   574.8976
 3814.5000  -999.2500     8.9252  -999.2500     7.1851  -999.2500  -999.2500   566.5215
 3815.0000  -999.2500    12.2332  -999.2500     8.0160  -999.2500  -999.2500   556.3951
 3815.5000  -999.2500    13.6965  -999.2500     9.6071  -999.2500  -999.2500   545.6655
 3816.0000  -999.2500    14.1606  -999.2500    10.8415  -999.2500  -999.2500   543.3344
 3816.5000  -999.2500    14.5478  -999.2500    11.2284  -999.2500  -999.2500   542.1899
 3817.0000  -999.2500    14.7044  -999.2500    10.9990  -999.2500  -999.2500   544.8702
 3817.5000  -999.2500    14.4766  -999.2500     9.9221  -999.2500  -999.2500   547.9366
 3818.0000  -999.2500    14.0952  -999.2500     9.2304  -999.2500  -999.2500   551.7715
 3818.5000  -999.2500    13.1536  -999.2500     9.0755  -999.2500  -999.2500   553.3007
 3819.0000  -999.2500    12.6273  -999.2500     8.6842  -999.2500  -999.2500   553.6789
 3819.5000  -999.2500    11.6449  -999.2500     8.2343  -999.2500  -999.2500   554.4373
 3820.0000  -999.2500    11.2627  -999.2500     8.1590  -999.2500  -999.2500   556.6049
 3820.5000  -999.2500    10.8190  -999.2500     7.9296  -999.2500  -999.2500   558.8199
 3821.0000  -999.2500    10.2088   489.8592     7.8538  -999.2500  -999.2500   561.0350
 3821.5000  -999.2500     9.5987   464.6094     7.6021  -999.2500  -999.2500   563.2499
