~VERSION INFORMATION
 VERS.               2.10:   CWLS LOG ASCII STANDARD - VERSION 2.10
 WRAP.                 NO:   ONE LINE PER DEPTH STEP
~WELL INFORMATION
#MNEM.UNIT      DATA TYPE    INFORMATION
#----------   ------------   ------------------------------
 STRT.F            0.0000:   START DEPTH
 STOP.F         5499.9595:   STOP DEPTH
 STEP.F            0.5000:   STEP LENGTH
 NULL.          -999.2500:   NO VALUE
 COMP. Tesoro Petroleum Corporation:   COMPANY
 WELL.            51 x 28:   WELL
 FLD .           N.P.R. 3:   FIELD
 LOC . 28-39N-78W-NATRONA-WY:   LOCATION
 STAT.                 WY:   STATE
 COUN.            Natrona:   COUNTY
 SRVC.                   :   SERVICE COMPANY
 DATE.         07/07/1968:   LOGDATE
~CURVE INFORMATION
#MNEM.UNIT       API CODE    CURVE DESCRIPTION
#----------   ------------   ------------------------------
 DEPT.F                  :
 RO  .m2/m               :   Resisitivity Ohms
 SN  .m2/m               :   Reisistivity Ohms
 ASN .m2/m               :   Reisistivity Ohms
 Ind .None               :   Induction
 Ind .None               :   Induction
 Con .millimhos/m        :   Conductivitity
 Con .millimhos/m        :   Conductivitity
~PARAMETER INFORMATION
#MNEM.UNIT          VALUE    DESCRIPTION
#----------   ------------   ------------------------------
 EKB .F         5008.0000:   Kelly bushing
 EGL .F         4997.0000:   Ground level
 EDF .F            0.0000:   Drilling floor
 EPD .F            7.0000:   Permanent datum
 TD  .F         5500.0000:   Total depth
 NRUN.             3.0000:   Number of Runs
#--RUN 1---   ------------   The following are for Run 1---
 RUN .             1.0000:   Run 1
 DATE.mm/dd/yyyy 07/07/1968:   Date Logged
 DD  .ft              450:   Depth Driller
 DL  .ft              455:   Depth Logger
 BLI .ft              450:   Bottom Log Interval
 TLI .ft               38:   Top Log Interval
 CSS .inch             20:   Casing Size
 CTD1.ft               38:   Casing Driller 1
 CTL1.ft               38:   Casing Logger 1
 BS  .inch             15:   Bit Size
 DFT .     water base mud:   Type Fluid In Hole
 DFD .lb/gal          9.3:   Mud Weight
 DFV .sec              48:   Viscosity
 DFPH.                  8:   pH
 DFL .ml              7.6:   Fluid Loss
 WSS .           flo line:   Source Of Sample
 RM  .ohmm            2.7:   Rm
 EMT .F                93:   Rm Meas. Temp.
 RMF .ohmm            2.1:   Rmf
 MFT .F               100:   Rmf Meas. Temp.
 RMC .ohmm            2.3:   Rmc
 MCST.F               100:   Rmc Meas. Temp.
 MCSS.       fann mud kit:   Source Rmc.
 TCS .hh:mm       3 hours:   Time Circ. Stopped
 LUN .               7949:   Logging Unit Number
 LUL .          Newcastle:   Logging Unit Location
 ENGI.            Custard:   Recorded By
 WITN.            Mr. May:   Witnessed By
 DGBY.              Burke:   Digitized By
#--RUN 2---   ------------   The following are for Run 2---
 RUN .             2.0000:   Run 2
 DATE.mm/dd/yyyy 09/01/1968:   Date Logged
 DD  .ft             2955:   Depth Driller
 DL  .ft             2955:   Depth Logger
 BLI .ft             2950:   Bottom Log Interval
 TLI .ft              444:   Top Log Interval
 CSS .inch         10-3/4:   Casing Size
 CTD1.ft              340:   Casing Driller 1
 CTL1.ft              454:   Casing Logger 1
 BS  .inch          7-7/8:   Bit Size
 DFT .               "  ":   Type Fluid In Hole
 DFD .lb/gal          9.6:   Mud Weight
 DFV .sec              52:   Viscosity
 DFPH.                 85:   pH
 DFL .ml                6:   Fluid Loss
 WSS .              circ.:   Source Of Sample
 RM  .ohmm            2.5:   Rm
 EMT .F                52:   Rm Meas. Temp.
 RMF .ohmm           1.10:   Rmf
 MFT .F               100:   Rmf Meas. Temp.
 RMC .ohmm           1.63:   Rmc
 MCST.F               100:   Rmc Meas. Temp.
 MCSS.               "  ":   Source Rmc.
 RMB .ohmm           1.30:   Rm. At BHT
 BHT .F               104:   BHT.
 TCS .hh:mm       2 hours:   Time Circ. Stopped
 MRT .F               104:   Maximum Recorded Temp.
 LUN .               7949:   Logging Unit Number
 LUL .          Newcastle:   Logging Unit Location
 ENGI.               "  ":   Recorded By
 WITN.               "  ":   Witnessed By
 DGBY.               "  ":   Digitized By
#--RUN 3---   ------------   The following are for Run 3---
 RUN .             3.0000:   Run 3
 DATE.mm/dd/yyyy 09/18/1968:   Date Logged
 DD  .ft             5495:   Depth Driller
 DL  .ft             5503:   Depth Logger
 BLI .ft             5498:   Bottom Log Interval
 TLI .ft             2900:   Top Log Interval
 CSS .inch         10-3/4:   Casing Size
 CTD1.ft              450:   Casing Driller 1
 CTL1.ft              454:   Casing Logger 1
 BS  .inch              9:   Bit Size
 DFT .               "  ":   Type Fluid In Hole
 DFD .lb/gal          9.4:   Mud Weight
 DFV .sec              58:   Viscosity
 DFPH.                9.5:   pH
 DFL .ml               11:   Fluid Loss
 WSS .                pit:   Source Of Sample
 RM  .ohmm            1.7:   Rm
 EMT .F                56:   Rm Meas. Temp.
 RMF .ohmm            .64:   Rmf
 MFT .F               100:   Rmf Meas. Temp.
 RMC .ohmm            1.6:   Rmc
 MCST.F               100:   Rmc Meas. Temp.
 MCSS.               "  ":   Source Rmc.
 RMB .ohmm             .6:   Rm. At BHT
 BHT .F               160:   BHT.
 TCS .hh:mm         3 hrs:   Time Circ. Stopped
 MRT .F               160:   Maximum Recorded Temp.
 LUN .               "  ":   Logging Unit Number
 LUL .               "  ":   Logging Unit Location
 ENGI.               "  ":   Recorded By
 WITN.               "  ":   Witnessed By
 DGBY.               "  ":   Digitized By
~A  DEPTH       RO         SN        ASN        Ind        I          C          Con
# ...
 3458.0000  -999.2500     6.9233   342.3385     7.0170  -999.2500  -999.2500   575.5417
 3458.5000  -999.2500     6.9234   340.8258     7.2485  -999.2500  -999.2500   566.5470
 3459.0000  -999.2500     6.8466   331.6089     7.3259  -999.2500  -999.2500   564.2239
 3459.5000  -999.2500     6.7697   325.4738     6.8641  -999.2500  -999.2500   565.3597
 3460.0000  -999.2500     6.4623   317.0274     6.2481  -999.2500  -999.2500   571.1073
 3460.5000  -999.2500     6.6161   310.1218     6.0173  -999.2500  -999.2500   574.5491
 3461.0000  -999.2500     6.8468   308.6091     6.4800  -999.2500  -999.2500   576.0698
 3461.5000  -999.2500     6.8468   313.8177     6.4804  -999.2500  -999.2500   575.6677
 3462.0000  -999.2500     6.7700   323.3104     6.4807  -999.2500  -999.2500   574.4976
 3462.5000  -999.2500     6.7700   325.5304     6.4811  -999.2500  -999.2500   574.0960
 3463.0000  -999.2500     6.7701   324.8981     6.3275  -999.2500  -999.2500   574.9111
 3463.5000  -999.2500     6.7701   328.7854     6.2508  -999.2500  -999.2500   575.9789
 3464.0000  -999.2500     6.6164   323.4207     6.4823  -999.2500  -999.2500   576.3504
 3464.5000  -999.2500     6.3859   309.8708     6.7909  -999.2500  -999.2500   574.7916
 3465.0000  -999.2500     6.3091   297.2828     6.9453  -999.2500  -999.2500   572.8529
 3465.5000  -999.2500     6.6935   305.7926     6.4835  -999.2500  -999.2500   570.1454
 3466.0000  -999.2500     6.6935   314.2953     6.2527  -999.2500  -999.2500   570.8969
 3466.5000  -999.2500     6.6167   308.1602     5.4056  -999.2500  -999.2500   573.9543
 3467.0000  -999.2500     6.4366   314.3517     5.2519  -999.2500  -999.2500   584.6981
 3467.5000  -999.2500     5.8482   295.2089     5.1753  -999.2500  -999.2500   591.5986
 3468.0000  -999.2500     5.5407   274.0787     5.3297  -999.2500  -999.2500   589.6599
 3468.5000  -999.2500     5.7714   254.3413     5.3302  -999.2500  -999.2500   586.9199
 3469.0000  -999.2500     5.6177   264.3919     5.3306  -999.2500  -999.2500   586.1659
 3469.5000  -999.2500     5.5409   259.0272     5.0228  -999.2500  -999.2500   588.0668
 3470.0000  -999.2500     6.6170   263.6778     5.0232  -999.2500  -999.2500   593.8144
 3470.5000  -999.2500     6.9245   309.9309     5.4087  -999.2500  -999.2500   595.3388
 3471.0000  -999.2500     7.0014   331.5308     6.1795  -999.2500  -999.2500   582.6348
 3471.5000  -999.2500     6.8478   333.8701     6.5651  -999.2500  -999.2500   575.6998
 3472.0000  -999.2500     6.8478   326.9646     6.7966  -999.2500  -999.2500   569.9178
 3472.5000  -999.2500     6.9247   326.2223     7.0281  -999.2500  -999.2500   569.1321
 3473.0000  -999.2500     7.1554   335.5025     7.0285  -999.2500  -999.2500   569.4991
 3473.5000  -999.2500     7.5397   346.4327     6.8748  -999.2500  -999.2500   570.2510
 3474.0000  -999.2500     8.0778   368.2790     7.0293  -999.2500  -999.2500   570.2335
 3474.5000  -999.2500     8.5391   390.1254     7.2608  -999.2500  -999.2500   569.0630
 3475.0000  -999.2500     8.4622   403.4117     7.4923  -999.2500  -999.2500   567.3796
 3475.5000  -999.2500     8.4623   407.2920     7.7238  -999.2500  -999.2500   565.1815
 3476.0000  -999.2500     8.2317   398.8456     8.0324  -999.2500  -999.2500   564.7800
 3476.5000  -999.2500     8.0781   385.0062     8.1098  -999.2500  -999.2500   560.5353
 3477.0000  -999.2500     8.3087   380.4119     8.1190  -999.2500  -999.2500   558.9809
 3477.5000  -999.2500     8.3088   389.6850     7.6483  -999.2500  -999.2500   560.1166
 3478.0000  -999.2500     8.2827   382.7794     6.8721  -999.2500  -999.2500   562.7897
 3478.5000  -999.2500     7.7708   385.1188     6.4027  -999.2500  -999.2500   566.2314
 3479.0000  -999.2500     6.8485   355.0375     5.8776  -999.2500  -999.2500   575.4379
 3479.5000  -999.2500     6.6948   318.9501     5.8008  -999.2500  -999.2500   585.7973
 3480.0000  -999.2500     6.9254   308.1664     6.1094  -999.2500  -999.2500   583.4742
 3480.5000  -999.2500     6.6180   316.6699     6.3409  -999.2500  -999.2500   577.0168
 3481.0000  -999.2500     6.6181   297.4439     5.9560  -999.2500  -999.2500   577.8248
 3481.5000  -999.2500     7.5405   315.1917     5.8794  -999.2500  -999.2500   581.2836
 3482.0000  -999.2500     8.4629   350.6590     6.1110  -999.2500  -999.2500   578.2090
 3482.5000  -999.2500     9.0779   415.6541     6.9588  -999.2500  -999.2500   569.7540
 3483.0000  -999.2500     9.1608   436.5327     7.8102  -999.2500  -999.2500   561.6833
 3483.5000  -999.2500     9.0651   442.0633     8.1922  -999.2500  -999.2500   558.2244
 3484.0000  -999.2500     8.6937   445.1621     8.3468  -999.2500  -999.2500   555.5342
 3484.5000  -999.2500     8.1557   408.2789     8.2700  -999.2500  -999.2500   553.6126
 3485.0000  -999.2500     8.2326   397.5511     8.1934  -999.2500  -999.2500   553.2283
 3485.5000  -999.2500     8.3095   399.1693     7.7316  -999.2500  -999.2500   557.6106
 3486.0000  -999.2500     8.3096   394.6436     7.3466  -999.2500  -999.2500   563.2206
 3486.5000  -999.2500     8.3096   390.0984     7.1929  -999.2500  -999.2500   565.1422
 3487.0000  -999.2500     8.3097   396.3198     7.1795  -999.2500  -999.2500   566.2952
 3487.5000  -999.2500     8.3097   388.7110     7.2708  -999.2500  -999.2500   565.9108
 3488.0000  -999.2500     8.2329   394.2576     7.4253  -999.2500  -999.2500   563.2206
 3488.5000  -999.2500     8.1561   396.5714     7.4172  -999.2500  -999.2500   563.2206
 3489.0000  -999.2500     8.1561   383.5710     6.8098  -999.2500  -999.2500   565.5265
 3489.5000  -999.2500     8.2331   374.3841     6.4250  -999.2500  -999.2500   568.9854
 3490.0000  -999.2500     8.1562   378.3329     6.4253  -999.2500  -999.2500   571.3405
 3490.5000  -999.2500     7.8488   366.0836     6.5027  -999.2500  -999.2500   572.8286
 3491.0000  -999.2500     8.0795   358.4375     6.6572  -999.2500  -999.2500   570.5227
 3491.5000  -999.2500     8.3101   377.7946     6.8887  -999.2500  -999.2500   569.3697
 3492.0000  -999.2500     8.4639   399.4437     7.1202  -999.2500  -999.2500   568.6011
 3492.5000  -999.2500     9.0788   425.1211     7.4287  -999.2500  -999.2500   567.0638
 3493.0000  -999.2500    10.6930   480.2295     7.8914  -999.2500  -999.2500   564.7579
 3493.5000  -999.2500    11.6923  -999.2500     8.6739  -999.2500  -999.2500   559.7617
 3494.0000  -999.2500    12.1655  -999.2500     9.3054  -999.2500  -999.2500   553.9969
 3494.5000  -999.2500    12.7303  -999.2500     9.8957  -999.2500  -999.2500   548.2321
 3495.0000  -999.2500    13.2297  -999.2500    10.3583  -999.2500  -999.2500   546.2382
 3495.5000  -999.2500    13.3066  -999.2500    10.5128  -999.2500  -999.2500   544.7733
 3496.0000  -999.2500    13.2657  -999.2500    10.1279  -999.2500  -999.2500   545.9262
 3496.5000  -999.2500    13.2169  -999.2500     9.8971  -999.2500  -999.2500   546.3105
 3497.0000  -999.2500    13.1682  -999.2500     9.8976  -999.2500  -999.2500   547.4635
 3497.5000  -999.2500    13.1194  -999.2500     9.8979  -999.2500  -999.2500   547.4635
 3498.0000  -999.2500    13.0763  -999.2500     9.9754  -999.2500  -999.2500   547.4635
 3498.5000  -999.2500    12.9226  -999.2500    10.0528  -999.2500  -999.2500   547.4635
 3499.0000  -999.2500    12.7689  -999.2500    10.1410  -999.2500  -999.2500   546.3105
 3499.5000  -999.2500    12.5384  -999.2500    10.5929  -999.2500  -999.2500   543.6111
 3500.0000  -999.2500    12.3078  -999.2500    11.3637  -999.2500  -999.2500   541.3144
 3500.5000  -999.2500    11.6930  -999.2500    11.5952  -999.2500  -999.2500   541.3144
 3501.0000  -999.2500    11.0757  -999.2500    11.2104  -999.2500  -999.2500   542.0830
 3501.5000  -999.2500    10.4389  -999.2500     9.8240  -999.2500  -999.2500   546.3105
 3502.0000  -999.2500     8.6954   501.1779     6.5116  -999.2500  -999.2500   557.7451
 3502.5000  -999.2500     7.0045   422.3336     5.7415  -999.2500  -999.2500   576.9640
 3503.0000  -999.2500     5.9284   349.5652     4.4322  -999.2500  -999.2500   596.1829
