~VERSION INFORMATION
 VERS.               2.10:   CWLS LOG ASCII STANDARD - VERSION 2.10
 WRAP.                 NO:   ONE LINE PER DEPTH STEP
~WELL INFORMATION
#MNEM.UNIT      DATA TYPE    INFORMATION
#----------   ------------   ------------------------------
 STRT.F            0.0000:   START DEPTH
 STOP.F         5499.9595:   STOP DEPTH
 STEP.F            0.5000:   STEP LENGTH
 NULL.          -999.2500:   NO VALUE
 COMP. Tesoro Petroleum Corporation:   COMPANY
 WELL.            51 x 28:   WELL
 FLD .           N.P.R. 3:   FIELD
 LOC . 28-39N-78W-NATRONA-WY:   LOCATION
 STAT.                 WY:   STATE
 COUN.            Natrona:   COUNTY
 SRVC.                   :   SERVICE COMPANY
 DATE.         07/07/1968:   LOGDATE
~CURVE INFORMATION
#MNEM.UNIT       API CODE    CURVE DESCRIPTION
#----------   ------------   ------------------------------
 DEPT.F                  :
 RO  .m2/m               :   Resisitivity Ohms
 SN  .m2/m               :   Reisistivity Ohms
 ASN .m2/m               :   Reisistivity Ohms
 Ind .None               :   Induction
 Ind .None               :   Induction
 Con .millimhos/m        :   Conductivitity
 Con .millimhos/m        :   Conductivitity
~PARAMETER INFORMATION
#MNEM.UNIT          VALUE    DESCRIPTION
#----------   ------------   ------------------------------
 EKB .F         5008.0000:   Kelly bushing
 EGL .F         4997.0000:   Ground level
 EDF .F            0.0000:   Drilling floor
 EPD .F            7.0000:   Permanent datum
 TD  .F         5500.0000:   Total depth
 NRUN.             3.0000:   Number of Runs
#--RUN 1---   ------------   The following are for Run 1---
 RUN .             1.0000:   Run 1
 DATE.mm/dd/yyyy 07/07/1968:   Date Logged
 DD  .ft              450:   Depth Driller
 DL  .ft              455:   Depth Logger
 BLI .ft              450:   Bottom Log Interval
 TLI .ft               38:   Top Log Interval
 CSS .inch             20:   Casing Size
 CTD1.ft               38:   Casing Driller 1
 CTL1.ft               38:   Casing Logger 1
 BS  .inch             15:   Bit Size
 DFT .     water base mud:   Type Fluid In Hole
 DFD .lb/gal          9.3:   Mud Weight
 DFV .sec              48:   Viscosity
 DFPH.                  8:   pH
 DFL .ml              7.6:   Fluid Loss
 WSS .           flo line:   Source Of Sample
 RM  .ohmm            2.7:   Rm
 EMT .F                93:   Rm Meas. Temp.
 RMF .ohmm            2.1:   Rmf
 MFT .F               100:   Rmf Meas. Temp.
 RMC .ohmm            2.3:   Rmc
 MCST.F               100:   Rmc Meas. Temp.
 MCSS.       fann mud kit:   Source Rmc.
 TCS .hh:mm       3 hours:   Time Circ. Stopped
 LUN .               7949:   Logging Unit Number
 LUL .          Newcastle:   Logging Unit Location
 ENGI.            Custard:   Recorded By
 WITN.            Mr. May:   Witnessed By
 DGBY.              Burke:   Digitized By
#--RUN 2---   ------------   The following are for Run 2---
 RUN .             2.0000:   Run 2
 DATE.mm/dd/yyyy 09/01/1968:   Date Logged
 DD  .ft             2955:   Depth Driller
 DL  .ft             2955:   Depth Logger
 BLI .ft             2950:   Bottom Log Interval
 TLI .ft              444:   Top Log Interval
 CSS .inch         10-3/4:   Casing Size
 CTD1.ft              340:   Casing Driller 1
 CTL1.ft              454:   Casing Logger 1
 BS  .inch          7-7/8:   Bit Size
 DFT .               "  ":   Type Fluid In Hole
 DFD .lb/gal          9.6:   Mud Weight
 DFV .sec              52:   Viscosity
 DFPH.                 85:   pH
 DFL .ml                6:   Fluid Loss
 WSS .              circ.:   Source Of Sample
 RM  .ohmm            2.5:   Rm
 EMT .F                52:   Rm Meas. Temp.
 RMF .ohmm           1.10:   Rmf
 MFT .F               100:   Rmf Meas. Temp.
 RMC .ohmm           1.63:   Rmc
 MCST.F               100:   Rmc Meas. Temp.
 MCSS.               "  ":   Source Rmc.
 RMB .ohmm           1.30:   Rm. At BHT
 BHT .F               104:   BHT.
 TCS .hh:mm       2 hours:   Time Circ. Stopped
 MRT .F               104:   Maximum Recorded Temp.
 LUN .               7949:   Logging Unit Number
 LUL .          Newcastle:   Logging Unit Location
 ENGI.               "  ":   Recorded By
 WITN.               "  ":   Witnessed By
 DGBY.               "  ":   Digitized By
#--RUN 3---   ------------   The following are for Run 3---
 RUN .             3.0000:   Run 3
 DATE.mm/dd/yyyy 09/18/1968:   Date Logged
 DD  .ft             5495:   Depth Driller
 DL  .ft             5503:   Depth Logger
 BLI .ft             5498:   Bottom Log Interval
 TLI .ft             2900:   Top Log Interval
 CSS .inch         10-3/4:   Casing Size
 CTD1.ft              450:   Casing Driller 1
 CTL1.ft              454:   Casing Logger 1
 BS  .inch              9:   Bit Size
 DFT .               "  ":   Type Fluid In Hole
 DFD .lb/gal          9.4:   Mud Weight
 DFV .sec              58:   Viscosity
 DFPH.                9.5:   pH
 DFL .ml               11:   Fluid Loss
 WSS .                pit:   Source Of Sample
 RM  .ohmm            1.7:   Rm
 EMT .F                56:   Rm Meas. Temp.
 RMF .ohmm            .64:   Rmf
 MFT .F               100:   Rmf Meas. Temp.
 RMC .ohmm            1.6:   Rmc
 MCST.F               100:   Rmc Meas. Temp.
 MCSS.               "  ":   Source Rmc.
 RMB .ohmm             .6:   Rm. At BHT
 BHT .F               160:   BHT.
 TCS .hh:mm         3 hrs:   Time Circ. Stopped
 MRT .F               160:   Maximum Recorded Temp.
 LUN .               "  ":   Logging Unit Number
 LUL .               "  ":   Logging Unit Location
 ENGI.               "  ":   Recorded By
 WITN.               "  ":   Witnessed By
 DGBY.               "  ":   Digitized By
~A  DEPTH       RO         SN        ASN        Ind        I          C          Con
# ...
 4231.5000  -999.2500     4.1761   171.3674     4.2043  -999.2500  -999.2500   611.9410
 4232.0000  -999.2500     4.1807   169.8477     4.2098  -999.2500  -999.2500   610.3244
 4232.5000  -999.2500     4.2623   183.6873     4.2152  -999.2500  -999.2500   605.6913
 4233.0000  -999.2500     4.2670   192.1497     4.2978  -999.2500  -999.2500   604.1923
 4233.5000  -999.2500     4.2727   196.0073     4.3034  -999.2500  -999.2500   604.1731
 4234.0000  -999.2500     4.3542   180.4224     4.3100  -999.2500  -999.2500   604.9273
 4234.5000  -999.2500     4.5126   188.3783     4.3925  -999.2500  -999.2500   604.9033
 4235.0000  -999.2500     4.5941   199.1431     4.3979  -999.2500  -999.2500   603.3469
 4235.5000  -999.2500     4.5988   205.3030     4.4804  -999.2500  -999.2500   599.8688
 4236.0000  -999.2500     4.6803   197.6487     4.5629  -999.2500  -999.2500   599.8086
 4236.5000  -999.2500     4.6850   199.2039     4.5683  -999.2500  -999.2500   600.9833
 4237.0000  -999.2500     4.7665   204.5964     4.6508  -999.2500  -999.2500   601.7328
 4237.5000  -999.2500     4.8480   213.0588     4.6563  -999.2500  -999.2500   599.4029
 4238.0000  -999.2500     4.9386   216.1489     4.6618  -999.2500  -999.2500   598.9994
 4238.5000  -999.2500     5.2428   217.0042     4.7444  -999.2500  -999.2500   596.6743
 4239.0000  -999.2500     5.4012   221.7773     4.8280  -999.2500  -999.2500   593.5805
 4239.5000  -999.2500     5.4059   230.0291     4.9876  -999.2500  -999.2500   590.8711
 4240.0000  -999.2500     5.4874   241.3451     5.0701  -999.2500  -999.2500   587.3931
 4240.5000  -999.2500     5.5689   244.4778     5.0755  -999.2500  -999.2500   586.6052
 4241.0000  -999.2500     5.6504   246.8429     5.2350  -999.2500  -999.2500   586.5860
 4241.5000  -999.2500     5.5770   248.4280     5.3175  -999.2500  -999.2500   586.5480
 4242.0000  -999.2500     5.5829   250.7807     5.3230  -999.2500  -999.2500   585.3947
 4242.5000  -999.2500     5.5875   249.9722     5.2513  -999.2500  -999.2500   586.9080
 4243.0000  -999.2500     5.5153   243.7927     5.1798  -999.2500  -999.2500   588.0465
 4243.5000  -999.2500     5.4443   240.9544     5.1082  -999.2500  -999.2500   589.5598
 4244.0000  -999.2500     5.2940   241.0172     5.1150  -999.2500  -999.2500   591.0779
 4244.5000  -999.2500     5.2999   239.5324     5.2745  -999.2500  -999.2500   590.6744
 4245.0000  -999.2500     5.2276   241.1176     5.3570  -999.2500  -999.2500   588.3493
 4245.5000  -999.2500     5.3092   245.0051     5.3625  -999.2500  -999.2500   586.4084
 4246.0000  -999.2500     5.3138   248.8926     5.3679  -999.2500  -999.2500   586.3892
 4246.5000  -999.2500     5.2404   247.4079     5.2950  -999.2500  -999.2500   587.1387
 4247.0000  -999.2500     5.1694   244.3883     5.2246  -999.2500  -999.2500   588.2677
 4247.5000  -999.2500     5.0969   235.2290     5.0761  -999.2500  -999.2500   591.7074
 4248.0000  -999.2500     4.7099   221.4650     4.8504  -999.2500  -999.2500   594.7628
 4248.5000  -999.2500     4.5685   208.4684     4.6261  -999.2500  -999.2500   595.5170
 4249.0000  -999.2500     4.6511   214.6585     4.5531  -999.2500  -999.2500   596.2617
 4249.5000  -999.2500     4.6558   211.4288     4.5599  -999.2500  -999.2500   597.3954
 4250.0000  -999.2500     4.2761   202.6221     4.6424  -999.2500  -999.2500   599.2978
 4250.5000  -999.2500     4.2808   218.6588     4.7249  -999.2500  -999.2500   601.2006
 4251.0000  -999.2500     4.4392   227.9185     4.7304  -999.2500  -999.2500   599.2252
 4251.5000  -999.2500     4.7513   231.7935     4.7358  -999.2500  -999.2500   594.1865
 4252.0000  -999.2500     4.9097   227.2390     4.8183  -999.2500  -999.2500   592.2985
 4252.5000  -999.2500     4.9912   231.9065     4.7467  -999.2500  -999.2500   591.5107
 4253.0000  -999.2500     4.8421   231.1767     4.8294  -999.2500  -999.2500   590.7228
 4253.5000  -999.2500     4.8479   231.2395     4.8360  -999.2500  -999.2500   592.2409
 4254.0000  -999.2500     4.9295   235.1270     4.9955  -999.2500  -999.2500   593.7638
 4254.5000  -999.2500     5.1647   246.6891     5.1551  -999.2500  -999.2500   592.2026
 4255.0000  -999.2500     5.4768   252.6010     5.5457  -999.2500  -999.2500   589.4931
 4255.5000  -999.2500     5.8658   263.4770     5.7053  -999.2500  -999.2500   586.3994
 4256.0000  -999.2500     6.1010   282.9188     5.7107  -999.2500  -999.2500   583.2698
 4256.5000  -999.2500     6.3363   296.7833     5.7162  -999.2500  -999.2500   581.3600
 4257.0000  -999.2500     6.4947   314.4851     5.8757  -999.2500  -999.2500   579.4193
 4257.5000  -999.2500     6.5768   317.6051     5.9582  -999.2500  -999.2500   577.8627
 4258.0000  -999.2500     6.4204   313.8181     6.0507  -999.2500  -999.2500   577.0749
 4258.5000  -999.2500     6.5867   316.9381     6.2016  -999.2500  -999.2500   575.9027
 4259.0000  -999.2500     7.0525   336.1748     6.2070  -999.2500  -999.2500   573.5776
 4259.5000  -999.2500     7.2878   349.2719     6.1354  -999.2500  -999.2500   571.6369
 4260.0000  -999.2500     7.3693   353.9268     6.1409  -999.2500  -999.2500   573.5392
 4260.5000  -999.2500     7.6045   358.8152     6.2233  -999.2500  -999.2500   573.9044
 4261.0000  -999.2500     8.3010   378.6732     6.6910  -999.2500  -999.2500   571.4679
 4261.5000  -999.2500     8.7668   439.2781     7.2358  -999.2500  -999.2500   568.2352
 4262.0000  -999.2500     8.9252   444.6880     7.5494  -999.2500  -999.2500   564.1011
 4262.5000  -999.2500     8.8530   437.8436     7.7860  -999.2500  -999.2500   560.7575
 4263.0000  -999.2500     9.0179   452.4756     7.7035  -999.2500  -999.2500   558.4324
 4263.5000  -999.2500     9.1697   456.3505     7.4130  -999.2500  -999.2500   558.7975
 4264.0000  -999.2500     8.7144   434.9244     7.1873  -999.2500  -999.2500   561.5511
 4264.5000  -999.2500     8.2567   412.7184     6.8076  -999.2500  -999.2500   567.2094
 4265.0000  -999.2500     8.2625   410.4536     6.5819  -999.2500  -999.2500   570.2648
 4265.5000  -999.2500     8.1134   402.8418     6.5873  -999.2500  -999.2500   570.6347
 4266.0000  -999.2500     7.9644   392.9151     6.5924  -999.2500  -999.2500   568.6891
 4266.5000  -999.2500     7.7384   387.5930     6.4446  -999.2500  -999.2500   569.8229
 4267.0000  -999.2500     7.5124   374.4870     6.2946  -999.2500  -999.2500   571.3410
 4267.5000  -999.2500     7.2097   361.9791     6.3014  -999.2500  -999.2500   571.7068
 4268.0000  -999.2500     7.2145   353.9755     6.1528  -999.2500  -999.2500   572.8399
 4268.5000  -999.2500     7.2192   354.7932     5.9270  -999.2500  -999.2500   574.3579
 4269.0000  -999.2500     7.1468   345.6464     6.0888  -999.2500  -999.2500   573.8937
 4269.5000  -999.2500     7.0746   336.4871     6.4004  -999.2500  -999.2500   572.7775
 4270.0000  -999.2500     7.0024   337.3048     6.3286  -999.2500  -999.2500   573.1474
 4270.5000  -999.2500     6.7008   325.0757     6.2571  -999.2500  -999.2500   573.5126
 4271.0000  -999.2500     6.2442   307.4743     5.8016  -999.2500  -999.2500   575.0258
 4271.5000  -999.2500     5.9414   299.8499     5.7287  -999.2500  -999.2500   578.8499
 4272.0000  -999.2500     5.7922   293.1522     5.6571  -999.2500  -999.2500   581.5209
 4272.5000  -999.2500     5.7201   281.4250     5.4314  -999.2500  -999.2500   582.6552
 4273.0000  -999.2500     5.5653   269.6978     5.2071  -999.2500  -999.2500   582.6355
 4273.5000  -999.2500     5.3319   257.0773     5.0584  -999.2500  -999.2500   584.9989
 4274.0000  -999.2500     5.0435   250.2204     4.9832  -999.2500  -999.2500   586.8246
 4274.5000  -999.2500     4.8933   243.3634     4.9152  -999.2500  -999.2500   587.9536
 4275.0000  -999.2500     4.8211   232.6693     4.9221  -999.2500  -999.2500   590.6246
 4275.5000  -999.2500     4.7489   228.8820     4.9275  -999.2500  -999.2500   595.9859
 4276.0000  -999.2500     4.5241   228.1649     4.9329  -999.2500  -999.2500   596.3558
 4276.5000  -999.2500     4.4507   224.1656     4.7073  -999.2500  -999.2500   595.1789
