~VERSION INFORMATION
 VERS.               2.10:   CWLS LOG ASCII STANDARD - VERSION 2.10
 WRAP.                 NO:   ONE LINE PER DEPTH STEP
~WELL INFORMATION
#MNEM.UNIT      DATA TYPE    INFORMATION
#----------   ------------   ------------------------------
 STRT.F            0.0000:   START DEPTH
 STOP.F         5499.9595:   STOP DEPTH
 STEP.F            0.5000:   STEP LENGTH
 NULL.          -999.2500:   NO VALUE
 COMP. Tesoro Petroleum Corporation:   COMPANY
 WELL.            51 x 28:   WELL
 FLD .           N.P.R. 3:   FIELD
 LOC . 28-39N-78W-NATRONA-WY:   LOCATION
 STAT.                 WY:   STATE
 COUN.            Natrona:   COUNTY
 SRVC.                   :   SERVICE COMPANY
 DATE.         07/07/1968:   LOGDATE
~CURVE INFORMATION
#MNEM.UNIT       API CODE    CURVE DESCRIPTION
#----------   ------------   ------------------------------
 DEPT.F                  :
 RO  .m2/m               :   Resisitivity Ohms
 SN  .m2/m               :   Reisistivity Ohms
 ASN .m2/m               :   Reisistivity Ohms
 Ind .None               :   Induction
 Ind .None               :   Induction
 Con .millimhos/m        :   Conductivitity
 Con .millimhos/m        :   Conductivitity
~PARAMETER INFORMATION
#MNEM.UNIT          VALUE    DESCRIPTION
#----------   ------------   ------------------------------
 EKB .F         5008.0000:   Kelly bushing
 EGL .F         4997.0000:   Ground level
 EDF .F            0.0000:   Drilling floor
 EPD .F            7.0000:   Permanent datum
 TD  .F         5500.0000:   Total depth
 NRUN.             3.0000:   Number of Runs
#--RUN 1---   ------------   The following are for Run 1---
 RUN .             1.0000:   Run 1
 DATE.mm/dd/yyyy 07/07/1968:   Date Logged
 DD  .ft              450:   Depth Driller
 DL  .ft              455:   Depth Logger
 BLI .ft              450:   Bottom Log Interval
 TLI .ft               38:   Top Log Interval
 CSS .inch             20:   Casing Size
 CTD1.ft               38:   Casing Driller 1
 CTL1.ft               38:   Casing Logger 1
 BS  .inch             15:   Bit Size
 DFT .     water base mud:   Type Fluid In Hole
 DFD .lb/gal          9.3:   Mud Weight
 DFV .sec              48:   Viscosity
 DFPH.                  8:   pH
 DFL .ml              7.6:   Fluid Loss
 WSS .           flo line:   Source Of Sample
 RM  .ohmm            2.7:   Rm
 EMT .F                93:   Rm Meas. Temp.
 RMF .ohmm            2.1:   Rmf
 MFT .F               100:   Rmf Meas. Temp.
 RMC .ohmm            2.3:   Rmc
 MCST.F               100:   Rmc Meas. Temp.
 MCSS.       fann mud kit:   Source Rmc.
 TCS .hh:mm       3 hours:   Time Circ. Stopped
 LUN .               7949:   Logging Unit Number
 LUL .          Newcastle:   Logging Unit Location
 ENGI.            Custard:   Recorded By
 WITN.            Mr. May:   Witnessed By
 DGBY.              Burke:   Digitized By
#--RUN 2---   ------------   The following are for Run 2---
 RUN .             2.0000:   Run 2
 DATE.mm/dd/yyyy 09/01/1968:   Date Logged
 DD  .ft             2955:   Depth Driller
 DL  .ft             2955:   Depth Logger
 BLI .ft             2950:   Bottom Log Interval
 TLI .ft              444:   Top Log Interval
 CSS .inch         10-3/4:   Casing Size
 CTD1.ft              340:   Casing Driller 1
 CTL1.ft              454:   Casing Logger 1
 BS  .inch          7-7/8:   Bit Size
 DFT .               "  ":   Type Fluid In Hole
 DFD .lb/gal          9.6:   Mud Weight
 DFV .sec              52:   Viscosity
 DFPH.                 85:   pH
 DFL .ml                6:   Fluid Loss
 WSS .              circ.:   Source Of Sample
 RM  .ohmm            2.5:   Rm
 EMT .F                52:   Rm Meas. Temp.
 RMF .ohmm           1.10:   Rmf
 MFT .F               100:   Rmf Meas. Temp.
 RMC .ohmm           1.63:   Rmc
 MCST.F               100:   Rmc Meas. Temp.
 MCSS.               "  ":   Source Rmc.
 RMB .ohmm           1.30:   Rm. At BHT
 BHT .F               104:   BHT.
 TCS .hh:mm       2 hours:   Time Circ. Stopped
 MRT .F               104:   Maximum Recorded Temp.
 LUN .               7949:   Logging Unit Number
 LUL .          Newcastle:   Logging Unit Location
 ENGI.               "  ":   Recorded By
 WITN.               "  ":   Witnessed By
 DGBY.               "  ":   Digitized By
#--RUN 3---   ------------   The following are for Run 3---
 RUN .             3.0000:   Run 3
 DATE.mm/dd/yyyy 09/18/1968:   Date Logged
 DD  .ft             5495:   Depth Driller
 DL  .ft             5503:   Depth Logger
 BLI .ft             5498:   Bottom Log Interval
 TLI .ft             2900:   Top Log Interval
 CSS .inch         10-3/4:   Casing Size
 CTD1.ft              450:   Casing Driller 1
 CTL1.ft              454:   Casing Logger 1
 BS  .inch              9:   Bit Size
 DFT .               "  ":   Type Fluid In Hole
 DFD .lb/gal          9.4:   Mud Weight
 DFV .sec              58:   Viscosity
 DFPH.                9.5:   pH
 DFL .ml               11:   Fluid Loss
 WSS .                pit:   Source Of Sample
 RM  .ohmm            1.7:   Rm
 EMT .F                56:   Rm Meas. Temp.
 RMF .ohmm            .64:   Rmf
 MFT .F               100:   Rmf Meas. Temp.
 RMC .ohmm            1.6:   Rmc
 MCST.F               100:   Rmc Meas. Temp.
 MCSS.               "  ":   Source Rmc.
 RMB .ohmm             .6:   Rm. At BHT
 BHT .F               160:   BHT.
 TCS .hh:mm         3 hrs:   Time Circ. Stopped
 MRT .F               160:   Maximum Recorded Temp.
 LUN .               "  ":   Logging Unit Number
 LUL .               "  ":   Logging Unit Location
 ENGI.               "  ":   Recorded By
 WITN.               "  ":   Witnessed By
 DGBY.               "  ":   Digitized By
~A  DEPTH       RO         SN        ASN        Ind        I          C          Con
# ...
 4368.0000  -999.2500    15.8561  -999.2500     9.3066  -999.2500  -999.2500   548.7510
 4368.5000  -999.2500    15.7070  -999.2500     9.2286  -999.2500  -999.2500   549.1142
 4369.0000  -999.2500    15.5567  -999.2500     8.6112  -999.2500  -999.2500   549.4721
 4369.5000  -999.2500    15.3320  -999.2500     8.3021  -999.2500  -999.2500   550.2195
 4370.0000  -999.2500    15.1060  -999.2500     8.2241  -999.2500  -999.2500   551.7410
 4370.5000  -999.2500    15.1876  -999.2500     8.3003  -999.2500  -999.2500   552.4885
 4371.0000  -999.2500    15.1922  -999.2500     8.3763  -999.2500  -999.2500   552.8464
 4371.5000  -999.2500    15.1969  -999.2500     8.6836  -999.2500  -999.2500   552.4409
 4372.0000  -999.2500    15.2016  -999.2500     8.9264  -999.2500  -999.2500   552.4197
 4372.5000  -999.2500    15.2073  -999.2500     9.2978  -999.2500  -999.2500   551.6299
 4373.0000  -999.2500    15.2120  -999.2500     9.4512  -999.2500  -999.2500   550.4559
 4373.5000  -999.2500    15.0629  -999.2500     9.6043  -999.2500  -999.2500   549.2817
 4374.0000  -999.2500    14.5295  -999.2500     9.6804  -999.2500  -999.2500   547.6952
 4374.5000  -999.2500    14.3036  -999.2500     9.5252  -999.2500  -999.2500   546.8699
 4375.0000  -999.2500    13.9119  -999.2500     9.0620  -999.2500  -999.2500   546.5228
 4375.5000  -999.2500    12.9379  -999.2500     8.4447  -999.2500  -999.2500   548.8075
 4376.0000  -999.2500    11.9638  -999.2500     7.8850  -999.2500  -999.2500   550.3289
 4376.5000  -999.2500    10.9897  -999.2500     7.3640  -999.2500  -999.2500   554.0826
 4377.0000  -999.2500    10.0157   498.4088     6.9008  -999.2500  -999.2500   558.4516
 4377.5000  -999.2500     9.0416   456.2407     6.3606  -999.2500  -999.2500   562.8206
 4378.0000  -999.2500     8.0675   408.6920     5.8974  -999.2500  -999.2500   567.1896
 4378.5000  -999.2500     7.0935   342.7214     5.5113  -999.2500  -999.2500   571.5587
 4379.0000  -999.2500     6.1194   315.8115     4.8940  -999.2500  -999.2500   576.3287
 4379.5000  -999.2500     5.1273   287.1335     4.6383  -999.2500  -999.2500   581.5773
 4380.0000  -999.2500     4.5921   237.6890     4.4179  -999.2500  -999.2500   587.3564
 4380.5000  -999.2500     4.5217   225.4434     4.2747  -999.2500  -999.2500   593.1356
 4381.0000  -999.2500     4.5275   220.1049     3.8769  -999.2500  -999.2500   598.9147
 4381.5000  -999.2500     4.0710   214.7664     3.4467  -999.2500  -999.2500   604.6938
 4382.0000  -999.2500     3.6144   179.4970     3.5295  -999.2500  -999.2500   610.4729
 4382.5000  -999.2500     3.6960   172.6152     3.6892  -999.2500  -999.2500   617.6819
 4383.0000  -999.2500     3.9312   176.4947     3.7719  -999.2500  -999.2500   619.5876
 4383.5000  -999.2500     3.8590   184.9704     3.6235  -999.2500  -999.2500   620.7195
 4384.0000  -999.2500     3.7099   187.3369     3.4736  -999.2500  -999.2500   618.7714
 4384.5000  -999.2500     3.6376   181.8884     3.4023  -999.2500  -999.2500   619.1399
 4385.0000  -999.2500     3.6424   172.0964     3.4864  -999.2500  -999.2500   621.0350
 4385.5000  -999.2500     3.8098   161.3141     3.7232  -999.2500  -999.2500   617.9393
 4386.0000  -999.2500     3.9603   168.2634     3.8829  -999.2500  -999.2500   615.9965
 4386.5000  -999.2500     3.9650   179.8090     3.8052  -999.2500  -999.2500   612.5165
 4387.0000  -999.2500     3.9696   185.2150     3.7401  -999.2500  -999.2500   610.1754
 4387.5000  -999.2500     4.1280   183.7054     3.9013  -999.2500  -999.2500   609.3997
 4388.0000  -999.2500     4.2864   191.4221     4.0610  -999.2500  -999.2500   611.2948
 4388.5000  -999.2500     4.5985   202.2003     4.2978  -999.2500  -999.2500   610.8893
 4389.0000  -999.2500     4.8337   212.9785     4.4576  -999.2500  -999.2500   609.7153
 4389.5000  -999.2500     4.9921   229.9331     4.7714  -999.2500  -999.2500   604.6979
 4390.0000  -999.2500     5.4610   244.6662     5.0852  -999.2500  -999.2500   600.8336
 4390.5000  -999.2500     6.4824   276.5812     5.9383  -999.2500  -999.2500   591.9606
 4391.0000  -999.2500     7.5038   315.7034     6.6374  -999.2500  -999.2500   582.0307
 4391.5000  -999.2500     8.5252   354.8257     7.4134  -999.2500  -999.2500   572.1008
 4392.0000  -999.2500     9.5466   398.9146     8.2666  -999.2500  -999.2500   561.1623
 4392.5000  -999.2500    10.4013   462.8589     8.5805  -999.2500  -999.2500   557.6823
 4393.0000  -999.2500    10.7903  -999.2500     8.5734  -999.2500  -999.2500   554.5865
 4393.5000  -999.2500    11.4130  -999.2500     8.2850  -999.2500  -999.2500   553.0281
 4394.0000  -999.2500    11.7221  -999.2500     8.0595  -999.2500  -999.2500   553.3916
 4394.5000  -999.2500    11.8047  -999.2500     7.9111  -999.2500  -999.2500   554.5337
 4395.0000  -999.2500    11.8093  -999.2500     7.9938  -999.2500  -999.2500   555.6989
 4395.5000  -999.2500    11.8140  -999.2500     7.9994  -999.2500  -999.2500   556.4024
 4396.0000  -999.2500    11.6649  -999.2500     8.0051  -999.2500  -999.2500   555.9916
 4396.5000  -999.2500    11.5158  -999.2500     7.9337  -999.2500  -999.2500   555.9705
 4397.0000  -999.2500    11.2899  -999.2500     7.8623  -999.2500  -999.2500   557.1023
 4397.5000  -999.2500    11.0638   472.6109     7.8680  -999.2500  -999.2500   557.8550
 4398.0000  -999.2500    10.9917   427.1548     7.8737  -999.2500  -999.2500   558.2183
 4398.5000  -999.2500    10.8427   381.6987     7.8794  -999.2500  -999.2500   558.1918
 4399.0000  -999.2500    10.7602   339.8262     7.8852  -999.2500  -999.2500   558.5559
 4399.5000  -999.2500    10.5457   307.9612     7.8920  -999.2500  -999.2500   558.5339
 4400.0000  -999.2500    10.5385   276.0963     7.9351  -999.2500  -999.2500   558.5127
 4400.5000  -999.2500    10.4574   246.5331     7.9780  -999.2500  -999.2500   557.4315
 4401.0000  -999.2500    10.2946   227.2727     7.9830  -999.2500  -999.2500   556.6338
 4401.5000  -999.2500    10.2347   221.8798     7.9871  -999.2500  -999.2500   556.9944
 4402.0000  -999.2500    10.2396   216.4869     7.9912  -999.2500  -999.2500   557.3610
 4402.5000  -999.2500    10.3203   197.6826     7.9952  -999.2500  -999.2500   557.3314
 4403.0000  -999.2500    10.3243   185.1772     7.9993  -999.2500  -999.2500   558.0822
 4403.5000  -999.2500    10.2513   177.1957     8.0034  -999.2500  -999.2500   558.0526
 4404.0000  -999.2500    10.2552   189.5223     8.0075  -999.2500  -999.2500   558.7986
 4404.5000  -999.2500    10.1823   496.0922     8.0116  -999.2500  -999.2500   559.5428
 4405.0000  -999.2500    10.1093   484.4078     7.9386  -999.2500  -999.2500   559.9031
 4405.5000  -999.2500     9.8827   476.5721     7.8657  -999.2500  -999.2500   560.2637
 4406.0000  -999.2500     9.6560   470.6374     7.5626  -999.2500  -999.2500   560.6244
 4406.5000  -999.2500     9.5831   467.5802     7.4886  -999.2500  -999.2500   562.1321
 4407.0000  -999.2500     9.5880   466.0626     7.4937  -999.2500  -999.2500   563.6456
 4407.5000  -999.2500     9.6687   464.5450     7.4978  -999.2500  -999.2500   563.6219
 4408.0000  -999.2500     9.6727   462.2576     7.5019  -999.2500  -999.2500   563.2139
 4408.5000  -999.2500     9.5987   459.9701     7.5060  -999.2500  -999.2500   563.1902
 4409.0000  -999.2500     9.6036   456.1431     7.5871  -999.2500  -999.2500   562.3979
 4409.5000  -999.2500     9.4538   451.5462     7.5912  -999.2500  -999.2500   561.6055
 4410.0000  -999.2500     9.2271   446.9096     7.5954  -999.2500  -999.2500   561.9662
 4410.5000  -999.2500     9.1211   443.1222     7.5223  -999.2500  -999.2500   562.3209
 4411.0000  -999.2500     9.0073   437.7610     7.5274  -999.2500  -999.2500   563.4501
 4411.5000  -999.2500     8.8936   433.9340     7.5315  -999.2500  -999.2500   563.8167
 4412.0000  -999.2500     8.7798   427.7975     7.4575  -999.2500  -999.2500   564.1773
 4412.5000  -999.2500     8.5556   421.6609     7.4626  -999.2500  -999.2500   564.5380
 4413.0000  -999.2500     8.3289   413.9847     7.3126  -999.2500  -999.2500   564.5083
