~VERSION INFORMATION
 VERS.               2.10:   CWLS LOG ASCII STANDARD - VERSION 2.10
 WRAP.                 NO:   ONE LINE PER DEPTH STEP
~WELL INFORMATION
#MNEM.UNIT      DATA TYPE    INFORMATION
#----------   ------------   ------------------------------
 STRT.F            0.0000:   START DEPTH
 STOP.F         5499.9595:   STOP DEPTH
 STEP.F            0.5000:   STEP LENGTH
 NULL.          -999.2500:   NO VALUE
 COMP. Tesoro Petroleum Corporation:   COMPANY
 WELL.            51 x 28:   WELL
 FLD .           N.P.R. 3:   FIELD
 LOC . 28-39N-78W-NATRONA-WY:   LOCATION
 STAT.                 WY:   STATE
 COUN.            Natrona:   COUNTY
 SRVC.                   :   SERVICE COMPANY
 DATE.         07/07/1968:   LOGDATE
~CURVE INFORMATION
#MNEM.UNIT       API CODE    CURVE DESCRIPTION
#----------   ------------   ------------------------------
 DEPT.F                  :
 RO  .m2/m               :   Resisitivity Ohms
 SN  .m2/m               :   Reisistivity Ohms
 ASN .m2/m               :   Reisistivity Ohms
 Ind .None               :   Induction
 Ind .None               :   Induction
 Con .millimhos/m        :   Conductivitity
 Con .millimhos/m        :   Conductivitity
~PARAMETER INFORMATION
#MNEM.UNIT          VALUE    DESCRIPTION
#----------   ------------   ------------------------------
 EKB .F         5008.0000:   Kelly bushing
 EGL .F         4997.0000:   Ground level
 EDF .F            0.0000:   Drilling floor
 EPD .F            7.0000:   Permanent datum
 TD  .F         5500.0000:   Total depth
 NRUN.             3.0000:   Number of Runs
#--RUN 1---   ------------   The following are for Run 1---
 RUN .             1.0000:   Run 1
 DATE.mm/dd/yyyy 07/07/1968:   Date Logged
 DD  .ft              450:   Depth Driller
 DL  .ft              455:   Depth Logger
 BLI .ft              450:   Bottom Log Interval
 TLI .ft               38:   Top Log Interval
 CSS .inch             20:   Casing Size
 CTD1.ft               38:   Casing Driller 1
 CTL1.ft               38:   Casing Logger 1
 BS  .inch             15:   Bit Size
 DFT .     water base mud:   Type Fluid In Hole
 DFD .lb/gal          9.3:   Mud Weight
 DFV .sec              48:   Viscosity
 DFPH.                  8:   pH
 DFL .ml              7.6:   Fluid Loss
 WSS .           flo line:   Source Of Sample
 RM  .ohmm            2.7:   Rm
 EMT .F                93:   Rm Meas. Temp.
 RMF .ohmm            2.1:   Rmf
 MFT .F               100:   Rmf Meas. Temp.
 RMC .ohmm            2.3:   Rmc
 MCST.F               100:   Rmc Meas. Temp.
 MCSS.       fann mud kit:   Source Rmc.
 TCS .hh:mm       3 hours:   Time Circ. Stopped
 LUN .               7949:   Logging Unit Number
 LUL .          Newcastle:   Logging Unit Location
 ENGI.            Custard:   Recorded By
 WITN.            Mr. May:   Witnessed By
 DGBY.              Burke:   Digitized By
#--RUN 2---   ------------   The following are for Run 2---
 RUN .             2.0000:   Run 2
 DATE.mm/dd/yyyy 09/01/1968:   Date Logged
 DD  .ft             2955:   Depth Driller
 DL  .ft             2955:   Depth Logger
 BLI .ft             2950:   Bottom Log Interval
 TLI .ft              444:   Top Log Interval
 CSS .inch         10-3/4:   Casing Size
 CTD1.ft              340:   Casing Driller 1
 CTL1.ft              454:   Casing Logger 1
 BS  .inch          7-7/8:   Bit Size
 DFT .               "  ":   Type Fluid In Hole
 DFD .lb/gal          9.6:   Mud Weight
 DFV .sec              52:   Viscosity
 DFPH.                 85:   pH
 DFL .ml                6:   Fluid Loss
 WSS .              circ.:   Source Of Sample
 RM  .ohmm            2.5:   Rm
 EMT .F                52:   Rm Meas. Temp.
 RMF .ohmm           1.10:   Rmf
 MFT .F               100:   Rmf Meas. Temp.
 RMC .ohmm           1.63:   Rmc
 MCST.F               100:   Rmc Meas. Temp.
 MCSS.               "  ":   Source Rmc.
 RMB .ohmm           1.30:   Rm. At BHT
 BHT .F               104:   BHT.
 TCS .hh:mm       2 hours:   Time Circ. Stopped
 MRT .F               104:   Maximum Recorded Temp.
 LUN .               7949:   Logging Unit Number
 LUL .          Newcastle:   Logging Unit Location
 ENGI.               "  ":   Recorded By
 WITN.               "  ":   Witnessed By
 DGBY.               "  ":   Digitized By
#--RUN 3---   ------------   The following are for Run 3---
 RUN .             3.0000:   Run 3
 DATE.mm/dd/yyyy 09/18/1968:   Date Logged
 DD  .ft             5495:   Depth Driller
 DL  .ft             5503:   Depth Logger
 BLI .ft             5498:   Bottom Log Interval
 TLI .ft             2900:   Top Log Interval
 CSS .inch         10-3/4:   Casing Size
 CTD1.ft              450:   Casing Driller 1
 CTL1.ft              454:   Casing Logger 1
 BS  .inch              9:   Bit Size
 DFT .               "  ":   Type Fluid In Hole
 DFD .lb/gal          9.4:   Mud Weight
 DFV .sec              58:   Viscosity
 DFPH.                9.5:   pH
 DFL .ml               11:   Fluid Loss
 WSS .                pit:   Source Of Sample
 RM  .ohmm            1.7:   Rm
 EMT .F                56:   Rm Meas. Temp.
 RMF .ohmm            .64:   Rmf
 MFT .F               100:   Rmf Meas. Temp.
 RMC .ohmm            1.6:   Rmc
 MCST.F               100:   Rmc Meas. Temp.
 MCSS.               "  ":   Source Rmc.
 RMB .ohmm             .6:   Rm. At BHT
 BHT .F               160:   BHT.
 TCS .hh:mm         3 hrs:   Time Circ. Stopped
 MRT .F               160:   Maximum Recorded Temp.
 LUN .               "  ":   Logging Unit Number
 LUL .               "  ":   Logging Unit Location
 ENGI.               "  ":   Recorded By
 WITN.               "  ":   Witnessed By
 DGBY.               "  ":   Digitized By
~A  DEPTH       RO         SN        ASN        Ind        I          C          Con
# ...
 3321.5000  -999.2500     2.7828   129.5814     2.6990  -999.2500  -999.2500   678.6571
 3322.0000  -999.2500     2.8643   136.8203     3.1533  -999.2500  -999.2500   671.8087
 3322.5000  -999.2500     3.0988   161.0798     3.7738  -999.2500  -999.2500   656.2167
 3323.0000  -999.2500     3.4869   180.2848     4.1631  -999.2500  -999.2500   640.6248
 3323.5000  -999.2500     3.7213   187.2010     4.4754  -999.2500  -999.2500   624.8653
 3324.0000  -999.2500     3.9558   194.1172     4.6336  -999.2500  -999.2500   602.8733
 3324.5000  -999.2500     4.0365   199.4973     4.6378  -999.2500  -999.2500   593.3572
 3325.0000  -999.2500     4.1940   201.0371     4.4878  -999.2500  -999.2500   593.7455
 3325.5000  -999.2500     4.2748   201.0408     4.3378  -999.2500  -999.2500   596.0546
 3326.0000  -999.2500     4.2786   204.1168     4.1879  -999.2500  -999.2500   598.7480
 3326.5000  -999.2500     4.2826   208.7719     4.2058  -999.2500  -999.2500   599.1356
 3327.0000  -999.2500     4.2872   212.8131     4.3513  -999.2500  -999.2500   598.7544
 3327.5000  -999.2500     4.3679   218.7219     4.4325  -999.2500  -999.2500   598.3734
 3328.0000  -999.2500     4.3718   221.0298     4.5136  -999.2500  -999.2500   598.3766
 3328.5000  -999.2500     4.3756   221.0335     4.5178  -999.2500  -999.2500   597.9954
 3329.0000  -999.2500     4.4563   219.5012     4.5219  -999.2500  -999.2500   597.6151
 3329.5000  -999.2500     4.4602   218.7359     4.5260  -999.2500  -999.2500   597.6182
 3330.0000  -999.2500     4.6946   218.7406     4.6072  -999.2500  -999.2500   598.3901
 3330.5000  -999.2500     4.6215   218.7444     4.6113  -999.2500  -999.2500   598.7775
 3331.0000  -999.2500     4.5485   216.4439     4.6156  -999.2500  -999.2500   599.5494
 3331.5000  -999.2500     4.4755   213.3202     4.6206  -999.2500  -999.2500   601.4742
 3332.0000  -999.2500     4.4025   210.3071     4.6248  -999.2500  -999.2500   601.8617
 3332.5000  -999.2500     4.4073   208.0076     4.7059  -999.2500  -999.2500   603.0402
 3333.0000  -999.2500     4.3333   208.0113     4.7871  -999.2500  -999.2500   603.4055
 3333.5000  -999.2500     4.3381   207.2470     4.7902  -999.2500  -999.2500   603.7936
 3334.0000  -999.2500     4.2641   207.2508     4.7879  -999.2500  -999.2500   603.4125
 3334.5000  -999.2500     4.3458   208.7906     4.7858  -999.2500  -999.2500   603.4157
 3335.0000  -999.2500     4.3496   209.5624     4.7837  -999.2500  -999.2500   602.6502
 3335.5000  -999.2500     4.1997   210.3342     4.7817  -999.2500  -999.2500   600.7319
 3336.0000  -999.2500     4.3574   212.6421     4.7796  -999.2500  -999.2500   599.5821
 3336.5000  -999.2500     4.4390   216.5539     4.7775  -999.2500  -999.2500   598.0480
 3337.0000  -999.2500     4.4428   220.3310     4.7755  -999.2500  -999.2500   597.2824
 3337.5000  -999.2500     4.4467   221.8709     4.7734  -999.2500  -999.2500   596.8853
 3338.0000  -999.2500     4.4505   226.4829     4.7713  -999.2500  -999.2500   596.0822
 3338.5000  -999.2500     4.5312   225.7177     4.7693  -999.2500  -999.2500   594.9869
 3339.0000  -999.2500     4.5350   224.1862     4.7672  -999.2500  -999.2500   594.6050
 3339.5000  -999.2500     4.6157   223.4210     4.7651  -999.2500  -999.2500   595.3777
 3340.0000  -999.2500     4.6965   223.4257     4.7630  -999.2500  -999.2500   596.1495
 3340.5000  -999.2500     4.7801   222.6614     4.7610  -999.2500  -999.2500   596.9213
 3341.0000  -999.2500     4.8582   221.8971     4.7589  -999.2500  -999.2500   597.3088
 3341.5000  -999.2500     4.8627   222.7504     4.7568  -999.2500  -999.2500   597.6964
 3342.0000  -999.2500     4.8665   224.2096     4.7548  -999.2500  -999.2500   597.3152
 3342.5000  -999.2500     4.8703   221.1412     4.7527  -999.2500  -999.2500   597.3184
 3343.0000  -999.2500     4.8742   220.3760     4.7506  -999.2500  -999.2500   597.7060
 3343.5000  -999.2500     4.8002   221.1487     4.7486  -999.2500  -999.2500   597.7099
 3344.0000  -999.2500     4.7272   220.3844     4.7465  -999.2500  -999.2500   598.0974
 3344.5000  -999.2500     4.5781   219.6191     4.7444  -999.2500  -999.2500   598.1006
 3345.0000  -999.2500     4.5052   220.3919     4.7424  -999.2500  -999.2500   598.1038
 3345.5000  -999.2500     4.5091   221.1637     4.7403  -999.2500  -999.2500   597.3383
 3346.0000  -999.2500     4.5131   222.7343     4.7382  -999.2500  -999.2500   596.5729
 3346.5000  -999.2500     4.5177   227.3157     4.7362  -999.2500  -999.2500   595.0388
 3347.0000  -999.2500     4.5215   228.0883     4.7341  -999.2500  -999.2500   593.5047
 3347.5000  -999.2500     4.5254   225.7879     4.7320  -999.2500  -999.2500   593.1235
 3348.0000  -999.2500     4.5292   221.1833     4.7300  -999.2500  -999.2500   594.2798
 3348.5000  -999.2500     4.5331   226.5634     4.7279  -999.2500  -999.2500   594.6680
 3349.0000  -999.2500     4.4591   226.5672     4.7258  -999.2500  -999.2500   593.9025
 3349.5000  -999.2500     4.5407   225.8019     4.7238  -999.2500  -999.2500   592.3684
 3350.0000  -999.2500     4.5446   225.0386     4.7217  -999.2500  -999.2500   593.1403
 3350.5000  -999.2500     4.5485   223.5061     4.7196  -999.2500  -999.2500   594.2967
 3351.0000  -999.2500     4.5532   222.7419     4.7176  -999.2500  -999.2500   595.8372
 3351.5000  -999.2500     4.5571   224.2817     4.7155  -999.2500  -999.2500   596.6090
 3352.0000  -999.2500     4.5609   222.7494     4.7165  -999.2500  -999.2500   598.1495
 3352.5000  -999.2500     4.5647   220.4490     4.7978  -999.2500  -999.2500   598.9213
 3353.0000  -999.2500     4.5686   217.8708     4.7248  -999.2500  -999.2500   598.9245
 3353.5000  -999.2500     4.4946   215.2971     4.7299  -999.2500  -999.2500   599.3120
 3354.0000  -999.2500     4.3455   212.7234     4.5800  -999.2500  -999.2500   600.0838
 3354.5000  -999.2500     4.3495   210.1496     4.5841  -999.2500  -999.2500   600.8757
 3355.0000  -999.2500     4.2765   209.7157     4.6653  -999.2500  -999.2500   601.6276
 3355.5000  -999.2500     4.2805   208.9513     4.5913  -999.2500  -999.2500   603.5531
 3356.0000  -999.2500     4.2851   205.8829     4.6736  -999.2500  -999.2500   603.9406
 3356.5000  -999.2500     4.2890   205.1186     4.6777  -999.2500  -999.2500   603.5594
 3357.0000  -999.2500     4.2928   206.6594     4.6818  -999.2500  -999.2500   603.9469
 3357.5000  -999.2500     4.2966   204.3590     4.6861  -999.2500  -999.2500   603.5651
 3358.0000  -999.2500     4.3005   204.3627     4.6911  -999.2500  -999.2500   603.5690
 3358.5000  -999.2500     4.3043   206.6706     4.6172  -999.2500  -999.2500   603.9565
 3359.0000  -999.2500     4.3082   208.9785     4.6223  -999.2500  -999.2500   603.1910
 3359.5000  -999.2500     4.3120   207.4461     4.6265  -999.2500  -999.2500   601.6570
 3360.0000  -999.2500     4.3159   204.3786     4.5525  -999.2500  -999.2500   603.2491
 3360.5000  -999.2500     4.3198   203.6134     4.5577  -999.2500  -999.2500   603.5858
 3361.0000  -999.2500     4.3245   207.4583     4.6389  -999.2500  -999.2500   602.4351
 3361.5000  -999.2500     4.2505   210.5343     4.6430  -999.2500  -999.2500   600.9011
 3362.0000  -999.2500     4.4090   211.3051     4.6472  -999.2500  -999.2500   601.6737
 3362.5000  -999.2500     4.4897   210.5408     4.6514  -999.2500  -999.2500   602.0612
 3363.0000  -999.2500     4.6473   216.6899     4.6564  -999.2500  -999.2500   601.2949
 3363.5000  -999.2500     4.7280   219.7658     4.6606  -999.2500  -999.2500   599.7617
 3364.0000  -999.2500     4.8087   221.3057     4.6647  -999.2500  -999.2500   598.2276
 3364.5000  -999.2500     4.8894   221.3095     4.6688  -999.2500  -999.2500   597.4621
 3365.0000  -999.2500     4.9011   221.3141     4.6730  -999.2500  -999.2500   597.0364
 3365.5000  -999.2500     4.9749   221.3178     4.6771  -999.2500  -999.2500   595.5477
 3366.0000  -999.2500     4.9019   221.3216     4.6812  -999.2500  -999.2500   595.9352
 3366.5000  -999.2500     4.9057   219.7883     4.6854  -999.2500  -999.2500   597.8600
