~VERSION INFORMATION
 VERS.               2.10:   CWLS LOG ASCII STANDARD - VERSION 2.10
 WRAP.                 NO:   ONE LINE PER DEPTH STEP
~WELL INFORMATION
#MNEM.UNIT      DATA TYPE    INFORMATION
#----------   ------------   ------------------------------
 STRT.F            0.0000:   START DEPTH
 STOP.F         5494.0205:   STOP DEPTH
 STEP.F            0.5000:   STEP LENGTH
 NULL.          -999.2500:   NO VALUE
 COMP. Tesoro Petroleum Corporation:   COMPANY
 WELL.            51-X-28:   WELL
 FLD .           N.P.R. 3:   FIELD
 LOC . 28-39N-78W-NATRONA-WY:   LOCATION
 STAT.                 WY:   STATE
 COUN.            Natrona:   COUNTY
 SRVC.              Welex:   SERVICE COMPANY
 DATE.                   :   LOGDATE
~CURVE INFORMATION
#MNEM.UNIT       API CODE    CURVE DESCRIPTION
#----------   ------------   ------------------------------
 DEPT.F                  :
 GD  .std.den.units      :   Gamma Density
 RhoG.APO                :   Gamma
 GR.API        	         :   Gamma
~PARAMETER INFORMATION
#MNEM.UNIT          VALUE    DESCRIPTION
#----------   ------------   ------------------------------
 EKB .F         5008.0000:   Kelly bushing
 EGL .F         4997.0000:   Ground level
 EDF .F            0.0000:   Drilling floor
 EPD .F           11.0000:   Permanent datum
 TD  .F         4830.0000:   Total depth
 NRUN.             1.0000:   Number of Runs
#--RUN 1---   ------------   The following are for Run 1---
 RUN .             1.0000:   Run 1
 DATE.mm/dd/yyyy 09/18/1968:   Date Logged
 DD  .ft             5495:   Depth Driller
 DL  .ft             5498:   Depth Logger
 BLI .ft             5496:   Bottom Log Interval
 TLI .ft             2500:   Top Log Interval
 CSS .inch          10.75:   Casing Size
 CTD1.ft              450:   Casing Driller 1
 CTL1.ft              454:   Casing Logger 1
 BS  .inch              9:   Bit Size
 DFT .     water base mud:   Type Fluid In Hole
 DFD .lb/gal          9.4:   Mud Weight
 DFV .sec              58:   Viscosity
 DFPH.                9.5:   pH
 DFL .ml               11:   Fluid Loss
 WSS .                pit:   Source Of Sample
 RM  .ohmm            1.7:   Rm
 EMT .F                56:   Rm Meas. Temp.
 RMF .ohmm            .64:   Rmf
 MFT .F               100:   Rmf Meas. Temp.
 RMC .ohmm            1.6:   Rmc
 MCST.F               100:   Rmc Meas. Temp.
 MFSS.               fann:   Source Rmf.
 MCSS.            mud kit:   Source Rmc.
 RMB .ohmm            .60:   Rm. At BHT
 BHT .F               160:   BHT.
 TCS .hh:mm        3 hrs.:   Time Circ. Stopped
 MRT .F               160:   Maximum Recorded Temp.
 LUL .          Newcastle:   Logging Unit Location
 ENGI.        Mr. Custard:   Recorded By
 WITN.            Mr. May:   Witnessed By
 DGBY.          Mr. Burke:   Digitized By
~A  DEPTH       GD       RhoG       GR
# ...
 3549.0000  1240.2004  -999.2500   290.0765
 3549.5000  1224.7069  -999.2500   286.8529
 3550.0000  1225.9623  -999.2500   284.3205
 3550.5000  1252.5515  -999.2500   283.1705
 3551.0000  1292.1868  -999.2500   279.0252
 3551.5000  1334.4592  -999.2500   278.3361
 3552.0000  1376.9054  -999.2500   276.9171
 3552.5000  1420.9670  -999.2500   269.5025
 3553.0000  1495.1292  -999.2500   261.2920
 3553.5000  -999.2500  -999.2500   258.7596
 3554.0000  -999.2500  -999.2500   260.7968
 3554.5000  1600.8389  -999.2500   267.8826
 3555.0000  1513.0483  -999.2500   271.6697
 3555.5000  -999.2500  -999.2500   276.0498
 3556.0000  -999.2500  -999.2500   278.8169
 3556.5000   -16.8420  -999.2500   277.6670
 3557.0000    37.0768  -999.2500   273.0608
 3557.5000   147.1960  -999.2500   266.3168
 3558.0000  -999.2500  -999.2500   259.1992
 3558.5000  -999.2500  -999.2500   254.8644
 3559.0000  -999.2500  -999.2500   259.0141
 3559.5000  1246.5258  -999.2500   261.3406
 3560.0000  1271.9570  -999.2500   262.9971
 3560.5000  1307.2505  -999.2500   263.6293
 3561.0000  1364.4208  -999.2500   263.8619
 3561.5000  1171.8267  -999.2500   263.6331
 3562.0000  1163.3596  -999.2500   262.7141
 3562.5000  1157.2037  -999.2500   261.7946
 3563.0000  1153.3593  -999.2500   260.6446
 3563.5000  1157.2188  -999.2500   260.4158
 3564.0000  1160.3082  -999.2500   260.6489
 3564.5000  1158.7766  -999.2500   261.8032
 3565.0000  1159.5544  -999.2500   263.6642
 3565.5000  1170.3478  -999.2500   266.2697
 3566.0000  1176.5186  -999.2500   270.7963
 3566.5000  1184.2303  -999.2500   273.7938
 3567.0000  1193.4828  -999.2500   279.0955
 3567.5000  1188.0974  -999.2500   281.4018
 3568.0000  1177.3191  -999.2500   286.0122
 3568.5000  1172.6641  -999.2500   286.7056
 3569.0000  1171.1708  -999.2500   283.7123
 3569.5000  1181.9659  -999.2500   281.8712
 3570.0000  1194.3000  -999.2500   280.7212
 3570.5000  1207.4047  -999.2500   281.6450
 3571.0000  1218.9684  -999.2500   279.2906
 3571.5000  1245.9406  -999.2500   277.7328
 3572.0000  1280.6167  -999.2500   276.5829
 3572.5000  1296.0326  -999.2500   277.0458
 3573.0000  1318.3821  -999.2500   279.1217
 3573.5000  1355.3708  -999.2500   283.0409
 3574.0000  1390.0471  -999.2500   288.1122
 3574.5000  1479.7997  -999.2500   291.1097
 3575.0000  1580.9071  -999.2500   291.8031
 3575.5000   -61.3954  -999.2500   290.8836
 3576.0000    47.8022  -999.2500   283.2934
 3576.5000   189.0060  -999.2500   273.6066
 3577.0000  -999.2500  -999.2500   276.6046
 3577.5000  -999.2500  -999.2500   280.2934
 3578.0000  1197.5050  -999.2500   282.5997
 3578.5000  1211.3800  -999.2500   283.7539
 3579.0000  1227.5663  -999.2500   283.2952
 3579.5000  1232.9667  -999.2500   285.6015
 3580.0000  1236.0558  -999.2500   290.0119
 3580.5000  1252.2422  -999.2500   290.4445
 3581.0000  1330.7200  -999.2500   289.7559
 3581.5000  1413.9210  -999.2500   289.2972
 3582.0000  1498.0377  -999.2500   289.2994
 3582.5000  1582.1543  -999.2500   290.2232
 3583.0000  -999.2500  -999.2500   292.7599
 3583.5000  -999.2500  -999.2500   295.5270
 3584.0000  1602.8339  -999.2500   296.6807
 3584.5000  1201.4553  -999.2500   293.9183
 3585.0000  1199.9240  -999.2500   295.5334
 3585.5000  1192.9977  -999.2500   297.8526
 3586.0000  1187.6123  -999.2500   298.7932
 3586.5000  1194.5535  -999.2500   299.6271
 3587.0000  1198.4131  -999.2500  -999.2500
 3587.5000  1195.1769  -999.2500   150.8632
 3588.0000  1184.3351  -999.2500   152.2686
 3588.5000  1182.2568  -999.2500   157.0699
 3589.0000  1196.9042  -999.2500   162.6020
 3589.5000  1205.3861  -999.2500   164.9082
 3590.0000  1212.3275  -999.2500   163.9887
 3590.5000  1222.3503  -999.2500   158.4609
 3591.0000  1243.6704  -999.2500   153.6243
 3591.5000  1291.1104  -999.2500   154.5481
 3592.0000  1338.5502  -999.2500   152.4765
 3592.5000  1408.3004  -999.2500   445.7968
 3593.0000  1488.9463  -999.2500   446.4897
 3593.5000  1569.5922  -999.2500   439.8103
 3594.0000  -999.2500  -999.2500   440.7341
 3594.5000  -999.2500  -999.2500   445.5865
 3595.0000   200.8469  -999.2500   446.9596
 3595.5000  -999.2500  -999.2500   445.3489
 3596.0000  -999.2500  -999.2500   448.1165
 3596.5000  1153.1573  -999.2500   449.2124
 3597.0000  1156.9938  -999.2500  -999.2500
 3597.5000  1165.9950  -999.2500  -999.2500
 3598.0000  1184.7164  -999.2500   151.3505
 3598.5000  1188.5741  -999.2500  -999.2500
 3599.0000  1147.7515  -999.2500   434.2395
 3599.5000  1136.9730  -999.2500   433.1545
 3600.0000  1134.1528  -999.2500   433.3871
 3600.5000  1133.1326  -999.2500   436.6772
 3601.0000  1139.3030  -999.2500   440.9306
 3601.5000  1142.4617  -999.2500   442.8410
 3602.0000  1147.2856  -999.2500   440.3087
 3602.5000  1157.8112  -999.2500   436.3937
 3603.0000  1170.1434  -999.2500   434.8793
 3603.5000  1179.3939  -999.2500   432.1288
 3604.0000  1188.6445  -999.2500   429.3783
 3604.5000  1196.3542  -999.2500   426.6278
 3605.0000  1199.4415  -999.2500   423.8773
 3605.5000  1170.0785  -999.2500   420.6607
 3606.0000  1160.1628  -999.2500   419.0504
 3606.5000  1156.3164  -999.2500   419.7458
 3607.0000  1147.8474  -999.2500   421.1316
 3607.5000  1148.6235  -999.2500   420.9037
 3608.0000  1153.2516  -999.2500   420.6774
 3608.5000  1150.9459  -999.2500   419.0680
 3609.0000  1152.4924  -999.2500   419.3018
 3609.5000  1158.6615  -999.2500   420.6884
 3610.0000  1160.2091  -999.2500   419.7701
 3610.5000  1169.4597  -999.2500   418.8510
 3611.0000  1184.1033  -999.2500   418.8552
 3611.5000  1197.9763  -999.2500   419.5498
 3612.0000  1249.3878  -999.2500   420.9356
 3612.5000  1306.6110  -999.2500   423.9344
 3613.0000  1373.1870  -999.2500   424.1681
 3613.5000  1470.6511  -999.2500   421.4073
 3614.0000  1568.1152  -999.2500   416.2454
 3614.5000  -999.2500  -999.2500   408.6925
 3615.0000   -35.4201  -999.2500   402.9840
 3615.5000  -999.2500  -999.2500   401.8348
 3616.0000  -999.2500  -999.2500   403.5071
 3616.5000  1360.5924  -999.2500   405.2990
 3617.0000  1379.8584  -999.2500   408.2978
 3617.5000  1362.1444  -999.2500   411.2965
 3618.0000  1353.6742  -999.2500   411.7607
 3618.5000  1409.8413  -999.2500   412.4553
 3619.0000  1502.1785  -999.2500   412.7283
 3619.5000  1603.3076  -999.2500   411.3099
 3620.0000  -999.2500  -999.2500   406.6286
 3620.5000  -999.2500  -999.2500   401.1793
 3621.0000  1450.7820  -999.2500   399.5688
 3621.5000  1417.2001  -999.2500   397.7298
 3622.0000  1260.7336  -999.2500   397.5018
 3622.5000  1211.0596  -999.2500   397.0452
 3623.0000  1263.5947  -999.2500   395.8957
 3623.5000  1263.6003  -999.2500   396.1303
 3624.0000  1289.8000  -999.2500   397.5258
 3624.5000  1372.0010  -999.2500   400.2846
 3625.0000  1459.5907  -999.2500   401.2103
 3625.5000  1547.1804  -999.2500   404.2090
 3626.0000   -49.9310  -999.2500   407.8990
 3626.5000   128.1711  -999.2500   411.3586
 3627.0000   295.9508  -999.2500   411.1316
 3627.5000   463.7305  -999.2500   406.7570
 3628.0000   433.6375  -999.2500   404.2258
 3628.5000   329.0559  -999.2500   399.7612
 3629.0000   170.4439  -999.2500   396.6288
 3629.5000   229.1564  -999.2500   398.2460
 3630.0000   298.9030  -999.2500   400.3231
 3630.5000  -255.5794  -999.2500   402.8610
 3631.0000  -248.3971  -999.2500   402.6339
 3631.5000  -150.0944  -999.2500   401.0244
 3632.0000   -51.7916  -999.2500   401.0063
 3632.5000    46.5111  -999.2500   402.6607
 3633.0000    66.4648  -999.2500   404.2933
 3633.5000    98.6422  -999.2500   407.0294
 3634.0000   216.3346  -999.2500   407.7232
 3634.5000   334.0269  -999.2500   402.4278
 3635.0000   451.7193  -999.2500   402.8920
 3635.5000   433.4765  -999.2500   402.8954
 3636.0000   431.2329  -999.2500   402.4378
 3636.5000   529.7857  -999.2500   401.5196
 3637.0000  -999.2500  -999.2500   402.4446
 3637.5000   586.1527  -999.2500   401.0663
 3638.0000   596.5862  -999.2500   402.2218
 3638.5000  -999.2500  -999.2500   404.5293
 3639.0000  -999.2500  -999.2500   406.1455
 3639.5000  -999.2500  -999.2500   407.5314
