~VERSION INFORMATION
 VERS.               2.10:   CWLS LOG ASCII STANDARD - VERSION 2.10
 WRAP.                 NO:   ONE LINE PER DEPTH STEP
~WELL INFORMATION
#MNEM.UNIT      DATA TYPE    INFORMATION
#----------   ------------   ------------------------------
 STRT.F            0.0000:   START DEPTH
 STOP.F         5499.9595:   STOP DEPTH
 STEP.F            0.5000:   STEP LENGTH
 NULL.          -999.2500:   NO VALUE
 COMP. Tesoro Petroleum Corporation:   COMPANY
 WELL.            51 x 28:   WELL
 FLD .           N.P.R. 3:   FIELD
 LOC . 28-39N-78W-NATRONA-WY:   LOCATION
 STAT.                 WY:   STATE
 COUN.            Natrona:   COUNTY
 SRVC.                   :   SERVICE COMPANY
 DATE.         07/07/1968:   LOGDATE
~CURVE INFORMATION
#MNEM.UNIT       API CODE    CURVE DESCRIPTION
#----------   ------------   ------------------------------
 DEPT.F                  :
 RO  .m2/m               :   Resisitivity Ohms
 SN  .m2/m               :   Reisistivity Ohms
 ASN .m2/m               :   Reisistivity Ohms
 Ind .None               :   Induction
 Ind .None               :   Induction
 Con .millimhos/m        :   Conductivitity
 Con .millimhos/m        :   Conductivitity
~PARAMETER INFORMATION
#MNEM.UNIT          VALUE    DESCRIPTION
#----------   ------------   ------------------------------
 EKB .F         5008.0000:   Kelly bushing
 EGL .F         4997.0000:   Ground level
 EDF .F            0.0000:   Drilling floor
 EPD .F            7.0000:   Permanent datum
 TD  .F         5500.0000:   Total depth
 NRUN.             3.0000:   Number of Runs
#--RUN 1---   ------------   The following are for Run 1---
 RUN .             1.0000:   Run 1
 DATE.mm/dd/yyyy 07/07/1968:   Date Logged
 DD  .ft              450:   Depth Driller
 DL  .ft              455:   Depth Logger
 BLI .ft              450:   Bottom Log Interval
 TLI .ft               38:   Top Log Interval
 CSS .inch             20:   Casing Size
 CTD1.ft               38:   Casing Driller 1
 CTL1.ft               38:   Casing Logger 1
 BS  .inch             15:   Bit Size
 DFT .     water base mud:   Type Fluid In Hole
 DFD .lb/gal          9.3:   Mud Weight
 DFV .sec              48:   Viscosity
 DFPH.                  8:   pH
 DFL .ml              7.6:   Fluid Loss
 WSS .           flo line:   Source Of Sample
 RM  .ohmm            2.7:   Rm
 EMT .F                93:   Rm Meas. Temp.
 RMF .ohmm            2.1:   Rmf
 MFT .F               100:   Rmf Meas. Temp.
 RMC .ohmm            2.3:   Rmc
 MCST.F               100:   Rmc Meas. Temp.
 MCSS.       fann mud kit:   Source Rmc.
 TCS .hh:mm       3 hours:   Time Circ. Stopped
 LUN .               7949:   Logging Unit Number
 LUL .          Newcastle:   Logging Unit Location
 ENGI.            Custard:   Recorded By
 WITN.            Mr. May:   Witnessed By
 DGBY.              Burke:   Digitized By
#--RUN 2---   ------------   The following are for Run 2---
 RUN .             2.0000:   Run 2
 DATE.mm/dd/yyyy 09/01/1968:   Date Logged
 DD  .ft             2955:   Depth Driller
 DL  .ft             2955:   Depth Logger
 BLI .ft             2950:   Bottom Log Interval
 TLI .ft              444:   Top Log Interval
 CSS .inch         10-3/4:   Casing Size
 CTD1.ft              340:   Casing Driller 1
 CTL1.ft              454:   Casing Logger 1
 BS  .inch          7-7/8:   Bit Size
 DFT .               "  ":   Type Fluid In Hole
 DFD .lb/gal          9.6:   Mud Weight
 DFV .sec              52:   Viscosity
 DFPH.                 85:   pH
 DFL .ml                6:   Fluid Loss
 WSS .              circ.:   Source Of Sample
 RM  .ohmm            2.5:   Rm
 EMT .F                52:   Rm Meas. Temp.
 RMF .ohmm           1.10:   Rmf
 MFT .F               100:   Rmf Meas. Temp.
 RMC .ohmm           1.63:   Rmc
 MCST.F               100:   Rmc Meas. Temp.
 MCSS.               "  ":   Source Rmc.
 RMB .ohmm           1.30:   Rm. At BHT
 BHT .F               104:   BHT.
 TCS .hh:mm       2 hours:   Time Circ. Stopped
 MRT .F               104:   Maximum Recorded Temp.
 LUN .               7949:   Logging Unit Number
 LUL .          Newcastle:   Logging Unit Location
 ENGI.               "  ":   Recorded By
 WITN.               "  ":   Witnessed By
 DGBY.               "  ":   Digitized By
#--RUN 3---   ------------   The following are for Run 3---
 RUN .             3.0000:   Run 3
 DATE.mm/dd/yyyy 09/18/1968:   Date Logged
 DD  .ft             5495:   Depth Driller
 DL  .ft             5503:   Depth Logger
 BLI .ft             5498:   Bottom Log Interval
 TLI .ft             2900:   Top Log Interval
 CSS .inch         10-3/4:   Casing Size
 CTD1.ft              450:   Casing Driller 1
 CTL1.ft              454:   Casing Logger 1
 BS  .inch              9:   Bit Size
 DFT .               "  ":   Type Fluid In Hole
 DFD .lb/gal          9.4:   Mud Weight
 DFV .sec              58:   Viscosity
 DFPH.                9.5:   pH
 DFL .ml               11:   Fluid Loss
 WSS .                pit:   Source Of Sample
 RM  .ohmm            1.7:   Rm
 EMT .F                56:   Rm Meas. Temp.
 RMF .ohmm            .64:   Rmf
 MFT .F               100:   Rmf Meas. Temp.
 RMC .ohmm            1.6:   Rmc
 MCST.F               100:   Rmc Meas. Temp.
 MCSS.               "  ":   Source Rmc.
 RMB .ohmm             .6:   Rm. At BHT
 BHT .F               160:   BHT.
 TCS .hh:mm         3 hrs:   Time Circ. Stopped
 MRT .F               160:   Maximum Recorded Temp.
 LUN .               "  ":   Logging Unit Number
 LUL .               "  ":   Logging Unit Location
 ENGI.               "  ":   Recorded By
 WITN.               "  ":   Witnessed By
 DGBY.               "  ":   Digitized By
~A  DEPTH       RO         SN        ASN        Ind        I          C          Con
# ...
 3549.0000  -999.2500     8.3156   412.3508     7.5871  -999.2500  -999.2500   566.6795
 3549.5000  -999.2500     8.3157   406.1881     7.5106  -999.2500  -999.2500   566.2952
 3550.0000  -999.2500     8.3157   407.9025     7.5116  -999.2500  -999.2500   566.6795
 3550.5000  -999.2500     8.3158   406.4390     7.4353  -999.2500  -999.2500   568.9854
 3551.0000  -999.2500     8.2390   401.2176     7.2026  -999.2500  -999.2500   569.3697
 3551.5000  -999.2500     8.0853   379.7843     6.9646  -999.2500  -999.2500   569.7540
 3552.0000  -999.2500     7.6241   358.3511     6.5901  -999.2500  -999.2500   572.4443
 3552.5000  -999.2500     7.0861   336.9178     6.5138  -999.2500  -999.2500   575.9031
 3553.0000  -999.2500     6.7787   317.4577     6.5918  -999.2500  -999.2500   574.3420
 3553.5000  -999.2500     6.7788   319.8464     6.5925  -999.2500  -999.2500   572.7648
 3554.0000  -999.2500     6.7020   318.7963     6.5163  -999.2500  -999.2500   573.9816
 3554.5000  -999.2500     6.3125   300.5015     6.3629  -999.2500  -999.2500   577.3162
 3555.0000  -999.2500     5.9982   276.9352     5.9014  -999.2500  -999.2500   584.4117
 3555.5000  -999.2500     6.0103   291.6699     5.4399  -999.2500  -999.2500   591.5073
 3556.0000  -999.2500     5.3186   279.4206     5.0544  -999.2500  -999.2500   598.6027
 3556.5000  -999.2500     4.7037   248.1395     4.7396  -999.2500  -999.2500   605.3173
 3557.0000  -999.2500     4.3195   215.0052     4.4408  -999.2500  -999.2500   614.1876
 3557.5000  -999.2500     4.0889   180.2692     4.1334  -999.2500  -999.2500   623.0578
 3558.0000  -999.2500     4.5502   181.8874     4.0569  -999.2500  -999.2500   628.2068
 3558.5000  -999.2500     4.7039   206.6184     4.0579  -999.2500  -999.2500   627.7863
 3559.0000  -999.2500     4.6271   205.1546     4.2127  -999.2500  -999.2500   626.2490
 3559.5000  -999.2500     4.8578   225.2822     4.5216  -999.2500  -999.2500   625.4804
 3560.0000  -999.2500     5.4778   251.5344     4.8305  -999.2500  -999.2500   618.9470
 3560.5000  -999.2500     6.0230   298.7337     5.2935  -999.2500  -999.2500   605.1115
 3561.0000  -999.2500     6.1646   307.1272     5.7565  -999.2500  -999.2500   590.8441
 3561.5000  -999.2500     6.2415   309.4773     6.2341  -999.2500  -999.2500   577.0561
 3562.0000  -999.2500     6.3184   302.5953     6.6057  -999.2500  -999.2500   574.7502
 3562.5000  -999.2500     6.4722   320.3795     6.5292  -999.2500  -999.2500   575.1430
 3563.0000  -999.2500     6.7797   329.6763     6.4529  -999.2500  -999.2500   577.5375
 3563.5000  -999.2500     6.7797   330.4985     6.5309  -999.2500  -999.2500   578.9777
 3564.0000  -999.2500     6.8567   335.9431     6.5317  -999.2500  -999.2500   579.7463
 3564.5000  -999.2500     6.9336   340.6174     6.5324  -999.2500  -999.2500   578.2090
 3565.0000  -999.2500     6.9336   343.7508     6.4559  -999.2500  -999.2500   577.4404
 3565.5000  -999.2500     7.0105   344.5965     6.5339  -999.2500  -999.2500   577.4404
 3566.0000  -999.2500     7.1643   349.4403     6.6117  -999.2500  -999.2500   577.8248
 3566.5000  -999.2500     7.2412   353.9344     6.6125  -999.2500  -999.2500   577.8833
 3567.0000  -999.2500     7.2413   353.2028     6.6133  -999.2500  -999.2500   577.0561
 3567.5000  -999.2500     7.3182   353.2675     6.6142  -999.2500  -999.2500   576.6302
 3568.0000  -999.2500     7.3951   356.4009     6.6149  -999.2500  -999.2500   575.0738
 3568.5000  -999.2500     7.4720   359.5343     6.6157  -999.2500  -999.2500   574.3658
 3569.0000  -999.2500     7.5489   363.4382     6.6164  -999.2500  -999.2500   574.7502
 3569.5000  -999.2500     7.6258   365.8012     6.6942  -999.2500  -999.2500   575.1345
 3570.0000  -999.2500     7.6259   365.8529     6.6950  -999.2500  -999.2500   575.1345
 3570.5000  -999.2500     7.5490   361.2822     6.7728  -999.2500  -999.2500   575.5189
 3571.0000  -999.2500     7.5440   355.7942     6.8505  -999.2500  -999.2500   575.5189
 3571.5000  -999.2500     7.2297   346.2691     6.9284  -999.2500  -999.2500   575.5189
 3572.0000  -999.2500     7.1649   334.4858     6.9291  -999.2500  -999.2500   575.5189
 3572.5000  -999.2500     7.1649   333.7542     6.8530  -999.2500  -999.2500   573.9484
 3573.0000  -999.2500     7.0112   329.9668     6.7765  -999.2500  -999.2500   572.8286
 3573.5000  -999.2500     6.8576   320.7736     6.7002  -999.2500  -999.2500   577.4404
 3574.0000  -999.2500     6.6270   306.1874     6.5471  -999.2500  -999.2500   583.3569
 3574.5000  -999.2500     6.1659   278.5042     6.2397  -999.2500  -999.2500   590.5056
 3575.0000  -999.2500     5.5510   263.9181     5.8552  -999.2500  -999.2500   597.6542
 3575.5000  -999.2500     5.0899   228.5307     5.0855  -999.2500  -999.2500   604.3428
 3576.0000  -999.2500     4.8593   206.2404     4.8552  -999.2500  -999.2500   608.1860
 3576.5000  -999.2500     4.9363   224.2302     4.6248  -999.2500  -999.2500   609.3390
 3577.0000  -999.2500     4.9363   240.2422     4.6367  -999.2500  -999.2500   609.3390
 3577.5000  -999.2500     5.0132   230.2785     4.8576  -999.2500  -999.2500   608.9092
 3578.0000  -999.2500     5.5513   256.5751     5.4747  -999.2500  -999.2500   604.3428
 3578.5000  -999.2500     6.0894   300.4014     6.0918  -999.2500  -999.2500   594.2067
 3579.0000  -999.2500     6.6275   335.9937     6.7859  -999.2500  -999.2500   581.6939
 3579.5000  -999.2500     7.0119   339.8976     7.2489  -999.2500  -999.2500   567.4481
 3580.0000  -999.2500     7.0888   341.4901     7.5578  -999.2500  -999.2500   563.2206
 3580.5000  -999.2500     7.0888   346.9348     7.0963  -999.2500  -999.2500   563.6049
 3581.0000  -999.2500     6.7814   346.2161     6.5578  -999.2500  -999.2500   574.7502
 3581.5000  -999.2500     6.2434   335.3348     6.0941  -999.2500  -999.2500   579.7463
 3582.0000  -999.2500     5.6190   271.6926     5.6924  -999.2500  -999.2500   587.4327
 3582.5000  -999.2500     5.3980   266.2481     5.1735  -999.2500  -999.2500   591.2759
 3583.0000  -999.2500     5.3981   267.8407     5.0202  -999.2500  -999.2500   591.3068
 3583.5000  -999.2500     5.4750   263.2829     5.0209  -999.2500  -999.2500   593.2145
 3584.0000  -999.2500     5.6288   267.1867     5.0217  -999.2500  -999.2500   594.7348
 3584.5000  -999.2500     6.1668   304.9889     5.2535  -999.2500  -999.2500   593.1976
 3585.0000  -999.2500     6.5512   323.5306     5.7936  -999.2500  -999.2500   588.5857
 3585.5000  -999.2500     6.7819   328.9753     6.1795  -999.2500  -999.2500   582.8209
 3586.0000  -999.2500     6.8508   328.2550     6.4885  -999.2500  -999.2500   577.8248
 3586.5000  -999.2500     6.8327   327.5375     6.6433  -999.2500  -999.2500   575.1345
 3587.0000  -999.2500     6.8146   324.5081     6.5585  -999.2500  -999.2500   574.3658
 3587.5000  -999.2500     6.7965   326.9933     6.4139  -999.2500  -999.2500   574.3658
 3588.0000  -999.2500     6.7785   330.0174     6.2605  -999.2500  -999.2500   576.6718
 3588.5000  -999.2500     6.7604   332.3804     6.1070  -999.2500  -999.2500   578.9985
 3589.0000  -999.2500     6.7423   331.6488     6.1850  -999.2500  -999.2500   579.8064
 3589.5000  -999.2500     6.7242   327.8614     6.4169  -999.2500  -999.2500   580.1307
 3590.0000  -999.2500     6.7054   322.5202     6.5717  -999.2500  -999.2500   578.2090
 3590.5000  -999.2500     6.6286   318.7199     6.4182  -999.2500  -999.2500   578.2090
 3591.0000  -999.2500     6.7055   318.7717     6.4962  -999.2500  -999.2500   577.0561
 3591.5000  -999.2500     6.2444   320.3643     6.6510  -999.2500  -999.2500   574.3658
 3592.0000  -999.2500     6.2444   319.6456     6.6518  -999.2500  -999.2500   572.4443
 3592.5000  -999.2500     6.3213   315.6292     6.4984  -999.2500  -999.2500   573.5972
 3593.0000  -999.2500     6.2445   305.8945     6.4221  -999.2500  -999.2500   577.4404
 3593.5000  -999.2500     6.1677   298.2292     5.9608  -999.2500  -999.2500   586.0911
 3594.0000  -999.2500     5.9372   280.7596     4.8830  -999.2500  -999.2500   596.5732
