~VERSION INFORMATION
 VERS.               2.10:   CWLS LOG ASCII STANDARD - VERSION 2.10
 WRAP.                 NO:   ONE LINE PER DEPTH STEP
~WELL INFORMATION
#MNEM.UNIT      DATA TYPE    INFORMATION
#----------   ------------   ------------------------------
 STRT.F            0.0000:   START DEPTH
 STOP.F         5494.0205:   STOP DEPTH
 STEP.F            0.5000:   STEP LENGTH
 NULL.          -999.2500:   NO VALUE
 COMP. Tesoro Petroleum Corporation:   COMPANY
 WELL.            51-X-28:   WELL
 FLD .           N.P.R. 3:   FIELD
 LOC . 28-39N-78W-NATRONA-WY:   LOCATION
 STAT.                 WY:   STATE
 COUN.            Natrona:   COUNTY
 SRVC.              Welex:   SERVICE COMPANY
 DATE.                   :   LOGDATE
~CURVE INFORMATION
#MNEM.UNIT       API CODE    CURVE DESCRIPTION
#----------   ------------   ------------------------------
 DEPT.F                  :
 GD  .std.den.units      :   Gamma Density
 RhoG.APO                :   Gamma
 GR.API        	         :   Gamma
~PARAMETER INFORMATION
#MNEM.UNIT          VALUE    DESCRIPTION
#----------   ------------   ------------------------------
 EKB .F         5008.0000:   Kelly bushing
 EGL .F         4997.0000:   Ground level
 EDF .F            0.0000:   Drilling floor
 EPD .F           11.0000:   Permanent datum
 TD  .F         4830.0000:   Total depth
 NRUN.             1.0000:   Number of Runs
#--RUN 1---   ------------   The following are for Run 1---
 RUN .             1.0000:   Run 1
 DATE.mm/dd/yyyy 09/18/1968:   Date Logged
 DD  .ft             5495:   Depth Driller
 DL  .ft             5498:   Depth Logger
 BLI .ft             5496:   Bottom Log Interval
 TLI .ft             2500:   Top Log Interval
 CSS .inch          10.75:   Casing Size
 CTD1.ft              450:   Casing Driller 1
 CTL1.ft              454:   Casing Logger 1
 BS  .inch              9:   Bit Size
 DFT .     water base mud:   Type Fluid In Hole
 DFD .lb/gal          9.4:   Mud Weight
 DFV .sec              58:   Viscosity
 DFPH.                9.5:   pH
 DFL .ml               11:   Fluid Loss
 WSS .                pit:   Source Of Sample
 RM  .ohmm            1.7:   Rm
 EMT .F                56:   Rm Meas. Temp.
 RMF .ohmm            .64:   Rmf
 MFT .F               100:   Rmf Meas. Temp.
 RMC .ohmm            1.6:   Rmc
 MCST.F               100:   Rmc Meas. Temp.
 MFSS.               fann:   Source Rmf.
 MCSS.            mud kit:   Source Rmc.
 RMB .ohmm            .60:   Rm. At BHT
 BHT .F               160:   BHT.
 TCS .hh:mm        3 hrs.:   Time Circ. Stopped
 MRT .F               160:   Maximum Recorded Temp.
 LUL .          Newcastle:   Logging Unit Location
 ENGI.        Mr. Custard:   Recorded By
 WITN.            Mr. May:   Witnessed By
 DGBY.          Mr. Burke:   Digitized By
~A  DEPTH       GD       RhoG       GR
# ...
 3731.0000   444.1660  -999.2500   380.9659
 3731.5000   451.4024  -999.2500   382.8161
 3732.0000   497.6838  -999.2500   381.3796
 3732.5000   427.1878  -999.2500   379.0668
 3733.0000   394.8186  -999.2500   377.3084
 3733.5000   397.3739  -999.2500   376.8544
 3734.0000   386.1680  -999.2500   377.7829
 3734.5000   276.9174  -999.2500   381.7068
 3735.0000   423.9930  -999.2500   383.5570
 3735.5000   558.0989  -999.2500   384.4838
 3736.0000   379.9622  -999.2500   380.1145
 3736.5000   167.4799  -999.2500   376.4347
 3737.0000   173.6307  -999.2500   375.9807
 3737.5000  -999.2500  -999.2500   377.1031
 3738.0000  -999.2500  -999.2500   381.2957
 3738.5000  1510.9547  -999.2500   382.4547
 3739.0000  1573.0350  -999.2500   382.4615
 3739.5000  -999.2500  -999.2500   382.4684
 3740.0000  -999.2500  -999.2500   380.2985
 3740.5000   357.4435  -999.2500   379.6758
 3741.0000   406.3135  -999.2500   379.0327
 3741.5000   455.1835  -999.2500   377.6571
 3742.0000   451.3297  -999.2500   376.7271
 3742.5000   428.1563  -999.2500   376.2883
 3743.0000   511.2327  -999.2500   377.9081
 3743.5000   240.6017  -999.2500   377.6845
 3744.0000  -140.3787  -999.2500   378.8452
 3744.5000  -999.2500  -999.2500   383.4603
 3745.0000  -999.2500  -999.2500   386.6930
 3745.5000  1602.5917  -999.2500   389.2344
 3746.0000  1585.6317  -999.2500   388.7804
 3746.5000  -999.2500  -999.2500   388.5568
 3747.0000    23.9802  -999.2500   387.8573
 3747.5000  -999.2500  -999.2500   386.4968
 3748.0000  -999.2500  -999.2500   388.8095
 3748.5000  1520.3761  -999.2500   389.5077
 3749.0000  1350.5958  -999.2500   390.8970
 3749.5000  1201.1249  -999.2500   393.4384
 3750.0000  1243.9462  -999.2500   398.9752
 3750.5000  1296.5231  -999.2500   402.2079
 3751.0000  1349.0999  -999.2500   401.0624
 3751.5000  1378.2845  -999.2500   398.3046
 3752.0000  1364.4077  -999.2500   394.3792
 3752.5000  1361.3142  -999.2500   394.0944
 3753.0000  1312.7686  -999.2500   392.5665
 3753.5000  1214.7114  -999.2500   391.6500
 3754.0000  1138.0200  -999.2500   393.7322
 3754.5000  1135.5454  -999.2500   397.6562
 3755.0000  1185.9851  -999.2500   399.5063
 3755.5000  1257.6082  -999.2500   401.8173
 3756.0000  1329.2312  -999.2500   406.2021
 3756.5000  1433.9202  -999.2500   402.9837
 3757.0000  1552.5375  -999.2500   399.5343
 3757.5000  -359.8916  -999.2500   393.5504
 3758.0000  -999.2500  -999.2500   390.0704
 3758.5000  -999.2500  -999.2500   392.8964
 3759.0000  1332.5171  -999.2500   396.3501
 3759.5000  1075.2634  -999.2500   405.5611
 3760.0000  1098.4596  -999.2500   406.7183
 3760.5000  1096.1390  -999.2500   406.9573
 3761.0000  1099.2113  -999.2500   408.1145
 3761.5000  1091.4952  -999.2500   405.1277
 3762.0000  1087.6338  -999.2500   403.5217
 3762.5000  1086.8540  -999.2500   403.0674
 3763.0000  1068.3546  -999.2500   404.4570
 3763.5000  1036.7321  -999.2500   402.8437
 3764.0000   988.2117  -999.2500   402.1666
 3764.5000   973.5644  -999.2500   401.9430
 3765.0000   965.8508  -999.2500   403.1037
 3765.5000  1000.5102  -999.2500   404.7234
 3766.0000  1101.6448  -999.2500   405.8824
 3766.5000  1163.6121  -999.2500   407.5021
 3767.0000  1224.4453  -999.2500   408.4306
 3767.5000  1283.8907  -999.2500   408.6679
 3768.0000  1354.2208  -999.2500   407.0619
 3768.5000  1428.3899  -999.2500   400.3476
 3769.0000  1502.5591  -999.2500   396.1154
 3769.5000  1576.7281  -999.2500   392.3141
 3770.0000  -274.6154  -999.2500   388.5127
 3770.5000  -378.3424  -999.2500   384.7113
 3771.0000  -999.2500  -999.2500   380.9099
 3771.5000  -999.2500  -999.2500   376.4670
 3772.0000  1079.3225  -999.2500   375.3200
 3772.5000   900.1185  -999.2500   376.7111
 3773.0000   921.0130  -999.2500   381.4173
 3773.5000  1037.2523  -999.2500   389.9280
 3774.0000  1175.5889  -999.2500   398.1908
 3774.5000  1313.9255  -999.2500   399.5508
 3775.0000  1428.3263  -999.2500   397.7143
 3775.5000  1534.0043  -999.2500   397.2586
 3776.0000  -117.7909  -999.2500   398.1888
 3776.5000  -117.5751  -999.2500   399.1173
 3777.0000   -72.7923  -999.2500   397.2809
 3777.5000    36.8580  -999.2500   394.9836
 3778.0000   146.5082  -999.2500   391.7646
 3778.5000   256.1585  -999.2500   391.0724
 3779.0000   201.3299  -999.2500   390.8567
 3779.5000   219.1784  -999.2500   392.4781
 3780.0000  -400.3854  -999.2500   395.4804
 3780.5000  -999.2500  -999.2500   399.4043
 3781.0000  1478.1140  -999.2500   399.6416
 3781.5000  1539.0370  -999.2500   397.3443
 3782.0000  1600.3466  -999.2500   394.1253
 3782.5000  -999.2500  -999.2500   392.5193
 3783.0000  -999.2500  -999.2500   391.3741
 3783.5000  -999.2500  -999.2500   391.1505
 3784.0000   161.8890  -999.2500   391.6493
 3784.5000   180.5126  -999.2500   393.7005
 3785.0000   199.1363  -999.2500   394.8594
 3785.5000  -999.2500  -999.2500   394.6342
 3786.0000  -999.2500  -999.2500   396.2556
 3786.5000  1599.4907  -999.2500   396.7233
 3787.0000  1338.7180  -999.2500   396.7302
 3787.5000  1421.1571  -999.2500   393.6777
 3788.0000  1542.7949  -999.2500   389.6010
 3788.5000   -47.9233  -999.2500   385.6439
 3789.0000  -132.9083  -999.2500   381.2591
 3789.5000  -145.6641  -999.2500   380.8658
 3790.0000   -65.5978  -999.2500   381.1048
 3790.5000   -57.7541  -999.2500   382.4942
 3791.0000  -999.2500  -999.2500   385.2660
 3791.5000  -999.2500  -999.2500   388.7291
 3792.0000  1581.6630  -999.2500   391.5009
 3792.5000  -161.0260  -999.2500   394.2728
 3793.0000  -144.8566  -999.2500   397.0446
 3793.5000  -175.6850  -999.2500   397.7427
 3794.0000  -120.3954  -999.2500   397.4885
 3794.5000   -17.9688  -999.2500   397.0652
 3795.0000    84.4579  -999.2500   399.8387
 3795.5000   186.8845  -999.2500   402.8409
 3796.0000   299.6138  -999.2500   404.2303
 3796.5000    24.5667  -999.2500   404.0050
 3797.0000    87.9357  -999.2500   398.4836
 3797.5000   151.1197  -999.2500   393.1909
 3798.0000   167.1262  -999.2500   391.1240
 3798.5000   185.0653  -999.2500   392.0605
 3799.0000   189.3879  -999.2500   393.2115
 3799.5000    16.0333  -999.2500   392.9880
 3800.0000    27.5809  -999.2500   389.9770
 3800.5000    55.8122  -999.2500   390.2372
 3801.0000    94.5859  -999.2500   389.7635
 3801.5000   127.7044  -999.2500   389.0798
 3802.0000   214.8373  -999.2500   388.6246
 3802.5000   320.5530  -999.2500   387.9409
 3803.0000   420.4358  -999.2500   386.5679
 3803.5000   149.6036  -999.2500   385.4233
 3804.0000   110.9623  -999.2500   382.6659
 3804.5000   119.5435  -999.2500   384.0559
 3805.0000   154.6125  -999.2500   385.4459
 3805.5000   225.9246  -999.2500   386.8655
 3806.0000   300.9625  -999.2500   387.5350
 3806.5000   279.3815  -999.2500   389.8483
 3807.0000   286.3058  -999.2500   394.0033
 3807.5000   276.3298  -999.2500   396.0846
 3808.0000   211.5045  -999.2500   397.4746
 3808.5000   196.1397  -999.2500   397.2517
 3809.0000   236.6953  -999.2500   394.4943
 3809.5000   -14.2027  -999.2500   389.4327
 3810.0000    85.1409  -999.2500   388.5186
 3810.5000   168.6956  -999.2500   386.6690
 3811.0000   252.2503  -999.2500   383.5775
 3811.5000   152.8890  -999.2500   376.3311
 3812.0000    -1.5563  -999.2500   374.0345
 3812.5000   -50.4633  -999.2500   376.3461
 3813.0000    11.0178  -999.2500   378.4274
 3813.5000    61.9893  -999.2500   380.0479
 3814.0000    75.0769  -999.2500   381.4379
 3814.5000    82.0013  -999.2500   381.4454
 3815.0000    59.5956  -999.2500   381.6833
 3815.5000    51.1634  -999.2500   387.2209
 3816.0000    55.0061  -999.2500   389.0717
 3816.5000    77.3388  -999.2500   385.3926
 3817.0000   103.2258  -999.2500   387.2454
 3817.5000   131.9794  -999.2500   389.7875
 3818.0000   158.2058  -999.2500   393.2512
 3818.5000   151.2626  -999.2500   394.8717
 3819.0000   166.6592  -999.2500   395.1077
 3819.5000   178.2060  -999.2500   393.5023
 3820.0000   199.7682  -999.2500   394.8943
 3820.5000   278.0298  -999.2500   399.0493
 3821.0000   361.7268  -999.2500   399.2872
 3821.5000   435.5196  -999.2500   399.8277
