~VERSION INFORMATION
 VERS.               2.10:   CWLS LOG ASCII STANDARD - VERSION 2.10
 WRAP.                 NO:   ONE LINE PER DEPTH STEP
~WELL INFORMATION
#MNEM.UNIT      DATA TYPE    INFORMATION
#----------   ------------   ------------------------------
 STRT.F            0.0000:   START DEPTH
 STOP.F         5494.0205:   STOP DEPTH
 STEP.F            0.5000:   STEP LENGTH
 NULL.          -999.2500:   NO VALUE
 COMP. Tesoro Petroleum Corporation:   COMPANY
 WELL.            51-X-28:   WELL
 FLD .           N.P.R. 3:   FIELD
 LOC . 28-39N-78W-NATRONA-WY:   LOCATION
 STAT.                 WY:   STATE
 COUN.            Natrona:   COUNTY
 SRVC.              Welex:   SERVICE COMPANY
 DATE.                   :   LOGDATE
~CURVE INFORMATION
#MNEM.UNIT       API CODE    CURVE DESCRIPTION
#----------   ------------   ------------------------------
 DEPT.F                  :
 GD  .std.den.units      :   Gamma Density
 RhoG.APO                :   Gamma
 GR.API        	         :   Gamma
~PARAMETER INFORMATION
#MNEM.UNIT          VALUE    DESCRIPTION
#----------   ------------   ------------------------------
 EKB .F         5008.0000:   Kelly bushing
 EGL .F         4997.0000:   Ground level
 EDF .F            0.0000:   Drilling floor
 EPD .F           11.0000:   Permanent datum
 TD  .F         4830.0000:   Total depth
 NRUN.             1.0000:   Number of Runs
#--RUN 1---   ------------   The following are for Run 1---
 RUN .             1.0000:   Run 1
 DATE.mm/dd/yyyy 09/18/1968:   Date Logged
 DD  .ft             5495:   Depth Driller
 DL  .ft             5498:   Depth Logger
 BLI .ft             5496:   Bottom Log Interval
 TLI .ft             2500:   Top Log Interval
 CSS .inch          10.75:   Casing Size
 CTD1.ft              450:   Casing Driller 1
 CTL1.ft              454:   Casing Logger 1
 BS  .inch              9:   Bit Size
 DFT .     water base mud:   Type Fluid In Hole
 DFD .lb/gal          9.4:   Mud Weight
 DFV .sec              58:   Viscosity
 DFPH.                9.5:   pH
 DFL .ml               11:   Fluid Loss
 WSS .                pit:   Source Of Sample
 RM  .ohmm            1.7:   Rm
 EMT .F                56:   Rm Meas. Temp.
 RMF .ohmm            .64:   Rmf
 MFT .F               100:   Rmf Meas. Temp.
 RMC .ohmm            1.6:   Rmc
 MCST.F               100:   Rmc Meas. Temp.
 MFSS.               fann:   Source Rmf.
 MCSS.            mud kit:   Source Rmc.
 RMB .ohmm            .60:   Rm. At BHT
 BHT .F               160:   BHT.
 TCS .hh:mm        3 hrs.:   Time Circ. Stopped
 MRT .F               160:   Maximum Recorded Temp.
 LUL .          Newcastle:   Logging Unit Location
 ENGI.        Mr. Custard:   Recorded By
 WITN.            Mr. May:   Witnessed By
 DGBY.          Mr. Burke:   Digitized By
~A  DEPTH       GD       RhoG       GR
# ...
 2548.0000  1124.6057  -999.2500   227.6229
 2548.5000  1121.4973  -999.2500   226.7078
 2549.0000  1115.0719  -999.2500   226.2405
 2549.5000  1114.5084  -999.2500   225.7224
 2550.0000  1117.5784  -999.2500   224.1940
 2550.5000  1125.2893  -999.2500   223.9678
 2551.0000  1131.4547  -999.2500   224.8945
 2551.5000  1137.6201  -999.2500   226.7401
 2552.0000  1142.2399  -999.2500   227.6655
 2552.5000  1133.7222  -999.2500   226.7505
 2553.0000  1125.2043  -999.2500   225.8354
 2553.5000  1123.6324  -999.2500   224.9203
 2554.0000  1128.3849  -999.2500   224.1986
 2554.5000  1135.7307  -999.2500   223.5503
 2555.0000  1142.1379  -999.2500   222.6365
 2555.5000  1138.2527  -999.2500   222.4103
 2556.0000  1142.8724  -999.2500   224.2572
 2556.5000  1139.7643  -999.2500   226.1029
 2557.0000  1133.5649  -999.2500   227.7185
 2557.5000  1130.4568  -999.2500   226.8038
 2558.0000  1123.4846  -999.2500   227.2691
 2558.5000  1122.6332  -999.2500   227.9645
 2559.0000  1128.8708  -999.2500   227.2795
 2559.5000  1132.8705  -999.2500   227.0546
 2560.0000  1141.1866  -999.2500   227.0599
 2560.5000  1147.3521  -999.2500   226.8349
 2561.0000  1148.1122  -999.2500   225.9211
 2561.5000  1142.6814  -999.2500   225.0047
 2562.0000  1143.4414  -999.2500   224.5497
 2562.5000  1138.0105  -999.2500   224.3248
 2563.0000  1135.6794  -999.2500   224.7914
 2563.5000  1138.7494  -999.2500   224.3364
 2564.0000  1146.7617  -999.2500   224.3417
 2564.5000  1164.7406  -999.2500   223.4265
 2565.0000  1185.0635  -999.2500   224.8134
 2565.5000  1198.9568  -999.2500   225.2787
 2566.0000  1195.8486  -999.2500   225.7439
 2566.5000  1190.4220  -999.2500   225.5191
 2567.0000  1188.0867  -999.2500   224.6040
 2567.5000  1174.9321  -999.2500   224.3778
 2568.0000  1171.8240  -999.2500   225.0744
 2568.5000  1177.5870  -999.2500   224.8348
 2569.0000  1182.6090  -999.2500   220.8441
 2569.5000  1181.8193  -999.2500   218.4194
 2570.0000  1191.8444  -999.2500   218.1933
 2570.5000  1204.1923  -999.2500   220.7304
 2571.0000  1206.4979  -999.2500   222.5760
 2571.5000  1193.3391  -999.2500   224.8818
 2572.0000  1180.1844  -999.2500   225.5772
 2572.5000  1175.5306  -999.2500   225.3522
 2573.0000  1168.5586  -999.2500   224.1942
 2573.5000  1164.5941  -999.2500   222.1101
 2574.0000  1154.0428  -999.2500   221.6881
 2574.5000  1149.9603  -999.2500   220.7730
 2575.0000  1153.8031  -999.2500   216.8671
 2575.5000  1148.3766  -999.2500   218.0226
 2576.0000  1135.2220  -999.2500   218.2565
 2576.5000  1133.6595  -999.2500   218.0316
 2577.0000  1138.2793  -999.2500   218.2682
 2577.5000  1149.8542  -999.2500   219.6648
 2578.0000  1170.6372  -999.2500   220.1190
 2578.5000  1192.3213  -999.2500   218.2850
 2579.0000  1200.0323  -999.2500   218.2901
 2579.5000  1199.2426  -999.2500   218.0639
 2580.0000  1197.6798  -999.2500   218.0704
 2580.5000  1201.5269  -999.2500   218.7657
 2581.0000  1198.4187  -999.2500   219.9212
 2581.5000  1194.5377  -999.2500   219.2362
 2582.0000  1189.8840  -999.2500   219.0113
 2582.5000  1192.2870  -999.2500   219.0166
 2583.0000  1197.0513  -999.2500   217.8726
 2583.5000  1206.0575  -999.2500   216.9575
 2584.0000  1217.6324  -999.2500   217.1915
 2584.5000  1229.2075  -999.2500   215.8176
 2585.0000  1250.0560  -999.2500   214.9012
 2585.5000  1268.5861  -999.2500   215.8279
 2586.0000  1269.3462  -999.2500   216.2932
 2586.5000  1263.1426  -999.2500   217.9153
 2587.0000  1262.3528  -999.2500   217.6260
 2587.5000  1263.8815  -999.2500   216.5388
 2588.0000  1269.5580  -999.2500   217.0053
 2588.5000  1283.2014  -999.2500   218.1608
 2589.0000  1317.9877  -999.2500   216.3255
 2589.5000  1358.0905  -999.2500   215.8692
 2590.0000  1364.2559  -999.2500   216.0493
 2590.5000  1361.9205  -999.2500   214.9610
 2591.0000  1362.6763  -999.2500   214.9662
 2591.5000  1358.0225  -999.2500   211.7505
 2592.0000  1350.2775  -999.2500   209.6851
 2592.5000  1340.2142  -999.2500   208.3081
 2593.0000  1330.1306  -999.2500   206.4475
 2593.5000  1325.2184  -999.2500   206.0196
 2594.0000  1305.3831  -999.2500   210.8574
 2594.5000  1287.8224  -999.2500   215.2337
 2595.0000  1252.2183  -999.2500   217.9996
 2595.5000  1216.6141  -999.2500   220.7655
 2596.0000  1190.9410  -999.2500   221.4609
 2596.5000  1192.4739  -999.2500   217.5550
 2597.0000  1185.4974  -999.2500   214.5675
 2597.5000  1178.5253  -999.2500   211.0448
 2598.0000  1185.4635  -999.2500   210.2085
 2598.5000  1227.2784  -999.2500   210.4451
 2599.0000  1274.0072  -999.2500   211.3705
 2599.5000  1298.2368  -999.2500   210.6855
 2600.0000  1293.5829  -999.2500   211.8396
 2600.5000  1290.4747  -999.2500   213.1645
 2601.0000  1272.6835  -999.2500   214.3230
 2601.5000  1263.3929  -999.2500   213.6464
 2602.0000  1262.6073  -999.2500   213.6573
 2602.5000  1274.9508  -999.2500   214.8185
 2603.0000  1275.0162  -999.2500   215.9797
 2603.5000  1263.3250  -999.2500   214.6102
 2604.0000  1246.7698  -999.2500   216.3244
 2604.5000  1238.5614  -999.2500   217.6228
 2605.0000  1244.7225  -999.2500   215.3358
 2605.5000  1251.8118  -999.2500   213.0461
 2606.0000  1261.0815  -999.2500   216.0477
 2606.5000  1275.7609  -999.2500   217.2089
 2607.0000  1289.6675  -999.2500   217.2198
 2607.5000  1300.4829  -999.2500   216.5405
 2608.0000  1307.4452  -999.2500   215.8610
 2608.5000  1313.7056  -999.2500   217.0460
 2609.0000  1325.9730  -999.2500   219.1351
 2609.5000  1327.5157  -999.2500   220.0377
 2610.0000  1331.3751  -999.2500   220.2787
 2610.5000  1339.0992  -999.2500   219.1392
 2611.0000  1351.4603  -999.2500   214.5489
 2611.5000  1372.3220  -999.2500   212.9466
 2612.0000  1363.0447  -999.2500   213.4204
 2612.5000  1335.9929  -999.2500   214.6198
 2613.0000  1331.2533  -999.2500   214.5923
 2613.5000  1328.1273  -999.2500   214.3733
 2614.0000  1322.8431  -999.2500   214.4149
 2614.5000  1311.2474  -999.2500   216.6984
 2615.0000  1284.4967  -999.2500   217.8596
 2615.5000  1253.2804  -999.2500   218.7880
 2616.0000  1252.4636  -999.2500   218.3387
 2616.5000  1237.0007  -999.2500   216.9693
 2617.0000  1209.9916  -999.2500   215.8326
 2617.5000  1176.4171  -999.2500   216.0735
 2618.0000  1135.7954  -999.2500   218.6453
 2618.5000  1131.1549  -999.2500   220.5839
 2619.0000  1130.3793  -999.2500   225.3090
 2619.5000  1139.6482  -999.2500   228.0829
 2620.0000  1141.1902  -999.2500   227.4037
 2620.5000  1135.0038  -999.2500   225.5741
 2621.0000  1129.4724  -999.2500   225.1221
 2621.5000  1128.0403  -999.2500   225.1357
 2622.0000  1130.3549  -999.2500   225.3766
 2622.5000  1131.1249  -999.2500   225.3875
 2623.0000  1129.5754  -999.2500   226.3187
 2623.5000  1133.4347  -999.2500   228.1780
 2624.0000  1131.8853  -999.2500   229.3316
 2624.5000  1132.6544  -999.2500   228.6519
 2625.0000  1141.9242  -999.2500   226.5950
 2625.5000  1150.4382  -999.2500   226.1430
 2626.0000  1151.1902  -999.2500   225.2364
 2626.5000  1138.0479  -999.2500   224.3270
 2627.0000  1124.9067  -999.2500   223.4150
 2627.5000  1121.8118  -999.2500   223.3895
 2628.0000  1126.4447  -999.2500   222.7491
 2628.5000  1138.8057  -999.2500   222.2454
 2629.0000  1148.0754  -999.2500   219.0599
 2629.5000  1154.2540  -999.2500   218.8709
 2630.0000  1155.0494  -999.2500   219.5747
 2630.5000  1145.5785  -999.2500   220.9659
 2631.0000  1138.7867  -999.2500   221.4369
 2631.5000  1134.9181  -999.2500   222.1380
 2632.0000  1133.3688  -999.2500   222.3790
 2632.5000  1134.1379  -999.2500   224.0003
 2633.0000  1141.0894  -999.2500   226.3118
 2633.5000  1144.9504  -999.2500   226.3226
 2634.0000  1136.4449  -999.2500   224.4324
 2634.5000  1127.1676  -999.2500   223.1236
 2635.0000  1127.1638  -999.2500   222.6770
 2635.5000  1127.1600  -999.2500   222.4551
 2636.0000  1131.0194  -999.2500   222.0086
 2636.5000  1145.6987  -999.2500   221.5594
 2637.0000  1148.7871  -999.2500   221.5703
 2637.5000  1143.3728  -999.2500   222.0413
 2638.0000  1137.9603  -999.2500   223.4325
 2638.5000  1139.5022  -999.2500   223.2134
