~VERSION INFORMATION
 VERS.               2.10:   CWLS LOG ASCII STANDARD - VERSION 2.10
 WRAP.                 NO:   ONE LINE PER DEPTH STEP
~WELL INFORMATION
#MNEM.UNIT      DATA TYPE    INFORMATION
#----------   ------------   ------------------------------
 STRT.F            0.0000:   START DEPTH
 STOP.F         5499.9595:   STOP DEPTH
 STEP.F            0.5000:   STEP LENGTH
 NULL.          -999.2500:   NO VALUE
 COMP. Tesoro Petroleum Corporation:   COMPANY
 WELL.            51 x 28:   WELL
 FLD .           N.P.R. 3:   FIELD
 LOC . 28-39N-78W-NATRONA-WY:   LOCATION
 STAT.                 WY:   STATE
 COUN.            Natrona:   COUNTY
 SRVC.                   :   SERVICE COMPANY
 DATE.         07/07/1968:   LOGDATE
~CURVE INFORMATION
#MNEM.UNIT       API CODE    CURVE DESCRIPTION
#----------   ------------   ------------------------------
 DEPT.F                  :
 RO  .m2/m               :   Resisitivity Ohms
 SN  .m2/m               :   Reisistivity Ohms
 ASN .m2/m               :   Reisistivity Ohms
 Ind .None               :   Induction
 Ind .None               :   Induction
 Con .millimhos/m        :   Conductivitity
 Con .millimhos/m        :   Conductivitity
~PARAMETER INFORMATION
#MNEM.UNIT          VALUE    DESCRIPTION
#----------   ------------   ------------------------------
 EKB .F         5008.0000:   Kelly bushing
 EGL .F         4997.0000:   Ground level
 EDF .F            0.0000:   Drilling floor
 EPD .F            7.0000:   Permanent datum
 TD  .F         5500.0000:   Total depth
 NRUN.             3.0000:   Number of Runs
#--RUN 1---   ------------   The following are for Run 1---
 RUN .             1.0000:   Run 1
 DATE.mm/dd/yyyy 07/07/1968:   Date Logged
 DD  .ft              450:   Depth Driller
 DL  .ft              455:   Depth Logger
 BLI .ft              450:   Bottom Log Interval
 TLI .ft               38:   Top Log Interval
 CSS .inch             20:   Casing Size
 CTD1.ft               38:   Casing Driller 1
 CTL1.ft               38:   Casing Logger 1
 BS  .inch             15:   Bit Size
 DFT .     water base mud:   Type Fluid In Hole
 DFD .lb/gal          9.3:   Mud Weight
 DFV .sec              48:   Viscosity
 DFPH.                  8:   pH
 DFL .ml              7.6:   Fluid Loss
 WSS .           flo line:   Source Of Sample
 RM  .ohmm            2.7:   Rm
 EMT .F                93:   Rm Meas. Temp.
 RMF .ohmm            2.1:   Rmf
 MFT .F               100:   Rmf Meas. Temp.
 RMC .ohmm            2.3:   Rmc
 MCST.F               100:   Rmc Meas. Temp.
 MCSS.       fann mud kit:   Source Rmc.
 TCS .hh:mm       3 hours:   Time Circ. Stopped
 LUN .               7949:   Logging Unit Number
 LUL .          Newcastle:   Logging Unit Location
 ENGI.            Custard:   Recorded By
 WITN.            Mr. May:   Witnessed By
 DGBY.              Burke:   Digitized By
#--RUN 2---   ------------   The following are for Run 2---
 RUN .             2.0000:   Run 2
 DATE.mm/dd/yyyy 09/01/1968:   Date Logged
 DD  .ft             2955:   Depth Driller
 DL  .ft             2955:   Depth Logger
 BLI .ft             2950:   Bottom Log Interval
 TLI .ft              444:   Top Log Interval
 CSS .inch         10-3/4:   Casing Size
 CTD1.ft              340:   Casing Driller 1
 CTL1.ft              454:   Casing Logger 1
 BS  .inch          7-7/8:   Bit Size
 DFT .               "  ":   Type Fluid In Hole
 DFD .lb/gal          9.6:   Mud Weight
 DFV .sec              52:   Viscosity
 DFPH.                 85:   pH
 DFL .ml                6:   Fluid Loss
 WSS .              circ.:   Source Of Sample
 RM  .ohmm            2.5:   Rm
 EMT .F                52:   Rm Meas. Temp.
 RMF .ohmm           1.10:   Rmf
 MFT .F               100:   Rmf Meas. Temp.
 RMC .ohmm           1.63:   Rmc
 MCST.F               100:   Rmc Meas. Temp.
 MCSS.               "  ":   Source Rmc.
 RMB .ohmm           1.30:   Rm. At BHT
 BHT .F               104:   BHT.
 TCS .hh:mm       2 hours:   Time Circ. Stopped
 MRT .F               104:   Maximum Recorded Temp.
 LUN .               7949:   Logging Unit Number
 LUL .          Newcastle:   Logging Unit Location
 ENGI.               "  ":   Recorded By
 WITN.               "  ":   Witnessed By
 DGBY.               "  ":   Digitized By
#--RUN 3---   ------------   The following are for Run 3---
 RUN .             3.0000:   Run 3
 DATE.mm/dd/yyyy 09/18/1968:   Date Logged
 DD  .ft             5495:   Depth Driller
 DL  .ft             5503:   Depth Logger
 BLI .ft             5498:   Bottom Log Interval
 TLI .ft             2900:   Top Log Interval
 CSS .inch         10-3/4:   Casing Size
 CTD1.ft              450:   Casing Driller 1
 CTL1.ft              454:   Casing Logger 1
 BS  .inch              9:   Bit Size
 DFT .               "  ":   Type Fluid In Hole
 DFD .lb/gal          9.4:   Mud Weight
 DFV .sec              58:   Viscosity
 DFPH.                9.5:   pH
 DFL .ml               11:   Fluid Loss
 WSS .                pit:   Source Of Sample
 RM  .ohmm            1.7:   Rm
 EMT .F                56:   Rm Meas. Temp.
 RMF .ohmm            .64:   Rmf
 MFT .F               100:   Rmf Meas. Temp.
 RMC .ohmm            1.6:   Rmc
 MCST.F               100:   Rmc Meas. Temp.
 MCSS.               "  ":   Source Rmc.
 RMB .ohmm             .6:   Rm. At BHT
 BHT .F               160:   BHT.
 TCS .hh:mm         3 hrs:   Time Circ. Stopped
 MRT .F               160:   Maximum Recorded Temp.
 LUN .               "  ":   Logging Unit Number
 LUL .               "  ":   Logging Unit Location
 ENGI.               "  ":   Recorded By
 WITN.               "  ":   Witnessed By
 DGBY.               "  ":   Digitized By
~A  DEPTH       RO         SN        ASN        Ind        I          C          Con
# ...
 4641.0000  -999.2500   -93.1119   334.1870     4.9103  -999.2500  -999.2500   594.5911
 4641.5000  -999.2500   -93.0287   338.0875     4.9915  -999.2500  -999.2500   596.0900
 4642.0000  -999.2500   -92.9467   338.8893     4.9955  -999.2500  -999.2500   596.0251
 4642.5000  -999.2500   -92.6340   339.7129     4.9216  -999.2500  -999.2500   593.1925
 4643.0000  -999.2500   -92.1677   350.5349     5.0807  -999.2500  -999.2500   590.2008
 4643.5000  -999.2500   -91.7013   381.6996     5.1619  -999.2500  -999.2500   588.2410
 4644.0000  -999.2500   -91.2349   406.0080     5.4741  -999.2500  -999.2500   585.8968
 4644.5000  -999.2500   -90.8454   436.0514     5.7106  -999.2500  -999.2500   582.3996
 4645.0000  -999.2500   -90.6090   456.8641     5.8676  -999.2500  -999.2500   577.7495
 4645.5000  -999.2500   -90.4413   466.1383     6.1037  -999.2500  -999.2500   575.4053
 4646.0000  -999.2500   -90.2918   467.7202     6.1078  -999.2500  -999.2500   573.0611
 4646.5000  -999.2500   -90.3635   466.9944     5.9578  -999.2500  -999.2500   573.0228
 4647.0000  -999.2500   -90.6645   466.2687     5.9619  -999.2500  -999.2500   573.3943
 4647.5000  -999.2500   -90.8130   462.4768     6.0430  -999.2500  -999.2500   574.9954
 4648.0000  -999.2500   -90.9615   459.4434     6.0471  -999.2500  -999.2500   576.7417
 4648.5000  -999.2500   -91.1114   453.3330     6.1282  -999.2500  -999.2500   576.7034
 4649.0000  -999.2500   -91.1819   439.5303     6.1323  -999.2500  -999.2500   576.2808
 4649.5000  -999.2500   -91.1765   434.1783     6.2135  -999.2500  -999.2500   575.4738
 4650.0000  -999.2500   -91.1712   435.0018     6.2185  -999.2500  -999.2500   574.6669
 4650.5000  -999.2500   -91.1649   435.0728     6.2997  -999.2500  -999.2500   574.2443
 4651.0000  -999.2500   -91.0828   434.3195     6.3038  -999.2500  -999.2500   573.0531
 4651.5000  -999.2500   -91.1558   439.7584     6.3078  -999.2500  -999.2500   572.6306
 4652.0000  -999.2500   -91.2275   440.5603     6.4660  -999.2500  -999.2500   572.1812
 4652.5000  -999.2500   -91.2991   434.4607     6.5471  -999.2500  -999.2500   570.6308
 4653.0000  -999.2500   -91.2158   433.7241     6.6283  -999.2500  -999.2500   570.5845
 4653.5000  -999.2500   -91.2106   438.3938     6.7864  -999.2500  -999.2500   570.1619
 4654.0000  -999.2500   -91.2823   436.1295     6.7905  -999.2500  -999.2500   569.7393
 4654.5000  -999.2500   -91.1914   436.1731     6.8718  -999.2500  -999.2500   569.7010
 4655.0000  -999.2500   -91.1169   441.9202     6.9538  -999.2500  -999.2500   568.8941
 4655.5000  -999.2500   -91.2654   444.7214     6.9579  -999.2500  -999.2500   567.7029
 4656.0000  -999.2500   -91.3384   433.2373     6.9619  -999.2500  -999.2500   565.7430
 4656.5000  -999.2500   -91.4869   430.9731     6.8119  -999.2500  -999.2500   567.2421
 4657.0000  -999.2500   -91.7110   424.8626     6.5079  -999.2500  -999.2500   569.1509
 4657.5000  -999.2500   -92.0133   410.0104     6.2038  -999.2500  -999.2500   570.2400
 4658.0000  -999.2500   -92.3157   393.8309     5.9767  -999.2500  -999.2500   571.7295
 4658.5000  -999.2500   -92.6953   377.6514     5.7497  -999.2500  -999.2500   573.9971
 4659.0000  -999.2500   -93.0821   361.9668     5.5921  -999.2500  -999.2500   579.7236
 4659.5000  -999.2500   -93.3748   337.3949     5.2966  -999.2500  -999.2500   585.8345
 4660.0000  -999.2500   -93.7550   316.6691     4.9925  -999.2500  -999.2500   590.8896
 4660.5000  -999.2500   -93.8096   309.7895     4.6874  -999.2500  -999.2500   595.4830
 4661.0000  -999.2500   -93.8060   306.7284     4.6145  -999.2500  -999.2500   595.4524
 4661.5000  -999.2500   -93.8031   303.7225     4.6966  -999.2500  -999.2500   595.0435
 4662.0000  -999.2500   -93.8002   303.7769     5.0089  -999.2500  -999.2500   594.5892
 4662.5000  -999.2500   -93.4130   314.5895     5.2441  -999.2500  -999.2500   589.2235
 4663.0000  -999.2500   -92.7952   333.9485     5.4023  -999.2500  -999.2500   584.2029
 4663.5000  -999.2500   -92.1775   361.4277     5.7962  -999.2500  -999.2500   578.4135
 4664.0000  -999.2500   -92.0208   388.9070     6.0269  -999.2500  -999.2500   574.9301
 4664.5000  -999.2500   -91.8642   411.6936     6.1089  -999.2500  -999.2500   572.9839
 4665.0000  -999.2500   -91.7845   420.1986     6.0359  -999.2500  -999.2500   572.9594
 4665.5000  -999.2500   -91.6170   426.3959     5.8859  -999.2500  -999.2500   572.9349
 4666.0000  -999.2500   -91.3937   427.9778     5.9694  -999.2500  -999.2500   572.9102
 4666.5000  -999.2500   -91.3140   431.0982     5.9927  -999.2500  -999.2500   573.6545
 4667.0000  -999.2500   -91.0805   438.0648     6.0160  -999.2500  -999.2500   575.9297
 4667.5000  -999.2500   -90.9239   447.4979     6.0393  -999.2500  -999.2500   576.2957
 4668.0000  -999.2500   -90.7673   458.1625     6.0626  -999.2500  -999.2500   576.6493
 4668.5000  -999.2500   -90.6107   467.4368     6.0859  -999.2500  -999.2500   577.0152
 4669.0000  -999.2500   -90.3772   479.0187     6.1092  -999.2500  -999.2500   576.9846
 4669.5000  -999.2500   -90.2206   486.7544     6.1325  -999.2500  -999.2500   576.1914
 4670.0000  -999.2500   -90.0584   495.2594     6.1558  -999.2500  -999.2500   575.3982
 4670.5000  -999.2500   -89.8938  -999.2500     6.1791  -999.2500  -999.2500   573.4411
 4671.0000  -999.2500   -89.5964  -999.2500     6.2024  -999.2500  -999.2500   571.8903
 4671.5000  -999.2500   -89.4398  -999.2500     6.2257  -999.2500  -999.2500   572.2501
 4672.0000  -999.2500   -89.2831  -999.2500     6.2489  -999.2500  -999.2500   571.4507
 4672.5000  -999.2500   -88.8960  -999.2500     6.3300  -999.2500  -999.2500   571.4262
 4673.0000  -999.2500   -88.7393  -999.2500     6.3341  -999.2500  -999.2500   571.4017
 4673.5000  -999.2500   -88.7365  -999.2500     6.3382  -999.2500  -999.2500   570.9929
 4674.0000  -999.2500   -88.8105  -999.2500     6.3423  -999.2500  -999.2500   571.7369
 4674.5000  -999.2500   -88.8076  -999.2500     6.3463  -999.2500  -999.2500   572.0972
 4675.0000  -999.2500   -88.8898  -999.2500     6.1963  -999.2500  -999.2500   572.4565
 4675.5000  -999.2500   -89.1093  -999.2500     6.0464  -999.2500  -999.2500   572.8743
 4676.0000  -999.2500   -89.2594  -999.2500     5.8963  -999.2500  -999.2500   574.3229
 4676.5000  -999.2500   -89.3341  -999.2500     5.8234  -999.2500  -999.2500   575.4575
 4677.0000  -999.2500   -89.3305  -999.2500     5.8285  -999.2500  -999.2500   575.8173
 4677.5000  -999.2500   -89.3277  -999.2500     5.8326  -999.2500  -999.2500   578.4769
 4678.0000  -999.2500   -89.4785  -999.2500     5.8367  -999.2500  -999.2500   578.8428
 4678.5000  -999.2500   -89.3219  -999.2500     5.8407  -999.2500  -999.2500   578.8121
 4679.0000  -999.2500   -88.8578  -999.2500     5.8448  -999.2500  -999.2500   578.0190
 4679.5000  -999.2500   -88.5444  -999.2500     5.9260  -999.2500  -999.2500   577.2254
 4680.0000  -999.2500   -88.1491  -999.2500     6.0841  -999.2500  -999.2500   576.8159
 4680.5000  -999.2500   -87.8203  -999.2500     6.2429  -999.2500  -999.2500   574.8647
 4681.0000  -999.2500   -87.3228  -999.2500     6.4095  -999.2500  -999.2500   573.6871
 4681.5000  -999.2500   -86.8252  -999.2500     6.4826  -999.2500  -999.2500   571.3568
 4682.0000  -999.2500   -86.3276  -999.2500     6.5637  -999.2500  -999.2500   569.4106
 4682.5000  -999.2500   -85.9164  -999.2500     6.6448  -999.2500  -999.2500   569.0018
 4683.0000  -999.2500   -85.6829  -999.2500     6.8030  -999.2500  -999.2500   568.5929
 4683.5000  -999.2500   -85.6025  -999.2500     6.8841  -999.2500  -999.2500   568.1840
 4684.0000  -999.2500   -85.5996  -999.2500     6.8882  -999.2500  -999.2500   568.1329
 4684.5000  -999.2500   -85.5967  -999.2500     6.9693  -999.2500  -999.2500   567.3602
 4685.0000  -999.2500   -85.5938  -999.2500     6.8964  -999.2500  -999.2500   566.5671
 4685.5000  -999.2500   -85.5910  -999.2500     6.9005  -999.2500  -999.2500   566.9329
 4686.0000  -999.2500   -85.6657  -999.2500     6.9047  -999.2500  -999.2500   566.9023
