~VERSION INFORMATION
 VERS.               2.10:   CWLS LOG ASCII STANDARD - VERSION 2.10
 WRAP.                 NO:   ONE LINE PER DEPTH STEP
~WELL INFORMATION
#MNEM.UNIT      DATA TYPE    INFORMATION
#----------   ------------   ------------------------------
 STRT.F            0.0000:   START DEPTH
 STOP.F         5499.9595:   STOP DEPTH
 STEP.F            0.5000:   STEP LENGTH
 NULL.          -999.2500:   NO VALUE
 COMP. Tesoro Petroleum Corporation:   COMPANY
 WELL.            51 x 28:   WELL
 FLD .           N.P.R. 3:   FIELD
 LOC . 28-39N-78W-NATRONA-WY:   LOCATION
 STAT.                 WY:   STATE
 COUN.            Natrona:   COUNTY
 SRVC.                   :   SERVICE COMPANY
 DATE.         07/07/1968:   LOGDATE
~CURVE INFORMATION
#MNEM.UNIT       API CODE    CURVE DESCRIPTION
#----------   ------------   ------------------------------
 DEPT.F                  :
 RO  .m2/m               :   Resisitivity Ohms
 SN  .m2/m               :   Reisistivity Ohms
 ASN .m2/m               :   Reisistivity Ohms
 Ind .None               :   Induction
 Ind .None               :   Induction
 Con .millimhos/m        :   Conductivitity
 Con .millimhos/m        :   Conductivitity
~PARAMETER INFORMATION
#MNEM.UNIT          VALUE    DESCRIPTION
#----------   ------------   ------------------------------
 EKB .F         5008.0000:   Kelly bushing
 EGL .F         4997.0000:   Ground level
 EDF .F            0.0000:   Drilling floor
 EPD .F            7.0000:   Permanent datum
 TD  .F         5500.0000:   Total depth
 NRUN.             3.0000:   Number of Runs
#--RUN 1---   ------------   The following are for Run 1---
 RUN .             1.0000:   Run 1
 DATE.mm/dd/yyyy 07/07/1968:   Date Logged
 DD  .ft              450:   Depth Driller
 DL  .ft              455:   Depth Logger
 BLI .ft              450:   Bottom Log Interval
 TLI .ft               38:   Top Log Interval
 CSS .inch             20:   Casing Size
 CTD1.ft               38:   Casing Driller 1
 CTL1.ft               38:   Casing Logger 1
 BS  .inch             15:   Bit Size
 DFT .     water base mud:   Type Fluid In Hole
 DFD .lb/gal          9.3:   Mud Weight
 DFV .sec              48:   Viscosity
 DFPH.                  8:   pH
 DFL .ml              7.6:   Fluid Loss
 WSS .           flo line:   Source Of Sample
 RM  .ohmm            2.7:   Rm
 EMT .F                93:   Rm Meas. Temp.
 RMF .ohmm            2.1:   Rmf
 MFT .F               100:   Rmf Meas. Temp.
 RMC .ohmm            2.3:   Rmc
 MCST.F               100:   Rmc Meas. Temp.
 MCSS.       fann mud kit:   Source Rmc.
 TCS .hh:mm       3 hours:   Time Circ. Stopped
 LUN .               7949:   Logging Unit Number
 LUL .          Newcastle:   Logging Unit Location
 ENGI.            Custard:   Recorded By
 WITN.            Mr. May:   Witnessed By
 DGBY.              Burke:   Digitized By
#--RUN 2---   ------------   The following are for Run 2---
 RUN .             2.0000:   Run 2
 DATE.mm/dd/yyyy 09/01/1968:   Date Logged
 DD  .ft             2955:   Depth Driller
 DL  .ft             2955:   Depth Logger
 BLI .ft             2950:   Bottom Log Interval
 TLI .ft              444:   Top Log Interval
 CSS .inch         10-3/4:   Casing Size
 CTD1.ft              340:   Casing Driller 1
 CTL1.ft              454:   Casing Logger 1
 BS  .inch          7-7/8:   Bit Size
 DFT .               "  ":   Type Fluid In Hole
 DFD .lb/gal          9.6:   Mud Weight
 DFV .sec              52:   Viscosity
 DFPH.                 85:   pH
 DFL .ml                6:   Fluid Loss
 WSS .              circ.:   Source Of Sample
 RM  .ohmm            2.5:   Rm
 EMT .F                52:   Rm Meas. Temp.
 RMF .ohmm           1.10:   Rmf
 MFT .F               100:   Rmf Meas. Temp.
 RMC .ohmm           1.63:   Rmc
 MCST.F               100:   Rmc Meas. Temp.
 MCSS.               "  ":   Source Rmc.
 RMB .ohmm           1.30:   Rm. At BHT
 BHT .F               104:   BHT.
 TCS .hh:mm       2 hours:   Time Circ. Stopped
 MRT .F               104:   Maximum Recorded Temp.
 LUN .               7949:   Logging Unit Number
 LUL .          Newcastle:   Logging Unit Location
 ENGI.               "  ":   Recorded By
 WITN.               "  ":   Witnessed By
 DGBY.               "  ":   Digitized By
#--RUN 3---   ------------   The following are for Run 3---
 RUN .             3.0000:   Run 3
 DATE.mm/dd/yyyy 09/18/1968:   Date Logged
 DD  .ft             5495:   Depth Driller
 DL  .ft             5503:   Depth Logger
 BLI .ft             5498:   Bottom Log Interval
 TLI .ft             2900:   Top Log Interval
 CSS .inch         10-3/4:   Casing Size
 CTD1.ft              450:   Casing Driller 1
 CTL1.ft              454:   Casing Logger 1
 BS  .inch              9:   Bit Size
 DFT .               "  ":   Type Fluid In Hole
 DFD .lb/gal          9.4:   Mud Weight
 DFV .sec              58:   Viscosity
 DFPH.                9.5:   pH
 DFL .ml               11:   Fluid Loss
 WSS .                pit:   Source Of Sample
 RM  .ohmm            1.7:   Rm
 EMT .F                56:   Rm Meas. Temp.
 RMF .ohmm            .64:   Rmf
 MFT .F               100:   Rmf Meas. Temp.
 RMC .ohmm            1.6:   Rmc
 MCST.F               100:   Rmc Meas. Temp.
 MCSS.               "  ":   Source Rmc.
 RMB .ohmm             .6:   Rm. At BHT
 BHT .F               160:   BHT.
 TCS .hh:mm         3 hrs:   Time Circ. Stopped
 MRT .F               160:   Maximum Recorded Temp.
 LUN .               "  ":   Logging Unit Number
 LUL .               "  ":   Logging Unit Location
 ENGI.               "  ":   Recorded By
 WITN.               "  ":   Witnessed By
 DGBY.               "  ":   Digitized By
~A  DEPTH       RO         SN        ASN        Ind        I          C          Con
# ...
 3094.0000  -999.2500     6.1985   290.5908     6.4007  -999.2500  -999.2500   573.1736
 3094.5000  -999.2500     6.3560   292.9066     6.4033  -999.2500  -999.2500   572.3987
 3095.0000  -999.2500     6.2830   297.5241     6.4060  -999.2500  -999.2500   572.7770
 3095.5000  -999.2500     6.2090   301.3713     6.4087  -999.2500  -999.2500   573.1552
 3096.0000  -999.2500     6.1368   301.2537     6.4119  -999.2500  -999.2500   574.6847
 3096.5000  -999.2500     6.0639   300.6241     6.3375  -999.2500  -999.2500   575.8331
 3097.0000  -999.2500     5.9909   293.7209     6.3401  -999.2500  -999.2500   577.3626
 3097.5000  -999.2500     5.9179   298.3408     6.2650  -999.2500  -999.2500   578.8937
 3098.0000  -999.2500     5.9227   300.6542     6.2683  -999.2500  -999.2500   580.0405
 3098.5000  -999.2500     5.9265   299.8954     6.2709  -999.2500  -999.2500   580.8030
 3099.0000  -999.2500     5.9304   296.0644     6.1965  -999.2500  -999.2500   580.4124
 3099.5000  -999.2500     6.0879   299.9139     6.1992  -999.2500  -999.2500   579.2519
 3100.0000  -999.2500     6.1687   310.6782     6.2103  -999.2500  -999.2500   577.3241
 3100.5000  -999.2500     6.4031   317.6187     6.4362  -999.2500  -999.2500   574.7329
 3101.0000  -999.2500     6.6375   327.6315     6.5929  -999.2500  -999.2500   572.7954
 3101.5000  -999.2500     6.7951   338.4123     6.7496  -999.2500  -999.2500   571.6265
 3102.0000  -999.2500     6.8759   342.3827     6.8293  -999.2500  -999.2500   570.4289
 3102.5000  -999.2500     6.9565   346.9182     6.8319  -999.2500  -999.2500   569.6724
 3103.0000  -999.2500     6.6538   341.5758     6.7568  -999.2500  -999.2500   569.2688
 3103.5000  -999.2500     6.4271   330.8512     6.6831  -999.2500  -999.2500   570.0215
 3104.0000  -999.2500     6.1235   320.1266     6.5316  -999.2500  -999.2500   571.5429
 3104.5000  -999.2500     5.8958   309.4020     6.2991  -999.2500  -999.2500   574.2172
 3105.0000  -999.2500     5.8227   302.5177     6.1399  -999.2500  -999.2500   579.1974
 3105.5000  -999.2500     5.7497   292.5612     5.8468  -999.2500  -999.2500   581.8717
 3106.0000  -999.2500     5.6776   285.6768     5.6947  -999.2500  -999.2500   583.3936
 3106.5000  -999.2500     5.5270   281.0966     5.6203  -999.2500  -999.2500   583.3771
 3107.0000  -999.2500     5.3779   276.3645     5.5458  -999.2500  -999.2500   583.3608
 3107.5000  -999.2500     5.3827   269.6321     5.5491  -999.2500  -999.2500   583.3413
 3108.0000  -999.2500     5.3865   268.8991     5.5518  -999.2500  -999.2500   582.9410
 3108.5000  -999.2500     5.3904   268.1522     5.4773  -999.2500  -999.2500   583.3094
 3109.0000  -999.2500     5.3173   264.3471     5.4029  -999.2500  -999.2500   584.8308
 3109.5000  -999.2500     5.0906   258.9988     5.2515  -999.2500  -999.2500   587.8894
 3110.0000  -999.2500     4.9397   249.0423     5.0236  -999.2500  -999.2500   590.1794
 3110.5000  -999.2500     4.7139   237.5496     4.7951  -999.2500  -999.2500   594.0067
 3111.0000  -999.2500     4.6421   228.3611     4.4896  -999.2500  -999.2500   600.9085
 3111.5000  -999.2500     4.6517   223.0129     4.1070  -999.2500  -999.2500   604.7427
 3112.0000  -999.2500     4.6613   215.2594     3.9556  -999.2500  -999.2500   608.9878
 3112.5000  -999.2500     4.6709   209.8857     4.0352  -999.2500  -999.2500   612.7707
 3113.0000  -999.2500     4.6889   210.8154     4.0379  -999.2500  -999.2500   613.9117
 3113.5000  -999.2500     4.9913   212.3796     4.1946  -999.2500  -999.2500   609.6642
 3114.0000  -999.2500     5.2272   219.9830     4.4311  -999.2500  -999.2500   603.8835
 3114.5000  -999.2500     5.3863   233.1732     4.9041  -999.2500  -999.2500   598.8715
 3115.0000  -999.2500     5.6222   250.8664     5.1276  -999.2500  -999.2500   595.0123
 3115.5000  -999.2500     5.7813   263.9513     5.3614  -999.2500  -999.2500   590.0002
 3116.0000  -999.2500     5.8634   270.8918     5.5181  -999.2500  -999.2500   586.9097
 3116.5000  -999.2500     5.7918   274.7602     5.5977  -999.2500  -999.2500   583.8107
 3117.0000  -999.2500     5.5653   275.5564     5.6004  -999.2500  -999.2500   583.0342
 3117.5000  -999.2500     5.3320   273.9218     5.6030  -999.2500  -999.2500   583.4031
 3118.0000  -999.2500     5.1175   267.1711     5.6056  -999.2500  -999.2500   584.9205
 3118.5000  -999.2500     5.1228   258.7506     5.5312  -999.2500  -999.2500   587.2104
 3119.0000  -999.2500     5.0499   258.7787     5.4568  -999.2500  -999.2500   588.7318
 3119.5000  -999.2500     5.0566   261.1110     5.5371  -999.2500  -999.2500   589.4885
 3120.0000  -999.2500     5.0619   262.6752     5.6168  -999.2500  -999.2500   589.4686
 3120.5000  -999.2500     5.0673   259.6240     5.6194  -999.2500  -999.2500   589.0683
 3121.0000  -999.2500     5.0726   262.7314     5.6221  -999.2500  -999.2500   587.8994
 3121.5000  -999.2500     5.0011   261.9914     5.5470  -999.2500  -999.2500   587.8835
 3122.0000  -999.2500     5.0065   256.4915     5.4726  -999.2500  -999.2500   588.6896
 3122.5000  -999.2500     4.9349   246.3446     5.1677  -999.2500  -999.2500   590.5379
 3123.0000  -999.2500     4.7865   237.0738     4.9391  -999.2500  -999.2500   593.5966
 3123.5000  -999.2500     4.5612   227.8030     4.7877  -999.2500  -999.2500   597.0395
 3124.0000  -999.2500     4.4142   218.5322     4.7038  -999.2500  -999.2500   600.1000
 3124.5000  -999.2500     4.2658   209.2614     4.2544  -999.2500  -999.2500   605.8508
 3125.0000  -999.2500     4.0405   200.7465     4.1022  -999.2500  -999.2500   611.6015
 3125.5000  -999.2500     3.9688   200.0136     3.9514  -999.2500  -999.2500   618.4951
 3126.0000  -999.2500     3.9743   200.0417     3.9541  -999.2500  -999.2500   620.7890
 3126.5000  -999.2500     4.0566   206.9822     4.0337  -999.2500  -999.2500   620.3848
 3127.0000  -999.2500     4.2169   216.2269     4.1905  -999.2500  -999.2500   615.7570
 3127.5000  -999.2500     4.5297   220.0952     4.5013  -999.2500  -999.2500   612.2822
 3128.0000  -999.2500     4.9193   227.8038     4.7350  -999.2500  -999.2500   607.2701
 3128.5000  -999.2500     5.2321   244.8278     5.0508  -999.2500  -999.2500   601.4894
 3129.0000  -999.2500     5.6218   264.4059     5.3056  -999.2500  -999.2500   594.5557
 3129.5000  -999.2500     5.9346   286.1259     5.7451  -999.2500  -999.2500   590.3123
 3130.0000  -999.2500     6.0936   303.9601     5.9018  -999.2500  -999.2500   585.1458
 3130.5000  -999.2500     6.1758   307.8285     6.1355  -999.2500  -999.2500   579.1312
 3131.0000  -999.2500     6.2581   308.6246     6.1382  -999.2500  -999.2500   576.8093
 3131.5000  -999.2500     6.3404   309.4208     6.0631  -999.2500  -999.2500   576.4091
 3132.0000  -999.2500     6.4237   312.5211     6.0664  -999.2500  -999.2500   576.3931
 3132.5000  -999.2500     6.5828   317.1575     6.0690  -999.2500  -999.2500   577.1458
 3133.0000  -999.2500     6.6650   318.7217     6.0716  -999.2500  -999.2500   577.9025
 3133.5000  -999.2500     6.6703   326.4566     6.1514  -999.2500  -999.2500   578.2709
 3134.0000  -999.2500     6.5219   329.5305     6.1546  -999.2500  -999.2500   577.0980
 3134.5000  -999.2500     6.2953   319.5810     6.3884  -999.2500  -999.2500   576.3026
 3135.0000  -999.2500     6.0714   307.3203     6.4680  -999.2500  -999.2500   574.7144
 3135.5000  -999.2500     6.0786   307.3484     6.4707  -999.2500  -999.2500   573.5874
 3136.0000  -999.2500     6.1589   316.5931     6.3962  -999.2500  -999.2500   573.5715
 3136.5000  -999.2500     6.0105   312.0129     6.3989  -999.2500  -999.2500   574.3242
 3137.0000  -999.2500     5.7866   298.9842     6.0933  -999.2500  -999.2500   576.6142
 3137.5000  -999.2500     5.6369   284.5820     5.7107  -999.2500  -999.2500   580.8257
 3138.0000  -999.2500     5.4130   269.1715     5.3243  -999.2500  -999.2500   583.5001
 3138.5000  -999.2500     5.0340   253.7610     5.0110  -999.2500  -999.2500   587.3273
 3139.0000  -999.2500     4.8087   229.9769     4.6407  -999.2500  -999.2500   596.5351
