~VERSION INFORMATION
 VERS.               2.10:   CWLS LOG ASCII STANDARD - VERSION 2.10
 WRAP.                 NO:   ONE LINE PER DEPTH STEP
~WELL INFORMATION
#MNEM.UNIT      DATA TYPE    INFORMATION
#----------   ------------   ------------------------------
 STRT.F            0.0000:   START DEPTH
 STOP.F         5494.0205:   STOP DEPTH
 STEP.F            0.5000:   STEP LENGTH
 NULL.          -999.2500:   NO VALUE
 COMP. Tesoro Petroleum Corporation:   COMPANY
 WELL.            51-X-28:   WELL
 FLD .           N.P.R. 3:   FIELD
 LOC . 28-39N-78W-NATRONA-WY:   LOCATION
 STAT.                 WY:   STATE
 COUN.            Natrona:   COUNTY
 SRVC.              Welex:   SERVICE COMPANY
 DATE.                   :   LOGDATE
~CURVE INFORMATION
#MNEM.UNIT       API CODE    CURVE DESCRIPTION
#----------   ------------   ------------------------------
 DEPT.F                  :
 GD  .std.den.units      :   Gamma Density
 RhoG.APO                :   Gamma
 GR.API        	         :   Gamma
~PARAMETER INFORMATION
#MNEM.UNIT          VALUE    DESCRIPTION
#----------   ------------   ------------------------------
 EKB .F         5008.0000:   Kelly bushing
 EGL .F         4997.0000:   Ground level
 EDF .F            0.0000:   Drilling floor
 EPD .F           11.0000:   Permanent datum
 TD  .F         4830.0000:   Total depth
 NRUN.             1.0000:   Number of Runs
#--RUN 1---   ------------   The following are for Run 1---
 RUN .             1.0000:   Run 1
 DATE.mm/dd/yyyy 09/18/1968:   Date Logged
 DD  .ft             5495:   Depth Driller
 DL  .ft             5498:   Depth Logger
 BLI .ft             5496:   Bottom Log Interval
 TLI .ft             2500:   Top Log Interval
 CSS .inch          10.75:   Casing Size
 CTD1.ft              450:   Casing Driller 1
 CTL1.ft              454:   Casing Logger 1
 BS  .inch              9:   Bit Size
 DFT .     water base mud:   Type Fluid In Hole
 DFD .lb/gal          9.4:   Mud Weight
 DFV .sec              58:   Viscosity
 DFPH.                9.5:   pH
 DFL .ml               11:   Fluid Loss
 WSS .                pit:   Source Of Sample
 RM  .ohmm            1.7:   Rm
 EMT .F                56:   Rm Meas. Temp.
 RMF .ohmm            .64:   Rmf
 MFT .F               100:   Rmf Meas. Temp.
 RMC .ohmm            1.6:   Rmc
 MCST.F               100:   Rmc Meas. Temp.
 MFSS.               fann:   Source Rmf.
 MCSS.            mud kit:   Source Rmc.
 RMB .ohmm            .60:   Rm. At BHT
 BHT .F               160:   BHT.
 TCS .hh:mm        3 hrs.:   Time Circ. Stopped
 MRT .F               160:   Maximum Recorded Temp.
 LUL .          Newcastle:   Logging Unit Location
 ENGI.        Mr. Custard:   Recorded By
 WITN.            Mr. May:   Witnessed By
 DGBY.          Mr. Burke:   Digitized By
~A  DEPTH       GD       RhoG       GR
# ...
 3276.0000  1067.9987  -999.2500   257.4148
 3276.5000  1071.0333  -999.2500   253.9755
 3277.0000  1075.6138  -999.2500   254.4502
 3277.5000  1073.2390  -999.2500   254.0015
 3278.0000  1062.3634  -999.2500   256.0896
 3278.5000  1057.6700  -999.2500   257.7552
 3279.0000  1059.1593  -999.2500   254.9600
 3279.5000  1018.1305  -999.2500   252.6711
 3280.0000   999.5269  -999.2500   251.3024
 3280.5000  1008.3445  -999.2500   250.6209
 3281.0000  1054.8518  -999.2500   252.4760
 3281.5000  1075.8646  -999.2500   254.7883
 3282.0000  1070.3986  -999.2500   256.6405
 3282.5000  1064.1597  -999.2500   256.9068
 3283.0000  1064.8761  -999.2500   255.7436
 3283.5000  1069.5977  -999.2500   252.9945
 3284.0000  1070.9315  -999.2500   252.3189
 3284.5000  1078.6031  -999.2500   253.0208
 3285.0000  1086.2745  -999.2500   254.4128
 3285.5000  1092.4147  -999.2500   256.9552
 3286.0000  1087.7074  -999.2500   258.1172
 3286.5000  1093.0605  -999.2500   259.2791
 3287.0000  1086.0488  -999.2500   259.7509
 3287.5000  1082.1284  -999.2500   259.9927
 3288.0000  1082.0200  -999.2500   261.3847
 3288.5000  1079.6971  -999.2500   263.4838
 3289.0000  1086.5819  -999.2500   263.7092
 3289.5000  1091.9349  -999.2500   263.9534
 3290.0000  1090.3330  -999.2500   262.8147
 3290.5000  1088.7450  -999.2500   260.0657
 3291.0000  1091.7656  -999.2500   257.7540
 3291.5000  1088.6180  -999.2500   254.3375
 3292.0000  1083.1521  -999.2500   252.0486
 3292.5000  1071.4706  -999.2500   250.9099
 3293.0000  1068.2378  -999.2500   250.0012
 3293.5000  1063.6488  -999.2500   250.0518
 3294.0000  1052.7731  -999.2500   255.1566
 3294.5000  1044.9888  -999.2500   256.9411
 3295.0000  1054.2059  -999.2500   258.3332
 3295.5000  1060.3318  -999.2500   259.9553
 3296.0000  1090.4423  -999.2500   262.0375
 3296.5000  1131.0231  -999.2500   262.2763
 3297.0000  1171.5444  -999.2500   258.3799
 3297.5000  1181.4353  -999.2500   256.3210
 3298.0000  1145.7267  -999.2500   256.3327
 3298.5000  1087.0411  -999.2500   258.4150
 3299.0000  1106.2905  -999.2500   259.3472
 3299.5000  1124.7813  -999.2500   259.3614
 3300.0000  1165.6831  -999.2500   259.6003
 3300.5000  1174.1274  -999.2500   259.9822
 3301.0000  1175.0255  -999.2500   261.1444
 3301.5000  1174.0022  -999.2500   264.1472
 3302.0000  1184.9312  -999.2500   265.7788
 3302.5000  1183.1611  -999.2500   266.4720
 3303.0000  1175.3768  -999.2500   266.7166
 3303.5000  1149.6183  -999.2500   267.4187
 3304.0000  1127.2791  -999.2500   265.3600
 3304.5000  1124.1229  -999.2500   263.0713
 3305.0000  1126.3765  -999.2500   265.3839
 3305.5000  1127.1003  -999.2500   265.6228
 3306.0000  1115.4272  -999.2500   263.5642
 3306.5000  1110.7255  -999.2500   264.0392
 3307.0000  1112.3593  -999.2500   264.5113
 3307.5000  1110.5792  -999.2500   263.6030
 3308.0000  1111.2870  -999.2500   264.3055
 3308.5000  1111.2220  -999.2500   263.6298
 3309.0000  1112.7026  -999.2500   261.5711
 3309.5000  1115.7289  -999.2500   263.6536
 3310.0000  1121.0735  -999.2500   264.8158
 3310.5000  1131.8276  -999.2500   264.3646
 3311.0000  1137.1722  -999.2500   264.3795
 3311.5000  1135.5240  -999.2500   264.1584
 3312.0000  1133.9490  -999.2500   263.7129
 3312.5000  1135.4316  -999.2500   262.5748
 3313.0000  1131.4865  -999.2500   257.8347
 3313.5000  1124.4663  -999.2500   247.8776
 3314.0000  1113.5822  -999.2500   246.7393
 3314.5000  1084.1508  -999.2500   248.8217
 3315.0000  1113.3572  -999.2500   258.7263
 3315.5000  1161.7334  -999.2500   260.5787
 3316.0000  1210.1096  -999.2500   261.2808
 3316.5000  1261.5623  -999.2500   262.2130
 3317.0000  1327.5870  -999.2500   263.3752
 3317.5000  1433.9137  -999.2500   265.2276
 3318.0000  1563.8226  -999.2500   268.2423
 3318.5000  -999.2500  -999.2500   270.5984
 3319.0000  -999.2500  -999.2500   271.9381
 3319.5000  -999.2500  -999.2500   271.4899
 3320.0000   121.1698  -999.2500   269.8914
 3320.5000  -175.5552  -999.2500   260.4708
 3321.0000  1604.9335  -999.2500   256.5716
 3321.5000  1263.9893  -999.2500   256.1205
 3322.0000  1167.2698  -999.2500   257.9758
 3322.5000  1165.7787  -999.2500   259.1381
 3323.0000  1168.0685  -999.2500   260.0702
 3323.5000  1164.5250  -999.2500   260.3123
 3324.0000  1154.7483  -999.2500   260.0941
 3324.5000  1146.1825  -999.2500   259.4188
 3325.0000  1135.2983  -999.2500   257.8202
 3325.5000  1137.5518  -999.2500   257.5991
 3326.0000  1147.5494  -999.2500   258.7643
 3326.5000  1147.4681  -999.2500   260.3867
 3327.0000  1155.1312  -999.2500   260.6286
 3327.5000  1155.0663  -999.2500   260.1775
 3328.0000  1152.6827  -999.2500   260.8825
 3328.5000  1156.6152  -999.2500   262.2748
 3329.0000  1155.6277  -999.2500   263.6673
 3329.5000  1146.2892  -999.2500   263.4489
 3330.0000  1144.6949  -999.2500   264.3841
 3330.5000  1146.9482  -999.2500   263.0156
 3331.0000  1143.7759  -999.2500   262.7945
 3331.5000  1141.4088  -999.2500   262.1192
 3332.0000  1152.1466  -999.2500   259.8275
 3332.5000  1154.4003  -999.2500   260.3026
 3333.0000  1152.0150  -999.2500   261.2347
 3333.5000  1151.1627  -999.2500   261.7067
 3334.0000  1144.9152  -999.2500   263.3291
 3334.5000  1141.0026  -999.2500   263.3413
 3335.0000  1150.1949  -999.2500   263.3559
 3335.5000  1153.2211  -999.2500   264.9783
 3336.0000  1154.7179  -999.2500   265.2173
 3336.5000  1154.6366  -999.2500   263.3917
 3337.0000  1153.0261  -999.2500   262.2533
 3337.5000  1146.0056  -999.2500   262.0321
 3338.0000  1148.3533  -999.2500   262.2771
 3338.5000  1150.5128  -999.2500   265.0497
 3339.0000  1150.4316  -999.2500   265.9819
 3339.5000  1144.9569  -999.2500   264.8253
 3340.0000  1140.2552  -999.2500   263.7051
 3340.5000  1142.5085  -999.2500   263.7200
 3341.0000  1147.8531  -999.2500   263.7319
 3341.5000  1147.7881  -999.2500   264.6641
 3342.0000  1149.2688  -999.2500   264.6760
 3342.5000  1154.7551  -999.2500   264.4549
 3343.0000  1175.9845  -999.2500   263.7796
 3343.5000  1193.8799  -999.2500   264.0215
 3344.0000  1215.4532  -999.2500   263.3433
 3344.5000  1244.7545  -999.2500   261.0546
 3345.0000  1262.4639  -999.2500   260.6064
 3345.5000  1300.2659  -999.2500   260.8488
 3346.0000  1246.9613  -999.2500   262.9338
 3346.5000  1148.6622  -999.2500   263.8660
 3347.0000  1137.7781  -999.2500   264.7981
 3347.5000  1131.5308  -999.2500   264.8101
 3348.0000  1133.7841  -999.2500   264.5919
 3348.5000  1139.9015  -999.2500   265.5240
 3349.0000  1149.9844  -999.2500   266.9164
 3349.5000  1162.6377  -999.2500   268.0786
 3350.0000  1167.5272  -999.2500   268.7807
 3350.5000  1166.6732  -999.2500   270.4249
 3351.0000  1153.4707  -999.2500   271.3381
 3351.5000  1142.5864  -999.2500   269.9697
 3352.0000  1140.2031  -999.2500   267.9111
 3352.5000  1145.5476  -999.2500   267.6899
 3353.0000  1157.0747  -999.2500   270.4656
 3353.5000  1164.7377  -999.2500   272.3180
 3354.0000  1171.0707  -999.2500   273.2502
 3354.5000  1182.6456  -999.2500   272.5719
 3355.0000  1190.8016  -999.2500   271.4335
 3355.5000  1203.8741  -999.2500   270.0522
 3356.0000  1207.6895  -999.2500   268.8994
 3356.5000  1161.2402  -999.2500   267.7912
 3357.0000  1137.9915  -999.2500   268.9534
 3357.5000  1141.7903  -999.2500   267.8121
 3358.0000  1152.5446  -999.2500   268.7472
 3358.5000  1167.9470  -999.2500   270.5996
 3359.0000  1196.7037  -999.2500   269.4612
 3359.5000  1225.4604  -999.2500   269.7032
 3360.0000  1245.7770  -999.2500   269.2550
 3360.5000  1248.8193  -999.2500   267.6565
 3361.0000  1229.4182  -999.2500   266.9660
 3361.5000  1176.0302  -999.2500   266.0699
 3362.0000  1166.6915  -999.2500   266.0848
 3362.5000  1158.1259  -999.2500   267.7071
 3363.0000  1153.4241  -999.2500   270.2497
 3363.5000  1156.4779  -999.2500   271.1819
 3364.0000  1158.7036  -999.2500   272.1140
 3364.5000  1157.8658  -999.2500   271.6658
 3365.0000  1153.9205  -999.2500   269.3771
 3365.5000  1148.4460  -999.2500   267.3185
 3366.0000  1150.6995  -999.2500   265.4899
 3366.5000  1157.5896  -999.2500   266.0358
