~VERSION INFORMATION
 VERS.               2.10:   CWLS LOG ASCII STANDARD - VERSION 2.10
 WRAP.                 NO:   ONE LINE PER DEPTH STEP
~WELL INFORMATION
#MNEM.UNIT      DATA TYPE    INFORMATION
#----------   ------------   ------------------------------
 STRT.F            0.0000:   START DEPTH
 STOP.F         5499.9595:   STOP DEPTH
 STEP.F            0.5000:   STEP LENGTH
 NULL.          -999.2500:   NO VALUE
 COMP. Tesoro Petroleum Corporation:   COMPANY
 WELL.            51 x 28:   WELL
 FLD .           N.P.R. 3:   FIELD
 LOC . 28-39N-78W-NATRONA-WY:   LOCATION
 STAT.                 WY:   STATE
 COUN.            Natrona:   COUNTY
 SRVC.                   :   SERVICE COMPANY
 DATE.         07/07/1968:   LOGDATE
~CURVE INFORMATION
#MNEM.UNIT       API CODE    CURVE DESCRIPTION
#----------   ------------   ------------------------------
 DEPT.F                  :
 RO  .m2/m               :   Resisitivity Ohms
 SN  .m2/m               :   Reisistivity Ohms
 ASN .m2/m               :   Reisistivity Ohms
 Ind .None               :   Induction
 Ind .None               :   Induction
 Con .millimhos/m        :   Conductivitity
 Con .millimhos/m        :   Conductivitity
~PARAMETER INFORMATION
#MNEM.UNIT          VALUE    DESCRIPTION
#----------   ------------   ------------------------------
 EKB .F         5008.0000:   Kelly bushing
 EGL .F         4997.0000:   Ground level
 EDF .F            0.0000:   Drilling floor
 EPD .F            7.0000:   Permanent datum
 TD  .F         5500.0000:   Total depth
 NRUN.             3.0000:   Number of Runs
#--RUN 1---   ------------   The following are for Run 1---
 RUN .             1.0000:   Run 1
 DATE.mm/dd/yyyy 07/07/1968:   Date Logged
 DD  .ft              450:   Depth Driller
 DL  .ft              455:   Depth Logger
 BLI .ft              450:   Bottom Log Interval
 TLI .ft               38:   Top Log Interval
 CSS .inch             20:   Casing Size
 CTD1.ft               38:   Casing Driller 1
 CTL1.ft               38:   Casing Logger 1
 BS  .inch             15:   Bit Size
 DFT .     water base mud:   Type Fluid In Hole
 DFD .lb/gal          9.3:   Mud Weight
 DFV .sec              48:   Viscosity
 DFPH.                  8:   pH
 DFL .ml              7.6:   Fluid Loss
 WSS .           flo line:   Source Of Sample
 RM  .ohmm            2.7:   Rm
 EMT .F                93:   Rm Meas. Temp.
 RMF .ohmm            2.1:   Rmf
 MFT .F               100:   Rmf Meas. Temp.
 RMC .ohmm            2.3:   Rmc
 MCST.F               100:   Rmc Meas. Temp.
 MCSS.       fann mud kit:   Source Rmc.
 TCS .hh:mm       3 hours:   Time Circ. Stopped
 LUN .               7949:   Logging Unit Number
 LUL .          Newcastle:   Logging Unit Location
 ENGI.            Custard:   Recorded By
 WITN.            Mr. May:   Witnessed By
 DGBY.              Burke:   Digitized By
#--RUN 2---   ------------   The following are for Run 2---
 RUN .             2.0000:   Run 2
 DATE.mm/dd/yyyy 09/01/1968:   Date Logged
 DD  .ft             2955:   Depth Driller
 DL  .ft             2955:   Depth Logger
 BLI .ft             2950:   Bottom Log Interval
 TLI .ft              444:   Top Log Interval
 CSS .inch         10-3/4:   Casing Size
 CTD1.ft              340:   Casing Driller 1
 CTL1.ft              454:   Casing Logger 1
 BS  .inch          7-7/8:   Bit Size
 DFT .               "  ":   Type Fluid In Hole
 DFD .lb/gal          9.6:   Mud Weight
 DFV .sec              52:   Viscosity
 DFPH.                 85:   pH
 DFL .ml                6:   Fluid Loss
 WSS .              circ.:   Source Of Sample
 RM  .ohmm            2.5:   Rm
 EMT .F                52:   Rm Meas. Temp.
 RMF .ohmm           1.10:   Rmf
 MFT .F               100:   Rmf Meas. Temp.
 RMC .ohmm           1.63:   Rmc
 MCST.F               100:   Rmc Meas. Temp.
 MCSS.               "  ":   Source Rmc.
 RMB .ohmm           1.30:   Rm. At BHT
 BHT .F               104:   BHT.
 TCS .hh:mm       2 hours:   Time Circ. Stopped
 MRT .F               104:   Maximum Recorded Temp.
 LUN .               7949:   Logging Unit Number
 LUL .          Newcastle:   Logging Unit Location
 ENGI.               "  ":   Recorded By
 WITN.               "  ":   Witnessed By
 DGBY.               "  ":   Digitized By
#--RUN 3---   ------------   The following are for Run 3---
 RUN .             3.0000:   Run 3
 DATE.mm/dd/yyyy 09/18/1968:   Date Logged
 DD  .ft             5495:   Depth Driller
 DL  .ft             5503:   Depth Logger
 BLI .ft             5498:   Bottom Log Interval
 TLI .ft             2900:   Top Log Interval
 CSS .inch         10-3/4:   Casing Size
 CTD1.ft              450:   Casing Driller 1
 CTL1.ft              454:   Casing Logger 1
 BS  .inch              9:   Bit Size
 DFT .               "  ":   Type Fluid In Hole
 DFD .lb/gal          9.4:   Mud Weight
 DFV .sec              58:   Viscosity
 DFPH.                9.5:   pH
 DFL .ml               11:   Fluid Loss
 WSS .                pit:   Source Of Sample
 RM  .ohmm            1.7:   Rm
 EMT .F                56:   Rm Meas. Temp.
 RMF .ohmm            .64:   Rmf
 MFT .F               100:   Rmf Meas. Temp.
 RMC .ohmm            1.6:   Rmc
 MCST.F               100:   Rmc Meas. Temp.
 MCSS.               "  ":   Source Rmc.
 RMB .ohmm             .6:   Rm. At BHT
 BHT .F               160:   BHT.
 TCS .hh:mm         3 hrs:   Time Circ. Stopped
 MRT .F               160:   Maximum Recorded Temp.
 LUN .               "  ":   Logging Unit Number
 LUL .               "  ":   Logging Unit Location
 ENGI.               "  ":   Recorded By
 WITN.               "  ":   Witnessed By
 DGBY.               "  ":   Digitized By
~A  DEPTH       RO         SN        ASN        Ind        I          C          Con
# ...
 2411.5000  -999.2500     9.0915  -999.2500     5.9898  -999.2500  -999.2500   571.7281
 2412.0000  -999.2500     9.0260  -999.2500     5.9151  -999.2500  -999.2500   573.2759
 2412.5000  -999.2500     9.0317  -999.2500     5.9182  -999.2500  -999.2500   574.0523
 2413.0000  -999.2500     9.0363  -999.2500     5.4584  -999.2500  -999.2500   572.9099
 2413.5000  -999.2500     9.0408  -999.2500     5.3832  -999.2500  -999.2500   571.3857
 2414.0000  -999.2500     9.0453  -999.2500     5.4633  -999.2500  -999.2500   571.7804
 2414.5000  -999.2500     9.0499  -999.2500     5.6198  -999.2500  -999.2500   572.5595
 2415.0000  -999.2500     9.0544  -999.2500     5.6222  -999.2500  -999.2500   573.3369
 2415.5000  -999.2500     9.0590  -999.2500     5.6247  -999.2500  -999.2500   571.8100
 2416.0000  -999.2500     8.9866  -999.2500     5.6271  -999.2500  -999.2500   571.4362
 2416.5000  -999.2500     8.8377  -999.2500     5.6358  -999.2500  -999.2500   572.6022
 2417.0000  -999.2500     8.6859   498.5641     5.7862  -999.2500  -999.2500   574.1498
 2417.5000  -999.2500     8.6165   494.5778     5.6351  -999.2500  -999.2500   574.5447
 2418.0000  -999.2500     8.6211   490.7550     5.4828  -999.2500  -999.2500   575.7081
 2418.5000  -999.2500     8.6258   492.2958     5.4082  -999.2500  -999.2500   578.4088
 2419.0000  -999.2500     8.4767   494.6071     5.1031  -999.2500  -999.2500   579.9565
 2419.5000  -999.2500     8.2408   489.9846     5.0279  -999.2500  -999.2500   581.1199
 2420.0000  -999.2500     7.9493   480.7396     5.0310  -999.2500  -999.2500   581.8990
 2420.5000  -999.2500     7.8003   474.5763     5.0334  -999.2500  -999.2500   582.2938
 2421.0000  -999.2500     7.6501   465.3313     5.0359  -999.2500  -999.2500   582.3042
 2421.5000  -999.2500     7.8094   451.4638     5.0383  -999.2500  -999.2500   582.3146
 2422.0000  -999.2500     7.9675   449.9075     5.0408  -999.2500  -999.2500   581.1721
 2422.5000  -999.2500     8.1257   457.8494     5.0438  -999.2500  -999.2500   579.6211
 2423.0000  -999.2500     8.2838   469.9538     5.0463  -999.2500  -999.2500   577.6935
 2423.5000  -999.2500     8.4420   479.1988     5.0487  -999.2500  -999.2500   576.5917
 2424.0000  -999.2500     8.4465   483.0508     5.3593  -999.2500  -999.2500   576.2178
 2424.5000  -999.2500     8.4511   481.5100     5.5929  -999.2500  -999.2500   575.0753
 2425.0000  -999.2500     8.4557   479.1988     5.5177  -999.2500  -999.2500   575.4726
 2425.5000  -999.2500     8.4604   477.6579     5.5208  -999.2500  -999.2500   576.6360
 2426.0000  -999.2500     8.3879   478.4283     5.5232  -999.2500  -999.2500   578.1838
 2426.5000  -999.2500     8.3157   478.4283     5.4486  -999.2500  -999.2500   579.3472
 2427.0000  -999.2500     8.3213   478.4283     5.4511  -999.2500  -999.2500   579.7419
 2427.5000  -999.2500     8.1723   478.4283     5.2021  -999.2500  -999.2500   580.1367
 2428.0000  -999.2500     8.0221   476.8875     5.0707  -999.2500  -999.2500   580.9158
 2428.5000  -999.2500     8.0278   470.7242     5.0738  -999.2500  -999.2500   580.9263
 2429.0000  -999.2500     8.0323   463.0200     5.0762  -999.2500  -999.2500   581.3210
 2429.5000  -999.2500     8.0368   460.7088     5.0787  -999.2500  -999.2500   581.7158
 2430.0000  -999.2500     8.1182   458.3975     5.1582  -999.2500  -999.2500   582.1105
 2430.5000  -999.2500     8.0459   456.0863     5.1606  -999.2500  -999.2500   581.7341
 2431.0000  -999.2500     7.9651   452.2342     5.1631  -999.2500  -999.2500   582.5158
 2431.5000  -999.2500     7.8246   448.3821     5.1655  -999.2500  -999.2500   582.9106
 2432.0000  -999.2500     7.6767   444.3664     5.0909  -999.2500  -999.2500   585.9955
 2432.5000  -999.2500     7.5276   436.8259     5.0934  -999.2500  -999.2500   587.1589
 2433.0000  -999.2500     7.3018   429.1217     5.0065  -999.2500  -999.2500   591.0309
 2433.5000  -999.2500     6.9991   419.1063     4.5596  -999.2500  -999.2500   594.1525
 2434.0000  -999.2500     6.9257   407.5501     4.3309  -999.2500  -999.2500   596.0748
 2434.5000  -999.2500     6.7778   398.3051     4.1016  -999.2500  -999.2500   597.5778
 2435.0000  -999.2500     6.7823   392.9122     4.1047  -999.2500  -999.2500   597.9748
 2435.5000  -999.2500     6.7869   395.9938     4.1071  -999.2500  -999.2500   597.9852
 2436.0000  -999.2500     6.8682   398.3051     4.1096  -999.2500  -999.2500   596.8427
 2436.5000  -999.2500     7.0264   399.1218     4.1120  -999.2500  -999.2500   593.7786
 2437.0000  -999.2500     7.1079   405.8718     4.1915  -999.2500  -999.2500   591.8675
 2437.5000  -999.2500     7.1902   419.8767     4.4251  -999.2500  -999.2500   590.3406
 2438.0000  -999.2500     7.1168   421.4176     4.5118  -999.2500  -999.2500   589.9641
 2438.5000  -999.2500     7.0445   419.8767     4.6617  -999.2500  -999.2500   589.2060
 2439.0000  -999.2500     7.1270   416.7951     4.6642  -999.2500  -999.2500   589.2191
 2439.5000  -999.2500     7.0536   416.7951     4.6666  -999.2500  -999.2500   590.3824
 2440.0000  -999.2500     7.0593   416.0247     4.5150  -999.2500  -999.2500   592.4269
 2440.5000  -999.2500     7.0639   415.2542     4.2857  -999.2500  -999.2500   593.1675
 2441.0000  -999.2500     7.0684   413.6949     4.1347  -999.2500  -999.2500   593.7725
 2441.5000  -999.2500     7.0730   405.7360     4.0594  -999.2500  -999.2500   594.3775
 2442.0000  -999.2500     7.0775   399.8459     4.1395  -999.2500  -999.2500   594.9825
 2442.5000  -999.2500     7.1590   399.0755     4.1420  -999.2500  -999.2500   595.5875
 2443.0000  -999.2500     7.1636   401.3867     4.1445  -999.2500  -999.2500   596.1982
 2443.5000  -999.2500     7.0911   404.4684     4.1470  -999.2500  -999.2500   597.3652
 2444.0000  -999.2500     7.1736   407.5501     4.1499  -999.2500  -999.2500   596.4917
 2444.5000  -999.2500     7.1782   411.4022     4.3065  -999.2500  -999.2500   593.0847
 2445.0000  -999.2500     7.4131   417.5655     4.6171  -999.2500  -999.2500   590.3825
 2445.5000  -999.2500     7.8017   428.3513     4.7736  -999.2500  -999.2500   586.5273
 2446.0000  -999.2500     8.2671   441.7726     4.9301  -999.2500  -999.2500   581.9034
 2446.5000  -999.2500     8.8093   462.7020     5.1637  -999.2500  -999.2500   578.4326
 2447.0000  -999.2500     9.2746  -999.2500     5.2432  -999.2500  -999.2500   574.5774
 2447.5000  -999.2500     9.6632  -999.2500     5.3227  -999.2500  -999.2500   571.8752
 2448.0000  -999.2500     9.7446  -999.2500     5.4792  -999.2500  -999.2500   570.7048
 2448.5000  -999.2500     9.7493  -999.2500     5.7940  -999.2500  -999.2500   569.1606
 2449.0000  -999.2500     9.6768  -999.2500     6.0235  -999.2500  -999.2500   567.6088
 2449.5000  -999.2500     9.6825  -999.2500     6.1805  -999.2500  -999.2500   566.4438
 2450.0000  -999.2500     9.6871  -999.2500     6.2600  -999.2500  -999.2500   564.5102
 2450.5000  -999.2500     9.7684  -999.2500     6.4166  -999.2500  -999.2500   561.4237
 2451.0000  -999.2500    10.0034  -999.2500     6.6501  -999.2500  -999.2500   561.0274
 2451.5000  -999.2500    10.0079  -999.2500     6.8067  -999.2500  -999.2500   561.0154
 2452.0000  -999.2500    10.0881  -999.2500     6.8862  -999.2500  -999.2500   561.0034
 2452.5000  -999.2500     9.8623  -999.2500     6.9656  -999.2500  -999.2500   561.3759
 2453.0000  -999.2500     9.4839  -999.2500     6.8910  -999.2500  -999.2500   562.5167
 2453.5000  -999.2500     9.3349  -999.2500     6.5853  -999.2500  -999.2500   564.1709
 2454.0000  -999.2500     9.4163  -999.2500     6.3505  -999.2500  -999.2500   568.6389
 2454.5000  -999.2500     9.4978  -999.2500     6.1919  -999.2500  -999.2500   570.5485
 2455.0000  -999.2500     9.5033  -999.2500     5.8999  -999.2500  -999.2500   572.4581
 2455.5000  -999.2500     9.4299  -999.2500     5.7477  -999.2500  -999.2500   574.7520
 2456.0000  -999.2500     9.3587  -999.2500     5.6731  -999.2500  -999.2500   574.7401
 2456.5000  -999.2500     9.2097  -999.2500     5.5985  -999.2500  -999.2500   575.1124
