~VERSION INFORMATION
 VERS.               2.10:   CWLS LOG ASCII STANDARD - VERSION 2.10
 WRAP.                 NO:   ONE LINE PER DEPTH STEP
~WELL INFORMATION
#MNEM.UNIT      DATA TYPE    INFORMATION
#----------   ------------   ------------------------------
 STRT.F            0.0000:   START DEPTH
 STOP.F         5494.0205:   STOP DEPTH
 STEP.F            0.5000:   STEP LENGTH
 NULL.          -999.2500:   NO VALUE
 COMP. Tesoro Petroleum Corporation:   COMPANY
 WELL.            51-X-28:   WELL
 FLD .           N.P.R. 3:   FIELD
 LOC . 28-39N-78W-NATRONA-WY:   LOCATION
 STAT.                 WY:   STATE
 COUN.            Natrona:   COUNTY
 SRVC.              Welex:   SERVICE COMPANY
 DATE.                   :   LOGDATE
~CURVE INFORMATION
#MNEM.UNIT       API CODE    CURVE DESCRIPTION
#----------   ------------   ------------------------------
 DEPT.F                  :
 GD  .std.den.units      :   Gamma Density
 RhoG.APO                :   Gamma
 GR.API        	         :   Gamma
~PARAMETER INFORMATION
#MNEM.UNIT          VALUE    DESCRIPTION
#----------   ------------   ------------------------------
 EKB .F         5008.0000:   Kelly bushing
 EGL .F         4997.0000:   Ground level
 EDF .F            0.0000:   Drilling floor
 EPD .F           11.0000:   Permanent datum
 TD  .F         4830.0000:   Total depth
 NRUN.             1.0000:   Number of Runs
#--RUN 1---   ------------   The following are for Run 1---
 RUN .             1.0000:   Run 1
 DATE.mm/dd/yyyy 09/18/1968:   Date Logged
 DD  .ft             5495:   Depth Driller
 DL  .ft             5498:   Depth Logger
 BLI .ft             5496:   Bottom Log Interval
 TLI .ft             2500:   Top Log Interval
 CSS .inch          10.75:   Casing Size
 CTD1.ft              450:   Casing Driller 1
 CTL1.ft              454:   Casing Logger 1
 BS  .inch              9:   Bit Size
 DFT .     water base mud:   Type Fluid In Hole
 DFD .lb/gal          9.4:   Mud Weight
 DFV .sec              58:   Viscosity
 DFPH.                9.5:   pH
 DFL .ml               11:   Fluid Loss
 WSS .                pit:   Source Of Sample
 RM  .ohmm            1.7:   Rm
 EMT .F                56:   Rm Meas. Temp.
 RMF .ohmm            .64:   Rmf
 MFT .F               100:   Rmf Meas. Temp.
 RMC .ohmm            1.6:   Rmc
 MCST.F               100:   Rmc Meas. Temp.
 MFSS.               fann:   Source Rmf.
 MCSS.            mud kit:   Source Rmc.
 RMB .ohmm            .60:   Rm. At BHT
 BHT .F               160:   BHT.
 TCS .hh:mm        3 hrs.:   Time Circ. Stopped
 MRT .F               160:   Maximum Recorded Temp.
 LUL .          Newcastle:   Logging Unit Location
 ENGI.        Mr. Custard:   Recorded By
 WITN.            Mr. May:   Witnessed By
 DGBY.          Mr. Burke:   Digitized By
~A  DEPTH       GD       RhoG       GR
# ...
 3003.0000  1169.3193  -999.2500   237.9326
 3003.5000  1167.7362  -999.2500   237.7084
 3004.0000  1170.9014  -999.2500   236.7980
 3004.5000  1160.6962  -999.2500   235.4252
 3005.0000  1156.7944  -999.2500   235.6634
 3005.5000  1155.9840  -999.2500   236.6202
 3006.0000  1152.0823  -999.2500   237.2899
 3006.5000  1145.0895  -999.2500   235.9190
 3007.0000  1140.4150  -999.2500   234.5465
 3007.5000  1143.4685  -999.2500   234.7844
 3008.0000  1151.9315  -999.2500   236.1727
 3008.5000  1169.1824  -999.2500   237.1008
 3009.0000  1177.4838  -999.2500   236.8786
 3009.5000  1171.9019  -999.2500   236.8864
 3010.0000  1170.3186  -999.2500   237.1244
 3010.5000  1173.3722  -999.2500   238.9728
 3011.0000  1177.9712  -999.2500   238.2612
 3011.5000  1177.9335  -999.2500   237.8381
 3012.0000  1178.6687  -999.2500   236.9258
 3012.5000  1174.7670  -999.2500   237.1656
 3013.0000  1175.5021  -999.2500   235.1030
 3013.5000  1180.8739  -999.2500   233.5004
 3014.0000  1171.5533  -999.2500   231.4357
 3014.5000  1173.8340  -999.2500   233.0560
 3015.0000  1183.0699  -999.2500   234.2142
 3015.5000  1202.3522  -999.2500   234.6821
 3016.0000  1215.4520  -999.2500   236.3222
 3016.5000  1219.2783  -999.2500   237.9207
 3017.0000  1226.9688  -999.2500   238.8468
 3017.5000  1247.7965  -999.2500   239.3168
 3018.0000  1265.5332  -999.2500   242.7756
 3018.5000  1267.8857  -999.2500   244.8540
 3019.0000  1273.1763  -999.2500   243.7115
 3019.5000  1280.0939  -999.2500   243.0292
 3020.0000  1283.9296  -999.2500   239.5862
 3020.5000  1280.0184  -999.2500   238.4437
 3021.0000  1272.2528  -999.2500   238.4793
 3021.5000  1265.2600  -999.2500   239.8760
 3022.0000  1264.4495  -999.2500   241.4601
 3022.5000  1269.0486  -999.2500   241.2359
 3023.0000  1296.8624  -999.2500   238.9431
 3023.5000  1298.3395  -999.2500   238.9530
 3024.0000  1292.8828  -999.2500   240.1111
 3024.5000  1287.4357  -999.2500   241.0392
 3025.0000  1296.6715  -999.2500   239.2063
 3025.5000  1321.5702  -999.2500   239.2145
 3026.0000  1355.8568  -999.2500   239.4589
 3026.5000  1374.6141  -999.2500   240.4092
 3027.0000  1373.0294  -999.2500   242.0008
 3027.5000  1379.9388  -999.2500   242.0086
 3028.0000  1386.8658  -999.2500   242.0165
 3028.5000  1376.7723  -999.2500   241.7923
 3029.0000  1383.6898  -999.2500   241.8021
 3029.5000  1389.8345  -999.2500   242.0401
 3030.0000  1381.2961  -999.2500   243.6584
 3030.5000  1372.7577  -999.2500   245.2767
 3031.0000  1358.0367  -999.2500   246.6649
 3031.5000  1349.4984  -999.2500   246.9030
 3032.0000  1386.0469  -999.2500   246.4525
 3032.5000  1389.5990  -999.2500   245.3101
 3033.0000  1427.9169  -999.2500   243.2474
 3033.5000  1464.1685  -999.2500   242.7932
 3034.0000  1472.1721  -999.2500   244.8735
 3034.5000  1492.4552  -999.2500   246.9520
 3035.0000  1553.0439  -999.2500   250.4107
 3035.5000  1486.8531  -999.2500   252.0290
 3036.0000  1449.6134  -999.2500   252.0460
 3036.5000  1446.9392  -999.2500   251.0860
 3037.0000  1381.5894  -999.2500   243.7006
 3037.5000  1301.8867  -999.2500   241.2495
 3038.0000  1223.7697  -999.2500   239.6470
 3038.5000  1210.6274  -999.2500   241.0352
 3039.0000  1207.4891  -999.2500   241.7333
 3039.5000  1198.9507  -999.2500   242.2013
 3040.0000  1185.7755  -999.2500   243.1294
 3040.5000  1175.6914  -999.2500   242.4470
 3041.0000  1169.4713  -999.2500   240.8445
 3041.5000  1145.4771  -999.2500   239.2309
 3042.0000  1150.8489  -999.2500   237.6120
 3042.5000  1158.5392  -999.2500   237.4171
 3043.0000  1174.3185  -999.2500   239.9576
 3043.5000  1201.0516  -999.2500   246.6373
 3044.0000  1262.7476  -999.2500   249.4059
 3044.5000  1320.2410  -999.2500   257.1509
 3045.0000  1450.7266  -999.2500   270.8173
 3045.5000  1604.9774  -999.2500   272.4336
 3046.0000  -249.0014  -999.2500   267.8676
 3046.5000  -323.9973  -999.2500   255.3438
 3047.0000  -353.4384  -999.2500   242.8200
 3047.5000  -999.2500  -999.2500   231.7468
 3048.0000  1406.1544  -999.2500   231.2945
 3048.5000  1173.9050  -999.2500   231.5528
 3049.0000  1105.4865  -999.2500   232.2308
 3049.5000  1100.7605  -999.2500   229.2496
 3050.0000  1096.6517  -999.2500   228.5653
 3050.5000  1087.5897  -999.2500   226.9647
 3051.0000  1076.7329  -999.2500   225.8223
 3051.5000  1067.4216  -999.2500   226.7504
 3052.0000  1072.7935  -999.2500   228.3686
 3052.5000  1076.6198  -999.2500   229.2948
 3053.0000  1084.3102  -999.2500   228.8443
 3053.5000  1093.5460  -999.2500   229.3148
 3054.0000  1093.5083  -999.2500   231.6699
 3054.5000  1094.3666  -999.2500   233.9314
 3055.0000  1104.2427  -999.2500   236.2399
 3055.5000  1115.7970  -999.2500   237.6281
 3056.0000  1118.0872  -999.2500   239.9346
 3056.5000  1114.1760  -999.2500   239.0222
 3057.0000  1114.9111  -999.2500   239.9523
 3057.5000  1113.3278  -999.2500   239.7281
 3058.0000  1104.0166  -999.2500   239.7380
 3058.5000  1096.2510  -999.2500   240.6661
 3059.0000  1087.7124  -999.2500   240.4439
 3059.5000  1092.4625  -999.2500   240.9122
 3060.0000  1102.3109  -999.2500   240.6897
 3060.5000  1096.0908  -999.2500   240.9296
 3061.0000  1091.4163  -999.2500   240.9374
 3061.5000  1092.1609  -999.2500   241.8655
 3062.0000  1095.9778  -999.2500   240.9531
 3062.5000  1102.1224  -999.2500   240.0407
 3063.0000  1108.2672  -999.2500   238.6683
 3063.5000  1111.3215  -999.2500   237.9858
 3064.0000  1112.0742  -999.2500   238.2331
 3064.5000  1115.8820  -999.2500   238.4620
 3065.0000  1113.5166  -999.2500   238.7017
 3065.5000  1118.1157  -999.2500   239.6298
 3066.0000  1121.9420  -999.2500   241.0180
 3066.5000  1128.8595  -999.2500   242.4062
 3067.0000  1131.1497  -999.2500   242.0225
 3067.5000  1124.9202  -999.2500   237.5907
 3068.0000  1123.2037  -999.2500   237.1364
 3068.5000  1129.4816  -999.2500   239.6769
 3069.0000  1128.6243  -999.2500   239.6848
 3069.5000  1125.5421  -999.2500   237.9884
 3070.0000  1133.9960  -999.2500   234.4111
 3070.5000  1136.2860  -999.2500   233.9588
 3071.0000  1134.6932  -999.2500   234.6549
 3071.5000  1128.4733  -999.2500   231.9040
 3072.0000  1119.1620  -999.2500   230.7616
 3072.5000  1113.7147  -999.2500   229.1590
 3073.0000  1114.4498  -999.2500   228.9348
 3073.5000  1122.9130  -999.2500   230.7851
 3074.0000  1131.4824  -999.2500   232.1734
 3074.5000  1140.8392  -999.2500   234.5142
 3075.0000  1140.5647  -999.2500   234.9501
 3075.5000  1146.7095  -999.2500   235.4198
 3076.0000  1148.2268  -999.2500   235.4276
 3076.5000  1142.7701  -999.2500   238.1943
 3077.0000  1145.0509  -999.2500   236.5937
 3077.5000  1146.5681  -999.2500   235.2212
 3078.0000  1146.5210  -999.2500   234.3088
 3078.5000  1151.1202  -999.2500   234.0863
 3079.0000  1141.7092  -999.2500   235.0147
 3079.5000  1137.0059  -999.2500   236.4113
 3080.0000  1131.6777  -999.2500   238.3440
 3080.5000  1130.8673  -999.2500   241.0218
 3081.0000  1132.3846  -999.2500   239.8794
 3081.5000  1126.1552  -999.2500   238.5069
 3082.0000  1119.1624  -999.2500   235.2939
 3082.5000  1114.4878  -999.2500   231.4288
 3083.0000  1115.9957  -999.2500   228.2557
 3083.5000  1118.2764  -999.2500   224.7346
 3084.0000  1121.4531  -999.2500   222.9020
 3084.5000  1129.7837  -999.2500   222.6798
 3085.0000  1135.9283  -999.2500   222.9179
 3085.5000  1136.6729  -999.2500   224.5380
 3086.0000  1138.1714  -999.2500   227.7667
 3086.5000  1141.2249  -999.2500   230.0752
 3087.0000  1143.5150  -999.2500   231.4634
 3087.5000  1134.9672  -999.2500   232.3915
 3088.0000  1136.4750  -999.2500   231.0190
 3088.5000  1141.0741  -999.2500   231.0269
 3089.0000  1143.3549  -999.2500   231.4949
 3089.5000  1139.4437  -999.2500   232.6530
 3090.0000  1135.5421  -999.2500   234.5172
 3090.5000  1133.9587  -999.2500   234.7397
 3091.0000  1143.9675  -999.2500   234.7492
 3091.5000  1153.2034  -999.2500   234.7570
 3092.0000  1159.3480  -999.2500   235.4551
 3092.5000  1157.7649  -999.2500   234.5427
 3093.0000  1155.4087  -999.2500   234.3205
 3093.5000  1156.9258  -999.2500   232.7179
