~VERSION INFORMATION
 VERS.               2.10:   CWLS LOG ASCII STANDARD - VERSION 2.10
 WRAP.                 NO:   ONE LINE PER DEPTH STEP
~WELL INFORMATION
#MNEM.UNIT      DATA TYPE    INFORMATION
#----------   ------------   ------------------------------
 STRT.F            0.0000:   START DEPTH
 STOP.F         5499.9595:   STOP DEPTH
 STEP.F            0.5000:   STEP LENGTH
 NULL.          -999.2500:   NO VALUE
 COMP. Tesoro Petroleum Corporation:   COMPANY
 WELL.            51 x 28:   WELL
 FLD .           N.P.R. 3:   FIELD
 LOC . 28-39N-78W-NATRONA-WY:   LOCATION
 STAT.                 WY:   STATE
 COUN.            Natrona:   COUNTY
 SRVC.                   :   SERVICE COMPANY
 DATE.         07/07/1968:   LOGDATE
~CURVE INFORMATION
#MNEM.UNIT       API CODE    CURVE DESCRIPTION
#----------   ------------   ------------------------------
 DEPT.F                  :
 RO  .m2/m               :   Resisitivity Ohms
 SN  .m2/m               :   Reisistivity Ohms
 ASN .m2/m               :   Reisistivity Ohms
 Ind .None               :   Induction
 Ind .None               :   Induction
 Con .millimhos/m        :   Conductivitity
 Con .millimhos/m        :   Conductivitity
~PARAMETER INFORMATION
#MNEM.UNIT          VALUE    DESCRIPTION
#----------   ------------   ------------------------------
 EKB .F         5008.0000:   Kelly bushing
 EGL .F         4997.0000:   Ground level
 EDF .F            0.0000:   Drilling floor
 EPD .F            7.0000:   Permanent datum
 TD  .F         5500.0000:   Total depth
 NRUN.             3.0000:   Number of Runs
#--RUN 1---   ------------   The following are for Run 1---
 RUN .             1.0000:   Run 1
 DATE.mm/dd/yyyy 07/07/1968:   Date Logged
 DD  .ft              450:   Depth Driller
 DL  .ft              455:   Depth Logger
 BLI .ft              450:   Bottom Log Interval
 TLI .ft               38:   Top Log Interval
 CSS .inch             20:   Casing Size
 CTD1.ft               38:   Casing Driller 1
 CTL1.ft               38:   Casing Logger 1
 BS  .inch             15:   Bit Size
 DFT .     water base mud:   Type Fluid In Hole
 DFD .lb/gal          9.3:   Mud Weight
 DFV .sec              48:   Viscosity
 DFPH.                  8:   pH
 DFL .ml              7.6:   Fluid Loss
 WSS .           flo line:   Source Of Sample
 RM  .ohmm            2.7:   Rm
 EMT .F                93:   Rm Meas. Temp.
 RMF .ohmm            2.1:   Rmf
 MFT .F               100:   Rmf Meas. Temp.
 RMC .ohmm            2.3:   Rmc
 MCST.F               100:   Rmc Meas. Temp.
 MCSS.       fann mud kit:   Source Rmc.
 TCS .hh:mm       3 hours:   Time Circ. Stopped
 LUN .               7949:   Logging Unit Number
 LUL .          Newcastle:   Logging Unit Location
 ENGI.            Custard:   Recorded By
 WITN.            Mr. May:   Witnessed By
 DGBY.              Burke:   Digitized By
#--RUN 2---   ------------   The following are for Run 2---
 RUN .             2.0000:   Run 2
 DATE.mm/dd/yyyy 09/01/1968:   Date Logged
 DD  .ft             2955:   Depth Driller
 DL  .ft             2955:   Depth Logger
 BLI .ft             2950:   Bottom Log Interval
 TLI .ft              444:   Top Log Interval
 CSS .inch         10-3/4:   Casing Size
 CTD1.ft              340:   Casing Driller 1
 CTL1.ft              454:   Casing Logger 1
 BS  .inch          7-7/8:   Bit Size
 DFT .               "  ":   Type Fluid In Hole
 DFD .lb/gal          9.6:   Mud Weight
 DFV .sec              52:   Viscosity
 DFPH.                 85:   pH
 DFL .ml                6:   Fluid Loss
 WSS .              circ.:   Source Of Sample
 RM  .ohmm            2.5:   Rm
 EMT .F                52:   Rm Meas. Temp.
 RMF .ohmm           1.10:   Rmf
 MFT .F               100:   Rmf Meas. Temp.
 RMC .ohmm           1.63:   Rmc
 MCST.F               100:   Rmc Meas. Temp.
 MCSS.               "  ":   Source Rmc.
 RMB .ohmm           1.30:   Rm. At BHT
 BHT .F               104:   BHT.
 TCS .hh:mm       2 hours:   Time Circ. Stopped
 MRT .F               104:   Maximum Recorded Temp.
 LUN .               7949:   Logging Unit Number
 LUL .          Newcastle:   Logging Unit Location
 ENGI.               "  ":   Recorded By
 WITN.               "  ":   Witnessed By
 DGBY.               "  ":   Digitized By
#--RUN 3---   ------------   The following are for Run 3---
 RUN .             3.0000:   Run 3
 DATE.mm/dd/yyyy 09/18/1968:   Date Logged
 DD  .ft             5495:   Depth Driller
 DL  .ft             5503:   Depth Logger
 BLI .ft             5498:   Bottom Log Interval
 TLI .ft             2900:   Top Log Interval
 CSS .inch         10-3/4:   Casing Size
 CTD1.ft              450:   Casing Driller 1
 CTL1.ft              454:   Casing Logger 1
 BS  .inch              9:   Bit Size
 DFT .               "  ":   Type Fluid In Hole
 DFD .lb/gal          9.4:   Mud Weight
 DFV .sec              58:   Viscosity
 DFPH.                9.5:   pH
 DFL .ml               11:   Fluid Loss
 WSS .                pit:   Source Of Sample
 RM  .ohmm            1.7:   Rm
 EMT .F                56:   Rm Meas. Temp.
 RMF .ohmm            .64:   Rmf
 MFT .F               100:   Rmf Meas. Temp.
 RMC .ohmm            1.6:   Rmc
 MCST.F               100:   Rmc Meas. Temp.
 MCSS.               "  ":   Source Rmc.
 RMB .ohmm             .6:   Rm. At BHT
 BHT .F               160:   BHT.
 TCS .hh:mm         3 hrs:   Time Circ. Stopped
 MRT .F               160:   Maximum Recorded Temp.
 LUN .               "  ":   Logging Unit Number
 LUL .               "  ":   Logging Unit Location
 ENGI.               "  ":   Recorded By
 WITN.               "  ":   Witnessed By
 DGBY.               "  ":   Digitized By
~A  DEPTH       RO         SN        ASN        Ind        I          C          Con
# ...
 3958.5000  -999.2500     2.4700   123.2071     2.6689  -999.2500  -999.2500   649.7173
 3959.0000  -999.2500     2.4730   124.0008     2.6737  -999.2500  -999.2500   653.2410
 3959.5000  -999.2500     2.4765   119.4171     2.6776  -999.2500  -999.2500   658.4803
 3960.0000  -999.2500     2.4793   112.5310     2.6816  -999.2500  -999.2500   668.0735
 3960.5000  -999.2500     2.5406   104.8774     2.6855  -999.2500  -999.2500   673.0548
 3961.0000  -999.2500     2.4683   106.4333     2.6895  -999.2500  -999.2500   672.6556
 3961.5000  -999.2500     2.4739   107.2218     2.6934  -999.2500  -999.2500   670.7193
 3962.0000  -999.2500     2.4784   104.9405     2.6973  -999.2500  -999.2500   668.7828
 3962.5000  -999.2500     2.4829   106.4970     2.7013  -999.2500  -999.2500   666.0778
 3963.0000  -999.2500     2.4875   107.2902     2.7053  -999.2500  -999.2500   662.9884
 3963.5000  -999.2500     2.4930   110.3810     2.7872  -999.2500  -999.2500   662.2046
 3964.0000  -999.2500     2.4975   113.4719     2.7911  -999.2500  -999.2500   662.1864
 3964.5000  -999.2500     2.5021   111.1905     2.7951  -999.2500  -999.2500   659.8657
 3965.0000  -999.2500     2.5834   116.5838     2.8760  -999.2500  -999.2500   656.3920
 3965.5000  -999.2500     2.5879   118.9072     2.9570  -999.2500  -999.2500   652.5339
 3966.0000  -999.2500     2.5924   121.2306     2.8829  -999.2500  -999.2500   649.8623
 3966.5000  -999.2500     2.7507   123.5540     2.8879  -999.2500  -999.2500   647.0165
 3967.0000  -999.2500     2.9858   127.5204     2.9688  -999.2500  -999.2500   644.1707
 3967.5000  -999.2500     3.2220   131.5428     3.0499  -999.2500  -999.2500   641.3248
 3968.0000  -999.2500     3.3033   137.4366     3.1310  -999.2500  -999.2500   638.4790
 3968.5000  -999.2500     3.3847   142.8299     3.2128  -999.2500  -999.2500   635.6332
 3969.0000  -999.2500     3.4661   146.6882     3.3708  -999.2500  -999.2500   632.7874
 3969.5000  -999.2500     3.4706   149.0116     3.4518  -999.2500  -999.2500   629.9415
 3970.0000  -999.2500     3.4751   154.4048     3.5328  -999.2500  -999.2500   627.0957
 3970.5000  -999.2500     3.4796   158.2632     3.6137  -999.2500  -999.2500   625.8651
 3971.0000  -999.2500     3.4907   159.8191     3.6947  -999.2500  -999.2500   624.6957
 3971.5000  -999.2500     3.6434   162.9502     3.7757  -999.2500  -999.2500   622.2491
 3972.0000  -999.2500     3.8017   171.6789     3.8589  -999.2500  -999.2500   618.5149
 3972.5000  -999.2500     3.9599   176.0041     4.0148  -999.2500  -999.2500   614.2725
 3973.0000  -999.2500     4.0413   174.4849     4.0967  -999.2500  -999.2500   611.1832
 3973.5000  -999.2500     3.8909   179.8835     4.0236  -999.2500  -999.2500   609.6310
 3974.0000  -999.2500     3.8197   179.1317     4.0275  -999.2500  -999.2500   609.6162
 3974.5000  -999.2500     3.4399   174.5533     3.8774  -999.2500  -999.2500   612.2917
 3975.0000  -999.2500     3.3611   169.2021     3.8033  -999.2500  -999.2500   619.1946
 3975.5000  -999.2500     3.1425   162.3153     3.7302  -999.2500  -999.2500   625.4198
 3976.0000  -999.2500     2.8396   159.2672     3.5810  -999.2500  -999.2500   630.7894
 3976.5000  -999.2500     2.6892   154.5455     3.1997  -999.2500  -999.2500   636.1591
 3977.0000  -999.2500     2.6169   140.1280     2.8958  -999.2500  -999.2500   641.5287
 3977.5000  -999.2500     2.6225   130.9395     2.8226  -999.2500  -999.2500   646.8983
 3978.0000  -999.2500     2.4733   127.8907     2.7496  -999.2500  -999.2500   650.4464
 3978.5000  -999.2500     2.4009   119.4696     2.7536  -999.2500  -999.2500   657.9022
 3979.0000  -999.2500     2.3286   115.6534     2.6805  -999.2500  -999.2500   660.5776
 3979.5000  -999.2500     2.3342   114.9017     2.6854  -999.2500  -999.2500   662.4844
 3980.0000  -999.2500     2.3387   116.4629     2.6893  -999.2500  -999.2500   662.4695
 3980.5000  -999.2500     2.4201   117.2514     2.6933  -999.2500  -999.2500   660.9174
 3981.0000  -999.2500     2.4246   118.8429     2.7743  -999.2500  -999.2500   658.9810
 3981.5000  -999.2500     2.4291   120.3641     2.8552  -999.2500  -999.2500   657.0446
 3982.0000  -999.2500     2.5873   119.6168     2.9362  -999.2500  -999.2500   653.9552
 3982.5000  -999.2500     2.7455   121.9455     3.0172  -999.2500  -999.2500   650.8054
 3983.0000  -999.2500     2.8333   127.3387     3.0982  -999.2500  -999.2500   646.2355
 3983.5000  -999.2500     2.9094   135.8018     3.1793  -999.2500  -999.2500   638.9186
 3984.0000  -999.2500     2.9908   141.1951     3.2611  -999.2500  -999.2500   633.1389
 3984.5000  -999.2500     3.0721   145.8208     3.3421  -999.2500  -999.2500   629.6652
 3985.0000  -999.2500     3.0766   147.3768     3.5001  -999.2500  -999.2500   625.8072
 3985.5000  -999.2500     3.1580   150.4692     3.5041  -999.2500  -999.2500   623.8708
 3986.0000  -999.2500     3.3162   154.4927     3.5851  -999.2500  -999.2500   622.7029
 3986.5000  -999.2500     3.3976   160.4919     3.6660  -999.2500  -999.2500   621.5352
 3987.0000  -999.2500     3.5559   165.8852     3.6700  -999.2500  -999.2500   620.7516
 3987.5000  -999.2500     3.4066   171.2784     3.5969  -999.2500  -999.2500   618.7712
 3988.0000  -999.2500     3.5660   162.0900     3.6091  -999.2500  -999.2500   616.8777
 3988.5000  -999.2500     3.7242   160.5708     3.8369  -999.2500  -999.2500   613.4040
 3989.0000  -999.2500     3.8824   176.7137     3.8408  -999.2500  -999.2500   611.4672
 3989.5000  -999.2500     3.8101   196.6887     3.8447  -999.2500  -999.2500   611.4490
 3990.0000  -999.2500     3.8146   197.5416     3.7707  -999.2500  -999.2500   610.2812
 3990.5000  -999.2500     3.8959   186.7538     3.9297  -999.2500  -999.2500   607.9604
 3991.0000  -999.2500     3.9774   198.5491     4.0877  -999.2500  -999.2500   604.8711
 3991.5000  -999.2500     3.9061   202.1503     4.0144  -999.2500  -999.2500   608.6995
 3992.0000  -999.2500     3.7568   200.6364     3.8644  -999.2500  -999.2500   612.5278
 3992.5000  -999.2500     3.6065   196.0527     3.7913  -999.2500  -999.2500   617.8935
 3993.0000  -999.2500     3.4573   185.3293     3.7182  -999.2500  -999.2500   619.8005
 3993.5000  -999.2500     3.4629   176.9082     3.7232  -999.2500  -999.2500   620.1697
 3994.0000  -999.2500     3.4674   166.9523     3.7271  -999.2500  -999.2500   619.3272
 3994.5000  -999.2500     3.5488   158.5313     3.7310  -999.2500  -999.2500   618.2148
 3995.0000  -999.2500     3.6302   158.5524     3.7350  -999.2500  -999.2500   616.2784
 3995.5000  -999.2500     3.7126   160.2060     3.8160  -999.2500  -999.2500   616.2635
 3996.0000  -999.2500     3.7940   164.7393     3.8969  -999.2500  -999.2500   613.1742
 3996.5000  -999.2500     3.7985   170.9000     3.9009  -999.2500  -999.2500   607.7789
 3997.0000  -999.2500     3.8799   178.5956     3.9839  -999.2500  -999.2500   602.7679
 3997.5000  -999.2500     3.9612   184.7563     4.2171  -999.2500  -999.2500   597.7569
 3998.0000  -999.2500     4.0426   188.6146     4.2989  -999.2500  -999.2500   595.8205
 3998.5000  -999.2500     4.2008   194.7753     4.3799  -999.2500  -999.2500   595.8053
 3999.0000  -999.2500     4.2823   197.0987     4.4609  -999.2500  -999.2500   595.7872
 3999.5000  -999.2500     4.3647   200.9570     4.5418  -999.2500  -999.2500   595.3880
 4000.0000  -999.2500     4.4449   203.2809     4.4678  -999.2500  -999.2500   594.6045
 4000.5000  -999.2500     4.6039   205.6091     4.5497  -999.2500  -999.2500   592.6681
 4001.0000  -999.2500     5.0696   213.3047     4.7848  -999.2500  -999.2500   589.5787
 4001.5000  -999.2500     5.3078   222.5353     5.0199  -999.2500  -999.2500   586.1050
 4002.0000  -999.2500     5.4760   230.2309     5.2550  -999.2500  -999.2500   583.3999
 4002.5000  -999.2500     5.5454   244.8337     5.4910  -999.2500  -999.2500   580.6949
 4003.0000  -999.2500     5.5499   254.8317     5.7260  -999.2500  -999.2500   577.9766
 4003.5000  -999.2500     5.4764   264.8297     5.8841  -999.2500  -999.2500   575.9451
