~VERSION INFORMATION
 VERS.               2.10:   CWLS LOG ASCII STANDARD - VERSION 2.10
 WRAP.                 NO:   ONE LINE PER DEPTH STEP
~WELL INFORMATION
#MNEM.UNIT      DATA TYPE    INFORMATION
#----------   ------------   ------------------------------
 STRT.F            0.0000:   START DEPTH
 STOP.F         5494.0205:   STOP DEPTH
 STEP.F            0.5000:   STEP LENGTH
 NULL.          -999.2500:   NO VALUE
 COMP. Tesoro Petroleum Corporation:   COMPANY
 WELL.            51-X-28:   WELL
 FLD .           N.P.R. 3:   FIELD
 LOC . 28-39N-78W-NATRONA-WY:   LOCATION
 STAT.                 WY:   STATE
 COUN.            Natrona:   COUNTY
 SRVC.              Welex:   SERVICE COMPANY
 DATE.                   :   LOGDATE
~CURVE INFORMATION
#MNEM.UNIT       API CODE    CURVE DESCRIPTION
#----------   ------------   ------------------------------
 DEPT.F                  :
 GD  .std.den.units      :   Gamma Density
 RhoG.APO                :   Gamma
 GR.API        	         :   Gamma
~PARAMETER INFORMATION
#MNEM.UNIT          VALUE    DESCRIPTION
#----------   ------------   ------------------------------
 EKB .F         5008.0000:   Kelly bushing
 EGL .F         4997.0000:   Ground level
 EDF .F            0.0000:   Drilling floor
 EPD .F           11.0000:   Permanent datum
 TD  .F         4830.0000:   Total depth
 NRUN.             1.0000:   Number of Runs
#--RUN 1---   ------------   The following are for Run 1---
 RUN .             1.0000:   Run 1
 DATE.mm/dd/yyyy 09/18/1968:   Date Logged
 DD  .ft             5495:   Depth Driller
 DL  .ft             5498:   Depth Logger
 BLI .ft             5496:   Bottom Log Interval
 TLI .ft             2500:   Top Log Interval
 CSS .inch          10.75:   Casing Size
 CTD1.ft              450:   Casing Driller 1
 CTL1.ft              454:   Casing Logger 1
 BS  .inch              9:   Bit Size
 DFT .     water base mud:   Type Fluid In Hole
 DFD .lb/gal          9.4:   Mud Weight
 DFV .sec              58:   Viscosity
 DFPH.                9.5:   pH
 DFL .ml               11:   Fluid Loss
 WSS .                pit:   Source Of Sample
 RM  .ohmm            1.7:   Rm
 EMT .F                56:   Rm Meas. Temp.
 RMF .ohmm            .64:   Rmf
 MFT .F               100:   Rmf Meas. Temp.
 RMC .ohmm            1.6:   Rmc
 MCST.F               100:   Rmc Meas. Temp.
 MFSS.               fann:   Source Rmf.
 MCSS.            mud kit:   Source Rmc.
 RMB .ohmm            .60:   Rm. At BHT
 BHT .F               160:   BHT.
 TCS .hh:mm        3 hrs.:   Time Circ. Stopped
 MRT .F               160:   Maximum Recorded Temp.
 LUL .          Newcastle:   Logging Unit Location
 ENGI.        Mr. Custard:   Recorded By
 WITN.            Mr. May:   Witnessed By
 DGBY.          Mr. Burke:   Digitized By
~A  DEPTH       GD       RhoG       GR
# ...
 2821.0000  1371.3240  -999.2500   235.3020
 2821.5000  1448.2600  -999.2500   235.5469
 2822.0000  1524.6217  -999.2500   236.4820
 2822.5000  1506.8042  -999.2500   239.7176
 2823.0000  1410.5265  -999.2500   240.8828
 2823.5000  1345.2067  -999.2500   239.5172
 2824.0000  1319.0007  -999.2500   239.5325
 2824.5000  1157.3231  -999.2500   239.5505
 2825.0000  1114.0034  -999.2500   237.0347
 2825.5000  1082.2755  -999.2500   236.1255
 2826.0000  1069.8676  -999.2500   237.2944
 2826.5000  1076.7842  -999.2500   238.6895
 2827.0000  1076.5488  -999.2500   239.3908
 2827.5000  1072.0454  -999.2500   238.9486
 2828.0000  1066.5927  -999.2500   238.9641
 2828.5000  1075.0502  -999.2500   238.7488
 2829.0000  1093.5541  -999.2500   240.2664
 2829.5000  1100.4661  -999.2500   241.3128
 2830.0000  1106.6052  -999.2500   242.2479
 2830.5000  1136.7012  -999.2500   246.1737
 2831.0000  1145.2887  -999.2500   248.4891
 2831.5000  1190.9045  -999.2500   250.5745
 2832.0000  1250.1655  -999.2500   251.5096
 2832.5000  1339.2035  -999.2500   251.9845
 2833.0000  1438.1991  -999.2500   254.0699
 2833.5000  1537.1946  -999.2500   255.0051
 2834.0000  -335.7806  -999.2500   255.0202
 2834.5000  -349.7450  -999.2500   253.4278
 2835.0000  -400.0237  -999.2500   248.9717
 2835.5000  1596.0763  -999.2500   240.1982
 2836.0000  1397.1825  -999.2500   236.2152
 2836.5000  1065.0636  -999.2500   236.6939
 2837.0000  1064.2476  -999.2500   238.0890
 2837.5000  1061.1132  -999.2500   239.7143
 2838.0000  1059.5353  -999.2500   239.7291
 2838.5000  1067.2200  -999.2500   240.2040
 2839.0000  1067.0435  -999.2500   240.4489
 2839.5000  1070.2139  -999.2500   240.2333
 2840.0000  1065.4308  -999.2500   241.3988
 2840.5000  1061.6160  -999.2500   243.3236
 2841.0000  1063.1183  -999.2500   243.5027
 2841.5000  1066.9391  -999.2500   243.7475
 2842.0000  1071.5327  -999.2500   244.2225
 2842.5000  1078.4447  -999.2500   244.2373
 2843.0000  1094.6301  -999.2500   243.5619
 2843.5000  1094.5869  -999.2500   243.8068
 2844.0000  1099.1805  -999.2500   245.4320
 2844.5000  1107.8419  -999.2500   245.9070
 2845.0000  1122.2673  -999.2500   246.3819
 2845.5000  1133.8159  -999.2500   247.1103
 2846.0000  1180.3147  -999.2500   248.4858
 2846.5000  1285.5238  -999.2500   249.8810
 2847.0000  1390.7330  -999.2500   251.2761
 2847.5000  1495.9421  -999.2500   252.9014
 2848.0000  -277.5284  -999.2500   255.4469
 2848.5000  -240.4773  -999.2500   257.0721
 2849.0000  -214.3614  -999.2500   257.5471
 2849.5000  -205.7878  -999.2500   253.6508
 2850.0000  -999.2500  -999.2500   249.9847
 2850.5000  1462.7853  -999.2500   245.8126
 2851.0000  1226.7676  -999.2500   243.5763
 2851.5000  1104.6931  -999.2500   241.9807
 2852.0000  1091.5123  -999.2500   241.0752
 2852.5000  1077.5588  -999.2500   239.7097
 2853.0000  1073.6406  -999.2500   238.1141
 2853.5000  1075.3481  -999.2500   236.9786
 2854.0000  1092.1016  -999.2500   236.7596
 2854.5000  1102.8776  -999.2500   236.5477
 2855.0000  1095.8792  -999.2500   236.1028
 2855.5000  1089.6536  -999.2500   235.1973
 2856.0000  1083.4280  -999.2500   234.7520
 2856.5000  1074.1112  -999.2500   236.3810
 2857.0000  1064.0216  -999.2500   236.8522
 2857.5000  1054.7045  -999.2500   232.7296
 2858.0000  1053.8872  -999.2500   233.6647
 2858.5000  1056.9259  -999.2500   235.9801
 2859.0000  1060.7576  -999.2500   237.3753
 2859.5000  1059.1578  -999.2500   236.6999
 2860.0000  1054.4779  -999.2500   236.4847
 2860.5000  1053.6619  -999.2500   235.2805
 2861.0000  1053.6187  -999.2500   232.6070
 2861.5000  1054.3489  -999.2500   232.1579
 2862.0000  1061.3402  -999.2500   233.5568
 2862.5000  1074.0952  -999.2500   236.3324
 2863.0000  1088.2109  -999.2500   237.2674
 2863.5000  1105.9233  -999.2500   238.6626
 2864.0000  1140.0123  -999.2500   238.4437
 2864.5000  1190.8634  -999.2500   239.8425
 2865.0000  1201.6393  -999.2500   239.1672
 2865.5000  1255.0248  -999.2500   239.4354
 2866.0000  1307.9908  -999.2500   242.8815
 2866.5000  1368.8345  -999.2500   245.1969
 2867.0000  1465.6407  -999.2500   255.0664
 2867.5000  1562.4469  -999.2500   270.5333
 2868.0000  -999.2500  -999.2500   273.5389
 2868.5000    41.3641  -999.2500   274.4740
 2869.0000  -109.3854  -999.2500   272.6483
 2869.5000  -220.0325  -999.2500   264.8823
 2870.0000  -999.2500  -999.2500   253.5799
 2870.5000  1514.1049  -999.2500   242.2776
 2871.0000  1297.5455  -999.2500   231.9892
 2871.5000  1074.3243  -999.2500   226.4825
 2872.0000  1051.8700  -999.2500   224.8832
 2872.5000  1073.8519  -999.2500   225.5919
 2873.0000  1092.7311  -999.2500   228.1374
 2873.5000  1100.4159  -999.2500   229.5548
 2874.0000  1110.4191  -999.2500   231.9101
 2874.5000  1118.1038  -999.2500   233.2469
 2875.0000  1122.6974  -999.2500   231.4212
 2875.5000  1126.5182  -999.2500   231.6661
 2876.0000  1131.8845  -999.2500   233.5214
 2876.5000  1146.6101  -999.2500   236.2969
 2877.0000  1205.1180  -999.2500   240.9130
 2877.5000  1263.6260  -999.2500   249.2100
 2878.0000  1322.1340  -999.2500   251.7555
 2878.5000  1409.7218  -999.2500   257.3214
 2879.0000  1524.4674  -999.2500   260.3904
 2879.5000  -271.0529  -999.2500   263.7668
 2880.0000  -270.3231  -999.2500   265.3920
 2880.5000  -287.3787  -999.2500   266.0933
 2881.0000  -371.4556  -999.2500   261.5106
 2881.5000  -999.2500  -999.2500   248.1791
 2882.0000  1252.5353  -999.2500   237.8452
 2882.5000  1091.1300  -999.2500   237.1661
 2883.0000  1100.3496  -999.2500   236.9545
 2883.5000  1109.5800  -999.2500   234.8988
 2884.0000  1118.8986  -999.2500   236.5241
 2884.5000  1130.7119  -999.2500   238.6094
 2885.0000  1145.7610  -999.2500   240.2347
 2885.5000  1161.1737  -999.2500   239.7894
 2886.0000  1195.9064  -999.2500   239.5741
 2886.5000  1252.7843  -999.2500   239.8227
 2887.0000  1317.6791  -999.2500   240.2976
 2887.5000  1382.5739  -999.2500   241.6928
 2888.0000  1448.4312  -999.2500   243.7782
 2888.5000  1446.8424  -999.2500   243.3291
 2889.0000  1368.7466  -999.2500   245.1882
 2889.5000  1389.2284  -999.2500   247.2735
 2890.0000  1472.7445  -999.2500   248.6687
 2890.5000  1532.4465  -999.2500   248.4308
 2891.0000  1567.1792  -999.2500   247.0916
 2891.5000  1596.5023  -999.2500   243.8856
 2892.0000  1581.0031  -999.2500   244.1304
 2892.5000  1496.8623  -999.2500   246.4459
 2893.0000  1364.5399  -999.2500   246.9208
 2893.5000  1232.2175  -999.2500   247.8559
 2894.0000  1130.2893  -999.2500   246.0302
 2894.5000  1169.6478  -999.2500   244.6646
 2895.0000  1216.0939  -999.2500   243.5291
 2895.5000  1280.6649  -999.2500   242.1636
 2896.0000  1345.2360  -999.2500   241.9483
 2896.5000  1409.8070  -999.2500   241.9668
 2897.0000  1511.3108  -999.2500   239.4510
 2897.5000  -999.2500  -999.2500   238.0817
 2898.0000  -999.2500  -999.2500   237.8665
 2898.5000   158.3062  -999.2500   238.3451
 2899.0000    52.8069  -999.2500   238.3600
 2899.5000   -64.1799  -999.2500   238.6048
 2900.0000   -10.6617  -999.2500   240.1845
 2900.5000    21.5178  -999.2500   242.9511
 2901.0000    -0.9365  -999.2500   244.5674
 2901.5000  -138.6227  -999.2500   244.1131
 2902.0000  -999.2500  -999.2500   243.6497
 2902.5000  1354.5784  -999.2500   241.7321
 2903.0000  1195.3069  -999.2500   239.7609
 2903.5000  1110.7683  -999.2500   238.3864
 2904.0000  1137.5051  -999.2500   238.6223
 2904.5000  1164.2418  -999.2500   239.7770
 2905.0000  1190.9785  -999.2500   238.8626
 2905.5000  1217.7153  -999.2500   241.6307
 2906.0000  1244.4520  -999.2500   242.3267
 2906.5000  1265.4911  -999.2500   243.7129
 2907.0000  1264.6976  -999.2500   246.4795
 2907.5000  1289.4011  -999.2500   247.4213
 2908.0000  1318.8850  -999.2500   246.6480
 2908.5000  1411.7084  -999.2500   244.1979
 2909.0000  1504.5317  -999.2500   244.4323
 2909.5000  1487.8002  -999.2500   243.5194
 2910.0000  1239.6377  -999.2500   241.2246
 2910.5000  1131.6221  -999.2500   239.8501
 2911.0000  1137.7837  -999.2500   238.0154
 2911.5000  1153.2189  -999.2500   237.7898
