~VERSION INFORMATION
 VERS.               2.10:   CWLS LOG ASCII STANDARD - VERSION 2.10
 WRAP.                 NO:   ONE LINE PER DEPTH STEP
~WELL INFORMATION
#MNEM.UNIT      DATA TYPE    INFORMATION
#----------   ------------   ------------------------------
 STRT.F            0.0000:   START DEPTH
 STOP.F         5494.0205:   STOP DEPTH
 STEP.F            0.5000:   STEP LENGTH
 NULL.          -999.2500:   NO VALUE
 COMP. Tesoro Petroleum Corporation:   COMPANY
 WELL.            51-X-28:   WELL
 FLD .           N.P.R. 3:   FIELD
 LOC . 28-39N-78W-NATRONA-WY:   LOCATION
 STAT.                 WY:   STATE
 COUN.            Natrona:   COUNTY
 SRVC.              Welex:   SERVICE COMPANY
 DATE.                   :   LOGDATE
~CURVE INFORMATION
#MNEM.UNIT       API CODE    CURVE DESCRIPTION
#----------   ------------   ------------------------------
 DEPT.F                  :
 GD  .std.den.units      :   Gamma Density
 RhoG.APO                :   Gamma
 GR.API        	         :   Gamma
~PARAMETER INFORMATION
#MNEM.UNIT          VALUE    DESCRIPTION
#----------   ------------   ------------------------------
 EKB .F         5008.0000:   Kelly bushing
 EGL .F         4997.0000:   Ground level
 EDF .F            0.0000:   Drilling floor
 EPD .F           11.0000:   Permanent datum
 TD  .F         4830.0000:   Total depth
 NRUN.             1.0000:   Number of Runs
#--RUN 1---   ------------   The following are for Run 1---
 RUN .             1.0000:   Run 1
 DATE.mm/dd/yyyy 09/18/1968:   Date Logged
 DD  .ft             5495:   Depth Driller
 DL  .ft             5498:   Depth Logger
 BLI .ft             5496:   Bottom Log Interval
 TLI .ft             2500:   Top Log Interval
 CSS .inch          10.75:   Casing Size
 CTD1.ft              450:   Casing Driller 1
 CTL1.ft              454:   Casing Logger 1
 BS  .inch              9:   Bit Size
 DFT .     water base mud:   Type Fluid In Hole
 DFD .lb/gal          9.4:   Mud Weight
 DFV .sec              58:   Viscosity
 DFPH.                9.5:   pH
 DFL .ml               11:   Fluid Loss
 WSS .                pit:   Source Of Sample
 RM  .ohmm            1.7:   Rm
 EMT .F                56:   Rm Meas. Temp.
 RMF .ohmm            .64:   Rmf
 MFT .F               100:   Rmf Meas. Temp.
 RMC .ohmm            1.6:   Rmc
 MCST.F               100:   Rmc Meas. Temp.
 MFSS.               fann:   Source Rmf.
 MCSS.            mud kit:   Source Rmc.
 RMB .ohmm            .60:   Rm. At BHT
 BHT .F               160:   BHT.
 TCS .hh:mm        3 hrs.:   Time Circ. Stopped
 MRT .F               160:   Maximum Recorded Temp.
 LUL .          Newcastle:   Logging Unit Location
 ENGI.        Mr. Custard:   Recorded By
 WITN.            Mr. May:   Witnessed By
 DGBY.          Mr. Burke:   Digitized By
~A  DEPTH       GD       RhoG       GR
# ...
 5187.0000   829.7880  -999.2500   213.1548
 5187.5000   827.4639  -999.2500   212.4825
 5188.0000   827.4440  -999.2500   211.5738
 5188.5000   825.8879  -999.2500   213.8878
 5189.0000   822.0277  -999.2500   214.3607
 5189.5000   822.7758  -999.2500   216.2118
 5190.0000   826.5961  -999.2500   217.6002
 5190.5000   827.3444  -999.2500   217.1573
 5191.0000   830.4512  -999.2500   217.4008
 5191.5000   835.8346  -999.2500   216.2275
 5192.0000   835.5948  -999.2500   215.5494
 5192.5000   828.0275  -999.2500   215.3739
 5193.0000   828.7756  -999.2500   213.0937
 5193.5000   829.5237  -999.2500   211.2662
 5194.0000   830.2718  -999.2500   212.4282
 5194.5000   827.1796  -999.2500   211.2932
 5195.0000   821.0153  -999.2500   211.5397
 5195.5000   819.4642  -999.2500   211.7829
 5196.0000   824.0476  -999.2500   212.7152
 5196.5000   827.2323  -999.2500   214.3404
 5197.0000   830.1521  -999.2500   216.1882
 5197.5000   837.0446  -999.2500   216.2047
 5198.0000   841.7059  -999.2500   216.2182
 5198.5000   850.1497  -999.2500   217.1505
 5199.0000   856.1810  -999.2500   219.0017
 5199.5000   854.6249  -999.2500   221.5420
 5200.0000   853.0688  -999.2500   221.8472
 5200.5000   859.1760  -999.2500   221.1119
 5201.0000   862.2119  -999.2500   223.2004
 5201.5000   862.1732  -999.2500   224.3659
 5202.0000   859.0108  -999.2500   223.6895
 5202.5000   856.5914  -999.2500   224.3997
 5203.0000   853.6030  -999.2500   225.3355
 5203.5000   855.1016  -999.2500   225.1227
 5204.0000   861.9766  -999.2500   223.9911
 5204.5000   865.7888  -999.2500   224.2377
 5205.0000   861.1430  -999.2500   224.4844
 5205.5000   858.7920  -999.2500   223.5825
 5206.0000   851.8420  -999.2500   223.3697
 5206.5000   848.7324  -999.2500   224.7691
 5207.0000   844.8019  -999.2500   224.0969
 5207.5000   841.7435  -999.2500   222.9653
 5208.0000   842.4756  -999.2500   221.1445
 5208.5000   840.8927  -999.2500   217.9455
 5209.0000   845.4635  -999.2500   216.5800
 5209.5000   849.2756  -999.2500   216.8308
 5210.0000   848.4702  -999.2500   216.3884
 5210.5000   853.0410  -999.2500   215.2129
 5211.0000   851.4581  -999.2500   212.5215
 5211.5000   841.4360  -999.2500   208.6290
 5212.0000   835.1552  -999.2500   208.8799
 5212.5000   830.9955  -999.2500   210.9642
 5213.0000   821.3449  -999.2500   211.4363
 5213.5000   794.4257  -999.2500   209.6198
 5214.0000   775.9551  -999.2500   205.9614
 5214.5000   734.2740  -999.2500   195.4658
 5215.0000   663.3814  -999.2500   185.7619
 5215.5000  -999.2500  -999.2500   176.0579
 5216.0000  -999.2500  -999.2500   169.2771
 5216.5000  -999.2500  -999.2500   167.6860
 5217.0000  -999.2500  -999.2500   166.7841
 5217.5000  -999.2500  -999.2500   167.0312
 5218.0000  -999.2500  -999.2500   167.5113
 5218.5000   609.3361  -999.2500   170.0550
 5219.0000   647.2725  -999.2500   174.2068
 5219.5000   685.2089  -999.2500   178.8178
 5220.0000   723.1452  -999.2500   181.3616
 5220.5000   760.7911  -999.2500   182.5228
 5221.0000   754.3482  -999.2500   180.0172
 5221.5000   684.4915  -999.2500   180.0341
 5222.0000   627.1190  -999.2500   183.2670
 5222.5000   670.2841  -999.2500   187.3331
 5223.0000   706.9047  -999.2500   196.5061
 5223.5000   743.5254  -999.2500   206.5212
 5224.0000   765.7163  -999.2500   209.5243
 5224.5000   803.5642  -999.2500   209.5412
 5225.0000   807.3764  -999.2500   206.1125
 5225.5000   792.7366  -999.2500   196.8131
 5226.0000   709.7309  -999.2500   185.0984
 5226.5000   601.4175  -999.2500   173.3836
 5227.0000  -999.2500  -999.2500   165.0665
 5227.5000  -999.2500  -999.2500   165.7726
 5228.0000  -999.2500  -999.2500   167.1678
 5228.5000  -999.2500  -999.2500   168.5630
 5229.0000  -999.2500  -999.2500   172.0255
 5229.5000   624.9928  -999.2500   176.0271
 5230.0000   681.7083  -999.2500   182.3056
 5230.5000   766.5024  -999.2500   188.5841
 5231.0000   851.2964  -999.2500   194.8625
 5231.5000   936.0905  -999.2500   200.1361
 5232.0000   981.9515  -999.2500   201.9907
 5232.5000   948.4993  -999.2500   203.4137
 5233.0000   943.4741  -999.2500   205.0114
 5233.5000   964.1646  -999.2500   204.5725
 5234.0000   974.8798  -999.2500   202.0626
 5234.5000   979.4600  -999.2500   195.4580
 5235.0000   957.1398  -999.2500   182.6348
 5235.5000   735.0781  -999.2500   176.6142
 5236.0000   611.4459  -999.2500   179.4616
 5236.5000   652.8737  -999.2500   186.4988
 5237.0000   701.9432  -999.2500   190.9113
 5237.5000   761.1271  -999.2500   191.3876
 5238.0000   820.3111  -999.2500   189.5669
 5238.5000   897.6085  -999.2500   186.5976
 5239.0000   993.3046  -999.2500   186.1508
 5239.5000  1089.0006  -999.2500   185.9423
 5240.0000  1192.5468  -999.2500   187.5672
 5240.5000   824.6169  -999.2500   189.4218
 5241.0000   910.2094  -999.2500   191.4150
 5241.5000  1001.1871  -999.2500   194.7764
 5242.0000  1018.8148  -999.2500   194.5262
 5242.5000  1034.9063  -999.2500   197.5335
 5243.0000  1090.9364  -999.2500   203.0635
 5243.5000  1090.8492  -999.2500   205.8369
 5244.0000  1089.3253  -999.2500   208.8401
 5244.5000  1107.7117  -999.2500   208.6273
 5245.0000  1140.7003  -999.2500   209.3333
 5245.5000  1203.6803  -999.2500   210.9582
 5246.0000  1278.9331  -999.2500   213.0730
 5246.5000  1119.8422  -999.2500   216.7372
 5247.0000   851.7703  -999.2500   223.6472
 5247.5000   866.3257  -999.2500   225.0424
 5248.0000   846.3096  -999.2500   220.9246
 5248.5000   833.9834  -999.2500   217.4959
 5249.0000   824.7293  -999.2500   214.9860
 5249.5000   807.7947  -999.2500   213.6247
 5250.0000   768.5868  -999.2500   212.2633
 5250.5000   740.0923  -999.2500   200.2414
 5251.0000   705.5922  -999.2500   191.1654
 5251.5000   683.9827  -999.2500   190.4890
 5252.0000   680.8824  -999.2500   195.3748
 5252.5000   731.5409  -999.2500   201.6408
 5253.0000   782.6197  -999.2500   207.9342
 5253.5000   837.4396  -999.2500   209.8607
 5254.0000   840.4837  -999.2500   209.6436
 5254.5000   839.5929  -999.2500   206.9083
 5255.0000   840.3994  -999.2500   204.3984
 5255.5000   828.2258  -999.2500   204.1814
 5256.0000   804.2167  -999.2500   203.5092
 5256.5000   772.8091  -999.2500   199.3956
 5257.0000   733.7782  -999.2500   188.8459
 5257.5000   694.7473  -999.2500   185.4172
 5258.0000   655.0685  -999.2500   180.3643
 5258.5000   646.5328  -999.2500   181.0230
 5259.0000   660.9585  -999.2500   190.2961
 5259.5000   690.2770  -999.2500   200.1905
 5260.0000   731.4596  -999.2500   206.1799
 5260.5000   782.1459  -999.2500   210.3316
 5261.0000   832.8323  -999.2500   216.0912
 5261.5000   851.4206  -999.2500   217.0270
 5262.0000   850.6151  -999.2500   215.6657
 5262.5000   848.5239  -999.2500   214.0746
 5263.0000   828.2573  -999.2500   211.2838
 5263.5000   782.5487  -999.2500   207.4670
 5264.0000   728.5338  -999.2500   200.3471
 5264.5000   674.5189  -999.2500   187.6528
 5265.0000   616.1259  -999.2500   176.7195
 5265.5000   605.3358  -999.2500   176.7365
 5266.0000   615.2830  -999.2500   178.1316
 5266.5000   647.5035  -999.2500   180.9054
 5267.0000   650.5383  -999.2500   179.7788
 5267.5000   638.3334  -999.2500   177.0339
 5268.0000   625.1083  -999.2500   179.5818
 5268.5000   645.8082  -999.2500   181.8958
 5269.0000   696.1887  -999.2500   182.6019
 5269.5000   755.7609  -999.2500   182.8485
 5270.0000   815.3331  -999.2500   180.3387
 5270.5000   863.7936  -999.2500   170.0187
 5271.0000   680.6356  -999.2500   169.3463
 5271.5000  -999.2500  -999.2500   167.7554
 5272.0000  -999.2500  -999.2500   168.4989
 5272.5000  -999.2500  -999.2500   170.3203
 5273.0000  -999.2500  -999.2500   171.9452
 5273.5000   605.6643  -999.2500   173.7998
 5274.0000   645.2504  -999.2500   175.6544
 5274.5000   659.9391  -999.2500   178.8873
 5275.0000   676.0306  -999.2500   186.2549
 5275.5000   684.4417  -999.2500   190.8660
 5276.0000   736.3657  -999.2500   192.9503
 5276.5000   821.0795  -999.2500   192.2073
 5277.0000   765.8173  -999.2500   184.6653
 5277.5000   680.3838  -999.2500   176.8367
