~VERSION INFORMATION
 VERS.               2.10:   CWLS LOG ASCII STANDARD - VERSION 2.10
 WRAP.                 NO:   ONE LINE PER DEPTH STEP
~WELL INFORMATION
#MNEM.UNIT      DATA TYPE    INFORMATION
#----------   ------------   ------------------------------
 STRT.F            0.0000:   START DEPTH
 STOP.F         5494.0205:   STOP DEPTH
 STEP.F            0.5000:   STEP LENGTH
 NULL.          -999.2500:   NO VALUE
 COMP. Tesoro Petroleum Corporation:   COMPANY
 WELL.            51-X-28:   WELL
 FLD .           N.P.R. 3:   FIELD
 LOC . 28-39N-78W-NATRONA-WY:   LOCATION
 STAT.                 WY:   STATE
 COUN.            Natrona:   COUNTY
 SRVC.              Welex:   SERVICE COMPANY
 DATE.                   :   LOGDATE
~CURVE INFORMATION
#MNEM.UNIT       API CODE    CURVE DESCRIPTION
#----------   ------------   ------------------------------
 DEPT.F                  :
 GD  .std.den.units      :   Gamma Density
 RhoG.APO                :   Gamma
 GR.API        	         :   Gamma
~PARAMETER INFORMATION
#MNEM.UNIT          VALUE    DESCRIPTION
#----------   ------------   ------------------------------
 EKB .F         5008.0000:   Kelly bushing
 EGL .F         4997.0000:   Ground level
 EDF .F            0.0000:   Drilling floor
 EPD .F           11.0000:   Permanent datum
 TD  .F         4830.0000:   Total depth
 NRUN.             1.0000:   Number of Runs
#--RUN 1---   ------------   The following are for Run 1---
 RUN .             1.0000:   Run 1
 DATE.mm/dd/yyyy 09/18/1968:   Date Logged
 DD  .ft             5495:   Depth Driller
 DL  .ft             5498:   Depth Logger
 BLI .ft             5496:   Bottom Log Interval
 TLI .ft             2500:   Top Log Interval
 CSS .inch          10.75:   Casing Size
 CTD1.ft              450:   Casing Driller 1
 CTL1.ft              454:   Casing Logger 1
 BS  .inch              9:   Bit Size
 DFT .     water base mud:   Type Fluid In Hole
 DFD .lb/gal          9.4:   Mud Weight
 DFV .sec              58:   Viscosity
 DFPH.                9.5:   pH
 DFL .ml               11:   Fluid Loss
 WSS .                pit:   Source Of Sample
 RM  .ohmm            1.7:   Rm
 EMT .F                56:   Rm Meas. Temp.
 RMF .ohmm            .64:   Rmf
 MFT .F               100:   Rmf Meas. Temp.
 RMC .ohmm            1.6:   Rmc
 MCST.F               100:   Rmc Meas. Temp.
 MFSS.               fann:   Source Rmf.
 MCSS.            mud kit:   Source Rmc.
 RMB .ohmm            .60:   Rm. At BHT
 BHT .F               160:   BHT.
 TCS .hh:mm        3 hrs.:   Time Circ. Stopped
 MRT .F               160:   Maximum Recorded Temp.
 LUL .          Newcastle:   Logging Unit Location
 ENGI.        Mr. Custard:   Recorded By
 WITN.            Mr. May:   Witnessed By
 DGBY.          Mr. Burke:   Digitized By
~A  DEPTH       GD       RhoG       GR
# ...
 5096.0000   864.2089  -999.2500   223.5069
 5096.5000   864.1886  -999.2500   223.2907
 5097.0000   864.0582  -999.2500   223.3075
 5097.5000   861.0719  -999.2500   223.7805
 5098.0000   859.5158  -999.2500   225.1722
 5098.5000   867.1764  -999.2500   225.1857
 5099.0000   881.7493  -999.2500   228.4151
 5099.5000   884.8016  -999.2500   230.0366
 5100.0000   897.0705  -999.2500   232.1174
 5100.5000   898.5916  -999.2500   233.2795
 5101.0000   900.1027  -999.2500   233.0630
 5101.5000   910.8355  -999.2500   233.7798
 5102.0000   924.6404  -999.2500   235.4408
 5102.5000   943.8217  -999.2500   236.0933
 5103.0000   990.7865  -999.2500   236.1068
 5103.5000  1038.4968  -999.2500   237.0391
 5104.0000  1080.4763  -999.2500   238.2012
 5104.5000  1005.4403  -999.2500   236.8364
 5105.0000   938.4509  -999.2500   232.9448
 5105.5000   855.2093  -999.2500   232.2692
 5106.0000   848.4423  -999.2500   228.8371
 5106.5000   849.9584  -999.2500   225.4049
 5107.0000   846.8663  -999.2500   225.4185
 5107.5000   845.3053  -999.2500   225.6942
 5108.0000   844.5223  -999.2500   227.2864
 5108.5000   851.4097  -999.2500   226.6074
 5109.0000   846.7815  -999.2500   226.8540
 5109.5000   845.9935  -999.2500   228.4755
 5110.0000   855.1902  -999.2500   229.6375
 5110.5000   872.0723  -999.2500   230.1104
 5111.0000   862.8307  -999.2500   229.2050
 5111.5000   857.4344  -999.2500   229.2185
 5112.0000   856.6282  -999.2500   229.9212
 5112.5000   860.5031  -999.2500   231.3442
 5113.0000   862.0740  -999.2500   233.2381
 5113.5000   861.1899  -999.2500   236.3969
 5114.0000   855.0256  -999.2500   238.7074
 5114.5000   857.3148  -999.2500   237.3393
 5115.0000   853.4495  -999.2500   238.2750
 5115.5000   836.5326  -999.2500   237.3697
 5116.0000   820.3836  -999.2500   236.6906
 5116.5000   809.6110  -999.2500   237.6263
 5117.0000   813.4312  -999.2500   238.5587
 5117.5000   824.1639  -999.2500   238.8019
 5118.0000   829.5211  -999.2500   237.6461
 5118.5000   823.3560  -999.2500   236.7648
 5119.0000   823.3240  -999.2500   235.8595
 5119.5000   841.0663  -999.2500   237.4810
 5120.0000   845.6669  -999.2500   237.0317
 5120.5000   848.6218  -999.2500   237.7377
 5121.0000   853.2051  -999.2500   235.4541
 5121.5000   854.7263  -999.2500   235.0048
 5122.0000   841.6446  -999.2500   236.3999
 5122.5000   829.3358  -999.2500   237.3650
 5123.0000   829.3159  -999.2500   237.1160
 5123.5000   831.6000  -999.2500   238.1259
 5124.0000   827.7399  -999.2500   240.5920
 5124.5000   826.9518  -999.2500   239.6866
 5125.0000   825.3959  -999.2500   236.4842
 5125.5000   818.4634  -999.2500   233.9709
 5126.0000   799.2422  -999.2500   233.7513
 5126.5000   785.9685  -999.2500   231.2414
 5127.0000   776.0562  -999.2500   228.7281
 5127.5000   774.6048  -999.2500   226.6742
 5128.0000   783.7965  -999.2500   226.2042
 5128.5000   796.8334  -999.2500   227.1607
 5129.0000   819.0869  -999.2500   226.9443
 5129.5000   824.4482  -999.2500   226.2721
 5130.0000   810.5984  -999.2500   221.4617
 5130.5000   803.6661  -999.2500   219.6375
 5131.0000   799.0378  -999.2500   217.8133
 5131.5000   799.0178  -999.2500   217.8268
 5132.0000   800.5340  -999.2500   219.9077
 5132.5000   805.1223  -999.2500   221.7589
 5133.0000   811.2468  -999.2500   221.0832
 5133.5000   810.4584  -999.2500   222.0155
 5134.0000   803.8304  -999.2500   224.3261
 5134.5000   787.8488  -999.2500   219.6384
 5135.0000   768.9193  -999.2500   217.9212
 5135.5000   768.1313  -999.2500   218.1678
 5136.0000   762.7350  -999.2500   218.1813
 5136.5000   776.5399  -999.2500   218.1948
 5137.0000   790.3448  -999.2500   219.1271
 5137.5000   798.7734  -999.2500   220.7486
 5138.0000   801.8257  -999.2500   220.9918
 5138.5000   802.5788  -999.2500   224.4509
 5139.0000   811.7704  -999.2500   227.6803
 5139.5000   824.0393  -999.2500   230.0114
 5140.0000   827.8596  -999.2500   229.2332
 5140.5000   824.5743  -999.2500   230.0213
 5141.0000   812.7383  -999.2500   230.2645
 5141.5000   800.1450  -999.2500   231.1968
 5142.0000   795.5167  -999.2500   230.2915
 5142.5000   796.2648  -999.2500   228.4673
 5143.0000   806.9976  -999.2500   227.3322
 5143.5000   807.7507  -999.2500   227.3457
 5144.0000   805.4216  -999.2500   226.6701
 5144.5000   814.6182  -999.2500   226.4539
 5145.0000   819.9746  -999.2500   227.1568
 5145.5000   813.8103  -999.2500   227.1733
 5146.0000   796.1252  -999.2500   227.4165
 5146.5000   795.3372  -999.2500   228.8083
 5147.0000   789.9407  -999.2500   227.6732
 5147.5000   793.3584  -999.2500   226.9942
 5148.0000   816.3979  -999.2500   230.6864
 5148.5000   838.2665  -999.2500   233.4564
 5149.0000   837.4785  -999.2500   234.3887
 5149.5000   835.9222  -999.2500   233.9428
 5150.0000   827.4539  -999.2500   234.6454
 5150.5000   825.8929  -999.2500   232.7785
 5151.0000   817.4244  -999.2500   227.5548
 5151.5000   810.4920  -999.2500   224.5821
 5152.0000   814.3173  -999.2500   222.9876
 5152.5000   811.2251  -999.2500   221.6228
 5153.0000   827.3292  -999.2500   222.3255
 5153.5000   834.9898  -999.2500   224.6360
 5154.0000   841.1142  -999.2500   224.8793
 5154.5000   843.4034  -999.2500   225.5819
 5155.0000   834.9300  -999.2500   222.8411
 5155.5000   802.6520  -999.2500   221.7060
 5156.0000   789.6804  -999.2500   220.3413
 5156.5000   768.0465  -999.2500   216.6794
 5157.0000   748.0573  -999.2500   216.2335
 5157.5000   745.7382  -999.2500   216.2470
 5158.0000   755.6979  -999.2500   219.0170
 5158.5000   771.0389  -999.2500   220.8682
 5159.0000   781.7716  -999.2500   222.0304
 5159.5000   779.4475  -999.2500   221.7832
 5160.0000   774.0513  -999.2500   218.6149
 5160.5000   758.6703  -999.2500   215.1828
 5161.0000   748.6655  -999.2500   212.4364
 5161.5000   753.3419  -999.2500   213.3721
 5162.0000   752.1786  -999.2500   215.2233
 5162.5000   740.1523  -999.2500   213.1694
 5163.0000   735.5241  -999.2500   207.5208
 5163.5000   720.1432  -999.2500   200.3538
 5164.0000   703.9942  -999.2500   193.1868
 5164.5000   643.2983  -999.2500   186.0198
 5165.0000   631.7577  -999.2500   178.5519
 5165.5000   623.2892  -999.2500   175.5791
 5166.0000   620.2020  -999.2500   174.9035
 5166.5000   646.2908  -999.2500   174.4576
 5167.0000   649.3430  -999.2500   172.6368
 5167.5000   647.7869  -999.2500   171.0423
 5168.0000   620.5284  -999.2500   168.2993
 5168.5000   603.1051  -999.2500   167.1642
 5169.0000  -999.2500  -999.2500   167.4074
 5169.5000  -999.2500  -999.2500   169.0289
 5170.0000  -999.2500  -999.2500   170.8800
 5170.5000  -999.2500  -999.2500   173.4203
 5171.0000   607.7054  -999.2500   175.5012
 5171.5000   614.5979  -999.2500   177.6153
 5172.0000   627.6348  -999.2500   180.7634
 5172.5000   642.3300  -999.2500   187.5261
 5173.0000   686.5176  -999.2500   200.0099
 5173.5000   739.5854  -999.2500   212.4937
 5174.0000   792.6533  -999.2500   223.3639
 5174.5000   833.3689  -999.2500   227.0527
 5175.0000   837.1942  -999.2500   222.2423
 5175.5000   834.8651  -999.2500   222.2558
 5176.0000   838.6854  -999.2500   220.6647
 5176.5000   840.9699  -999.2500   219.0702
 5177.0000   840.1816  -999.2500   219.0837
 5177.5000   843.2338  -999.2500   217.2596
 5178.0000   839.1281  -999.2500   215.4320
 5178.5000   835.5085  -999.2500   217.2865
 5179.0000   836.2616  -999.2500   217.9892
 5179.5000   846.2213  -999.2500   219.8403
 5180.0000   865.4353  -999.2500   222.3806
 5180.5000   902.2305  -999.2500   223.7817
 5181.0000   939.0970  -999.2500   222.8052
 5181.5000   965.9588  -999.2500   221.5056
 5182.0000  1005.5171  -999.2500   218.3032
 5182.5000  1078.0507  -999.2500   215.7899
 5183.0000  1096.4640  -999.2500   215.3406
 5183.5000  1074.9386  -999.2500   215.8168
 5184.0000   940.4515  -999.2500   215.3676
 5184.5000   839.8007  -999.2500   216.0735
 5185.0000   838.3205  -999.2500   216.3168
 5185.5000   841.3736  -999.2500   216.3302
 5186.0000   839.8125  -999.2500   215.3516
 5186.5000   835.1843  -999.2500   213.3357
