~VERSION INFORMATION
 VERS.               2.10:   CWLS LOG ASCII STANDARD - VERSION 2.10
 WRAP.                 NO:   ONE LINE PER DEPTH STEP
~WELL INFORMATION
#MNEM.UNIT      DATA TYPE    INFORMATION
#----------   ------------   ------------------------------
 STRT.F            0.0000:   START DEPTH
 STOP.F         5494.0205:   STOP DEPTH
 STEP.F            0.5000:   STEP LENGTH
 NULL.          -999.2500:   NO VALUE
 COMP. Tesoro Petroleum Corporation:   COMPANY
 WELL.            51-X-28:   WELL
 FLD .           N.P.R. 3:   FIELD
 LOC . 28-39N-78W-NATRONA-WY:   LOCATION
 STAT.                 WY:   STATE
 COUN.            Natrona:   COUNTY
 SRVC.              Welex:   SERVICE COMPANY
 DATE.                   :   LOGDATE
~CURVE INFORMATION
#MNEM.UNIT       API CODE    CURVE DESCRIPTION
#----------   ------------   ------------------------------
 DEPT.F                  :
 GD  .std.den.units      :   Gamma Density
 RhoG.APO                :   Gamma
 GR.API        	         :   Gamma
~PARAMETER INFORMATION
#MNEM.UNIT          VALUE    DESCRIPTION
#----------   ------------   ------------------------------
 EKB .F         5008.0000:   Kelly bushing
 EGL .F         4997.0000:   Ground level
 EDF .F            0.0000:   Drilling floor
 EPD .F           11.0000:   Permanent datum
 TD  .F         4830.0000:   Total depth
 NRUN.             1.0000:   Number of Runs
#--RUN 1---   ------------   The following are for Run 1---
 RUN .             1.0000:   Run 1
 DATE.mm/dd/yyyy 09/18/1968:   Date Logged
 DD  .ft             5495:   Depth Driller
 DL  .ft             5498:   Depth Logger
 BLI .ft             5496:   Bottom Log Interval
 TLI .ft             2500:   Top Log Interval
 CSS .inch          10.75:   Casing Size
 CTD1.ft              450:   Casing Driller 1
 CTL1.ft              454:   Casing Logger 1
 BS  .inch              9:   Bit Size
 DFT .     water base mud:   Type Fluid In Hole
 DFD .lb/gal          9.4:   Mud Weight
 DFV .sec              58:   Viscosity
 DFPH.                9.5:   pH
 DFL .ml               11:   Fluid Loss
 WSS .                pit:   Source Of Sample
 RM  .ohmm            1.7:   Rm
 EMT .F                56:   Rm Meas. Temp.
 RMF .ohmm            .64:   Rmf
 MFT .F               100:   Rmf Meas. Temp.
 RMC .ohmm            1.6:   Rmc
 MCST.F               100:   Rmc Meas. Temp.
 MFSS.               fann:   Source Rmf.
 MCSS.            mud kit:   Source Rmc.
 RMB .ohmm            .60:   Rm. At BHT
 BHT .F               160:   BHT.
 TCS .hh:mm        3 hrs.:   Time Circ. Stopped
 MRT .F               160:   Maximum Recorded Temp.
 LUL .          Newcastle:   Logging Unit Location
 ENGI.        Mr. Custard:   Recorded By
 WITN.            Mr. May:   Witnessed By
 DGBY.          Mr. Burke:   Digitized By
~A  DEPTH       GD       RhoG       GR
# ...
 4277.0000   159.3541  -999.2500   216.4630
 4277.5000   257.6859  -999.2500   218.5555
 4278.0000   183.0232  -999.2500   220.8786
 4278.5000    76.2393  -999.2500   220.6622
 4279.0000   189.5833  -999.2500   220.6858
 4279.5000   302.9273  -999.2500   218.4005
 4280.0000   416.2713  -999.2500   214.5023
 4280.5000   499.9272  -999.2500   210.2493
 4281.0000   -39.2585  -999.2500   203.4848
 4281.5000  -999.2500  -999.2500   201.4299
 4282.0000  -999.2500  -999.2500   200.2967
 4282.5000  1057.6675  -999.2500   199.3938
 4283.0000  1039.9198  -999.2500   201.2560
 4283.5000  1021.4073  -999.2500   202.8878
 4284.0000  1023.6962  -999.2500   204.5195
 4284.5000  1025.9850  -999.2500   204.0775
 4285.0000  1030.5850  -999.2500   203.4067
 4285.5000  1035.2034  -999.2500   197.6652
 4286.0000  1040.8716  -999.2500   194.6886
 4286.5000  1051.3132  -999.2500   193.7510
 4287.0000  1062.0767  -999.2500   192.8830
 4287.5000  1085.9369  -999.2500   193.1323
 4288.0000  1095.1594  -999.2500   192.2294
 4288.5000  1092.8257  -999.2500   192.0179
 4289.0000  1087.4104  -999.2500   191.5759
 4289.5000  1089.6992  -999.2500   193.6732
 4290.0000  1085.6758  -999.2500   195.7658
 4290.5000  1083.3632  -999.2500   199.4712
 4291.0000  1082.6924  -999.2500   203.2009
 4291.5000  1074.1954  -999.2500   203.0520
 4292.0000  1078.0250  -999.2500   197.2283
 4292.5000  1088.7939  -999.2500   192.6389
 4293.0000  1086.4547  -999.2500   192.4226
 4293.5000  1075.6462  -999.2500   190.6028
 4294.0000  1069.4604  -999.2500   191.0825
 4294.5000  1057.0519  -999.2500   196.4009
 4295.0000  1051.6903  -999.2500   199.1847
 4295.5000  1039.3412  -999.2500   199.2092
 4296.0000  1030.0737  -999.2500   205.0750
 4296.5000  1005.3980  -999.2500   209.6146
 4297.0000   986.8856  -999.2500   211.9376
 4297.5000   985.3223  -999.2500   211.7260
 4298.0000   994.5447  -999.2500   211.5098
 4298.5000  1012.2418  -999.2500   212.6854
 4299.0000  1017.0836  -999.2500   212.4738
 4299.5000  1026.8291  -999.2500   212.0318
 4300.0000  1019.1026  -999.2500   209.7466
 4300.5000  1003.6718  -999.2500   208.5888
 4301.0000   988.2410  -999.2500   207.4848
 4301.5000   982.0552  -999.2500   208.4253
 4302.0000   982.8088  -999.2500   208.6745
 4302.5000   986.6328  -999.2500   209.8455
 4303.0000  1003.0831  -999.2500   210.0947
 4303.5000  1019.7755  -999.2500   209.8832
 4304.0000  1038.1794  -999.2500   209.9020
 4304.5000  1044.3203  -999.2500   205.2343
 4305.0000  1053.5428  -999.2500   199.8267
 4305.5000  1083.1132  -999.2500   194.4192
 4306.0000  1102.8030  -999.2500   192.3508
 4306.5000  1115.8774  -999.2500   193.5187
 4307.0000  1100.4465  -999.2500   193.9977
 4307.5000  1084.1217  -999.2500   193.0912
 4308.0000  1076.5186  -999.2500   192.8721
 4308.5000  1084.1943  -999.2500   193.1214
 4309.0000  1082.6310  -999.2500   193.5973
 4309.5000  1084.9196  -999.2500   194.9949
 4310.0000  1086.4435  -999.2500   196.3925
 4310.5000  1077.1703  -999.2500   198.2509
 4311.0000  1069.4435  -999.2500   199.8789
 4311.5000  1073.2731  -999.2500   199.6308
 4312.0000  1068.6279  -999.2500   197.3384
 4312.5000  1059.3604  -999.2500   195.3197
 4313.0000  1056.2561  -999.2500   192.5698
 4313.5000  1071.2020  -999.2500   190.5074
 4314.0000  1080.0881  -999.2500   190.2958
 4314.5000  1086.9993  -999.2500   188.4676
 4315.0000  1097.7626  -999.2500   186.6356
 4315.5000  1112.3778  -999.2500   186.8849
 4316.0000  1110.8201  -999.2500   187.3608
 4316.5000  1115.4199  -999.2500   188.5280
 4317.0000  1099.9834  -999.2500   189.7092
 4317.5000  1082.2412  -999.2500   190.9327
 4318.0000  1070.6624  -999.2500   193.6462
 4318.5000  1062.0786  -999.2500   195.5046
 4319.0000  1059.8313  -999.2500   195.9805
 4319.5000  1064.4257  -999.2500   194.3827
 4320.0000  1065.9495  -999.2500   193.0153
 4320.5000  1052.8242  -999.2500   191.6479
 4321.0000  1051.2607  -999.2500   192.5847
 4321.5000  1053.5493  -999.2500   194.4431
 4322.0000  1059.6901  -999.2500   196.7624
 4322.5000  1068.1421  -999.2500   199.1040
 4323.0000  1068.2095  -999.2500   200.4797
 4323.5000  1065.0153  -999.2500   200.0335
 4324.0000  1061.8584  -999.2500   200.9740
 4324.5000  1050.3284  -999.2500   202.1412
 4325.0000  1041.8313  -999.2500   202.8475
 4325.5000   989.4204  -999.2500   201.9409
 4326.0000   980.1528  -999.2500   202.1865
 4326.5000   985.5231  -999.2500   202.4320
 4327.0000   987.0413  -999.2500   202.2167
 4327.5000  1001.8252  -999.2500   201.7709
 4328.0000  1013.7113  -999.2500   201.3161
 4328.5000  1010.8508  -999.2500   200.6199
 4329.0000   989.2565  -999.2500   198.5942
 4329.5000   972.2849  -999.2500   195.1531
 4330.0000   970.7271  -999.2500   189.4078
 4330.5000   982.2550  -999.2500   191.7271
 4331.0000   989.1662  -999.2500   197.2721
 4331.5000   986.8323  -999.2500   199.3609
 4332.0000   989.1210  -999.2500   201.2193
 4332.5000   998.3434  -999.2500   201.9257
 4333.0000  1011.5285  -999.2500   200.7887
 4333.5000  1016.1252  -999.2500   199.1716
 4334.0000  1018.3064  -999.2500   196.7917
 4334.5000  1012.1148  -999.2500   194.1557
 4335.0000  1002.8472  -999.2500   193.4758
 4335.5000  1006.6767  -999.2500   195.5684
 4336.0000  1017.4400  -999.2500   196.5052
 4336.5000  1022.0399  -999.2500   197.9028
 4337.0000  1022.7934  -999.2500   199.3004
 4337.5000  1019.6834  -999.2500   200.4675
 4338.0000  1015.0383  -999.2500   202.3259
 4338.5000  1009.4384  -999.2500   202.8019
 4339.0000  1002.6664  -999.2500   202.5820
 4339.5000  1008.8015  -999.2500   201.4002
 4340.0000  1013.4014  -999.2500   199.1643
 4340.5000  1015.6958  -999.2500   197.1057
 4341.0000  1018.7492  -999.2500   196.4258
 4341.5000  1020.2731  -999.2500   199.2096
 4342.0000  1018.7097  -999.2500   199.9159
 4342.5000  1028.6969  -999.2500   199.6969
 4343.0000  1032.5264  -999.2500   199.4815
 4343.5000  1037.1262  -999.2500   199.9993
 4344.0000  1044.1935  -999.2500   199.6903
 4344.5000  1070.8394  -999.2500   200.9131
 4345.0000  1112.9198  -999.2500   200.4217
 4345.5000  1155.0002  -999.2500   198.6429
 4346.0000  1197.0807  -999.2500   198.4238
 4346.5000  1231.9021  -999.2500   199.1339
 4347.0000  1236.5023  -999.2500   198.9149
 4347.5000  1110.0646  -999.2500   199.8554
 4348.0000  1106.1270  -999.2500   200.1009
 4348.5000  1140.1482  -999.2500   198.9639
 4349.0000  1174.1696  -999.2500   196.9053
 4349.5000  1224.8271  -999.2500   194.1554
 4350.0000  1281.4222  -999.2500   188.6406
 4350.5000  1238.9773  -999.2500   186.8123
 4351.0000  1086.8588  -999.2500   187.9802
 4351.5000  1103.0092  -999.2500   187.9984
 4352.0000  1108.3851  -999.2500   187.7831
 4352.5000  1109.8977  -999.2500   188.0286
 4353.0000  1129.1355  -999.2500   189.4262
 4353.5000  1159.1787  -999.2500   191.0542
 4354.0000  1197.5106  -999.2500   191.0693
 4354.5000  1235.8427  -999.2500   190.3931
 4355.0000  1281.8057  -999.2500   189.7166
 4355.5000  1335.1075  -999.2500   189.5016
 4356.0000  1287.4525  -999.2500   190.2661
 4356.5000  1115.1062  -999.2500   191.1448
 4357.0000  1108.1554  -999.2500   190.2420
 4357.5000  1117.3728  -999.2500   189.7924
 4358.0000  1119.6608  -999.2500   189.1163
 4358.5000  1118.0050  -999.2500   190.7481
 4359.0000  1118.0748  -999.2500   191.4544
 4359.5000  1116.5057  -999.2500   190.7783
 4360.0000  1114.1719  -999.2500   190.3326
 4360.5000  1106.4452  -999.2500   190.3476
 4361.0000  1094.0958  -999.2500   192.2061
 4361.5000  1091.7677  -999.2500   195.0029
 4362.0000  1095.5916  -999.2500   196.1539
 4362.5000  1097.8801  -999.2500   194.5593
 4363.0000  1091.6942  -999.2500   192.7311
 4363.5000  1090.1309  -999.2500   192.0549
 4364.0000  1091.6490  -999.2500   191.3788
 4364.5000  1091.6256  -999.2500   190.7026
 4365.0000  1093.9152  -999.2500   190.4835
 4365.5000  1085.4122  -999.2500   190.2682
 4366.0000  1081.5376  -999.2500   190.5175
 4366.5000  1083.0615  -999.2500   192.1455
 4367.0000  1086.1150  -999.2500   195.3866
 4367.5000  1083.7811  -999.2500   195.3323
