~VERSION INFORMATION
 VERS.               2.10:   CWLS LOG ASCII STANDARD - VERSION 2.10
 WRAP.                 NO:   ONE LINE PER DEPTH STEP
~WELL INFORMATION
#MNEM.UNIT      DATA TYPE    INFORMATION
#----------   ------------   ------------------------------
 STRT.F            0.0000:   START DEPTH
 STOP.F         5499.9595:   STOP DEPTH
 STEP.F            0.5000:   STEP LENGTH
 NULL.          -999.2500:   NO VALUE
 COMP. Tesoro Petroleum Corporation:   COMPANY
 WELL.            51 x 28:   WELL
 FLD .           N.P.R. 3:   FIELD
 LOC . 28-39N-78W-NATRONA-WY:   LOCATION
 STAT.                 WY:   STATE
 COUN.            Natrona:   COUNTY
 SRVC.                   :   SERVICE COMPANY
 DATE.         07/07/1968:   LOGDATE
~CURVE INFORMATION
#MNEM.UNIT       API CODE    CURVE DESCRIPTION
#----------   ------------   ------------------------------
 DEPT.F                  :
 RO  .m2/m               :   Resisitivity Ohms
 SN  .m2/m               :   Reisistivity Ohms
 ASN .m2/m               :   Reisistivity Ohms
 Ind .None               :   Induction
 Ind .None               :   Induction
 Con .millimhos/m        :   Conductivitity
 Con .millimhos/m        :   Conductivitity
~PARAMETER INFORMATION
#MNEM.UNIT          VALUE    DESCRIPTION
#----------   ------------   ------------------------------
 EKB .F         5008.0000:   Kelly bushing
 EGL .F         4997.0000:   Ground level
 EDF .F            0.0000:   Drilling floor
 EPD .F            7.0000:   Permanent datum
 TD  .F         5500.0000:   Total depth
 NRUN.             3.0000:   Number of Runs
#--RUN 1---   ------------   The following are for Run 1---
 RUN .             1.0000:   Run 1
 DATE.mm/dd/yyyy 07/07/1968:   Date Logged
 DD  .ft              450:   Depth Driller
 DL  .ft              455:   Depth Logger
 BLI .ft              450:   Bottom Log Interval
 TLI .ft               38:   Top Log Interval
 CSS .inch             20:   Casing Size
 CTD1.ft               38:   Casing Driller 1
 CTL1.ft               38:   Casing Logger 1
 BS  .inch             15:   Bit Size
 DFT .     water base mud:   Type Fluid In Hole
 DFD .lb/gal          9.3:   Mud Weight
 DFV .sec              48:   Viscosity
 DFPH.                  8:   pH
 DFL .ml              7.6:   Fluid Loss
 WSS .           flo line:   Source Of Sample
 RM  .ohmm            2.7:   Rm
 EMT .F                93:   Rm Meas. Temp.
 RMF .ohmm            2.1:   Rmf
 MFT .F               100:   Rmf Meas. Temp.
 RMC .ohmm            2.3:   Rmc
 MCST.F               100:   Rmc Meas. Temp.
 MCSS.       fann mud kit:   Source Rmc.
 TCS .hh:mm       3 hours:   Time Circ. Stopped
 LUN .               7949:   Logging Unit Number
 LUL .          Newcastle:   Logging Unit Location
 ENGI.            Custard:   Recorded By
 WITN.            Mr. May:   Witnessed By
 DGBY.              Burke:   Digitized By
#--RUN 2---   ------------   The following are for Run 2---
 RUN .             2.0000:   Run 2
 DATE.mm/dd/yyyy 09/01/1968:   Date Logged
 DD  .ft             2955:   Depth Driller
 DL  .ft             2955:   Depth Logger
 BLI .ft             2950:   Bottom Log Interval
 TLI .ft              444:   Top Log Interval
 CSS .inch         10-3/4:   Casing Size
 CTD1.ft              340:   Casing Driller 1
 CTL1.ft              454:   Casing Logger 1
 BS  .inch          7-7/8:   Bit Size
 DFT .               "  ":   Type Fluid In Hole
 DFD .lb/gal          9.6:   Mud Weight
 DFV .sec              52:   Viscosity
 DFPH.                 85:   pH
 DFL .ml                6:   Fluid Loss
 WSS .              circ.:   Source Of Sample
 RM  .ohmm            2.5:   Rm
 EMT .F                52:   Rm Meas. Temp.
 RMF .ohmm           1.10:   Rmf
 MFT .F               100:   Rmf Meas. Temp.
 RMC .ohmm           1.63:   Rmc
 MCST.F               100:   Rmc Meas. Temp.
 MCSS.               "  ":   Source Rmc.
 RMB .ohmm           1.30:   Rm. At BHT
 BHT .F               104:   BHT.
 TCS .hh:mm       2 hours:   Time Circ. Stopped
 MRT .F               104:   Maximum Recorded Temp.
 LUN .               7949:   Logging Unit Number
 LUL .          Newcastle:   Logging Unit Location
 ENGI.               "  ":   Recorded By
 WITN.               "  ":   Witnessed By
 DGBY.               "  ":   Digitized By
#--RUN 3---   ------------   The following are for Run 3---
 RUN .             3.0000:   Run 3
 DATE.mm/dd/yyyy 09/18/1968:   Date Logged
 DD  .ft             5495:   Depth Driller
 DL  .ft             5503:   Depth Logger
 BLI .ft             5498:   Bottom Log Interval
 TLI .ft             2900:   Top Log Interval
 CSS .inch         10-3/4:   Casing Size
 CTD1.ft              450:   Casing Driller 1
 CTL1.ft              454:   Casing Logger 1
 BS  .inch              9:   Bit Size
 DFT .               "  ":   Type Fluid In Hole
 DFD .lb/gal          9.4:   Mud Weight
 DFV .sec              58:   Viscosity
 DFPH.                9.5:   pH
 DFL .ml               11:   Fluid Loss
 WSS .                pit:   Source Of Sample
 RM  .ohmm            1.7:   Rm
 EMT .F                56:   Rm Meas. Temp.
 RMF .ohmm            .64:   Rmf
 MFT .F               100:   Rmf Meas. Temp.
 RMC .ohmm            1.6:   Rmc
 MCST.F               100:   Rmc Meas. Temp.
 MCSS.               "  ":   Source Rmc.
 RMB .ohmm             .6:   Rm. At BHT
 BHT .F               160:   BHT.
 TCS .hh:mm         3 hrs:   Time Circ. Stopped
 MRT .F               160:   Maximum Recorded Temp.
 LUN .               "  ":   Logging Unit Number
 LUL .               "  ":   Logging Unit Location
 ENGI.               "  ":   Recorded By
 WITN.               "  ":   Witnessed By
 DGBY.               "  ":   Digitized By
~A  DEPTH       RO         SN        ASN        Ind        I          C          Con
# ...
 4049.5000  -999.2500    23.8312  -999.2500    14.0372  -999.2500  -999.2500   531.6074
 4050.0000  -999.2500    23.9119  -999.2500    12.1151  -999.2500  -999.2500   534.2828
 4050.5000  -999.2500    23.5895  -999.2500    11.8099  -999.2500  -999.2500   536.9583
 4051.0000  -999.2500    22.8051  -999.2500    11.8148  -999.2500  -999.2500   538.5303
 4051.5000  -999.2500    22.0029  -999.2500    11.8188  -999.2500  -999.2500   538.8526
 4052.0000  -999.2500    21.1385  -999.2500    11.7385  -999.2500  -999.2500   539.2221
 4052.5000  -999.2500    19.7455  -999.2500    11.2883  -999.2500  -999.2500   540.3566
 4053.0000  -999.2500    17.8948  -999.2500    10.4448  -999.2500  -999.2500   542.2634
 4053.5000  -999.2500    16.0441  -999.2500     9.7285  -999.2500  -999.2500   545.3231
 4054.0000  -999.2500    14.1934  -999.2500     9.2084  -999.2500  -999.2500   550.0392
 4054.5000  -999.2500    12.3428  -999.2500     8.6883  -999.2500  -999.2500   554.1299
 4055.0000  -999.2500    10.4921  -999.2500     8.1682  -999.2500  -999.2500   558.2207
 4055.5000  -999.2500     9.5820   493.2062     7.6481  -999.2500  -999.2500   562.3114
 4056.0000  -999.2500     9.2016   472.4906     7.0790  -999.2500  -999.2500   566.4022
 4056.5000  -999.2500     8.7379   451.7749     6.5436  -999.2500  -999.2500   570.5967
 4057.0000  -999.2500     8.4151   431.0593     6.2394  -999.2500  -999.2500   572.8885
 4057.5000  -999.2500     7.9834   410.3437     6.2433  -999.2500  -999.2500   573.6417
 4058.0000  -999.2500     8.1420   399.9482     6.4815  -999.2500  -999.2500   572.8545
 4058.5000  -999.2500     7.9912   403.8117     6.7136  -999.2500  -999.2500   571.3024
 4059.0000  -999.2500     7.9960   395.3907     6.7184  -999.2500  -999.2500   569.7503
 4059.5000  -999.2500     7.9999   390.0395     6.8764  -999.2500  -999.2500   568.9668
 4060.0000  -999.2500     8.0806   392.1069     7.0344  -999.2500  -999.2500   567.0304
 4060.5000  -999.2500     8.1614   411.5757     7.1154  -999.2500  -999.2500   564.7097
 4061.0000  -999.2500     8.3959   425.4110     7.2734  -999.2500  -999.2500   562.3889
 4061.5000  -999.2500     8.7072   439.2463     7.3544  -999.2500  -999.2500   561.2211
 4062.0000  -999.2500     8.7880   446.9419     7.5124  -999.2500  -999.2500   560.8218
 4062.5000  -999.2500     8.7918   444.6606     7.5164  -999.2500  -999.2500   562.0181
 4063.0000  -999.2500     8.6293   437.7744     7.3662  -999.2500  -999.2500   563.0983
 4063.5000  -999.2500     8.0319   416.3066     7.2161  -999.2500  -999.2500   564.6170
 4064.0000  -999.2500     7.8821   397.7705     6.9128  -999.2500  -999.2500   565.7551
 4064.5000  -999.2500     7.6554   381.6256     6.6847  -999.2500  -999.2500   568.0462
 4065.0000  -999.2500     7.4277   371.0948     6.5355  -999.2500  -999.2500   570.7216
 4065.5000  -999.2500     7.2010   362.6738     6.3854  -999.2500  -999.2500   571.4755
 4066.0000  -999.2500     7.2827   360.3871     6.4664  -999.2500  -999.2500   571.0764
 4066.5000  -999.2500     7.5940   372.6928     6.5473  -999.2500  -999.2500   569.5242
 4067.0000  -999.2500     7.8285   378.8535     6.6283  -999.2500  -999.2500   567.5512
 4067.5000  -999.2500     7.8387   383.4793     6.7094  -999.2500  -999.2500   568.3379
 4068.0000  -999.2500     7.5288   380.4305     6.7134  -999.2500  -999.2500   570.2484
 4068.5000  -999.2500     6.9947   370.4745     6.4870  -999.2500  -999.2500   569.4612
 4069.0000  -999.2500     6.9091   361.0461     6.3369  -999.2500  -999.2500   569.8344
 4069.5000  -999.2500     6.7728   349.8004     6.2628  -999.2500  -999.2500   570.9726
 4070.0000  -999.2500     6.7767   341.3794     6.1897  -999.2500  -999.2500   571.3420
 4070.5000  -999.2500     6.8574   336.7957     6.1176  -999.2500  -999.2500   573.6301
 4071.0000  -999.2500     6.9382   340.6540     6.0435  -999.2500  -999.2500   575.1519
 4071.5000  -999.2500     7.0958   344.5123     6.1255  -999.2500  -999.2500   574.7387
 4072.0000  -999.2500     7.0997   348.3706     6.2875  -999.2500  -999.2500   573.5844
 4072.5000  -999.2500     7.2573   353.4461     6.8372  -999.2500  -999.2500   570.4919
 4073.0000  -999.2500     7.4918   367.2192     7.1398  -999.2500  -999.2500   567.0182
 4073.5000  -999.2500     7.8031   380.9923     7.3749  -999.2500  -999.2500   563.5444
 4074.0000  -999.2500     8.1913   394.7654     7.6099  -999.2500  -999.2500   561.6080
 4074.5000  -999.2500     8.5860   417.3385     7.7680  -999.2500  -999.2500   559.6716
 4075.0000  -999.2500     9.1343   442.9766     8.0030  -999.2500  -999.2500   558.1195
 4075.5000  -999.2500     9.5875   468.6147     8.0840  -999.2500  -999.2500   557.3360
 4076.0000  -999.2500     9.7451   485.1519     8.0879  -999.2500  -999.2500   556.9369
 4076.5000  -999.2500     9.4415   482.1031     7.9378  -999.2500  -999.2500   556.9218
 4077.0000  -999.2500     9.2148   472.1472     7.7036  -999.2500  -999.2500   558.0602
 4077.5000  -999.2500     8.9112   459.8889     7.4074  -999.2500  -999.2500   559.1946
 4078.0000  -999.2500     8.9151   453.0027     7.3343  -999.2500  -999.2500   559.9521
 4078.5000  -999.2500     8.9190   446.8841     7.3382  -999.2500  -999.2500   561.4709
 4079.0000  -999.2500     8.9997   449.2127     7.2641  -999.2500  -999.2500   562.6090
 4079.5000  -999.2500     9.2342   458.4433     7.4231  -999.2500  -999.2500   561.8256
 4080.0000  -999.2500     9.3918   469.2087     7.7352  -999.2500  -999.2500   560.2735
 4080.5000  -999.2500     9.6264   476.9044     7.8933  -999.2500  -999.2500   558.3370
 4081.0000  -999.2500     9.7969   480.7627     8.1283  -999.2500  -999.2500   557.1599
 4081.5000  -999.2500    10.0193   489.2258     8.2094  -999.2500  -999.2500   555.9517
 4082.0000  -999.2500    10.1001   502.2919     8.2134  -999.2500  -999.2500   555.6023
 4082.5000  -999.2500     9.9493   496.9460     8.1401  -999.2500  -999.2500   556.3561
 4083.0000  -999.2500     9.8763   499.2693     8.1451  -999.2500  -999.2500   556.7256
 4083.5000  -999.2500     9.7274   495.4531     8.0710  -999.2500  -999.2500   555.9385
 4084.0000  -999.2500     9.6535   487.0320     7.9989  -999.2500  -999.2500   556.3117
 4084.5000  -999.2500     9.6583   481.6808     7.8477  -999.2500  -999.2500   557.8342
 4085.0000  -999.2500     9.6622   478.6320     7.7746  -999.2500  -999.2500   558.2004
 4085.5000  -999.2500     9.7429   479.4205     7.7024  -999.2500  -999.2500   558.5694
 4086.0000  -999.2500     9.6700  -999.2500     7.7065  -999.2500  -999.2500   558.1700
 4086.5000  -999.2500     9.7508  -999.2500     7.7876  -999.2500  -999.2500   557.7705
 4087.0000  -999.2500     9.8316  -999.2500     7.9464  -999.2500  -999.2500   556.5997
 4087.5000  -999.2500     9.9900  -999.2500     8.2586  -999.2500  -999.2500   555.0475
 4088.0000  -999.2500    10.3782  -999.2500     8.4166  -999.2500  -999.2500   554.2640
 4088.5000  -999.2500    10.9202  -999.2500     8.4976  -999.2500  -999.2500   553.4806
 4089.0000  -999.2500    11.3084  -999.2500     8.6556  -999.2500  -999.2500   552.6971
 4089.5000  -999.2500    11.6197  -999.2500     8.7366  -999.2500  -999.2500   552.2980
 4090.0000  -999.2500    11.6236  -999.2500     8.8946  -999.2500  -999.2500   551.5145
 4090.5000  -999.2500    11.5496  -999.2500     8.8985  -999.2500  -999.2500   550.3466
 4091.0000  -999.2500    11.4775  -999.2500     8.9025  -999.2500  -999.2500   550.3768
 4091.5000  -999.2500    11.4046  -999.2500     8.8294  -999.2500  -999.2500   550.7014
 4092.0000  -999.2500    11.1779  -999.2500     8.7563  -999.2500  -999.2500   551.4552
 4092.5000  -999.2500    11.2652  -999.2500     8.7612  -999.2500  -999.2500   551.8247
 4093.0000  -999.2500    11.4933  -999.2500     8.7651  -999.2500  -999.2500   552.1942
 4093.5000  -999.2500    11.4980  -999.2500     8.7691  -999.2500  -999.2500   552.9480
 4094.0000  -999.2500    11.3482  -999.2500     8.6950  -999.2500  -999.2500   552.5439
 4094.5000  -999.2500    11.1974  -999.2500     8.6999  -999.2500  -999.2500   552.1448
