~VERSION INFORMATION
 VERS.               2.10:   CWLS LOG ASCII STANDARD - VERSION 2.10
 WRAP.                 NO:   ONE LINE PER DEPTH STEP
~WELL INFORMATION
#MNEM.UNIT      DATA TYPE    INFORMATION
#----------   ------------   ------------------------------
 STRT.F            0.0000:   START DEPTH
 STOP.F         5499.9595:   STOP DEPTH
 STEP.F            0.5000:   STEP LENGTH
 NULL.          -999.2500:   NO VALUE
 COMP. Tesoro Petroleum Corporation:   COMPANY
 WELL.            51 x 28:   WELL
 FLD .           N.P.R. 3:   FIELD
 LOC . 28-39N-78W-NATRONA-WY:   LOCATION
 STAT.                 WY:   STATE
 COUN.            Natrona:   COUNTY
 SRVC.                   :   SERVICE COMPANY
 DATE.         07/07/1968:   LOGDATE
~CURVE INFORMATION
#MNEM.UNIT       API CODE    CURVE DESCRIPTION
#----------   ------------   ------------------------------
 DEPT.F                  :
 RO  .m2/m               :   Resisitivity Ohms
 SN  .m2/m               :   Reisistivity Ohms
 ASN .m2/m               :   Reisistivity Ohms
 Ind .None               :   Induction
 Ind .None               :   Induction
 Con .millimhos/m        :   Conductivitity
 Con .millimhos/m        :   Conductivitity
~PARAMETER INFORMATION
#MNEM.UNIT          VALUE    DESCRIPTION
#----------   ------------   ------------------------------
 EKB .F         5008.0000:   Kelly bushing
 EGL .F         4997.0000:   Ground level
 EDF .F            0.0000:   Drilling floor
 EPD .F            7.0000:   Permanent datum
 TD  .F         5500.0000:   Total depth
 NRUN.             3.0000:   Number of Runs
#--RUN 1---   ------------   The following are for Run 1---
 RUN .             1.0000:   Run 1
 DATE.mm/dd/yyyy 07/07/1968:   Date Logged
 DD  .ft              450:   Depth Driller
 DL  .ft              455:   Depth Logger
 BLI .ft              450:   Bottom Log Interval
 TLI .ft               38:   Top Log Interval
 CSS .inch             20:   Casing Size
 CTD1.ft               38:   Casing Driller 1
 CTL1.ft               38:   Casing Logger 1
 BS  .inch             15:   Bit Size
 DFT .     water base mud:   Type Fluid In Hole
 DFD .lb/gal          9.3:   Mud Weight
 DFV .sec              48:   Viscosity
 DFPH.                  8:   pH
 DFL .ml              7.6:   Fluid Loss
 WSS .           flo line:   Source Of Sample
 RM  .ohmm            2.7:   Rm
 EMT .F                93:   Rm Meas. Temp.
 RMF .ohmm            2.1:   Rmf
 MFT .F               100:   Rmf Meas. Temp.
 RMC .ohmm            2.3:   Rmc
 MCST.F               100:   Rmc Meas. Temp.
 MCSS.       fann mud kit:   Source Rmc.
 TCS .hh:mm       3 hours:   Time Circ. Stopped
 LUN .               7949:   Logging Unit Number
 LUL .          Newcastle:   Logging Unit Location
 ENGI.            Custard:   Recorded By
 WITN.            Mr. May:   Witnessed By
 DGBY.              Burke:   Digitized By
#--RUN 2---   ------------   The following are for Run 2---
 RUN .             2.0000:   Run 2
 DATE.mm/dd/yyyy 09/01/1968:   Date Logged
 DD  .ft             2955:   Depth Driller
 DL  .ft             2955:   Depth Logger
 BLI .ft             2950:   Bottom Log Interval
 TLI .ft              444:   Top Log Interval
 CSS .inch         10-3/4:   Casing Size
 CTD1.ft              340:   Casing Driller 1
 CTL1.ft              454:   Casing Logger 1
 BS  .inch          7-7/8:   Bit Size
 DFT .               "  ":   Type Fluid In Hole
 DFD .lb/gal          9.6:   Mud Weight
 DFV .sec              52:   Viscosity
 DFPH.                 85:   pH
 DFL .ml                6:   Fluid Loss
 WSS .              circ.:   Source Of Sample
 RM  .ohmm            2.5:   Rm
 EMT .F                52:   Rm Meas. Temp.
 RMF .ohmm           1.10:   Rmf
 MFT .F               100:   Rmf Meas. Temp.
 RMC .ohmm           1.63:   Rmc
 MCST.F               100:   Rmc Meas. Temp.
 MCSS.               "  ":   Source Rmc.
 RMB .ohmm           1.30:   Rm. At BHT
 BHT .F               104:   BHT.
 TCS .hh:mm       2 hours:   Time Circ. Stopped
 MRT .F               104:   Maximum Recorded Temp.
 LUN .               7949:   Logging Unit Number
 LUL .          Newcastle:   Logging Unit Location
 ENGI.               "  ":   Recorded By
 WITN.               "  ":   Witnessed By
 DGBY.               "  ":   Digitized By
#--RUN 3---   ------------   The following are for Run 3---
 RUN .             3.0000:   Run 3
 DATE.mm/dd/yyyy 09/18/1968:   Date Logged
 DD  .ft             5495:   Depth Driller
 DL  .ft             5503:   Depth Logger
 BLI .ft             5498:   Bottom Log Interval
 TLI .ft             2900:   Top Log Interval
 CSS .inch         10-3/4:   Casing Size
 CTD1.ft              450:   Casing Driller 1
 CTL1.ft              454:   Casing Logger 1
 BS  .inch              9:   Bit Size
 DFT .               "  ":   Type Fluid In Hole
 DFD .lb/gal          9.4:   Mud Weight
 DFV .sec              58:   Viscosity
 DFPH.                9.5:   pH
 DFL .ml               11:   Fluid Loss
 WSS .                pit:   Source Of Sample
 RM  .ohmm            1.7:   Rm
 EMT .F                56:   Rm Meas. Temp.
 RMF .ohmm            .64:   Rmf
 MFT .F               100:   Rmf Meas. Temp.
 RMC .ohmm            1.6:   Rmc
 MCST.F               100:   Rmc Meas. Temp.
 MCSS.               "  ":   Source Rmc.
 RMB .ohmm             .6:   Rm. At BHT
 BHT .F               160:   BHT.
 TCS .hh:mm         3 hrs:   Time Circ. Stopped
 MRT .F               160:   Maximum Recorded Temp.
 LUN .               "  ":   Logging Unit Number
 LUL .               "  ":   Logging Unit Location
 ENGI.               "  ":   Recorded By
 WITN.               "  ":   Witnessed By
 DGBY.               "  ":   Digitized By
~A  DEPTH       RO         SN        ASN        Ind        I          C          Con
# ...
 3685.5000  -999.2500     3.6067   184.7271     3.8906  -999.2500  -999.2500   615.1835
 3686.0000  -999.2500     3.6846   172.3958     3.8906  -999.2500  -999.2500   615.5409
 3686.5000  -999.2500     3.6855   171.5590     3.8906  -999.2500  -999.2500   617.1355
 3687.0000  -999.2500     3.6863   169.3747     3.8906  -999.2500  -999.2500   620.8609
 3687.5000  -999.2500     3.6872   172.4797     3.8906  -999.2500  -999.2500   622.3713
 3688.0000  -999.2500     3.6880   178.6616     3.8906  -999.2500  -999.2500   621.5759
 3688.5000  -999.2500     3.6888   170.2057     3.8136  -999.2500  -999.2500   621.5490
 3689.0000  -999.2500     3.6897   164.0611     3.8136  -999.2500  -999.2500   623.0593
 3689.5000  -999.2500     3.6137   161.7681     3.7365  -999.2500  -999.2500   623.8079
 3690.0000  -999.2500     3.6145   161.0167     3.6595  -999.2500  -999.2500   623.0056
 3690.5000  -999.2500     3.6156   162.5808     3.6595  -999.2500  -999.2500   620.6705
 3691.0000  -999.2500     3.6164   159.5178     3.5824  -999.2500  -999.2500   621.0347
 3691.5000  -999.2500     3.6172   158.7614     3.5824  -999.2500  -999.2500   619.8481
 3692.0000  -999.2500     3.6949   164.9480     3.6595  -999.2500  -999.2500   617.8997
 3692.5000  -999.2500     4.0032   178.0638     3.8136  -999.2500  -999.2500   615.1394
 3693.0000  -999.2500     4.1576   184.4935     3.8136  -999.2500  -999.2500   612.0744
 3693.5000  -999.2500     3.7743   168.8561     3.6595  -999.2500  -999.2500   613.5848
 3694.0000  -999.2500     3.6214   161.6874     3.5824  -999.2500  -999.2500   618.9384
 3694.5000  -999.2500     3.3917   153.6285     3.4284  -999.2500  -999.2500   623.1390
 3695.0000  -999.2500     3.3157   146.5731     3.3513  -999.2500  -999.2500   627.9815
 3695.5000  -999.2500     3.1630   141.1988     3.3513  -999.2500  -999.2500   634.2745
 3696.0000  -999.2500     2.9330   137.3652     3.1972  -999.2500  -999.2500   638.4312
 3696.5000  -999.2500     2.9341   140.5329     3.1202  -999.2500  -999.2500   641.4789
 3697.0000  -999.2500     2.8579   139.7186     3.1202  -999.2500  -999.2500   643.8005
 3697.5000  -999.2500     2.8589   135.1147     3.1202  -999.2500  -999.2500   647.1832
 3698.0000  -999.2500     2.9366   132.8222     3.1202  -999.2500  -999.2500   648.6937
 3698.5000  -999.2500     2.9375   139.0041     3.1972  -999.2500  -999.2500   649.0578
 3699.0000  -999.2500     2.9383   148.2631     3.1972  -999.2500  -999.2500   646.7183
 3699.5000  -999.2500     3.0931   149.8273     3.1972  -999.2500  -999.2500   645.1541
 3700.0000  -999.2500     3.2476   162.7002     3.3513  -999.2500  -999.2500   640.8997
 3700.5000  -999.2500     3.5559   177.2741     3.6595  -999.2500  -999.2500   631.6492
 3701.0000  -999.2500     4.0180   189.5456     3.8136  -999.2500  -999.2500   623.6402
 3701.5000  -999.2500     4.3263   204.8870     4.1217  -999.2500  -999.2500   614.5122
 3702.0000  -999.2500     4.7114   220.2284     4.5125  -999.2500  -999.2500   605.3842
 3702.5000  -999.2500     5.1734   244.7793     4.9057  -999.2500  -999.2500   596.2562
 3703.0000  -999.2500     5.4049   260.8882     5.2773  -999.2500  -999.2500   587.6979
 3703.5000  -999.2500     5.6363   276.2617     5.5085  -999.2500  -999.2500   580.7532
 3704.0000  -999.2500     5.5603   280.0591     5.7396  -999.2500  -999.2500   577.2675
 3704.5000  -999.2500     5.4076   265.4676     5.5855  -999.2500  -999.2500   576.0876
 3705.0000  -999.2500     5.1779   256.2502     5.5855  -999.2500  -999.2500   580.6659
 3705.5000  -999.2500     5.0250   254.7075     5.5085  -999.2500  -999.2500   585.6351
 3706.0000  -999.2500     5.0258   248.5600     5.2773  -999.2500  -999.2500   588.2985
 3706.5000  -999.2500     5.0267   244.7169     5.2003  -999.2500  -999.2500   588.6627
 3707.0000  -999.2500     5.0275   250.0813     5.2003  -999.2500  -999.2500   589.3977
 3707.5000  -999.2500     5.0283   242.5581     5.2003  -999.2500  -999.2500   589.7619
 3708.0000  -999.2500     4.6449   227.0387     5.0462  -999.2500  -999.2500   591.6499
 3708.5000  -999.2500     4.5688   220.8912     4.7649  -999.2500  -999.2500   596.2349
 3709.0000  -999.2500     4.2622   222.4202     4.6819  -999.2500  -999.2500   600.9464
 3709.5000  -999.2500     4.0325   214.7359     4.4632  -999.2500  -999.2500   607.3196
 3710.0000  -999.2500     3.9565   206.2860     4.3108  -999.2500  -999.2500   609.9830
 3710.5000  -999.2500     4.0344   207.0476     4.0043  -999.2500  -999.2500   615.3367
 3711.0000  -999.2500     4.1889   207.0379     3.9285  -999.2500  -999.2500   617.6224
 3711.5000  -999.2500     4.2667   218.5420     3.9306  -999.2500  -999.2500   615.6672
 3712.0000  -999.2500     4.3444   234.6508     4.0864  -999.2500  -999.2500   610.6442
 3712.5000  -999.2500     4.7359   245.6129     4.6274  -999.2500  -999.2500   605.6211
 3713.0000  -999.2500     5.1918   276.0760     5.1684  -999.2500  -999.2500   592.5274
 3713.5000  -999.2500     5.6392   340.5355     5.9504  -999.2500  -999.2500   581.6091
 3714.0000  -999.2500     6.1632   352.8071     6.8874  -999.2500  -999.2500   572.4822
 3714.5000  -999.2500     7.1523   361.2413     7.3310  -999.2500  -999.2500   568.2279
 3715.0000  -999.2500     7.1551   352.0240     7.4868  -999.2500  -999.2500   561.6676
 3715.5000  -999.2500     7.0809   338.2013     7.4114  -999.2500  -999.2500   560.8788
 3716.0000  -999.2500     6.8537   326.6816     7.1820  -999.2500  -999.2500   566.2256
 3716.5000  -999.2500     6.0877   312.0920     6.6444  -999.2500  -999.2500   571.9636
 3717.0000  -999.2500     5.9367   292.8978     6.0298  -999.2500  -999.2500   577.1875
 3717.5000  -999.2500     5.6320   269.4362     5.5692  -999.2500  -999.2500   582.4439
 3718.0000  -999.2500     5.0967   251.5695     5.2627  -999.2500  -999.2500   587.7003
 3718.5000  -999.2500     5.0224   238.3827     4.7970  -999.2500  -999.2500   592.9567
 3719.0000  -999.2500     4.6409   225.3281     4.4957  -999.2500  -999.2500   598.2131
 3719.5000  -999.2500     4.2570   216.8783     4.4978  -999.2500  -999.2500   601.0926
 3720.0000  -999.2500     4.1083   204.5911     4.4225  -999.2500  -999.2500   606.3552
 3720.5000  -999.2500     4.0348   201.5135     4.1160  -999.2500  -999.2500   606.7194
 3721.0000  -999.2500     3.9600   206.8779     4.0402  -999.2500  -999.2500   605.9172
 3721.5000  -999.2500     4.0403   208.4053     4.1194  -999.2500  -999.2500   604.7441
 3722.0000  -999.2500     4.1960   202.2575     4.1981  -999.2500  -999.2500   607.0164
 3722.5000  -999.2500     3.7382   189.8736     4.0456  -999.2500  -999.2500   611.9857
 3723.0000  -999.2500     3.6634   182.9490     4.0474  -999.2500  -999.2500   615.0333
 3723.5000  -999.2500     3.6668   182.2782     4.0491  -999.2500  -999.2500   617.6967
 3724.0000  -999.2500     3.6695   179.9680     4.0508  -999.2500  -999.2500   620.7868
 3724.5000  -999.2500     3.4368   173.8205     3.9759  -999.2500  -999.2500   623.7853
 3725.0000  -999.2500     3.2011   167.6730     3.8230  -999.2500  -999.2500   626.0711
 3725.5000  -999.2500     3.1396   167.6652     3.6707  -999.2500  -999.2500   628.3435
 3726.0000  -999.2500     3.1430   168.4249     3.6728  -999.2500  -999.2500   627.5479
 3726.5000  -999.2500     3.1457   170.8579     3.6745  -999.2500  -999.2500   625.5995
 3727.0000  -999.2500     3.1484   165.3394     3.6762  -999.2500  -999.2500   625.1949
 3727.5000  -999.2500     3.2280   160.7268     3.6007  -999.2500  -999.2500   625.1614
 3728.0000  -999.2500     3.3076   163.7889     3.3713  -999.2500  -999.2500   625.1345
 3728.5000  -999.2500     3.3872   169.1514     3.5298  -999.2500  -999.2500   623.0560
 3729.0000  -999.2500     3.6205   182.9578     3.6830  -999.2500  -999.2500   617.7720
 3729.5000  -999.2500     3.8539   176.8103     3.8391  -999.2500  -999.2500   615.0549
 3730.0000  -999.2500     3.9332   172.9653     3.9174  -999.2500  -999.2500   613.4974
 3730.5000  -999.2500     3.5515   166.8178     3.6884  -999.2500  -999.2500   617.6913
