~VERSION INFORMATION
 VERS.               2.10:   CWLS LOG ASCII STANDARD - VERSION 2.10
 WRAP.                 NO:   ONE LINE PER DEPTH STEP
~WELL INFORMATION
#MNEM.UNIT      DATA TYPE    INFORMATION
#----------   ------------   ------------------------------
 STRT.F            0.0000:   START DEPTH
 STOP.F         5499.9595:   STOP DEPTH
 STEP.F            0.5000:   STEP LENGTH
 NULL.          -999.2500:   NO VALUE
 COMP. Tesoro Petroleum Corporation:   COMPANY
 WELL.            51 x 28:   WELL
 FLD .           N.P.R. 3:   FIELD
 LOC . 28-39N-78W-NATRONA-WY:   LOCATION
 STAT.                 WY:   STATE
 COUN.            Natrona:   COUNTY
 SRVC.                   :   SERVICE COMPANY
 DATE.         07/07/1968:   LOGDATE
~CURVE INFORMATION
#MNEM.UNIT       API CODE    CURVE DESCRIPTION
#----------   ------------   ------------------------------
 DEPT.F                  :
 RO  .m2/m               :   Resisitivity Ohms
 SN  .m2/m               :   Reisistivity Ohms
 ASN .m2/m               :   Reisistivity Ohms
 Ind .None               :   Induction
 Ind .None               :   Induction
 Con .millimhos/m        :   Conductivitity
 Con .millimhos/m        :   Conductivitity
~PARAMETER INFORMATION
#MNEM.UNIT          VALUE    DESCRIPTION
#----------   ------------   ------------------------------
 EKB .F         5008.0000:   Kelly bushing
 EGL .F         4997.0000:   Ground level
 EDF .F            0.0000:   Drilling floor
 EPD .F            7.0000:   Permanent datum
 TD  .F         5500.0000:   Total depth
 NRUN.             3.0000:   Number of Runs
#--RUN 1---   ------------   The following are for Run 1---
 RUN .             1.0000:   Run 1
 DATE.mm/dd/yyyy 07/07/1968:   Date Logged
 DD  .ft              450:   Depth Driller
 DL  .ft              455:   Depth Logger
 BLI .ft              450:   Bottom Log Interval
 TLI .ft               38:   Top Log Interval
 CSS .inch             20:   Casing Size
 CTD1.ft               38:   Casing Driller 1
 CTL1.ft               38:   Casing Logger 1
 BS  .inch             15:   Bit Size
 DFT .     water base mud:   Type Fluid In Hole
 DFD .lb/gal          9.3:   Mud Weight
 DFV .sec              48:   Viscosity
 DFPH.                  8:   pH
 DFL .ml              7.6:   Fluid Loss
 WSS .           flo line:   Source Of Sample
 RM  .ohmm            2.7:   Rm
 EMT .F                93:   Rm Meas. Temp.
 RMF .ohmm            2.1:   Rmf
 MFT .F               100:   Rmf Meas. Temp.
 RMC .ohmm            2.3:   Rmc
 MCST.F               100:   Rmc Meas. Temp.
 MCSS.       fann mud kit:   Source Rmc.
 TCS .hh:mm       3 hours:   Time Circ. Stopped
 LUN .               7949:   Logging Unit Number
 LUL .          Newcastle:   Logging Unit Location
 ENGI.            Custard:   Recorded By
 WITN.            Mr. May:   Witnessed By
 DGBY.              Burke:   Digitized By
#--RUN 2---   ------------   The following are for Run 2---
 RUN .             2.0000:   Run 2
 DATE.mm/dd/yyyy 09/01/1968:   Date Logged
 DD  .ft             2955:   Depth Driller
 DL  .ft             2955:   Depth Logger
 BLI .ft             2950:   Bottom Log Interval
 TLI .ft              444:   Top Log Interval
 CSS .inch         10-3/4:   Casing Size
 CTD1.ft              340:   Casing Driller 1
 CTL1.ft              454:   Casing Logger 1
 BS  .inch          7-7/8:   Bit Size
 DFT .               "  ":   Type Fluid In Hole
 DFD .lb/gal          9.6:   Mud Weight
 DFV .sec              52:   Viscosity
 DFPH.                 85:   pH
 DFL .ml                6:   Fluid Loss
 WSS .              circ.:   Source Of Sample
 RM  .ohmm            2.5:   Rm
 EMT .F                52:   Rm Meas. Temp.
 RMF .ohmm           1.10:   Rmf
 MFT .F               100:   Rmf Meas. Temp.
 RMC .ohmm           1.63:   Rmc
 MCST.F               100:   Rmc Meas. Temp.
 MCSS.               "  ":   Source Rmc.
 RMB .ohmm           1.30:   Rm. At BHT
 BHT .F               104:   BHT.
 TCS .hh:mm       2 hours:   Time Circ. Stopped
 MRT .F               104:   Maximum Recorded Temp.
 LUN .               7949:   Logging Unit Number
 LUL .          Newcastle:   Logging Unit Location
 ENGI.               "  ":   Recorded By
 WITN.               "  ":   Witnessed By
 DGBY.               "  ":   Digitized By
#--RUN 3---   ------------   The following are for Run 3---
 RUN .             3.0000:   Run 3
 DATE.mm/dd/yyyy 09/18/1968:   Date Logged
 DD  .ft             5495:   Depth Driller
 DL  .ft             5503:   Depth Logger
 BLI .ft             5498:   Bottom Log Interval
 TLI .ft             2900:   Top Log Interval
 CSS .inch         10-3/4:   Casing Size
 CTD1.ft              450:   Casing Driller 1
 CTL1.ft              454:   Casing Logger 1
 BS  .inch              9:   Bit Size
 DFT .               "  ":   Type Fluid In Hole
 DFD .lb/gal          9.4:   Mud Weight
 DFV .sec              58:   Viscosity
 DFPH.                9.5:   pH
 DFL .ml               11:   Fluid Loss
 WSS .                pit:   Source Of Sample
 RM  .ohmm            1.7:   Rm
 EMT .F                56:   Rm Meas. Temp.
 RMF .ohmm            .64:   Rmf
 MFT .F               100:   Rmf Meas. Temp.
 RMC .ohmm            1.6:   Rmc
 MCST.F               100:   Rmc Meas. Temp.
 MCSS.               "  ":   Source Rmc.
 RMB .ohmm             .6:   Rm. At BHT
 BHT .F               160:   BHT.
 TCS .hh:mm         3 hrs:   Time Circ. Stopped
 MRT .F               160:   Maximum Recorded Temp.
 LUN .               "  ":   Logging Unit Number
 LUL .               "  ":   Logging Unit Location
 ENGI.               "  ":   Recorded By
 WITN.               "  ":   Witnessed By
 DGBY.               "  ":   Digitized By
~A  DEPTH       RO         SN        ASN        Ind        I          C          Con
# ...
 2821.0000  -999.2500     8.2240   393.7984     4.4177  -999.2500  -999.2500   598.9101
 2821.5000  -999.2500     8.3034   402.2450     4.4192  -999.2500  -999.2500   601.2193
 2822.0000  -999.2500     8.0752   400.1050     4.3436  -999.2500  -999.2500   604.2966
 2822.5000  -999.2500     7.9246   392.5722     4.0370  -999.2500  -999.2500   607.3738
 2823.0000  -999.2500     7.2353   377.9980     3.8844  -999.2500  -999.2500   611.2197
 2823.5000  -999.2500     7.0072   352.6711     3.8088  -999.2500  -999.2500   614.2969
 2824.0000  -999.2500     6.8553   344.2412     3.8874  -999.2500  -999.2500   616.9898
 2824.5000  -999.2500     6.7047   332.7392     3.5040  -999.2500  -999.2500   617.7611
 2825.0000  -999.2500     6.7071   329.6851     3.5055  -999.2500  -999.2500   616.9952
 2825.5000  -999.2500     6.7096   335.8488     3.5841  -999.2500  -999.2500   613.9233
 2826.0000  -999.2500     6.9529   342.0739     3.5856  -999.2500  -999.2500   609.6985
 2826.5000  -999.2500     7.4069   347.4116     3.6641  -999.2500  -999.2500   606.6266
 2827.0000  -999.2500     7.7168   354.3428     3.8199  -999.2500  -999.2500   603.1704
 2827.5000  -999.2500     8.1036   367.4183     3.8983  -999.2500  -999.2500   600.0985
 2828.0000  -999.2500     8.1830   382.0300     3.9772  -999.2500  -999.2500   598.9399
 2828.5000  -999.2500     8.1080   398.1777     4.1328  -999.2500  -999.2500   598.1152
 2829.0000  -999.2500     8.1110   395.8923     4.2884  -999.2500  -999.2500   596.2062
 2829.5000  -999.2500     8.1135   392.8387     4.3669  -999.2500  -999.2500   595.5981
 2830.0000  -999.2500     8.1164   389.7852     4.5225  -999.2500  -999.2500   595.0803
 2830.5000  -999.2500     8.0420   390.5722     4.6010  -999.2500  -999.2500   594.5624
 2831.0000  -999.2500     8.0445   391.5842     4.6796  -999.2500  -999.2500   594.0445
 2831.5000  -999.2500     8.0469   394.4543     4.8352  -999.2500  -999.2500   593.2029
 2832.0000  -999.2500     7.9724   391.4008     4.9137  -999.2500  -999.2500   591.6683
 2832.5000  -999.2500     7.6676   382.9710     4.8382  -999.2500  -999.2500   592.8239
 2833.0000  -999.2500     7.3575   372.2370     4.6859  -999.2500  -999.2500   595.1325
 2833.5000  -999.2500     7.2113   361.5030     4.2252  -999.2500  -999.2500   602.5561
 2834.0000  -999.2500     7.1369   344.4358     3.5333  -999.2500  -999.2500   613.7083
 2834.5000  -999.2500     6.4482   323.4104     3.3037  -999.2500  -999.2500   625.0677
 2835.0000  -999.2500     5.6052   302.3849     2.9200  -999.2500  -999.2500   640.7345
 2835.5000  -999.2500     5.1465   281.3595     2.5359  -999.2500  -999.2500   656.4013
 2836.0000  -999.2500     4.6109   260.3340     2.1526  -999.2500  -999.2500   672.3971
 2836.5000  -999.2500     4.3828   236.4248     2.0770  -999.2500  -999.2500   685.0823
 2837.0000  -999.2500     4.3852   226.3146     2.0786  -999.2500  -999.2500   685.4693
 2837.5000  -999.2500     4.4719   219.5698     2.1575  -999.2500  -999.2500   684.7033
 2838.0000  -999.2500     4.8520   225.7329     2.1590  -999.2500  -999.2500   678.1725
 2838.5000  -999.2500     5.4694   238.8084     2.1605  -999.2500  -999.2500   667.5259
 2839.0000  -999.2500     6.0099   264.8616     2.3931  -999.2500  -999.2500   649.3544
 2839.5000  -999.2500     6.3967   311.8105     3.0880  -999.2500  -999.2500   612.8467
 2840.0000  -999.2500     6.7066   327.9583     3.5517  -999.2500  -999.2500   600.1668
 2840.5000  -999.2500     7.2292   344.8740     3.9384  -999.2500  -999.2500   594.4047
 2841.0000  -999.2500     7.3229   354.8773     4.2481  -999.2500  -999.2500   593.2538
 2841.5000  -999.2500     7.6991   361.8919     4.4037  -999.2500  -999.2500   595.5630
 2842.0000  -999.2500     7.3956   365.0233     4.2393  -999.2500  -999.2500   600.5619
 2842.5000  -999.2500     7.2448   364.1547     3.9448  -999.2500  -999.2500   603.2548
 2843.0000  -999.2500     6.9423   359.5652     3.7919  -999.2500  -999.2500   605.5634
 2843.5000  -999.2500     6.5619   351.1353     3.6396  -999.2500  -999.2500   607.8727
 2844.0000  -999.2500     6.2583   335.7930     3.6411  -999.2500  -999.2500   610.9752
 2844.5000  -999.2500     6.3391   329.6673     3.6426  -999.2500  -999.2500   611.3362
 2845.0000  -999.2500     6.4199   329.6860     3.7212  -999.2500  -999.2500   609.4180
 2845.5000  -999.2500     6.4238   335.0811     3.7227  -999.2500  -999.2500   607.8827
 2846.0000  -999.2500     6.6583   338.9493     3.8012  -999.2500  -999.2500   606.3488
 2846.5000  -999.2500     6.8161   341.4482     3.9569  -999.2500  -999.2500   605.5822
 2847.0000  -999.2500     6.8969   344.3585     3.9587  -999.2500  -999.2500   608.2758
 2847.5000  -999.2500     6.8248   342.0730     3.8061  -999.2500  -999.2500   613.2746
 2848.0000  -999.2500     6.6750   333.6432     3.5761  -999.2500  -999.2500   617.8891
 2848.5000  -999.2500     6.6011   319.0689     3.5006  -999.2500  -999.2500   625.6050
 2849.0000  -999.2500     6.4513   296.8142     3.4250  -999.2500  -999.2500   637.0959
 2849.5000  -999.2500     6.0719   273.7914     3.1958  -999.2500  -999.2500   650.1802
 2850.0000  -999.2500     5.4609   262.2894     2.8121  -999.2500  -999.2500   660.1752
 2850.5000  -999.2500     4.8499   247.7152     2.6595  -999.2500  -999.2500   663.6368
 2851.0000  -999.2500     4.6999   248.5023     2.5840  -999.2500  -999.2500   663.6395
 2851.5000  -999.2500     5.0883   249.2934     2.5969  -999.2500  -999.2500   661.7205
 2852.0000  -999.2500     5.5534   261.6008     2.8185  -999.2500  -999.2500   655.5740
 2852.5000  -999.2500     6.0250   290.8054     3.0511  -999.2500  -999.2500   646.2957
 2853.0000  -999.2500     6.3429   309.9276     3.2837  -999.2500  -999.2500   630.7682
 2853.5000  -999.2500     6.8729   329.2453     3.5163  -999.2500  -999.2500   615.2407
 2854.0000  -999.2500     7.1074   340.7847     3.8260  -999.2500  -999.2500   604.8550
 2854.5000  -999.2500     7.3419   350.7881     4.0586  -999.2500  -999.2500   600.2458
 2855.0000  -999.2500     7.4995   359.2553     4.2142  -999.2500  -999.2500   597.5583
 2855.5000  -999.2500     7.5803   369.4128     4.3698  -999.2500  -999.2500   596.4080
 2856.0000  -999.2500     7.6611   382.7852     4.4555  -999.2500  -999.2500   594.1048
 2856.5000  -999.2500     7.8187   391.5742     4.6043  -999.2500  -999.2500   592.5702
 2857.0000  -999.2500     7.9764   397.7372     4.6828  -999.2500  -999.2500   591.0356
 2857.5000  -999.2500     8.0572   403.9003     4.7614  -999.2500  -999.2500   589.8854
 2858.0000  -999.2500     8.2148   410.8315     4.7629  -999.2500  -999.2500   588.3506
 2858.5000  -999.2500     8.2957   416.9946     4.8414  -999.2500  -999.2500   586.4318
 2859.0000  -999.2500     8.3893   426.9980     4.9970  -999.2500  -999.2500   586.4344
 2859.5000  -999.2500     8.5350   430.8569     4.9985  -999.2500  -999.2500   586.4372
 2860.0000  -999.2500     8.4621   429.3503     5.0000  -999.2500  -999.2500   586.4399
 2860.5000  -999.2500     8.3113   427.0951     5.0015  -999.2500  -999.2500   586.8270
 2861.0000  -999.2500     8.2384   426.3922     5.0031  -999.2500  -999.2500   586.4452
 2861.5000  -999.2500     8.1654   421.0973     5.0049  -999.2500  -999.2500   585.6799
 2862.0000  -999.2500     8.1703   421.9305     5.0064  -999.2500  -999.2500   584.9140
 2862.5000  -999.2500     8.3280   425.0679     5.0849  -999.2500  -999.2500   583.3787
 2863.0000  -999.2500     8.4856   440.7488     5.0865  -999.2500  -999.2500   581.4604
 2863.5000  -999.2500     8.6433   448.2560     5.2420  -999.2500  -999.2500   580.3094
 2864.0000  -999.2500     8.4647   447.5531     5.1665  -999.2500  -999.2500   580.6971
 2864.5000  -999.2500     8.3510   440.7058     5.0909  -999.2500  -999.2500   583.3901
 2865.0000  -999.2500     8.2373   420.8017     5.0925  -999.2500  -999.2500   584.9301
 2865.5000  -999.2500     7.8141   404.7379     5.0872  -999.2500  -999.2500   586.0857
 2866.0000  -999.2500     7.4337   386.1906     4.9418  -999.2500  -999.2500   586.4727
