~VERSION INFORMATION
 VERS.               2.10:   CWLS LOG ASCII STANDARD - VERSION 2.10
 WRAP.                 NO:   ONE LINE PER DEPTH STEP
~WELL INFORMATION
#MNEM.UNIT      DATA TYPE    INFORMATION
#----------   ------------   ------------------------------
 STRT.F            0.0000:   START DEPTH
 STOP.F         5494.0205:   STOP DEPTH
 STEP.F            0.5000:   STEP LENGTH
 NULL.          -999.2500:   NO VALUE
 COMP. Tesoro Petroleum Corporation:   COMPANY
 WELL.            51-X-28:   WELL
 FLD .           N.P.R. 3:   FIELD
 LOC . 28-39N-78W-NATRONA-WY:   LOCATION
 STAT.                 WY:   STATE
 COUN.            Natrona:   COUNTY
 SRVC.              Welex:   SERVICE COMPANY
 DATE.                   :   LOGDATE
~CURVE INFORMATION
#MNEM.UNIT       API CODE    CURVE DESCRIPTION
#----------   ------------   ------------------------------
 DEPT.F                  :
 GD  .std.den.units      :   Gamma Density
 RhoG.APO                :   Gamma
 GR.API        	         :   Gamma
~PARAMETER INFORMATION
#MNEM.UNIT          VALUE    DESCRIPTION
#----------   ------------   ------------------------------
 EKB .F         5008.0000:   Kelly bushing
 EGL .F         4997.0000:   Ground level
 EDF .F            0.0000:   Drilling floor
 EPD .F           11.0000:   Permanent datum
 TD  .F         4830.0000:   Total depth
 NRUN.             1.0000:   Number of Runs
#--RUN 1---   ------------   The following are for Run 1---
 RUN .             1.0000:   Run 1
 DATE.mm/dd/yyyy 09/18/1968:   Date Logged
 DD  .ft             5495:   Depth Driller
 DL  .ft             5498:   Depth Logger
 BLI .ft             5496:   Bottom Log Interval
 TLI .ft             2500:   Top Log Interval
 CSS .inch          10.75:   Casing Size
 CTD1.ft              450:   Casing Driller 1
 CTL1.ft              454:   Casing Logger 1
 BS  .inch              9:   Bit Size
 DFT .     water base mud:   Type Fluid In Hole
 DFD .lb/gal          9.4:   Mud Weight
 DFV .sec              58:   Viscosity
 DFPH.                9.5:   pH
 DFL .ml               11:   Fluid Loss
 WSS .                pit:   Source Of Sample
 RM  .ohmm            1.7:   Rm
 EMT .F                56:   Rm Meas. Temp.
 RMF .ohmm            .64:   Rmf
 MFT .F               100:   Rmf Meas. Temp.
 RMC .ohmm            1.6:   Rmc
 MCST.F               100:   Rmc Meas. Temp.
 MFSS.               fann:   Source Rmf.
 MCSS.            mud kit:   Source Rmc.
 RMB .ohmm            .60:   Rm. At BHT
 BHT .F               160:   BHT.
 TCS .hh:mm        3 hrs.:   Time Circ. Stopped
 MRT .F               160:   Maximum Recorded Temp.
 LUL .          Newcastle:   Logging Unit Location
 ENGI.        Mr. Custard:   Recorded By
 WITN.            Mr. May:   Witnessed By
 DGBY.          Mr. Burke:   Digitized By
~A  DEPTH       GD       RhoG       GR
# ...
 5369.0000  -999.2500  -999.2500   166.1011
 5369.5000  -999.2500  -999.2500   165.8832
 5370.0000  -999.2500  -999.2500   165.8961
 5370.5000  -999.2500  -999.2500   165.4490
 5371.0000  -999.2500  -999.2500   165.4617
 5371.5000  -999.2500  -999.2500   165.4768
 5372.0000  -999.2500  -999.2500   165.7189
 5372.5000  -999.2500  -999.2500   166.4203
 5373.0000  -999.2500  -999.2500   166.6624
 5373.5000  -999.2500  -999.2500   168.0530
 5374.0000  -999.2500  -999.2500   171.2813
 5374.5000  -999.2500  -999.2500   173.3611
 5375.0000   607.4885  -999.2500   175.2111
 5375.5000   618.4423  -999.2500   178.2097
 5376.0000   645.8487  -999.2500   182.1381
 5376.5000   650.4382  -999.2500   184.4607
 5377.0000   653.4916  -999.2500   188.1273
 5377.5000   662.6895  -999.2500   190.4367
 5378.0000   671.8873  -999.2500   193.6650
 5378.5000   695.6781  -999.2500   198.2716
 5379.0000   719.4689  -999.2500   201.0404
 5379.5000   730.2028  -999.2500   201.9685
 5380.0000   732.4882  -999.2500   200.1463
 5380.5000   732.4050  -999.2500   198.5507
 5381.0000   722.9581  -999.2500   195.1174
 5381.5000   717.0662  -999.2500   191.9130
 5382.0000   712.4391  -999.2500   190.2974
 5382.5000   707.0440  -999.2500   188.9554
 5383.0000   700.1129  -999.2500   187.1301
 5383.5000   677.0526  -999.2500   185.3048
 5384.0000   651.6882  -999.2500   184.6249
 5384.5000   642.4528  -999.2500   186.7078
 5385.0000   663.1714  -999.2500   189.7063
 5385.5000   693.1066  -999.2500   195.2075
 5386.0000   735.1956  -999.2500   209.3053
 5386.5000   781.3201  -999.2500   225.8098
 5387.0000   827.4446  -999.2500   227.4301
 5387.5000   844.3356  -999.2500   229.0504
 5388.0000   846.7619  -999.2500   231.1302
 5388.5000   845.0615  -999.2500   232.5208
 5389.0000   841.9752  -999.2500   231.8440
 5389.5000   845.7967  -999.2500   230.9344
 5390.0000   845.7732  -999.2500   231.4093
 5390.5000   838.8420  -999.2500   232.3405
 5391.0000   826.5344  -999.2500   233.0523
 5391.5000   820.3713  -999.2500   233.7439
 5392.0000   815.7443  -999.2500   233.9886
 5392.5000   818.0296  -999.2500   233.3118
 5393.0000   830.2997  -999.2500   232.6351
 5393.5000   831.0490  -999.2500   231.0394
 5394.0000   824.1130  -999.2500   229.4438
 5394.5000   821.7902  -999.2500   228.0780
 5395.0000   821.0033  -999.2500   226.7121
 5395.5000   817.9124  -999.2500   223.6731
 5396.0000   811.7492  -999.2500   220.0773
 5396.5000   805.5861  -999.2500   218.0222
 5397.0000   795.0129  -999.2500   215.7375
 5397.5000   762.5347  -999.2500   206.7912
 5398.0000   753.2993  -999.2500   203.5876
 5398.5000   751.7444  -999.2500   203.3672
 5399.0000   747.1174  -999.2500   204.0717
 5399.5000   750.9388  -999.2500   207.0703
 5400.0000   759.3687  -999.2500   211.6769
 5400.5000   779.3549  -999.2500   221.9230
 5401.0000   803.3233  -999.2500   227.9639
 5401.5000   816.1480  -999.2500   232.3878
 5402.0000   817.6653  -999.2500   231.0219
 5402.5000   813.8063  -999.2500   231.0373
 5403.0000   819.1592  -999.2500   230.5872
 5403.5000   824.5168  -999.2500   231.9809
 5404.0000   826.0388  -999.2500   230.3853
 5404.5000   822.9431  -999.2500   227.4114
 5405.0000   815.2439  -999.2500   223.7929
 5405.5000   812.9210  -999.2500   221.0528
 5406.0000   812.9022  -999.2500   220.1504
 5406.5000   814.4196  -999.2500   220.6262
 5407.0000   819.0091  -999.2500   224.8940
 5407.5000   826.8679  -999.2500   229.1624
 5408.0000   839.5546  -999.2500   233.7730
 5408.5000   850.2047  -999.2500   239.3025
 5409.0000   860.0590  -999.2500   244.8319
 5409.5000   873.0786  -999.2500   249.4425
 5410.0000   876.8817  -999.2500   251.5263
 5410.5000   861.4294  -999.2500   253.3804
 5411.0000   853.7566  -999.2500   250.3739
 5411.5000   856.0236  -999.2500   249.0488
 5412.0000   860.5947  -999.2500   248.8355
 5412.5000   872.8463  -999.2500   249.0858
 5413.0000   875.8907  -999.2500   250.0211
 5413.5000   875.8442  -999.2500   252.3346
 5414.0000   877.3432  -999.2500   254.1887
 5414.5000   874.9926  -999.2500   255.5833
 5415.0000   866.5068  -999.2500   255.6001
 5415.5000   868.7831  -999.2500   254.9271
 5416.0000   864.1284  -999.2500   254.2585
 5416.5000   853.3385  -999.2500   253.8114
 5417.0000   847.1570  -999.2500   254.0616
 5417.5000   844.8157  -999.2500   250.6324
 5418.0000   846.3146  -999.2500   248.3518
 5418.5000   840.8918  -999.2500   247.6790
 5419.0000   837.7825  -999.2500   246.9873
 5419.5000   836.9772  -999.2500   245.8784
 5420.0000   826.1874  -999.2500   245.6610
 5420.5000   816.9337  -999.2500   247.5192
 5421.0000   813.0562  -999.2500   248.2247
 5421.5000   816.9113  -999.2500   244.5658
 5422.0000   820.6531  -999.2500   240.4475
 5422.5000   821.3932  -999.2500   234.7212
 5423.0000   814.4344  -999.2500   230.1049
 5423.5000   810.5570  -999.2500   227.4074
 5424.0000   805.1434  -999.2500   222.6000
 5424.5000   796.6577  -999.2500   215.2657
 5425.0000   790.4761  -999.2500   209.0434
 5425.5000   769.0873  -999.2500   199.0805
 5426.0000   751.2221  -999.2500   189.1176
 5426.5000   741.9683  -999.2500   179.1547
 5427.0000   695.0801  -999.2500   166.4226
 5427.5000   679.6820  -999.2500   166.6687
 5428.0000   671.1963  -999.2500   167.1445
 5428.5000   672.6958  -999.2500   168.0798
 5429.0000   668.7675  -999.2500   168.5557
 5429.5000   674.9158  -999.2500   169.7513
 5430.0000   677.9507  -999.2500   172.1111
 5430.5000   677.9136  -999.2500   174.5815
 5431.0000   677.8764  -999.2500   176.4356
 5431.5000   684.7518  -999.2500   180.5868
 5432.0000   698.5395  -999.2500   185.1974
 5432.5000   696.9662  -999.2500   186.3624
 5433.0000   704.7109  -999.2500   188.2164
 5433.5000   706.8765  -999.2500   188.4626
 5434.0000   706.0620  -999.2500   186.0307
 5434.5000   699.1124  -999.2500   183.6757
 5435.0000   686.7864  -999.2500   181.6247
 5435.5000   681.3730  -999.2500   180.7182
 5436.0000   676.7275  -999.2500   181.8832
 5436.5000   677.4584  -999.2500   179.3769
 5437.0000   679.7254  -999.2500   178.7039
 5437.5000   679.6790  -999.2500   179.9099
 5438.0000   677.3376  -999.2500   183.6121
 5438.5000   684.2129  -999.2500   190.6267
 5439.0000   702.2009  -999.2500   197.6412
 5439.5000   726.7914  -999.2500   205.4367
 5440.0000   751.3818  -999.2500   214.1821
 5440.5000   775.9723  -999.2500   220.6304
 5441.0000   800.5628  -999.2500   244.9987
 5441.5000   835.3492  -999.2500   247.9972
 5442.0000   885.0280  -999.2500   245.9504
 5442.5000   916.6313  -999.2500   244.5885
 5443.0000   915.8169  -999.2500   242.3079
 5443.5000   917.3158  -999.2500   241.6347
 5444.0000   923.4230  -999.2500   243.2596
 5444.5000   930.2983  -999.2500   244.9435
 5445.0000   932.5652  -999.2500   247.6610
 5445.5000   936.4693  -999.2500   249.9745
 5446.0000   930.9456  -999.2500   251.1395
 5446.5000   920.1558  -999.2500   252.5342
 5447.0000   910.1340  -999.2500   252.3168
 5447.5000   900.8802  -999.2500   251.6482
 5448.0000   893.9305  -999.2500   250.9755
 5448.5000   893.7887  -999.2500   251.2222
 5449.0000   900.7687  -999.2500   252.6204
 5449.5000   906.8666  -999.2500   251.0289
 5450.0000   909.9109  -999.2500   248.9779
 5450.5000   899.8798  -999.2500   248.5308
 5451.0000   894.4663  -999.2500   250.1593
 5451.5000   889.0528  -999.2500   248.3381
 5452.0000   882.8712  -999.2500   247.2060
 5452.5000   876.6897  -999.2500   244.5813
 5453.0000   872.8110  -999.2500   241.9596
 5453.5000   871.9977  -999.2500   242.8949
 5454.0000   873.4967  -999.2500   246.3569
 5454.5000   879.6039  -999.2500   248.9002
 5455.0000   891.8556  -999.2500   250.9840
 5455.5000   897.1948  -999.2500   251.4880
 5456.0000   900.9985  -999.2500   253.0842
 5456.5000   904.3308  -999.2500   254.4794
 5457.0000   920.8835  -999.2500   251.9726
 5457.5000   926.9907  -999.2500   250.6067
 5458.0000   936.1702  -999.2500   250.6272
 5458.5000   936.9103  -999.2500   249.7248
 5459.0000   933.7917  -999.2500   245.0139
 5459.5000   926.8421  -999.2500   240.5693
