~VERSION INFORMATION
 VERS.               2.10:   CWLS LOG ASCII STANDARD - VERSION 2.10
 WRAP.                 NO:   ONE LINE PER DEPTH STEP
~WELL INFORMATION
#MNEM.UNIT      DATA TYPE    INFORMATION
#----------   ------------   ------------------------------
 STRT.F            0.0000:   START DEPTH
 STOP.F         5494.0205:   STOP DEPTH
 STEP.F            0.5000:   STEP LENGTH
 NULL.          -999.2500:   NO VALUE
 COMP. Tesoro Petroleum Corporation:   COMPANY
 WELL.            51-X-28:   WELL
 FLD .           N.P.R. 3:   FIELD
 LOC . 28-39N-78W-NATRONA-WY:   LOCATION
 STAT.                 WY:   STATE
 COUN.            Natrona:   COUNTY
 SRVC.              Welex:   SERVICE COMPANY
 DATE.                   :   LOGDATE
~CURVE INFORMATION
#MNEM.UNIT       API CODE    CURVE DESCRIPTION
#----------   ------------   ------------------------------
 DEPT.F                  :
 GD  .std.den.units      :   Gamma Density
 RhoG.APO                :   Gamma
 GR.API        	         :   Gamma
~PARAMETER INFORMATION
#MNEM.UNIT          VALUE    DESCRIPTION
#----------   ------------   ------------------------------
 EKB .F         5008.0000:   Kelly bushing
 EGL .F         4997.0000:   Ground level
 EDF .F            0.0000:   Drilling floor
 EPD .F           11.0000:   Permanent datum
 TD  .F         4830.0000:   Total depth
 NRUN.             1.0000:   Number of Runs
#--RUN 1---   ------------   The following are for Run 1---
 RUN .             1.0000:   Run 1
 DATE.mm/dd/yyyy 09/18/1968:   Date Logged
 DD  .ft             5495:   Depth Driller
 DL  .ft             5498:   Depth Logger
 BLI .ft             5496:   Bottom Log Interval
 TLI .ft             2500:   Top Log Interval
 CSS .inch          10.75:   Casing Size
 CTD1.ft              450:   Casing Driller 1
 CTL1.ft              454:   Casing Logger 1
 BS  .inch              9:   Bit Size
 DFT .     water base mud:   Type Fluid In Hole
 DFD .lb/gal          9.4:   Mud Weight
 DFV .sec              58:   Viscosity
 DFPH.                9.5:   pH
 DFL .ml               11:   Fluid Loss
 WSS .                pit:   Source Of Sample
 RM  .ohmm            1.7:   Rm
 EMT .F                56:   Rm Meas. Temp.
 RMF .ohmm            .64:   Rmf
 MFT .F               100:   Rmf Meas. Temp.
 RMC .ohmm            1.6:   Rmc
 MCST.F               100:   Rmc Meas. Temp.
 MFSS.               fann:   Source Rmf.
 MCSS.            mud kit:   Source Rmc.
 RMB .ohmm            .60:   Rm. At BHT
 BHT .F               160:   BHT.
 TCS .hh:mm        3 hrs.:   Time Circ. Stopped
 MRT .F               160:   Maximum Recorded Temp.
 LUL .          Newcastle:   Logging Unit Location
 ENGI.        Mr. Custard:   Recorded By
 WITN.            Mr. May:   Witnessed By
 DGBY.          Mr. Burke:   Digitized By
~A  DEPTH       GD       RhoG       GR
# ...
 3094.0000  1160.0559  -999.2500   231.8052
 3094.5000  1161.4780  -999.2500   231.8134
 3095.0000  1159.1125  -999.2500   232.0514
 3095.5000  1154.4381  -999.2500   232.0594
 3096.0000  1152.8643  -999.2500   232.2991
 3096.5000  1155.1355  -999.2500   231.3867
 3097.0000  1151.2339  -999.2500   230.4743
 3097.5000  1129.5579  -999.2500   229.3319
 3098.0000  1117.1554  -999.2500   228.8796
 3098.5000  1116.3446  -999.2500   229.1175
 3099.0000  1113.6857  -999.2500   230.5058
 3099.5000  1109.3051  -999.2500   231.4339
 3100.0000  1104.6411  -999.2500   232.3633
 3100.5000  1099.1821  -999.2500   232.1414
 3101.0000  1104.5502  -999.2500   232.3795
 3101.5000  1114.5548  -999.2500   230.7772
 3102.0000  1112.9552  -999.2500   230.3232
 3102.5000  1109.0620  -999.2500   231.2536
 3103.0000  1110.5660  -999.2500   232.1819
 3103.5000  1096.6036  -999.2500   233.8004
 3104.0000  1095.0164  -999.2500   235.6523
 3104.5000  1092.6564  -999.2500   236.1175
 3105.0000  1095.7059  -999.2500   236.1274
 3105.5000  1102.6195  -999.2500   238.4361
 3106.0000  1120.3522  -999.2500   240.0547
 3106.5000  1124.9474  -999.2500   240.9830
 3107.0000  1131.0881  -999.2500   239.6108
 3107.5000  1136.4561  -999.2500   237.0882
 3108.0000  1138.0400  -999.2500   236.8642
 3108.5000  1148.2228  -999.2500   237.1044
 3109.0000  1166.9175  -999.2500   238.4929
 3109.5000  1188.1827  -999.2500   239.8814
 3110.0000  1206.5657  -999.2500   240.8097
 3110.5000  1218.8888  -999.2500   240.0737
 3111.0000  1220.0223  -999.2500   239.4456
 3111.5000  1218.0328  -999.2500   239.4557
 3112.0000  1218.7639  -999.2500   239.4639
 3112.5000  1211.3779  -999.2500   237.8615
 3113.0000  1178.3728  -999.2500   235.3390
 3113.5000  1151.3987  -999.2500   233.0464
 3114.0000  1140.5380  -999.2500   231.6722
 3114.5000  1111.1300  -999.2500   232.3725
 3115.0000  1107.9972  -999.2500   232.8407
 3115.5000  1109.5016  -999.2500   233.3090
 3116.0000  1103.9661  -999.2500   234.2374
 3116.5000  1107.5238  -999.2500   235.1976
 3117.0000  1114.7755  -999.2500   236.0961
 3117.5000  1113.1882  -999.2500   237.2545
 3118.0000  1106.9642  -999.2500   235.1920
 3118.5000  1100.7402  -999.2500   235.2001
 3119.0000  1099.9364  -999.2500   234.9762
 3119.5000  1101.4403  -999.2500   235.2164
 3120.0000  1102.9340  -999.2500   236.6048
 3120.5000  1111.3931  -999.2500   237.9933
 3121.0000  1128.3530  -999.2500   238.0014
 3121.5000  1136.8121  -999.2500   238.0095
 3122.0000  1156.2606  -999.2500   238.2479
 3122.5000  1171.0958  -999.2500   238.9463
 3123.0000  1177.6351  -999.2500   240.1064
 3123.5000  1182.2303  -999.2500   241.4949
 3124.0000  1198.4174  -999.2500   242.8834
 3124.5000  1211.5133  -999.2500   243.3516
 3125.0000  1236.2013  -999.2500   242.4395
 3125.5000  1258.5708  -999.2500   241.5253
 3126.0000  1307.9882  -999.2500   241.3034
 3126.5000  1319.5385  -999.2500   240.3933
 3127.0000  1299.4042  -999.2500   236.9505
 3127.5000  1174.9946  -999.2500   235.5764
 3128.0000  1099.9426  -999.2500   234.6661
 3128.5000  1109.1641  -999.2500   234.2141
 3129.0000  1114.5322  -999.2500   232.8438
 3129.5000  1109.0809  -999.2500   231.0114
 3130.0000  1105.1754  -999.2500   229.8692
 3130.5000  1099.7241  -999.2500   229.6453
 3131.0000  1094.2729  -999.2500   229.6554
 3131.5000  1091.8788  -999.2500   229.6635
 3132.0000  1084.7488  -999.2500   229.9017
 3132.5000  1080.2273  -999.2500   230.1399
 3133.0000  1084.0601  -999.2500   230.1480
 3133.5000  1085.5537  -999.2500   230.1561
 3134.0000  1093.2400  -999.2500   231.8271
 3134.5000  1118.7007  -999.2500   233.8553
 3135.0000  1123.3063  -999.2500   235.7039
 3135.5000  1120.9358  -999.2500   237.0924
 3136.0000  1121.6774  -999.2500   238.2508
 3136.5000  1135.5358  -999.2500   241.0196
 3137.0000  1170.9733  -999.2500   242.1781
 3137.5000  1207.5540  -999.2500   243.3345
 3138.0000  1227.4696  -999.2500   243.5746
 3138.5000  1221.9122  -999.2500   245.6533
 3139.0000  1224.1993  -999.2500   246.3598
 3139.5000  1214.8279  -999.2500   244.9793
 3140.0000  1197.7418  -999.2500   245.7087
 3140.5000  1180.7910  -999.2500   247.0681
 3141.0000  1184.6133  -999.2500   247.5364
 3141.5000  1200.8861  -999.2500   247.3124
 3142.0000  1217.6924  -999.2500   247.5526
 3142.5000  1237.6736  -999.2500   248.9411
 3143.0000  1259.4012  -999.2500   249.8694
 3143.5000  1268.6332  -999.2500   249.6454
 3144.0000  1266.2732  -999.2500   250.1157
 3144.5000  1256.1852  -999.2500   252.4244
 3145.0000  1249.1884  -999.2500   255.8835
 3145.5000  1245.2296  -999.2500   256.8120
 3146.0000  1244.4667  -999.2500   256.8203
 3146.5000  1246.7347  -999.2500   257.5203
 3147.0000  1250.6617  -999.2500   259.3689
 3147.5000  1271.3918  -999.2500   262.5978
 3148.0000  1292.1219  -999.2500   262.6059
 3148.5000  1313.1166  -999.2500   263.7643
 3149.0000  1340.1986  -999.2500   265.1528
 3149.5000  1361.8813  -999.2500   265.8511
 3150.0000  1372.9283  -999.2500   266.5494
 3150.5000  1395.5448  -999.2500   267.7078
 3151.0000  1436.0055  -999.2500   267.9460
 3151.5000  1485.5354  -999.2500   267.4940
 3152.0000  1535.0653  -999.2500   268.0025
 3152.5000  1585.4900  -999.2500   267.7423
 3153.0000  1497.4000  -999.2500   268.9007
 3153.5000  1399.1626  -999.2500   270.5193
 3154.0000  1479.9871  -999.2500   269.6071
 3154.5000  1558.9606  -999.2500   265.9342
 3155.0000  -999.2500  -999.2500   264.1019
 3155.5000  -999.2500  -999.2500   260.4290
 3156.0000  -999.2500  -999.2500   244.8910
 3156.5000  -999.2500  -999.2500   229.3869
 3157.0000  1365.5188  -999.2500   227.5491
 3157.5000  1120.6121  -999.2500   226.3878
 3158.0000  1100.4777  -999.2500   223.8898
 3158.5000  1078.7977  -999.2500   224.3600
 3159.0000  1016.8505  -999.2500   229.2535
 3159.5000   938.8347  -999.2500   235.0617
 3160.0000   948.8394  -999.2500   240.8699
 3160.5000  1019.0304  -999.2500   246.7078
 3161.0000  1116.0786  -999.2500   248.1486
 3161.5000  1177.4413  -999.2500   251.8974
 3162.0000  1222.2329  -999.2500   254.5562
 3162.5000  1298.3497  -999.2500   251.5715
 3163.0000  1468.4144  -999.2500   252.5019
 3163.5000  -999.2500  -999.2500   246.9885
 3164.0000  -999.2500  -999.2500   244.4659
 3164.5000  -318.0974  -999.2500   244.0119
 3165.0000  -364.5598  -999.2500   243.7900
 3165.5000  -390.8869  -999.2500   244.9504
 3166.0000  1483.8192  -999.2500   245.1886
 3166.5000  1199.4437  -999.2500   243.3562
 3167.0000  1204.8116  -999.2500   242.6741
 3167.5000  1210.9524  -999.2500   243.8980
 3168.0000  1226.3668  -999.2500   244.3008
 3168.5000  1235.5988  -999.2500   243.6187
 3169.0000  1237.8755  -999.2500   242.2485
 3169.5000  1221.8057  -999.2500   239.7259
 3170.0000  1209.1884  -999.2500   239.2719
 3170.5000  1202.9644  -999.2500   239.7421
 3171.0000  1207.5594  -999.2500   241.5907
 3171.5000  1231.4746  -999.2500   243.8994
 3172.0000  1234.5345  -999.2500   246.6683
 3172.5000  1218.2538  -999.2500   247.3666
 3173.0000  1201.2106  -999.2500   247.3748
 3173.5000  1183.3947  -999.2500   248.3405
 3174.0000  1192.6266  -999.2500   250.1516
 3174.5000  1213.4504  -999.2500   249.0115
 3175.0000  1236.9159  -999.2500   247.8693
 3175.5000  1250.8485  -999.2500   246.9571
 3176.0000  1265.0927  -999.2500   246.2730
 3176.5000  1276.6429  -999.2500   247.4335
 3177.0000  1302.8765  -999.2500   247.4416
 3177.5000  1343.0465  -999.2500   245.3792
 3178.0000  1403.4750  -999.2500   239.6357
 3178.5000  1463.9036  -999.2500   237.7923
 3179.0000  1418.0789  -999.2500   236.6612
 3179.5000  1232.3463  -999.2500   237.4852
 3180.0000  1150.3892  -999.2500   238.9800
 3180.5000  1157.3027  -999.2500   240.1384
 3181.0000  1150.2955  -999.2500   241.5269
 3181.5000  1146.3899  -999.2500   240.3847
 3182.0000  1168.7594  -999.2500   240.6229
 3182.5000  1198.8569  -999.2500   241.7813
 3183.0000  1220.4536  -999.2500   241.5573
 3183.5000  1232.0039  -999.2500   243.6380
 3184.0000  1243.5543  -999.2500   244.7964
 3184.5000  1272.2783  -999.2500   244.1143
