~VERSION INFORMATION
 VERS.               2.10:   CWLS LOG ASCII STANDARD - VERSION 2.10
 WRAP.                 NO:   ONE LINE PER DEPTH STEP
~WELL INFORMATION
#MNEM.UNIT      DATA TYPE    INFORMATION
#----------   ------------   ------------------------------
 STRT.F            0.0000:   START DEPTH
 STOP.F         5494.0205:   STOP DEPTH
 STEP.F            0.5000:   STEP LENGTH
 NULL.          -999.2500:   NO VALUE
 COMP. Tesoro Petroleum Corporation:   COMPANY
 WELL.            51-X-28:   WELL
 FLD .           N.P.R. 3:   FIELD
 LOC . 28-39N-78W-NATRONA-WY:   LOCATION
 STAT.                 WY:   STATE
 COUN.            Natrona:   COUNTY
 SRVC.              Welex:   SERVICE COMPANY
 DATE.                   :   LOGDATE
~CURVE INFORMATION
#MNEM.UNIT       API CODE    CURVE DESCRIPTION
#----------   ------------   ------------------------------
 DEPT.F                  :
 GD  .std.den.units      :   Gamma Density
 RhoG.APO                :   Gamma
 GR.API        	         :   Gamma
~PARAMETER INFORMATION
#MNEM.UNIT          VALUE    DESCRIPTION
#----------   ------------   ------------------------------
 EKB .F         5008.0000:   Kelly bushing
 EGL .F         4997.0000:   Ground level
 EDF .F            0.0000:   Drilling floor
 EPD .F           11.0000:   Permanent datum
 TD  .F         4830.0000:   Total depth
 NRUN.             1.0000:   Number of Runs
#--RUN 1---   ------------   The following are for Run 1---
 RUN .             1.0000:   Run 1
 DATE.mm/dd/yyyy 09/18/1968:   Date Logged
 DD  .ft             5495:   Depth Driller
 DL  .ft             5498:   Depth Logger
 BLI .ft             5496:   Bottom Log Interval
 TLI .ft             2500:   Top Log Interval
 CSS .inch          10.75:   Casing Size
 CTD1.ft              450:   Casing Driller 1
 CTL1.ft              454:   Casing Logger 1
 BS  .inch              9:   Bit Size
 DFT .     water base mud:   Type Fluid In Hole
 DFD .lb/gal          9.4:   Mud Weight
 DFV .sec              58:   Viscosity
 DFPH.                9.5:   pH
 DFL .ml               11:   Fluid Loss
 WSS .                pit:   Source Of Sample
 RM  .ohmm            1.7:   Rm
 EMT .F                56:   Rm Meas. Temp.
 RMF .ohmm            .64:   Rmf
 MFT .F               100:   Rmf Meas. Temp.
 RMC .ohmm            1.6:   Rmc
 MCST.F               100:   Rmc Meas. Temp.
 MFSS.               fann:   Source Rmf.
 MCSS.            mud kit:   Source Rmc.
 RMB .ohmm            .60:   Rm. At BHT
 BHT .F               160:   BHT.
 TCS .hh:mm        3 hrs.:   Time Circ. Stopped
 MRT .F               160:   Maximum Recorded Temp.
 LUL .          Newcastle:   Logging Unit Location
 ENGI.        Mr. Custard:   Recorded By
 WITN.            Mr. May:   Witnessed By
 DGBY.          Mr. Burke:   Digitized By
~A  DEPTH       GD       RhoG       GR
# ...
 3822.0000   442.4931  -999.2500   402.0692
 3822.5000   440.8665  -999.2500   401.8463
 3823.0000   396.9383  -999.2500   400.7017
 3823.5000   477.3582  -999.2500   397.2531
 3824.0000   552.3925  -999.2500   398.4127
 3824.5000   458.8059  -999.2500   398.8792
 3825.0000   436.3026  -999.2500   399.1190
 3825.5000   505.0145  -999.2500   400.5411
 3826.0000   581.7786  -999.2500   399.1281
 3826.5000   601.0295  -999.2500   397.9612
 3827.0000  -999.2500  -999.2500   396.3860
 3827.5000  -999.2500  -999.2500   392.2461
 3828.0000  -999.2500  -999.2500   386.7237
 3828.5000   964.6290  -999.2500   383.2750
 3829.0000   922.2444  -999.2500   377.7526
 3829.5000   914.5331  -999.2500   371.9998
 3830.0000   936.0930  -999.2500   372.4681
 3830.5000   963.0482  -999.2500   375.2406
 3831.0000  1004.6412  -999.2500   376.6306
 3831.5000  1017.7289  -999.2500   377.6015
 3832.0000  1030.0461  -999.2500   382.4080
 3832.5000  1037.1228  -999.2500   389.7888
 3833.0000  1040.0427  -999.2500   393.9438
 3833.5000  1029.2452  -999.2500   394.4122
 3834.0000  1011.5162  -999.2500   395.5718
 3834.5000  1002.2618  -999.2500   395.1166
 3835.0000   983.7624  -999.2500   396.0477
 3835.5000   982.9849  -999.2500   396.0552
 3836.0000  1009.1673  -999.2500   396.5236
 3836.5000  1023.0255  -999.2500   398.3879
 3837.0000  1026.0977  -999.2500   399.7647
 3837.5000  1023.0066  -999.2500   397.0089
 3838.0000  1027.9091  -999.2500   394.7123
 3838.5000  1043.7866  -999.2500   393.3373
 3839.0000  1041.4661  -999.2500   391.5016
 3839.5000  1010.6399  -999.2500   389.8962
 3840.0000  1004.4672  -999.2500   389.2125
 3840.5000  1008.3099  -999.2500   388.7592
 3841.0000  1009.8436  -999.2500   386.6930
 3841.5000  1007.5206  -999.2500   383.4637
 3842.0000   997.4958  -999.2500   381.3811
 3842.5000   967.4401  -999.2500   379.1138
 3843.0000   955.0394  -999.2500   378.8890
 3843.5000   954.3242  -999.2500   380.2810
 3844.0000   978.1954  -999.2500   382.1318
 3844.5000   986.6606  -999.2500   385.1347
 3845.0000  1002.8298  -999.2500   387.6768
 3845.5000  1049.0454  -999.2500   389.2973
 3846.0000  1057.5106  -999.2500   390.9177
 3846.5000  1067.5166  -999.2500   390.6948
 3847.0000  1084.4563  -999.2500   389.3002
 3847.5000  1098.3145  -999.2500   387.9468
 3848.0000  1120.0320  -999.2500   387.7220
 3848.5000  1146.9252  -999.2500   390.4965
 3849.0000  1173.8185  -999.2500   391.8865
 3849.5000  1186.8730  -999.2500   391.4313
 3850.0000  1201.5015  -999.2500   391.4407
 3850.5000  1263.7310  -999.2500   390.0658
 3851.0000  1365.5355  -999.2500   388.4604
 3851.5000  1467.3402  -999.2500   386.8550
 3852.0000  1569.1448  -999.2500   385.7105
 3852.5000  -999.2500  -999.2500   385.4534
 3853.0000    63.2209  -999.2500   382.4998
 3853.5000    41.1899  -999.2500   382.9681
 3854.0000    83.9000  -999.2500   382.2844
 3854.5000   208.8606  -999.2500   383.9067
 3855.0000   333.8213  -999.2500   384.1447
 3855.5000   458.7819  -999.2500   383.4591
 3856.0000   600.4609  -999.2500   382.5469
 3856.5000   526.6794  -999.2500   380.9415
 3857.0000   500.2881  -999.2500   377.4928
 3857.5000   392.9285  -999.2500   377.7310
 3858.0000   303.0346  -999.2500   376.1254
 3858.5000   406.3688  -999.2500   374.9809
 3859.0000   509.7029  -999.2500   375.2207
 3859.5000   601.9367  -999.2500   376.8412
 3860.0000   361.5544  -999.2500   377.7685
 3860.5000   435.6346  -999.2500   376.1631
 3861.0000   467.0849  -999.2500   375.2509
 3861.5000   490.1856  -999.2500   371.3413
 3862.0000  -133.8616  -999.2500   369.2751
 3862.5000   -28.2033  -999.2500   368.3610
 3863.0000   101.5258  -999.2500   369.9833
 3863.5000   231.2549  -999.2500   371.3734
 3864.0000  -119.3811  -999.2500   372.7634
 3864.5000  -999.2500  -999.2500   374.8447
 3865.0000  1521.7068  -999.2500   378.5388
 3865.5000  1567.8750  -999.2500   380.6201
 3866.0000   -48.4215  -999.2500   380.6277
 3866.5000   -18.7880  -999.2500   379.9439
 3867.0000    59.1469  -999.2500   379.0298
 3867.5000    89.8617  -999.2500   375.3163
 3868.0000    93.4176  -999.2500   372.5933
 3868.5000   176.3648  -999.2500   373.0635
 3869.0000   315.8956  -999.2500   374.2231
 3869.5000   467.6898  -999.2500   373.5394
 3870.0000    79.3315  -999.2500   371.7036
 3870.5000  -399.0478  -999.2500   369.8679
 3871.0000  -999.2500  -999.2500   368.9537
 3871.5000  1569.3472  -999.2500   367.8092
 3872.0000  1523.9349  -999.2500   369.8905
 3872.5000  -999.2500  -999.2500   377.7580
 3873.0000   269.4217  -999.2500   380.2742
 3873.5000   -86.4690  -999.2500   380.0513
 3874.0000  -999.2500  -999.2500   382.8257
 3874.5000  -999.2500  -999.2500   384.6766
 3875.0000  1267.3845  -999.2500   386.5274
 3875.5000  1372.6254  -999.2500   387.6871
 3876.0000  1477.8663  -999.2500   388.3858
 3876.5000    14.5495  -999.2500   387.9326
 3877.0000  -265.6139  -999.2500   387.2486
 3877.5000  -999.2500  -999.2500   387.2564
 3878.0000  1477.3298  -999.2500   386.8031
 3878.5000  1424.8145  -999.2500   388.4644
 3879.0000  -999.2500  -999.2500   387.5113
 3879.5000  -999.2500  -999.2500   387.7492
 3880.0000  -999.2500  -999.2500   388.2176
 3880.5000  -999.2500  -999.2500   388.4536
 3881.0000  -999.2500  -999.2500   384.5460
 3881.5000   860.2637  -999.2500   381.5582
 3882.0000   898.8798  -999.2500   381.4980
 3882.5000   980.6560  -999.2500   388.4857
 3883.0000  1062.4321  -999.2500   393.3533
 3883.5000  1144.8756  -999.2500   394.9858
 3884.0000  1227.8634  -999.2500   394.2687
 3884.5000  1380.0800  -999.2500   395.4302
 3885.0000  1481.6205  -999.2500   394.2856
 3885.5000  1600.6628  -999.2500   390.1457
 3886.0000  -999.2500  -999.2500   386.6970
 3886.5000  -999.2500  -999.2500   385.0916
 3887.0000  -999.2500  -999.2500   381.8734
 3887.5000   547.4688  -999.2500   380.9593
 3888.0000   245.1999  -999.2500   376.5825
 3888.5000  1556.3962  -999.2500   370.1355
 3889.0000  1307.0668  -999.2500   360.7227
 3889.5000  1316.3024  -999.2500   351.3098
 3890.0000  1319.3771  -999.2500   341.8970
 3890.5000  1302.4185  -999.2500   337.6497
 3891.0000  1345.5500  -999.2500   337.4643
 3891.5000  1396.2645  -999.2500   338.1649
 3892.0000  1441.8333  -999.2500   337.9402
 3892.5000  1446.4464  -999.2500   336.7975
 3893.0000  1451.8699  -999.2500   335.1921
 3893.5000  1459.9865  -999.2500   334.2761
 3894.0000  1495.7223  -999.2500   333.8244
 3894.5000  1505.7283  -999.2500   334.2931
 3895.0000  1518.0455  -999.2500   334.5311
 3895.5000  1549.6232  -999.2500   334.7692
 3896.0000  1561.9404  -999.2500   335.4697
 3896.5000  1568.8649  -999.2500   336.1685
 3897.0000  1570.3986  -999.2500   334.5631
 3897.5000  1564.2235  -999.2500   335.0315
 3898.0000  1556.5100  -999.2500   335.0390
 3898.5000  1553.3771  -999.2500   333.4336
 3899.0000  1554.4044  -999.2500   332.0587
 3899.5000  1561.8722  -999.2500   330.9141
 3900.0000  1558.0107  -999.2500   330.4608
 3900.5000  1551.8380  -999.2500   330.8877
 3901.0000  1527.9458  -999.2500   330.4372
 3901.5000  1520.2322  -999.2500   331.3692
 3902.0000  1507.1257  -999.2500   332.9925
 3902.5000  1497.8712  -999.2500   333.4637
 3903.0000  1498.6324  -999.2500   334.3957
 3903.5000  1467.0358  -999.2500   334.8669
 3904.0000  1457.6580  -999.2500   335.5963
 3904.5000  1449.6698  -999.2500   336.2701
 3905.0000  1440.8112  -999.2500   334.8980
 3905.5000  1427.7046  -999.2500   334.4501
 3906.0000  1421.5319  -999.2500   332.6146
 3906.5000  1420.7520  -999.2500   332.3945
 3907.0000  1420.7426  -999.2500   331.0250
 3907.5000  1420.7332  -999.2500   330.1111
 3908.0000  1426.1167  -999.2500   329.4328
 3908.5000  1436.1227  -999.2500   328.5215
 3909.0000  1441.5385  -999.2500   326.2277
 3909.5000  1448.5936  -999.2500   323.2427
 3910.0000  1456.8945  -999.2500   323.4839
 3910.5000  1473.8344  -999.2500   324.4181
 3911.0000  1479.2179  -999.2500   325.5805
 3911.5000  1472.2745  -999.2500   326.9734
 3912.0000  1457.1360  -999.2500   328.1358
 3912.5000  1434.2584  -999.2500   329.7591
