~VERSION INFORMATION
VERS.           2.0   :CWLS Log ASCII Standard - VERSION 2.0
WRAP.           NO    :One Line per depth step
PROD.  Schlumberger   :LAS Producer
PROG.  DLIS to ASCII 10C0-306                          :LAS Program name and version
CREA.        2002/04/05 15:18                          :LAS Creation date {YYYY/MM/DD hh:mm}
SOURCE.     TLD_MCFL_CNL_007LUP.DLIS                   :DLIS File Name
FILE-ID.     TLD_MCFL_CNL_007LUP                       :File Identification Number
#--------------------------------------------------
~WELL INFORMATION
#MNEM.UNIT      DATA             DESCRIPTION
#---- ------ --------------   -----------------------------
STRT .F         5962.0       :START DEPTH     
STOP .F           44.0       :STOP DEPTH     
STEP .F           -0.5       :STEP     
NULL .          -999.25      :NULL VALUE
COMP .        DEPARTMENT OF ENERGY                     :COMPANY
WELL .        NPR-3 25-1-X-14                          :WELL
FLD  .        NPR-3                                    :FIELD
LOC  .        2301' FSL & 782' FWL                     :LOCATION
CNTY .        NATRONA                                  :COUNTY
STAT .        WYOMING                                  :STATE
CTRY .                                                 :COUNTRY
API  .        4902523047                               :API NUMBER
UWI  .                                                 :UNIQUE WELL ID
DATE .        05-Apr-2002                              :LOG DATE {DD-MMM-YYYY}
SRVC .        Schlumberger                             :SERVICE COMPANY
LATI .DEG                                              :LATITUDE
LONG .DEG                                              :LONGITUDE
GDAT .                                                 :GeoDetic Datum
#-----------------------------------------------------------------------------
~PARAMETER INFORMATION
#MNEM.UNIT    VALUE                      DESCRIPTION
#---- -----   --------------------       ------------------------
RUN  .          1                        :RUN NUMBER
PDAT .        GROUND LEVEL               :Permanent Datum
EPD  .F         5214.799805              :Elevation of Permanent Datum above Mean Sea Level
LMF  .          KELLY BUSHING            :Logging Measured From (Name of Logging Elevation Reference)
APD  .F          10.000000               :Elevation of Depth Reference (LMF) above Permanent Datum
#-----------------------------------------------------------------------------
~CURVE INFORMATION
#MNEM.UNIT   API CODE                                  DESCRIPTION
#---- -----  --------                                  -----------------------
DEPT .F                                                :DEPTH (BOREHOLE) {F10.1}
IHV  .F3                                               :Integrated Hole Volume {F13.4}
ICV  .F3                                               :Integrated Cement Volume {F13.4}
PXND_HILT.CFCF                                         :HILT Porosity CrossPlot {F13.4}
HTEM .DEGF                                             :HTC Temperature {F13.4}
GR   .GAPI                                             :Gamma-Ray {F13.4}
NPHI .CFCF                                             :Thermal Neutron Porosity (Ratio Method) {F13.4}
TNPH .CFCF                                             :Thermal Neutron Porosity {F13.4}
NPOR .CFCF                                             :Enhanced Thermal Neutron Porosity {F13.4}
GDEV .DEG                                              :HGNS Deviation {F13.4}
RT_HRLT.OHMM                                           :HRLT Computed True Resistivity {F13.4}
RXO_HRLT.OHMM                                          :HRLT Computed Invaded Zone Resistivity {F13.4}
RM_HRLT.OHMM                                           :HRLT Mud Resistivity {F13.4}
RLA1 .OHMM                                             :HRLT Borehole Corrected Resistivity 1 {F13.4}
RLA2 .OHMM                                             :HRLT Borehole Corrected Resistivity 2 {F13.4}
RLA3 .OHMM                                             :HRLT Borehole Corrected Resistivity 3 {F13.4}
RLA4 .OHMM                                             :HRLT Borehole Corrected Resistivity 4 {F13.4}
RLA5 .OHMM                                             :HRLT Borehole Corrected Resistivity 5 {F13.4}
HCAL .IN                                               :HRCC Cal. Caliper {F13.4}
HDRA .G/C3                                             :HRDD Density Correction {F13.4}
PEFZ .                                                 :HRDD Standard Resolution Formation Photoelectric Factor {F13.4}
RHOZ .G/C3                                             :HRDD Standard Resolution Formation Density {F13.4}
HMIN .OHMM                                             :MCFL Micro Inverse Resistivity {F13.4}
HMNO .OHMM                                             :MCFL Micro Normal Resistivity {F13.4}
RXOZ .OHMM                                             :MCFL Standard Resolution Invaded Zone Resistivity {F13.4}
HAZ  .F/S2                                             :Z-Axis Acceleration {F13.4}
#-----------------------------------------------------------------------------
# 
#     DEPT        IHV          ICV       PXND_HILT       HTEM         GR           NPHI         TNPH         NPOR         GDEV       RT_HRLT      RXO_HRLT     RM_HRLT        RLA1         RLA2         RLA3         RLA4         RLA5         HCAL         HDRA         PEFZ         RHOZ         HMIN         HMNO         RXOZ         HAZ
#
~A  
# ...
    3598.0    1162.8326     534.9468       0.1946     149.6853     136.7091       0.2835       0.2822       0.2772       5.7557       5.5915       3.7002       0.5107       6.2281       5.8115       5.7223       5.6241       5.5421      11.0334       0.2277       3.4650       2.5200       1.2078       1.5127       3.6550      30.7855
    3597.5    1163.1687     535.1492       0.2035     149.6853     132.6335       0.2829       0.2881       0.2984       5.2055       5.0993       3.2932       0.5089       5.6139       5.2739       5.1727       5.0780       5.0142      11.1004       0.2358       3.4650       2.4906       1.0078       1.2502       3.2425      32.0221
    3597.0    1163.4781     535.3250       0.2116     149.6853     130.7305       0.2839       0.3011       0.3056       5.0590       4.6230       3.1124       0.5009       5.1793       4.8693       4.7347       4.6408       4.5904      10.6534       0.2554       3.4352       2.4849       0.8545       1.0987       3.0670      33.0117
    3596.5    1163.7660     535.4792       0.2102     149.6853     124.6377       0.2966       0.3086       0.3005       5.6253       4.5189       3.3532       0.4889       5.0769       4.7865       4.6583       4.5599       4.5084      10.2733       0.2733       3.4006       2.5099       1.0240       1.2857       3.3093      31.7973
    3596.0    1164.0563     535.6359       0.2009     149.6853     127.3380       0.2969       0.3112       0.3192       6.2516       4.9540       3.6869       0.4843       5.5953       5.2541       5.1237       5.0046       4.9490      10.3180       0.2992       3.4082       2.5582       0.9435       1.2379       3.6360      31.2307
    3595.5    1164.3485     535.7944       0.2108     149.6853     132.8627       0.3079       0.3272       0.2866       5.9706       6.1076       2.9248       0.4811       6.5254       6.1312       5.9819       5.8636       5.8065      10.3516       0.3070       3.4903       2.5451       1.0169       1.3075       2.9837      31.8596
    3595.0    1164.6542     535.9664       0.2148     149.6853     145.3708       0.3431       0.3155       0.3609       5.1861       5.6549       2.8026       0.4836       6.0007       5.7025       5.5441       5.4254       5.3819      10.5863       0.3051       3.5828       2.5040       0.8931       1.0759       2.8529      32.4644
    3594.5    1164.9432     536.1219       0.2168     149.6853     142.6986       0.3178       0.3070       0.3198       4.8369       4.3105       2.9319       0.4939       4.8391       4.5367       4.4325       4.3333       4.2824      10.2957       0.2901       3.6514       2.4752       0.9685       1.2161       2.8965      32.7972
    3594.0    1165.2437     536.2888       0.1965     149.6853     135.7413       0.3005       0.2800       0.2662       5.3414       5.2308       3.9748       0.4933       5.9133       5.5058       5.3998       5.2834       5.2340      10.4969       0.2846       3.6991       2.5038       1.0529       1.3844       3.9186      31.1657
    3593.5    1165.5544     536.4659       0.1885     149.6853     130.2794       0.2652       0.2829       0.2757       6.1902       6.4891       3.9997       0.4932       7.2212       6.7183       6.6056       6.4692       6.3707      10.6757       0.2870       3.7236       2.5526       0.9725       1.2728       3.9441      31.9002
    3593.0    1165.8549     536.6328       0.1894     149.6853     124.4142       0.2814       0.2867       0.2916       6.1463       6.4866       3.9275       0.5046       7.1301       6.6659       6.5339       6.4226       6.3503      10.4969       0.2757       3.6992       2.5578       0.9395       1.2201       3.8889      31.1284
    3592.5    1166.1605     536.8048       0.1930     149.6853     128.2277       0.2793       0.2885       0.3075       5.4615       6.4698       4.1373       0.5098       6.9096       6.6435       6.5094       6.4401       6.3239      10.5863       0.2603       3.6095       2.5441       1.0904       1.4271       4.1021      32.6672
    3592.0    1166.4629     536.9736       0.2047     149.6853     132.4388       0.2726       0.2989       0.2828       4.7795       6.4281       4.3536       0.5071       7.0679       6.7117       6.5912       6.5071       6.3650      10.5304       0.2394       3.5057       2.5131       0.9095       1.2497       4.2986      32.3503
    3591.5    1166.7672     537.1443       0.2046     149.6853     137.1627       0.2904       0.3002       0.2833       4.9420       6.3962       4.3544       0.5080       7.0638       6.6412       6.5736       6.4844       6.3395      10.5639       0.2353       3.4169       2.5163       0.9865       1.3331       4.2998      32.3258
    3591.0    1167.0551     537.2985       0.2004     149.3260     143.5642       0.3051       0.3027       0.3139       5.6456       6.3325       4.4288       0.5093       7.0272       6.5940       6.5396       6.4362       6.2911      10.2733       0.2356       3.3388       2.5421       1.0526       1.3812       4.3625      32.3032
    3590.5    1167.3633     537.4730       0.1922     149.6853     137.6388       0.3007       0.2937       0.3035       6.0058       6.2299       4.3547       0.5128       6.9220       6.5297       6.4326       6.3316       6.1891      10.6310       0.2269       3.2661       2.5605       1.1911       1.5265       4.2879      32.1732
    3590.0    1167.6676     537.6437       0.1956     149.6853     136.4471       0.2912       0.2960       0.2859       5.7856       6.4718       4.4664       0.5169       7.1333       6.7854       6.6488       6.5748       6.4143      10.5639       0.2098       3.2219       2.5495       1.2670       1.5869       4.4080      31.6581
    3589.5    1167.9889     537.8314       0.1979     149.3260     135.4048       0.2901       0.2916       0.2947       5.2891       6.2489       4.3746       0.5212       7.0183       6.5871       6.4525       6.3509       6.2147      10.8545       0.1995       3.2201       2.5282       1.0711       1.4132       4.3191      31.7524
    3589.0    1168.2997     538.0086       0.1961     149.3260     136.1190       0.2923       0.2852       0.2722       4.9887       6.0544       4.2352       0.5203       6.8068       6.4000       6.2692       6.1423       6.0196      10.6757       0.2129       3.2819       2.5207       1.2825       1.6120       4.1859      32.0985
    3588.5    1168.6210     538.1963       0.2030     149.3260     139.9326       0.2903       0.2922       0.3139       5.2680       6.2210       4.0077       0.5165       6.9788       6.5400       6.4121       6.2922       6.1516      10.8545       0.2201       3.3573       2.5044       0.8925       1.1971       3.9573      32.0757
    3588.0    1168.9176     538.3593       0.2136     149.3260     136.1801       0.2903       0.3105       0.3142       5.6859       5.7199       4.0372       0.5116       6.5029       6.0278       5.8988       5.7791       5.7040      10.4298       0.2193       3.3913       2.4983       0.9957       1.2999       3.9864      31.8336
    3587.5    1169.2258     538.5339       0.2158     149.3260     137.8468       0.3010       0.3242       0.3145       5.8684       5.6429       4.1866       0.5054       6.3473       5.9730       5.8453       5.7298       5.6301      10.6310       0.2159       3.3594       2.5180       1.2900       1.6300       4.1321      32.4899
    3587.0    1169.5149     538.6893       0.2061     149.3260     132.1688       0.3172       0.3171       0.3161       5.2983       5.7694       4.4898       0.5005       6.5121       6.1256       6.0029       5.8850       5.7699      10.2957       0.2171       3.3148       2.5465       1.2069       1.5289       4.4236      31.5119
    3586.5    1169.8002     538.8410       0.1944     149.3260     132.5142       0.3174       0.2985       0.2867       4.9086       6.0886       3.9677       0.4996       6.7531       6.3953       6.2605       6.1384       6.0247      10.2286       0.2159       3.3073       2.5610       1.1648       1.4915       3.9179      31.9376
