~VERSION INFORMATION
VERS.           2.0   :CWLS Log ASCII Standard - VERSION 2.0
WRAP.           NO    :One Line per depth step
PROD.  Schlumberger   :LAS Producer
PROG.  DLIS to ASCII 10C0-306                          :LAS Program name and version
CREA.        2002/04/05 15:26                          :LAS Creation date {YYYY/MM/DD hh:mm}
SOURCE.     SONIC_063PUP.DLIS                          :DLIS File Name
FILE-ID.     SONIC_063PUP                              :File Identification Number
#--------------------------------------------------
~WELL INFORMATION
#MNEM.UNIT      DATA             DESCRIPTION
#---- ------ --------------   -----------------------------
STRT .F         5958.0       :START DEPTH     
STOP .F          675.5       :STOP DEPTH     
STEP .F           -0.5       :STEP     
NULL .          -999.25      :NULL VALUE
COMP .        DEPARTMENT OF ENERGY                     :COMPANY
WELL .        NPR-3 25-1-X-14                          :WELL
FLD  .        NPR-3                                    :FIELD
LOC  .        2301' FSL & 782' FWL                     :LOCATION
CNTY .        NATRONA                                  :COUNTY
STAT .        WYOMING                                  :STATE
CTRY .                                                 :COUNTRY
API  .        4902523047                               :API NUMBER
UWI  .                                                 :UNIQUE WELL ID
DATE .        05-Apr-2002                              :LOG DATE {DD-MMM-YYYY}
SRVC .        Schlumberger                             :SERVICE COMPANY
LATI .DEG                                              :LATITUDE
LONG .DEG                                              :LONGITUDE
GDAT .                                                 :GeoDetic Datum
#-----------------------------------------------------------------------------
~PARAMETER INFORMATION
#MNEM.UNIT    VALUE                      DESCRIPTION
#---- -----   --------------------       ------------------------
RUN  .          1                        :RUN NUMBER
PDAT .        GROUND LEVEL               :Permanent Datum
EPD  .F         5214.799805              :Elevation of Permanent Datum above Mean Sea Level
LMF  .          KELLY BUSHING            :Logging Measured From (Name of Logging Elevation Reference)
APD  .F          10.000000               :Elevation of Depth Reference (LMF) above Permanent Datum
#-----------------------------------------------------------------------------
~CURVE INFORMATION
#MNEM.UNIT   API CODE                                  DESCRIPTION
#---- -----  --------                                  -----------------------
DEPT .F                                                :DEPTH (BOREHOLE) {F10.1}
GR   .GAPI                                             :Gamma-Ray {F13.4}
ITT  .S                                                :Integrated Transit Time {F13.4}
SPHI .CFCF                                             :Sonic Porosity {F13.4}
SVEL .FT/S                                             :Sonic Velocity {F13.4}
DT   .US/F                                             :Delta-T {F13.4}
#-----------------------------------------------------------------------------
# 
#     DEPT        GR           ITT          SPHI         SVEL         DT
#
~A  
# ...
    1771.0      82.9464       0.3368       0.2721   11265.8330      88.7640
    1770.5      85.5662       0.3368       0.2762   11194.2939      89.3312
    1770.0      90.2613       0.3368       0.2682   11333.8242      88.2315
    1769.5      89.5468       0.3369       0.2700   11302.9688      88.4723
    1769.0      90.4994       0.3369       0.2641   11407.0664      87.6650
    1768.5      86.4507       0.3370       0.2530   11610.1025      86.1319
    1768.0      80.4968       0.3370       0.2684   11330.3975      88.2582
    1767.5      75.7337       0.3371       0.2722   11263.7031      88.7807
    1767.0      81.0752       0.3371       0.2699   11303.4951      88.4682
    1766.5      90.6015       0.3372       0.2712   11280.3115      88.6500
    1766.0      94.1738       0.3372       0.2724   11260.6338      88.8049
    1765.5      92.6428       0.3372       0.2659   11374.4795      87.9161
    1765.0      92.1665       0.3373       0.2668   11359.3760      88.0330
    1764.5      90.2613       0.3373       0.2739   11234.6533      89.0103
    1764.0      87.1652       0.3374       0.2707   11290.4111      88.5707
    1763.5      84.5455       0.3374       0.2808   11116.0566      89.9600
    1763.0      88.8323       0.3375       0.2931   10909.7256      91.6613
    1762.5      89.0705       0.3375       0.2888   10980.9375      91.0669
    1762.0      89.0705       0.3376       0.2910   10944.2656      91.3720
    1761.5      84.0692       0.3376       0.2775   11171.5508      89.5131
    1761.0      90.7376       0.3376       0.2687   11324.9551      88.3006
    1760.5      88.8323       0.3377       0.2715   11275.1729      88.6904
    1760.0      92.9150       0.3377       0.2699   11303.7275      88.4664
    1759.5      88.3900       0.3378       0.2758   11201.7041      89.2721
    1759.0      86.9611       0.3378       0.2924   10921.9668      91.5586
    1758.5      83.5929       0.3379       0.2888   10980.1514      91.0734
    1758.0      80.2587       0.3379       0.2860   11028.3525      90.6754
    1757.5      80.9732       0.3380       0.2919   10930.2578      91.4892
    1757.0      82.1639       0.3380       0.2839   11062.4844      90.3956
    1756.5      85.8383       0.3381       0.2743   11226.8926      89.0718
    1756.0      86.5528       0.3381       0.2782   11159.2129      89.6121
    1755.5      89.1725       0.3381       0.2716   11273.6514      88.7024
    1755.0      87.4034       0.3382       0.2751   11212.3008      89.1878
    1754.5      85.0218       0.3382       0.2874   11004.2998      90.8736
    1754.0      85.2600       0.3383       0.2938   10897.7949      91.7617
    1753.5      86.6889       0.3383       0.2980   10830.7217      92.3299
    1753.0      89.0705       0.3384       0.2960   10861.8232      92.0656
    1752.5      90.5675       0.3384       0.2971   10844.9697      92.2086
    1752.0      92.2346       0.3385       0.2908   10947.4414      91.3455
    1751.5      94.8543       0.3385       0.2968   10849.0674      92.1738
    1751.0      93.5955       0.3386       0.2858   11030.4688      90.6580
    1750.5      94.3099       0.3386       0.2825   11087.2422      90.1938
    1750.0      87.1652       0.3386       0.2808   11115.7275      89.9626
    1749.5      81.2113       0.3387       0.2713   11279.1182      88.6594
    1749.0      79.0679       0.3387       0.2742   11228.1406      89.0619
    1748.5      83.5929       0.3388       0.2701   11300.0156      88.4955
    1748.0      87.1652       0.3388       0.2756   11203.6406      89.2567
    1747.5      89.7849       0.3389       0.2822   11091.9922      90.1551
    1747.0      92.8810       0.3389       0.2843   11055.6611      90.4514
    1746.5      91.6902       0.3390       0.2869   11012.8906      90.8027
    1746.0      88.9004       0.3390       0.2911   10943.2598      91.3804
    1745.5      87.9213       0.3390       0.2927   10917.2793      91.5979
    1745.0      89.2141       0.3391       0.2846   11051.3594      90.4866
    1744.5      89.1461       0.3391       0.2858   11030.3779      90.6587
    1744.0      91.7923       0.3392       0.2878   10996.9453      90.9343
    1743.5      87.8797       0.3392       0.2870   11010.0361      90.8262
    1743.0      86.9271       0.3393       0.2887   10982.6162      91.0530
    1742.5      85.0218       0.3393       0.2894   10970.2295      91.1558
    1742.0      85.1239       0.3394       0.2865   11018.7705      90.7542
    1741.5      85.1239       0.3394       0.2878   10997.6426      90.9286
    1741.0      78.4555       0.3395       0.2851   11043.3262      90.5524
    1740.5      77.1627       0.3395       0.2795   11136.9043      89.7916
    1740.0      75.9719       0.3395       0.2846   11050.1875      90.4962
    1739.5      85.7363       0.3396       0.2861   11026.5557      90.6902
    1739.0      93.5955       0.3396       0.2855   11036.7051      90.6068
    1738.5      95.9770       0.3397       0.2876   11001.3936      90.8976
    1738.0      93.8336       0.3397       0.2858   11030.9766      90.6538
    1737.5      93.6484       0.3398       0.2922   10925.2002      91.5315
    1737.0      92.6617       0.3398       0.2953   10873.3320      91.9681
    1736.5      89.0894       0.3399       0.3035   10742.5830      93.0875
    1736.0      89.5128       0.3399       0.3002   10794.6992      92.6381
    1735.5      88.8323       0.3400       0.2976   10835.9883      92.2851
    1735.0      90.4994       0.3400       0.2880   10993.7227      90.9610
    1734.5      92.1325       0.3400       0.2860   11027.2227      90.6847
    1734.0      97.3719       0.3401       0.2947   10884.0410      91.8776
    1733.5      97.1338       0.3401       0.2868   11013.5840      90.7970
    1733.0      90.7376       0.3402       0.2876   11000.4805      90.9051
    1732.5      82.8784       0.3402       0.2862   11023.4551      90.7157
    1732.0      83.3547       0.3403       0.2882   10991.3955      90.9803
    1731.5      86.2126       0.3403       0.2901   10958.5547      91.2529
    1731.0      92.4047       0.3404       0.2950   10879.3936      91.9169
    1730.5      92.9830       0.3404       0.3043   10729.3711      93.2021
    1730.0      91.3159       0.3405       0.2990   10814.0947      92.4719
    1729.5      84.8857       0.3405       0.2980   10829.6064      92.3395
    1729.0      80.4968       0.3406       0.2923   10922.4580      91.5545
    1728.5      82.4021       0.3406       0.2915   10936.6602      91.4356
    1728.0      83.1166       0.3406       0.2893   10973.2217      91.1309
    1727.5      86.9271       0.3407       0.2952   10874.8281      91.9555
    1727.0      90.4994       0.3407       0.3042   10731.6221      93.1826
    1726.5      96.9296       0.3408       0.3006   10787.6055      92.6990
    1726.0      96.1471       0.3408       0.3053   10713.6553      93.3388
    1725.5      90.4314       0.3409       0.3119   10610.6494      94.2449
    1725.0      91.1458       0.3409       0.3102   10637.0957      94.0106
    1724.5      83.8310       0.3410       0.3029   10751.5361      93.0100
    1724.0      86.6889       0.3410       0.3000   10797.6543      92.6127
    1723.5      85.2600       0.3411       0.2845   11052.1348      90.4803
    1723.0      90.3973       0.3411       0.2748   11218.8408      89.1358
    1722.5      90.9266       0.3412       0.2891   10975.8604      91.1090
    1722.0      89.9399       0.3412       0.2967   10850.7246      92.1597
    1721.5      93.3762       0.3412       0.2942   10891.8115      91.8121
    1721.0      90.7035       0.3413       0.2957   10867.6953      92.0158
    1720.5      86.9271       0.3413       0.2924   10921.0313      91.5664
    1720.0      83.1166       0.3414       0.2931   10910.1943      91.6574
    1719.5      85.2600       0.3414       0.2841   11059.3477      90.4212
    1719.0      91.2139       0.3415       0.2779   11164.4883      89.5697
    1718.5      87.6415       0.3415       0.2786   11153.0469      89.6616
