~VERSION INFORMATION
VERS.           2.0   :CWLS Log ASCII Standard - VERSION 2.0
WRAP.           NO    :One Line per depth step
PROD.  Schlumberger   :LAS Producer
PROG.  DLIS to ASCII 10C0-306                          :LAS Program name and version
CREA.        2002/04/05 15:26                          :LAS Creation date {YYYY/MM/DD hh:mm}
SOURCE.     SONIC_063PUP.DLIS                          :DLIS File Name
FILE-ID.     SONIC_063PUP                              :File Identification Number
#--------------------------------------------------
~WELL INFORMATION
#MNEM.UNIT      DATA             DESCRIPTION
#---- ------ --------------   -----------------------------
STRT .F         5958.0       :START DEPTH     
STOP .F          675.5       :STOP DEPTH     
STEP .F           -0.5       :STEP     
NULL .          -999.25      :NULL VALUE
COMP .        DEPARTMENT OF ENERGY                     :COMPANY
WELL .        NPR-3 25-1-X-14                          :WELL
FLD  .        NPR-3                                    :FIELD
LOC  .        2301' FSL & 782' FWL                     :LOCATION
CNTY .        NATRONA                                  :COUNTY
STAT .        WYOMING                                  :STATE
CTRY .                                                 :COUNTRY
API  .        4902523047                               :API NUMBER
UWI  .                                                 :UNIQUE WELL ID
DATE .        05-Apr-2002                              :LOG DATE {DD-MMM-YYYY}
SRVC .        Schlumberger                             :SERVICE COMPANY
LATI .DEG                                              :LATITUDE
LONG .DEG                                              :LONGITUDE
GDAT .                                                 :GeoDetic Datum
#-----------------------------------------------------------------------------
~PARAMETER INFORMATION
#MNEM.UNIT    VALUE                      DESCRIPTION
#---- -----   --------------------       ------------------------
RUN  .          1                        :RUN NUMBER
PDAT .        GROUND LEVEL               :Permanent Datum
EPD  .F         5214.799805              :Elevation of Permanent Datum above Mean Sea Level
LMF  .          KELLY BUSHING            :Logging Measured From (Name of Logging Elevation Reference)
APD  .F          10.000000               :Elevation of Depth Reference (LMF) above Permanent Datum
#-----------------------------------------------------------------------------
~CURVE INFORMATION
#MNEM.UNIT   API CODE                                  DESCRIPTION
#---- -----  --------                                  -----------------------
DEPT .F                                                :DEPTH (BOREHOLE) {F10.1}
GR   .GAPI                                             :Gamma-Ray {F13.4}
ITT  .S                                                :Integrated Transit Time {F13.4}
SPHI .CFCF                                             :Sonic Porosity {F13.4}
SVEL .FT/S                                             :Sonic Velocity {F13.4}
DT   .US/F                                             :Delta-T {F13.4}
#-----------------------------------------------------------------------------
# 
#     DEPT        GR           ITT          SPHI         SVEL         DT
#
~A  
# ...
    4209.0     144.7991       0.1187       0.3046   10724.0664      93.2482
    4208.5     148.8478       0.1188       0.3029   10751.2715      93.0123
    4208.0     155.9244       0.1188       0.3043   10730.1465      93.1954
    4207.5     162.3546       0.1189       0.3046   10724.9570      93.2405
    4207.0     170.9283       0.1189       0.3038   10737.0186      93.1357
    4206.5     170.3839       0.1190       0.2912   10940.5234      91.4033
    4206.0     161.5721       0.1190       0.2815   11102.6855      90.0683
    4205.5     152.9985       0.1191       0.2774   11172.6152      89.5046
    4205.0     141.5670       0.1191       0.2712   11280.6650      88.6473
    4204.5     137.5183       0.1191       0.2689   11321.2949      88.3291
    4204.0     131.8026       0.1192       0.2708   11288.0293      88.5894
    4203.5     141.0567       0.1192       0.2678   11340.2949      88.1811
    4203.0     153.9171       0.1193       0.2688   11323.7119      88.3103
    4202.5     159.6329       0.1193       0.2737   11236.8164      88.9932
    4202.0     146.8404       0.1194       0.2691   11317.7139      88.3571
    4201.5     128.9787       0.1194       0.2620   11445.3691      87.3716
    4201.0     126.3590       0.1195       0.2599   11482.6533      87.0879
    4200.5     117.4111       0.1195       0.2583   11512.2988      86.8636
    4200.0     109.2458       0.1195       0.2589   11501.0537      86.9486
    4199.5      96.6235       0.1196       0.2697   11306.9736      88.4410
    4199.0      97.5761       0.1196       0.3257   10400.6680      96.1477
    4198.5      95.1265       0.1197       0.3327   10297.0352      97.1153
    4198.0      96.7936       0.1197       0.3349   10265.2588      97.4160
    4197.5      94.8883       0.1198       0.3363   10245.3672      97.6051
    4197.0     103.3259       0.1198       0.2937   10900.0840      91.7424
    4196.5     105.7074       0.1199       0.3141   10575.6025      94.5573
    4196.0     106.0817       0.1199       0.3309   10323.0752      96.8704
    4195.5      98.9710       0.1200       0.3404   10185.8838      98.1751
    4195.0      92.7789       0.1200       0.3454   10114.5430      98.8675
    4194.5      92.8810       0.1201       0.3308   10324.6348      96.8557
    4194.0      94.0037       0.1201       0.3026   10756.8594      92.9639
    4193.5      93.5274       0.1202       0.3048   10721.2832      93.2724
    4193.0      96.6235       0.1202       0.3032   10746.5977      93.0527
    4192.5     105.6054       0.1203       0.2989   10816.4346      92.4519
    4192.0     113.7027       0.1203       0.3050   10717.9395      93.3015
    4191.5     116.3224       0.1203       0.3139   10578.8193      94.5285
    4191.0     107.6127       0.1204       0.3106   10630.7900      94.0664
    4190.5     101.6588       0.1204       0.3160   10547.5254      94.8090
    4190.0     101.1825       0.1205       0.3106   10629.9658      94.0737
    4189.5     105.2651       0.1205       0.3037   10738.1689      93.1257
    4189.0     110.7427       0.1206       0.3029   10750.8174      93.0162
    4188.5     109.7901       0.1206       0.2963   10857.6387      92.1011
    4188.0     115.5059       0.1207       0.2926   10918.6982      91.5860
    4187.5     119.2483       0.1207       0.2987   10819.4160      92.4264
    4187.0     122.1062       0.1208       0.2959   10864.7637      92.0407
    4186.5     116.1523       0.1208       0.2882   10991.3730      90.9804
    4186.0     112.3418       0.1209       0.2767   11184.6436      89.4083
    4185.5     113.7707       0.1209       0.2704   11294.5664      88.5381
    4185.0     116.1523       0.1209       0.2675   11345.6133      88.1398
    4184.5     106.8982       0.1210       0.2618   11448.3252      87.3490
    4184.0      98.8009       0.1210       0.2548   11576.8135      86.3796
    4183.5      88.5602       0.1211       0.2270   12113.6445      82.5515
    4183.0      87.1993       0.1211       0.2217   12219.9463      81.8334
    4182.5      85.0558       0.1212       0.2290   12072.4482      82.8332
    4182.0      88.3900       0.1212       0.2516   11635.2656      85.9456
    4181.5      91.6562       0.1212       0.2792   11141.9980      89.7505
    4181.0      98.3246       0.1213       0.2816   11101.7949      90.0755
    4180.5     105.4693       0.1213       0.2828   11080.7715      90.2464
    4180.0     105.9796       0.1214       0.2698   11305.8330      88.4499
    4179.5     105.7755       0.1214       0.2719   11269.3174      88.7365
    4179.0     105.5373       0.1215       0.2816   11102.5215      90.0696
    4178.5     110.3004       0.1215       0.2887   10982.6201      91.0530
    4178.0     116.5606       0.1216       0.3011   10779.8184      92.7659
    4177.5     123.9434       0.1216       0.3086   10661.5674      93.7948
    4177.0     128.2302       0.1217       0.3154   10556.2295      94.7308
    4176.5     128.5024       0.1217       0.3274   10375.0703      96.3849
    4176.0     118.7380       0.1218       0.3376   10225.8311      97.7916
    4175.5     116.3564       0.1218       0.3447   10125.4092      98.7614
    4175.0     103.8362       0.1219       0.3492   10062.5449      99.3784
    4174.5     101.2165       0.1219       0.3545    9988.0205     100.1199
    4174.0      94.5481       0.1220       0.3588    9929.8125     100.7068
    4173.5      97.8142       0.1220       0.3658    9835.5938     101.6715
    4173.0      93.2893       0.1221       0.3661    9831.6699     101.7121
    4172.5      98.0524       0.1221       0.3515   10030.1611      99.6993
    4172.0      90.4314       0.1222       0.3538    9998.3037     100.0170
    4171.5      89.7169       0.1222       0.3511   10035.4229      99.6470
    4171.0      86.8590       0.1223       0.3484   10072.7119      99.2781
    4170.5      94.5481       0.1223       0.3633    9868.7402     101.3301
    4170.0      95.5688       0.1224       0.3595    9920.6777     100.7996
    4169.5      89.1385       0.1224       0.3641    9858.4961     101.4353
    4169.0      83.8991       0.1225       0.3722    9751.2842     102.5506
    4168.5      80.9051       0.1225       0.3986    9417.4238     106.1862
    4168.0      83.2867       0.1226       0.4121    9255.5117     108.0437
    4167.5      87.0972       0.1226       0.4126    9249.1270     108.1183
    4167.0      92.2686       0.1227       0.4059    9328.8057     107.1949
    4166.5      93.4594       0.1227       0.3910    9511.6699     105.1340
    4166.0      93.2212       0.1228       0.3632    9870.7744     101.3092
    4165.5      92.4047       0.1228       0.3417   10167.5029      98.3526
    4165.0      92.2724       0.1229       0.3278   10369.7627      96.4342
    4164.5      94.8921       0.1229       0.3005   10789.8926      92.6793
    4164.0     100.6079       0.1230       0.2949   10881.2217      91.9014
    4163.5     111.9335       0.1230       0.2673   11349.0176      88.1133
    4163.0     108.7052       0.1230       0.2412   11831.6934      84.5188
    4162.5     107.9431       0.1231       0.2150   12361.0576      80.8992
    4162.0      98.1787       0.1231       0.1868   12982.8975      77.0244
    4161.5      97.5436       0.1232       0.1669   13462.2773      74.2816
    4161.0      95.2097       0.1232       0.1836   13057.8389      76.5824
    4160.5      96.1887       0.1232       0.1963   12766.4502      78.3303
    4160.0     100.7666       0.1233       0.2702   11298.7061      88.5057
    4159.5     105.0535       0.1233       0.3791    9661.0947     103.5079
    4159.0     112.1717       0.1234       0.3790    9662.8818     103.4888
    4158.5     116.4585       0.1234       0.3695    9786.4336     102.1823
    4158.0     122.6506       0.1235       0.3127   10597.1279      94.3652
    4157.5     119.5545       0.1235       0.2511   11645.0635      85.8733
    4157.0     116.2204       0.1236       0.2735   11240.2871      88.9657
    4156.5     111.2191       0.1236       0.2897   10965.8008      91.1926
