~VERSION INFORMATION
VERS.           2.0   :CWLS Log ASCII Standard - VERSION 2.0
WRAP.           NO    :One Line per depth step
PROD.  Schlumberger   :LAS Producer
PROG.  DLIS to ASCII 10C0-306                          :LAS Program name and version
CREA.        2002/04/05 15:33                          :LAS Creation date {YYYY/MM/DD hh:mm}
SOURCE.     FMI_033PUP.DLIS                            :DLIS File Name
FILE-ID.     FMI_033PUP                                :File Identification Number
#--------------------------------------------------
~WELL INFORMATION
#MNEM.UNIT      DATA             DESCRIPTION
#---- ------ --------------   -----------------------------
STRT .F      722.0           :START DEPTH     
STOP .F      5952.0          :STOP DEPTH     
STEP .F       0.5            :STEP     
NULL .          -999.25      :NULL VALUE
COMP .        DEPARTMENT OF ENERGY                     :COMPANY
WELL .        NPR-3 25-1-X-14                          :WELL
FLD  .        NPR-3                                    :FIELD
LOC  .        2301' FSL & 782' FWL                     :LOCATION
CNTY .        NATRONA                                  :COUNTY
STAT .        WYOMING                                  :STATE
CTRY .                                                 :COUNTRY
API  .        4902523047                               :API NUMBER
UWI  .                                                 :UNIQUE WELL ID
DATE .        05-Apr-2002                              :LOG DATE {DD-MMM-YYYY}
SRVC .        Schlumberger                             :SERVICE COMPANY
LATI .DEG                                              :LATITUDE
LONG .DEG                                              :LONGITUDE
GDAT .                                                 :GeoDetic Datum
#-----------------------------------------------------------------------------
~PARAMETER INFORMATION
#MNEM.UNIT    VALUE                      DESCRIPTION
#---- -----   --------------------       ------------------------
RUN  .          1                        :RUN NUMBER
PDAT .        GROUND LEVEL               :Permanent Datum
EPD  .F         5214.799805              :Elevation of Permanent Datum above Mean Sea Level
LMF  .          KELLY BUSHING            :Logging Measured From (Name of Logging Elevation Reference)
APD  .F          10.000000               :Elevation of Depth Reference (LMF) above Permanent Datum
#-----------------------------------------------------------------------------
~CURVE INFORMATION
#MNEM.UNIT   API CODE                                  DESCRIPTION
#---- -----  --------                                  -----------------------
DEPT .F                                                :DEPTH (BOREHOLE) {F10.1}
HAZI .DEG                                              :Hole Azimuth {F13.4}
SDEV .DEG                                              :Sonde Deviation {F13.4}
ED   .F                                                :East Departure {F13.4}
ND   .F                                                :North Departure {F13.4}
TVDE .F                                                :True Vertical Depth {F13.4}
VSEC .F                                                :Vertical Section {F13.4}
GR   .GAPI                                             :Gamma Ray {F13.4}
#-----------------------------------------------------------------------------
# 
#     DEPT        HAZI         SDEV         ED           ND           TVDE         VSEC         GR
#
~A  
# ...
    2460.0     315.6772       0.8992     -49.5576      84.4227    2456.8240      84.4227      99.8985
    2460.5     316.0837       0.8937     -49.5627      84.4279    2457.3240      84.4279      99.3904
    2461.0     315.8853       0.8918     -49.5678      84.4332    2457.8240      84.4332      99.6286
    2461.5     316.4579       0.8943     -49.5729      84.4383    2458.3237      84.4383      97.9139
    2462.0     315.8830       0.8929     -49.5780      84.4434    2458.8237      84.4434      98.8030
    2462.5     316.4973       0.8908     -49.5830      84.4485    2459.3237      84.4485     100.8273
    2463.0     316.0426       0.8906     -49.5881      84.4534    2459.8237      84.4534     103.2089
    2463.5     316.1284       0.8920     -49.5931      84.4584    2460.3237      84.4584     106.6383
    2464.0     316.4641       0.8910     -49.5981      84.4633    2460.8235      84.4633     111.7587
    2464.5     316.4216       0.8886     -49.6031      84.4681    2461.3235      84.4681     112.1080
    2465.0     316.7028       0.8842     -49.6080      84.4728    2461.8235      84.4728     108.7103
    2465.5     316.7140       0.8827     -49.6130      84.4775    2462.3235      84.4775      99.8667
    2466.0     316.6270       0.8812     -49.6179      84.4821    2462.8235      84.4821      94.0398
    2466.5     317.0041       0.8780     -49.6228      84.4866    2463.3232      84.4866      89.5625
    2467.0     316.4909       0.8774     -49.6277      84.4911    2463.8232      84.4911      90.0706
    2467.5     316.5307       0.8661     -49.6325      84.4955    2464.3232      84.4955      95.7863
    2468.0     316.6544       0.8743     -49.6374      84.4998    2464.8232      84.4998      98.8347
    2468.5     317.0304       0.8726     -49.6423      84.5042    2465.3232      84.5042      97.1676
    2469.0     316.3366       0.8695     -49.6471      84.5085    2465.8230      84.5085      90.9279
    2469.5     316.4252       0.8636     -49.6520      84.5127    2466.3230      84.5127      86.8793
    2470.0     315.6572       0.8595     -49.6568      84.5169    2466.8230      84.5169      88.9036
    2470.5     316.3050       0.8559     -49.6616      84.5210    2467.3230      84.5210      88.6496
    2471.0     315.9619       0.8583     -49.6665      84.5251    2467.8230      84.5251      94.7226
    2471.5     316.0474       0.8516     -49.6713      84.5292    2468.3230      84.5292      99.4460
    2472.0     315.9665       0.8429     -49.6760      84.5332    2468.8230      84.5332     103.6773
    2472.5     315.6041       0.8461     -49.6808      84.5371    2469.3228      84.5371      99.7477
    2473.0     315.4863       0.8335     -49.6856      84.5411    2469.8228      84.5411      97.2867
    2473.5     315.2083       0.8257     -49.6903      84.5450    2470.3228      84.5450      95.7228
    2474.0     314.9873       0.8220     -49.6950      84.5490    2470.8228      84.5490      95.6038
    2474.5     314.9141       0.8148     -49.6997      84.5529    2471.3228      84.5529      96.4135
    2475.0     314.2948       0.8079     -49.7044      84.5569    2471.8228      84.5569     101.7879
    2475.5     314.7763       0.8074     -49.7090      84.5608    2472.3225      84.5608     103.6931
    2476.0     314.0786       0.7964     -49.7136      84.5647    2472.8225      84.5647     106.6145
    2476.5     314.0531       0.7894     -49.7182      84.5686    2473.3225      84.5686     103.5185
    2477.0     313.1024       0.7786     -49.7227      84.5724    2473.8225      84.5724     103.8916
    2477.5     313.3408       0.7750     -49.7272      84.5763    2474.3225      84.5763     100.2796
    2478.0     312.8929       0.7687     -49.7318      84.5802    2474.8225      84.5802      99.2714
    2478.5     313.0486       0.7648     -49.7362      84.5841    2475.3225      84.5841     101.1607
    2479.0     312.0699       0.7569     -49.7407      84.5880    2475.8223      84.5880     104.1377
    2479.5     311.8053       0.7455     -49.7450      84.5919    2476.3223      84.5919     111.3777
    2480.0     311.8650       0.7468     -49.7494      84.5959    2476.8223      84.5959     111.1395
    2480.5     311.6062       0.7464     -49.7537      84.5999    2477.3223      84.5999     113.6798
    2481.0     311.1636       0.7378     -49.7580      84.6040    2477.8223      84.6040     107.6862
    2481.5     311.1872       0.7354     -49.7622      84.6080    2478.3223      84.6080     107.5592
    2482.0     310.8435       0.7329     -49.7665      84.6121    2478.8223      84.6121     101.9228
    2482.5     310.3918       0.7267     -49.7707      84.6162    2479.3220      84.6162     100.5495
    2483.0     310.1770       0.7233     -49.7749      84.6203    2479.8220      84.6203     105.4396
    2483.5     310.0685       0.7181     -49.7791      84.6245    2480.3220      84.6245     108.8929
    2484.0     309.6035       0.7096     -49.7832      84.6288    2480.8220      84.6288     114.1006
    2484.5     309.5212       0.7103     -49.7873      84.6331    2481.3220      84.6331     109.9328
    2485.0     309.8203       0.7077     -49.7915      84.6374    2481.8220      84.6374     107.9244
    2485.5     309.8911       0.7059     -49.7956      84.6417    2482.3220      84.6417     103.8519
    2486.0     310.3722       0.7029     -49.7997      84.6461    2482.8218      84.6461     100.6368
    2486.5     310.2338       0.7012     -49.8037      84.6506    2483.3218      84.6506      94.5400
    2487.0     309.9065       0.6940     -49.8078      84.6551    2483.8218      84.6551      93.2301
    2487.5     310.3398       0.6933     -49.8118      84.6596    2484.3218      84.6596      90.7692
    2488.0     310.2731       0.6922     -49.8158      84.6641    2484.8218      84.6641      94.8258
    2488.5     310.1084       0.6853     -49.8198      84.6687    2485.3218      84.6687      97.7948
    2489.0     310.8084       0.6849     -49.8237      84.6733    2485.8215      84.6733     107.8767
    2489.5     310.6279       0.6800     -49.8277      84.6779    2486.3215      84.6779     114.2355
    2490.0     310.6796       0.6809     -49.8316      84.6826    2486.8215      84.6826     116.3869
    2490.5     311.1078       0.6783     -49.8356      84.6873    2487.3215      84.6873     114.8389
    2491.0     311.9117       0.6752     -49.8395      84.6920    2487.8215      84.6920     111.0284
    2491.5     312.2172       0.6758     -49.8433      84.6968    2488.3215      84.6968     107.9323
    2492.0     312.7616       0.6771     -49.8472      84.7015    2488.8215      84.7015     105.1935
    2492.5     313.1811       0.6735     -49.8510      84.7063    2489.3213      84.7063     108.2419
    2493.0     313.4727       0.6748     -49.8548      84.7111    2489.8213      84.7111     112.7669
    2493.5     313.5837       0.6714     -49.8586      84.7159    2490.3213      84.7159     111.5443
    2494.0     314.0957       0.6750     -49.8623      84.7207    2490.8213      84.7207     105.9477
    2494.5     314.2519       0.6736     -49.8660      84.7256    2491.3213      84.7256     102.2404
    2495.0     315.0154       0.6775     -49.8697      84.7304    2491.8213      84.7304     102.8675
    2495.5     315.4268       0.6778     -49.8734      84.7353    2492.3213      84.7353     106.4319
    2496.0     315.9027       0.6825     -49.8770      84.7402    2492.8210      84.7402     100.0176
    2496.5     316.2040       0.6839     -49.8807      84.7450    2493.3210      84.7450      97.1041
    2497.0     316.5584       0.6856     -49.8842      84.7499    2493.8210      84.7499      90.9200
    2497.5     316.6391       0.6865     -49.8878      84.7548    2494.3210      84.7548      92.1108
    2498.0     317.4965       0.6904     -49.8913      84.7597    2494.8210      84.7597      93.1269
    2498.5     317.8443       0.6906     -49.8948      84.7646    2495.3210      84.7646      93.3651
    2499.0     318.1893       0.6912     -49.8983      84.7695    2495.8208      84.7695      88.8401
