~VERSION INFORMATION
VERS.           2.0   :CWLS Log ASCII Standard - VERSION 2.0
WRAP.           NO    :One Line per depth step
PROD.  Schlumberger   :LAS Producer
PROG.  DLIS to ASCII 10C0-306                          :LAS Program name and version
CREA.        2002/04/05 15:26                          :LAS Creation date {YYYY/MM/DD hh:mm}
SOURCE.     SONIC_063PUP.DLIS                          :DLIS File Name
FILE-ID.     SONIC_063PUP                              :File Identification Number
#--------------------------------------------------
~WELL INFORMATION
#MNEM.UNIT      DATA             DESCRIPTION
#---- ------ --------------   -----------------------------
STRT .F         5958.0       :START DEPTH     
STOP .F          675.5       :STOP DEPTH     
STEP .F           -0.5       :STEP     
NULL .          -999.25      :NULL VALUE
COMP .        DEPARTMENT OF ENERGY                     :COMPANY
WELL .        NPR-3 25-1-X-14                          :WELL
FLD  .        NPR-3                                    :FIELD
LOC  .        2301' FSL & 782' FWL                     :LOCATION
CNTY .        NATRONA                                  :COUNTY
STAT .        WYOMING                                  :STATE
CTRY .                                                 :COUNTRY
API  .        4902523047                               :API NUMBER
UWI  .                                                 :UNIQUE WELL ID
DATE .        05-Apr-2002                              :LOG DATE {DD-MMM-YYYY}
SRVC .        Schlumberger                             :SERVICE COMPANY
LATI .DEG                                              :LATITUDE
LONG .DEG                                              :LONGITUDE
GDAT .                                                 :GeoDetic Datum
#-----------------------------------------------------------------------------
~PARAMETER INFORMATION
#MNEM.UNIT    VALUE                      DESCRIPTION
#---- -----   --------------------       ------------------------
RUN  .          1                        :RUN NUMBER
PDAT .        GROUND LEVEL               :Permanent Datum
EPD  .F         5214.799805              :Elevation of Permanent Datum above Mean Sea Level
LMF  .          KELLY BUSHING            :Logging Measured From (Name of Logging Elevation Reference)
APD  .F          10.000000               :Elevation of Depth Reference (LMF) above Permanent Datum
#-----------------------------------------------------------------------------
~CURVE INFORMATION
#MNEM.UNIT   API CODE                                  DESCRIPTION
#---- -----  --------                                  -----------------------
DEPT .F                                                :DEPTH (BOREHOLE) {F10.1}
GR   .GAPI                                             :Gamma-Ray {F13.4}
ITT  .S                                                :Integrated Transit Time {F13.4}
SPHI .CFCF                                             :Sonic Porosity {F13.4}
SVEL .FT/S                                             :Sonic Velocity {F13.4}
DT   .US/F                                             :Delta-T {F13.4}
#-----------------------------------------------------------------------------
# 
#     DEPT        GR           ITT          SPHI         SVEL         DT
#
~A  
# ...
    2089.0     159.5648       0.3067       0.3348   10267.4316      97.3953
    2088.5     152.6242       0.3068       0.3244   10420.0010      95.9693
    2088.0     156.6729       0.3068       0.3160   10547.3232      94.8108
    2087.5     157.1492       0.3069       0.3115   10616.4502      94.1934
    2087.0     160.0411       0.3069       0.3072   10684.3125      93.5952
    2086.5     164.5661       0.3070       0.3157   10551.3252      94.7748
    2086.0     174.8068       0.3070       0.3190   10501.5625      95.2239
    2085.5     169.5674       0.3071       0.3249   10412.9355      96.0344
    2085.0     173.8542       0.3071       0.3275   10374.3174      96.3919
    2084.5     164.3279       0.3072       0.3181   10515.2402      95.1001
    2084.0     175.7594       0.3072       0.3095   10647.6650      93.9173
    2083.5     172.9016       0.3073       0.3630    9873.1719     101.2846
    2083.0     180.1483       0.3073       0.3696    9785.8008     102.1889
    2082.5     170.6221       0.3074       0.3800    9649.4531     103.6328
    2082.0     163.4774       0.3074       0.4473    8857.7627     112.8953
    2081.5     149.0859       0.3075       0.3943    9470.3975     105.5922
    2081.0     143.1320       0.3075       0.3953    9457.6387     105.7346
    2080.5     133.1294       0.3076       0.4118    9258.4814     108.0091
    2080.0     127.1755       0.3076       0.3370   10234.6709      97.7071
    2079.5     122.1402       0.3077       0.3459   10107.8691      98.9328
    2079.0     120.7113       0.3077       0.3383   10215.7744      97.8878
    2078.5     122.8547       0.3078       0.3196   10491.6123      95.3142
    2078.0     123.3650       0.3078       0.3272   10377.6855      96.3606
    2077.5     129.5571       0.3079       0.3262   10393.2783      96.2160
    2077.0     128.6045       0.3079       0.3200   10485.9229      95.3660
    2076.5     122.6506       0.3080       0.3178   10519.3438      95.0630
    2076.0     111.2191       0.3080       0.3155   10554.6729      94.7448
    2075.5     101.4546       0.3081       0.3031   10748.3115      93.0379
    2075.0      97.9163       0.3081       0.3582    9938.1611     100.6222
    2074.5     104.5847       0.3082       0.3716    9759.6152     102.4631
    2074.0     110.0623       0.3082       0.3808    9640.4219     103.7299
    2073.5     112.1717       0.3083       0.3817    9628.4814     103.8585
    2073.0     101.9309       0.3083       0.3810    9637.4775     103.7616
    2072.5      99.3112       0.3084       0.3798    9652.1875     103.6035
    2072.0      99.5494       0.3084       0.3732    9737.9873     102.6906
    2071.5     107.6467       0.3085       0.3818    9626.6406     103.8784
    2071.0     109.0756       0.3085       0.3466   10097.9580      99.0299
    2070.5     107.8168       0.3086       0.3217   10460.6025      95.5968
    2070.0     108.5313       0.3086       0.3231   10439.0791      95.7939
    2069.5     112.5799       0.3087       0.3247   10415.9326      96.0068
    2069.0     116.9348       0.3087       0.3428   10151.6768      98.5059
    2068.5     109.3138       0.3088       0.3773    9685.4717     103.2474
    2068.0     109.3138       0.3088       0.3731    9739.6113     102.6735
    2067.5     105.5033       0.3089       0.3802    9647.6846     103.6518
    2067.0     108.8374       0.3089       0.3936    9478.3477     105.5036
    2066.5     105.7414       0.3090       0.3414   10172.4580      98.3047
    2066.0     112.8861       0.3090       0.3442   10132.1523      98.6957
    2065.5     107.6467       0.3091       0.3449   10122.7480      98.7874
    2065.0     107.3745       0.3091       0.3316   10313.0645      96.9644
    2064.5     104.0403       0.3092       0.3265   10388.8682      96.2569
    2064.0     113.3284       0.3092       0.3284   10360.8975      96.5167
    2063.5     117.6493       0.3093       0.3350   10263.7627      97.4302
    2063.0     116.2203       0.3093       0.4074    9310.6143     107.4043
    2062.5     118.1256       0.3094       0.4103    9276.8711     107.7950
    2062.0     114.0769       0.3094       0.4102    9277.6611     107.7858
    2061.5     111.6953       0.3095       0.4057    9331.4688     107.1643
    2061.0     111.8655       0.3095       0.3338   10281.6650      97.2605
    2060.5     112.3418       0.3096       0.3352   10260.7578      97.4587
    2060.0     115.1996       0.3096       0.3405   10184.5244      98.1882
    2059.5     115.7440       0.3097       0.3450   10121.2090      98.8024
    2059.0     122.1742       0.3097       0.3482   10076.1348      99.2444
    2058.5     127.6518       0.3098       0.3525   10016.4141      99.8361
    2058.0     123.8413       0.3098       0.3468   10096.0947      99.0482
    2057.5     127.2776       0.3099       0.3438   10137.7188      98.6415
    2057.0     123.2289       0.3099       0.3448   10124.1328      98.7739
    2056.5     133.4697       0.3100       0.3475   10085.9072      99.1482
    2056.0     129.3189       0.3100       0.3496   10055.7031      99.4461
    2055.5     130.2715       0.3101       0.3522   10020.8340      99.7921
    2055.0     128.3663       0.3101       0.3614    9895.0557     101.0606
    2054.5     122.1742       0.3102       0.3542    9992.7295     100.0728
    2054.0     122.8887       0.3102       0.3471   10091.8135      99.0902
    2053.5     117.8194       0.3103       0.3435   10141.4521      98.6052
    2053.0     120.2009       0.3103       0.3250   10411.5928      96.0468
    2052.5     121.8680       0.3104       0.3249   10411.9580      96.0434
    2052.0     117.6493       0.3104       0.3293   10347.6182      96.6406
    2051.5     115.5058       0.3105       0.3993    9409.1816     106.2792
    2051.0     109.0756       0.3105       0.3949    9462.3398     105.6821
    2050.5     110.0282       0.3106       0.3940    9473.7861     105.5544
    2050.0     112.1187       0.3106       0.3990    9412.6816     106.2397
    2049.5     115.5550       0.3107       0.3231   10439.5273      95.7898
    2049.0     111.0300       0.3107       0.3115   10616.6514      94.1917
    2048.5     100.8422       0.3108       0.3935    9479.4209     105.4917
    2048.0      95.9770       0.3108       0.4079    9305.3516     107.4650
    2047.5     100.5020       0.3109       0.4066    9320.9541     107.2852
    2047.0     112.8861       0.3109       0.4184    9181.4277     108.9155
    2046.5     116.9348       0.3110       0.3386   10211.4697      97.9291
    2046.0     117.4111       0.3110       0.3171   10530.9668      94.9580
    2045.5     118.0575       0.3111       0.3226   10446.5625      95.7253
    2045.0     115.6760       0.3111       0.3258   10399.0469      96.1627
    2044.5     114.9615       0.3112       0.3261   10394.4922      96.2048
    2044.0     113.8388       0.3112       0.3260   10395.4668      96.1958
    2043.5     117.4111       0.3113       0.3218   10458.5527      95.6155
    2043.0     121.9361       0.3113       0.3195   10494.4639      95.2883
    2042.5     118.3637       0.3114       0.3194   10495.7129      95.2770
    2042.0     114.4512       0.3114       0.3198   10489.6982      95.3316
    2041.5     111.3551       0.3115       0.3224   10449.4531      95.6988
    2041.0     114.9275       0.3115       0.3234   10435.5967      95.8259
    2040.5     123.1269       0.3116       0.3242   10423.6523      95.9357
    2040.0     120.2690       0.3116       0.3220   10455.3955      95.6444
    2039.5     122.4124       0.3117       0.3207   10474.7949      95.4673
    2039.0     119.0782       0.3117       0.3215   10463.7344      95.5682
    2038.5     116.9348       0.3118       0.3212   10468.6201      95.5236
    2038.0     111.9335       0.3118       0.3203   10481.7500      95.4039
    2037.5     110.8788       0.3118       0.3225   10447.7598      95.7143
    2037.0     112.7840       0.3119       0.3220   10455.5098      95.6434
    2036.5     114.9275       0.3119       0.3216   10461.9766      95.5842
