~VERSION INFORMATION
VERS.           2.0   :CWLS Log ASCII Standard - VERSION 2.0
WRAP.           NO    :One Line per depth step
PROD.  Schlumberger   :LAS Producer
PROG.  DLIS to ASCII 10C0-306                          :LAS Program name and version
CREA.        2002/04/05 15:26                          :LAS Creation date {YYYY/MM/DD hh:mm}
SOURCE.     SONIC_063PUP.DLIS                          :DLIS File Name
FILE-ID.     SONIC_063PUP                              :File Identification Number
#--------------------------------------------------
~WELL INFORMATION
#MNEM.UNIT      DATA             DESCRIPTION
#---- ------ --------------   -----------------------------
STRT .F         5958.0       :START DEPTH     
STOP .F          675.5       :STOP DEPTH     
STEP .F           -0.5       :STEP     
NULL .          -999.25      :NULL VALUE
COMP .        DEPARTMENT OF ENERGY                     :COMPANY
WELL .        NPR-3 25-1-X-14                          :WELL
FLD  .        NPR-3                                    :FIELD
LOC  .        2301' FSL & 782' FWL                     :LOCATION
CNTY .        NATRONA                                  :COUNTY
STAT .        WYOMING                                  :STATE
CTRY .                                                 :COUNTRY
API  .        4902523047                               :API NUMBER
UWI  .                                                 :UNIQUE WELL ID
DATE .        05-Apr-2002                              :LOG DATE {DD-MMM-YYYY}
SRVC .        Schlumberger                             :SERVICE COMPANY
LATI .DEG                                              :LATITUDE
LONG .DEG                                              :LONGITUDE
GDAT .                                                 :GeoDetic Datum
#-----------------------------------------------------------------------------
~PARAMETER INFORMATION
#MNEM.UNIT    VALUE                      DESCRIPTION
#---- -----   --------------------       ------------------------
RUN  .          1                        :RUN NUMBER
PDAT .        GROUND LEVEL               :Permanent Datum
EPD  .F         5214.799805              :Elevation of Permanent Datum above Mean Sea Level
LMF  .          KELLY BUSHING            :Logging Measured From (Name of Logging Elevation Reference)
APD  .F          10.000000               :Elevation of Depth Reference (LMF) above Permanent Datum
#-----------------------------------------------------------------------------
~CURVE INFORMATION
#MNEM.UNIT   API CODE                                  DESCRIPTION
#---- -----  --------                                  -----------------------
DEPT .F                                                :DEPTH (BOREHOLE) {F10.1}
GR   .GAPI                                             :Gamma-Ray {F13.4}
ITT  .S                                                :Integrated Transit Time {F13.4}
SPHI .CFCF                                             :Sonic Porosity {F13.4}
SVEL .FT/S                                             :Sonic Velocity {F13.4}
DT   .US/F                                             :Delta-T {F13.4}
#-----------------------------------------------------------------------------
# 
#     DEPT        GR           ITT          SPHI         SVEL         DT
#
~A  
# ...
    4580.0      89.1046       0.0894       0.3200   10486.7451      95.3585
    4579.5      86.2467       0.0894       0.3640    9859.8447     101.4215
    4579.0      90.4995       0.0895       0.3654    9841.0732     101.6149
    4578.5      93.3574       0.0895       0.3597    9918.2822     100.8239
    4578.0      99.3113       0.0896       0.3586    9933.0732     100.6738
    4577.5      98.3587       0.0896       0.3233   10436.7686      95.8151
    4577.0      95.9771       0.0897       0.3643    9856.2861     101.4581
    4576.5      91.8604       0.0897       0.3591    9925.5107     100.7505
    4576.0      92.3367       0.0898       0.3511   10036.0791      99.6405
    4575.5      88.7644       0.0898       0.3358   10252.4854      97.5373
    4575.0      89.5469       0.0899       0.3126   10599.6973      94.3423
    4574.5      93.3574       0.0899       0.3175   10524.3604      95.0177
    4574.0      96.4534       0.0900       0.4121    9254.7529     108.0526
    4573.5      96.2152       0.0900       0.3974    9431.9102     106.0231
    4573.0      90.9758       0.0901       0.4166    9202.4531     108.6667
    4572.5      85.9065       0.0901       0.3786    9667.7275     103.4369
    4572.0      86.6209       0.0902       0.3449   10122.2197      98.7926
    4571.5      84.4775       0.0902       0.3267   10385.5449      96.2877
    4571.0      89.3087       0.0903       0.3023   10760.4805      92.9327
    4570.5      88.5942       0.0903       0.2896   10966.7773      91.1845
    4570.0      83.4909       0.0904       0.2515   11637.7061      85.9276
    4569.5      83.8614       0.0904       0.2478   11706.7861      85.4205
    4569.0      78.1456       0.0905       0.2556   11561.4326      86.4945
    4568.5      83.9634       0.0905       0.2605   11472.0850      87.1681
    4568.0      81.4495       0.0905       0.2493   11678.5449      85.6271
    4567.5      77.6390       0.0906       0.2650   11390.2080      87.7947
    4567.0      72.1614       0.0906       0.2413   11830.7422      84.5256
    4566.5      64.0641       0.0907       0.1523   13835.7480      72.2765
    4566.0      65.1528       0.0907       0.1658   13490.3154      74.1273
    4565.5      61.3423       0.0907       0.1404   14157.6709      70.6331
    4565.0      62.7713       0.0908       0.1491   13920.8633      71.8346
    4564.5      65.0167       0.0908       0.1543   13783.6611      72.5497
    4564.0      69.7799       0.0908       0.1608   13616.4385      73.4406
    4563.5      74.0327       0.0909       0.1779   13192.8662      75.7985
    4563.0      78.0813       0.0909       0.1789   13168.9688      75.9361
    4562.5      78.7958       0.0910       0.1914   12878.1250      77.6511
    4562.0      82.4022       0.0910       0.1963   12766.5986      78.3294
    4561.5      74.7812       0.0910       0.1886   12940.7207      77.2755
    4561.0      67.1601       0.0911       0.1695   13397.3584      74.6416
    4560.5      57.2937       0.0911       0.1483   13944.0928      71.7150
    4560.0      52.2924       0.0911       0.1256   14576.9668      68.6014
    4559.5      44.6714       0.0912       0.1127   14965.1572      66.8219
    4559.0      40.7248       0.0912       0.1194   14762.5859      67.7388
    4558.5      35.9617       0.0912       0.1243   14616.3584      68.4165
    4558.0      36.1998       0.0913       0.1193   14765.7832      67.7241
    4557.5      35.7235       0.0913       0.1219   14688.8037      68.0791
    4557.0      37.0163       0.0914       0.1263   14557.0469      68.6953
    4556.5      37.0163       0.0914       0.1363   14270.9492      70.0724
    4556.0      33.2058       0.0914       0.1424   14102.6709      70.9086
    4555.5      33.5801       0.0915       0.1418   14120.2393      70.8203
    4555.0      36.6761       0.0915       0.1416   14125.9785      70.7916
    4554.5      39.5340       0.0915       0.1411   14138.9990      70.7264
    4554.0      40.0103       0.0916       0.1397   14176.4580      70.5395
    4553.5      37.3906       0.0916       0.1395   14182.3818      70.5100
    4553.0      34.2946       0.0916       0.1332   14359.2588      69.6415
    4552.5      33.8182       0.0917       0.1294   14468.4609      69.1159
    4552.0      36.4380       0.0917       0.1330   14363.6895      69.6200
    4551.5      43.3445       0.0917       0.1305   14435.4014      69.2741
    4551.0      45.9642       0.0918       0.1299   14453.5684      69.1871
    4550.5      50.2510       0.0918       0.1333   14357.4336      69.6503
    4550.0      51.2717       0.0918       0.1320   14393.6230      69.4752
    4549.5      55.0822       0.0919       0.1390   14197.5117      70.4349
    4549.0      55.5585       0.0919       0.1448   14037.0840      71.2399
    4548.5      58.3484       0.0919       0.1418   14119.1113      70.8260
    4548.0      62.8733       0.0920       0.1450   14030.5088      71.2733
    4547.5      62.8733       0.0920       0.1458   14009.8311      71.3784
    4547.0      61.9888       0.0921       0.1403   14160.9170      70.6169
    4546.5      56.9875       0.0921       0.1424   14103.3428      70.9052
    4546.0      59.8453       0.0921       0.1369   14255.0342      70.1507
    4545.5      59.3010       0.0922       0.1345   14323.2539      69.8165
    4545.0      58.5865       0.0922       0.1364   14269.4277      70.0799
    4544.5      55.4905       0.0922       0.1328   14369.7178      69.5908
    4544.0      51.6800       0.0923       0.1310   14421.5010      69.3409
    4543.5      52.6326       0.0923       0.1276   14521.1055      68.8653
    4543.0      52.6326       0.0923       0.1257   14575.7686      68.6070
    4542.5      53.1089       0.0924       0.1301   14448.6348      69.2107
    4542.0      55.4905       0.0924       0.1313   14414.1904      69.3761
    4541.5      54.7760       0.0924       0.1363   14272.6602      70.0640
    4541.0      58.3484       0.0925       0.1375   14237.3984      70.2375
    4540.5      53.5852       0.0925       0.1365   14266.7480      70.0931
    4540.0      55.8647       0.0925       0.1399   14170.4609      70.5693
    4539.5      50.8634       0.0926       0.1354   14297.6445      69.9416
    4539.0      45.3858       0.0926       0.1317   14402.4434      69.4327
    4538.5      37.8669       0.0926       0.1270   14536.5430      68.7921
    4538.0      36.6761       0.0927       0.1298   14456.8770      69.1712
    4537.5      38.5814       0.0927       0.1335   14349.5703      69.6885
    4537.0      41.7455       0.0928       0.1400   14168.2061      70.5806
    4536.5      43.4126       0.0928       0.1488   13929.5264      71.7899
    4536.0      46.0323       0.0928       0.1509   13874.2725      72.0759
    4535.5      41.4393       0.0929       0.1470   13977.3096      71.5445
    4535.0      40.0103       0.0929       0.1428   14092.4482      70.9600
    4534.5      39.0577       0.0929       0.1455   14017.3174      71.3403
    4534.0      46.6787       0.0930       0.1424   14102.8213      70.9078
    4533.5      53.3471       0.0930       0.1434   14075.1406      71.0472
    4533.0      57.5999       0.0930       0.1542   13786.2939      72.5358
    4532.5      58.0762       0.0931       0.1427   14095.5107      70.9446
    4532.0      58.3143       0.0931       0.1464   13992.7490      71.4656
    4531.5      59.7773       0.0931       0.1488   13928.6992      71.7942
    4531.0      57.8721       0.0932       0.1449   14034.3887      71.2535
    4530.5      56.4431       0.0932       0.1470   13978.0371      71.5408
    4530.0      51.6800       0.0933       0.1426   14096.1602      70.9413
    4529.5      50.3531       0.0933       0.1349   14310.8906      69.8769
    4529.0      51.0676       0.0933       0.1338   14342.5840      69.7224
    4528.5      59.1649       0.0934       0.1369   14253.6934      70.1573
    4528.0      59.5391       0.0934       0.1292   14473.7266      69.0907
    4527.5      59.0628       0.0934       0.1271   14534.7529      68.8006
