~VERSION INFORMATION
VERS.           2.0   :CWLS Log ASCII Standard - VERSION 2.0
WRAP.           NO    :One Line per depth step
PROD.  Schlumberger   :LAS Producer
PROG.  DLIS to ASCII 10C0-306                          :LAS Program name and version
CREA.        2002/04/05 15:26                          :LAS Creation date {YYYY/MM/DD hh:mm}
SOURCE.     SONIC_063PUP.DLIS                          :DLIS File Name
FILE-ID.     SONIC_063PUP                              :File Identification Number
#--------------------------------------------------
~WELL INFORMATION
#MNEM.UNIT      DATA             DESCRIPTION
#---- ------ --------------   -----------------------------
STRT .F         5958.0       :START DEPTH     
STOP .F          675.5       :STOP DEPTH     
STEP .F           -0.5       :STEP     
NULL .          -999.25      :NULL VALUE
COMP .        DEPARTMENT OF ENERGY                     :COMPANY
WELL .        NPR-3 25-1-X-14                          :WELL
FLD  .        NPR-3                                    :FIELD
LOC  .        2301' FSL & 782' FWL                     :LOCATION
CNTY .        NATRONA                                  :COUNTY
STAT .        WYOMING                                  :STATE
CTRY .                                                 :COUNTRY
API  .        4902523047                               :API NUMBER
UWI  .                                                 :UNIQUE WELL ID
DATE .        05-Apr-2002                              :LOG DATE {DD-MMM-YYYY}
SRVC .        Schlumberger                             :SERVICE COMPANY
LATI .DEG                                              :LATITUDE
LONG .DEG                                              :LONGITUDE
GDAT .                                                 :GeoDetic Datum
#-----------------------------------------------------------------------------
~PARAMETER INFORMATION
#MNEM.UNIT    VALUE                      DESCRIPTION
#---- -----   --------------------       ------------------------
RUN  .          1                        :RUN NUMBER
PDAT .        GROUND LEVEL               :Permanent Datum
EPD  .F         5214.799805              :Elevation of Permanent Datum above Mean Sea Level
LMF  .          KELLY BUSHING            :Logging Measured From (Name of Logging Elevation Reference)
APD  .F          10.000000               :Elevation of Depth Reference (LMF) above Permanent Datum
#-----------------------------------------------------------------------------
~CURVE INFORMATION
#MNEM.UNIT   API CODE                                  DESCRIPTION
#---- -----  --------                                  -----------------------
DEPT .F                                                :DEPTH (BOREHOLE) {F10.1}
GR   .GAPI                                             :Gamma-Ray {F13.4}
ITT  .S                                                :Integrated Transit Time {F13.4}
SPHI .CFCF                                             :Sonic Porosity {F13.4}
SVEL .FT/S                                             :Sonic Velocity {F13.4}
DT   .US/F                                             :Delta-T {F13.4}
#-----------------------------------------------------------------------------
# 
#     DEPT        GR           ITT          SPHI         SVEL         DT
#
~A  
    5958.0      17.1473       0.0000       0.0045   19262.9453      51.9131
    5957.5      17.1473       0.0001       0.0045   19262.9453      51.9131
    5957.0      17.1473       0.0001       0.0045   19262.9453      51.9131
    5956.5      17.1473       0.0001       0.0045   19262.9453      51.9131
    5956.0      17.1473       0.0001       0.0076   19102.9824      52.3478
    5955.5      17.1473       0.0002       0.0076   19102.9824      52.3478
    5955.0      17.1473       0.0002       0.0048   19243.7832      51.9648
    5954.5      17.1473       0.0002       0.0048   19243.7832      51.9648
    5954.0      17.1473       0.0002       0.0048   19243.7832      51.9648
    5953.5      17.1473       0.0003       0.0048   19243.7832      51.9648
    5953.0      17.1473       0.0003       0.0048   19243.7832      51.9648
    5952.5      17.1473       0.0003       0.0048   19243.7832      51.9648
    5952.0      17.1473       0.0003       0.0048   19243.7832      51.9648
    5951.5      17.1473       0.0004       0.0048   19242.9824      51.9670
    5951.0      17.1473       0.0004       0.0049   19239.4102      51.9766
    5950.5      17.1473       0.0004       0.0049   19239.9824      51.9751
    5950.0      17.1473       0.0004       0.0049   19238.1816      51.9800
    5949.5      17.1473       0.0005       0.0048   19242.8496      51.9674
    5949.0      17.1473       0.0005       0.0049   19240.7070      51.9731
    5948.5      17.1473       0.0005       0.0050   19236.6543      51.9841
    5948.0      17.1473       0.0005       0.0049   19237.6875      51.9813
    5947.5      17.1473       0.0006       0.0049   19238.6172      51.9788
    5947.0      17.1473       0.0006       0.0050   19233.2051      51.9934
    5946.5      17.1473       0.0006       0.0050   19232.8770      51.9943
    5946.0      17.1473       0.0006       0.0051   19231.9063      51.9969
    5945.5      17.1473       0.0007       0.0050   19235.8047      51.9864
    5945.0      17.1473       0.0007       0.0035   19310.5156      51.7853
    5944.5      17.1473       0.0007       0.0022   19381.1973      51.5964
    5944.0      17.1473       0.0008      -0.0035   19676.9121      50.8210
    5943.5      17.1473       0.0008      -0.0121   20148.5781      49.6313
    5943.0      17.1473       0.0008       0.0042   19276.8613      51.8757
    5942.5      17.1473       0.0008       0.0443   17422.7402      57.3963
    5942.0      17.1473       0.0009       0.0737   16274.8018      61.4447
    5941.5      17.1473       0.0009       0.1016   15315.1982      65.2946
    5941.0      17.1473       0.0009       0.1291   14477.6279      69.0721
    5940.5      17.1473       0.0010       0.1383   14215.6807      70.3449
    5940.0      17.1473       0.0010       0.1389   14198.6875      70.4290
    5939.5      17.1473       0.0010       0.1235   14638.5508      68.3128
    5939.0      17.1473       0.0011       0.1083   15103.5576      66.2096
    5938.5      17.1473       0.0011       0.0986   15414.7080      64.8731
    5938.0      17.1473       0.0011       0.0903   15689.6563      63.7363
    5937.5      17.1473       0.0012       0.0892   15727.0156      63.5849
    5937.0      17.1473       0.0012       0.0958   15505.4512      64.4934
    5936.5      17.1473       0.0012       0.0924   15618.4668      64.0268
    5936.0      17.1473       0.0013       0.0836   15919.2148      62.8172
    5935.5      17.1473       0.0013       0.0774   16138.5664      61.9634
    5935.0      17.1473       0.0013       0.0727   16309.1191      61.3154
    5934.5      17.1473       0.0014       0.0678   16492.4668      60.6337
    5934.0      17.1473       0.0014       0.0638   16642.5234      60.0870
    5933.5      17.1473       0.0014       0.0512   17136.8789      58.3537
    5933.0      21.2299       0.0014       0.0312   17988.6250      55.5907
    5932.5      25.6954       0.0015       0.0225   18380.9238      54.4042
    5932.0      32.7720       0.0015       0.0134   18815.8477      53.1467
    5931.5      34.1810       0.0015       0.0059   19187.8789      52.1162
    5931.0      36.4399       0.0015       0.0024   19366.9277      51.6344
    5930.5      34.9430       0.0016       0.0041   19280.6816      51.8654
    5930.0      35.7115       0.0016       0.0075   19109.9512      52.3288
    5929.5      32.6388       0.0016       0.0100   18981.3672      52.6832
    5929.0      31.5624       0.0016       0.0100   18983.2695      52.6780
    5928.5      29.8056       0.0017       0.0042   19273.6758      51.8842
    5928.0      32.0429       0.0017       0.0037   19302.9121      51.8057
    5927.5      32.5625       0.0017       0.0002   19481.9023      51.3297
    5927.0      35.3338       0.0018       0.0011   19435.2461      51.4529
    5926.5      34.5890       0.0018      -0.0026   19631.6875      50.9381
    5926.0      36.1478       0.0018      -0.0027   19635.6465      50.9278
    5925.5      34.0694       0.0018      -0.0041   19710.3203      50.7348
    5925.0      32.0429       0.0019      -0.0091   19982.7305      50.0432
    5924.5      24.5951       0.0019      -0.0126   20178.0488      49.5588
    5924.0      17.4937       0.0019      -0.0155   20342.0059      49.1594
    5923.5      12.0897       0.0019      -0.0150   20312.6738      49.2303
    5923.0      12.9557       0.0020      -0.0126   20175.1094      49.5660
    5922.5      12.3206       0.0020      -0.0117   20123.2617      49.6937
    5922.0      13.1780       0.0020      -0.0129   20194.7090      49.5179
    5921.5      11.4844       0.0020      -0.0133   20215.2910      49.4675
    5921.0      14.9774       0.0021      -0.0074   19890.6816      50.2748
    5920.5      21.4870       0.0021       0.0094   19013.3027      52.5948
    5920.0      27.4674       0.0021       0.0247   18281.4023      54.7004
    5919.5      26.9911       0.0021       0.0380   17687.5742      56.5369
    5919.0      23.8156       0.0022       0.0384   17670.0059      56.5931
    5918.5      21.6722       0.0022       0.0409   17565.6758      56.9292
    5918.0      24.7683       0.0022       0.0399   17608.0586      56.7922
    5917.5      23.8156       0.0022       0.0385   17665.9414      56.6061
    5917.0      24.0538       0.0023       0.0417   17532.5938      57.0366
    5916.5      21.6722       0.0023       0.0383   17674.4629      56.5788
    5916.0      23.3393       0.0023       0.0413   17549.4473      56.9818
    5915.5      19.7670       0.0024       0.0508   17155.9043      58.2890
    5915.0      18.8144       0.0024       0.0554   16970.9121      58.9244
    5914.5      14.2894       0.0024       0.0586   16844.8418      59.3654
    5914.0      13.8131       0.0025       0.0546   17001.9551      58.8168
    5913.5      10.7170       0.0025       0.0614   16733.3887      59.7608
    5913.0      10.7170       0.0025       0.0664   16543.7285      60.4459
    5912.5      11.4315       0.0025       0.0782   16111.9775      62.0656
    5912.0      12.8604       0.0026       0.0944   15553.5273      64.2941
    5911.5      10.9552       0.0026       0.1015   15318.3896      65.2810
    5911.0       9.7644       0.0026       0.0915   15649.1826      63.9011
    5910.5      10.2407       0.0027       0.0809   16016.5283      62.4355
    5910.0      12.8604       0.0027       0.0682   16476.2969      60.6933
    5909.5      11.7377       0.0027       0.0494   17209.9375      58.1060
    5909.0      10.0706       0.0028       0.0484   17250.0059      57.9710
    5908.5       9.8325       0.0028       0.0464   17335.8926      57.6838
    5908.0      10.7170       0.0028       0.0408   17568.6309      56.9196
    5907.5      12.5202       0.0028       0.0308   18003.0352      55.5462
    5907.0      12.9965       0.0029       0.0164   18670.2617      53.5611
    5906.5      15.1399       0.0029      -0.0045   19733.0762      50.6763
    5906.0      12.3841       0.0029      -0.0119   20136.0137      49.6623
    5905.5      11.4315       0.0029      -0.0141   20259.2715      49.3601
