~VERSION INFORMATION
VERS.           2.0   :CWLS Log ASCII Standard - VERSION 2.0
WRAP.           NO    :One Line per depth step
PROD.  Schlumberger   :LAS Producer
PROG.  DLIS to ASCII 10C0-306                          :LAS Program name and version
CREA.        2002/04/05 15:33                          :LAS Creation date {YYYY/MM/DD hh:mm}
SOURCE.     FMI_033PUP.DLIS                            :DLIS File Name
FILE-ID.     FMI_033PUP                                :File Identification Number
#--------------------------------------------------
~WELL INFORMATION
#MNEM.UNIT      DATA             DESCRIPTION
#---- ------ --------------   -----------------------------
STRT .F      722.0           :START DEPTH     
STOP .F      5952.0          :STOP DEPTH     
STEP .F       0.5            :STEP     
NULL .          -999.25      :NULL VALUE
COMP .        DEPARTMENT OF ENERGY                     :COMPANY
WELL .        NPR-3 25-1-X-14                          :WELL
FLD  .        NPR-3                                    :FIELD
LOC  .        2301' FSL & 782' FWL                     :LOCATION
CNTY .        NATRONA                                  :COUNTY
STAT .        WYOMING                                  :STATE
CTRY .                                                 :COUNTRY
API  .        4902523047                               :API NUMBER
UWI  .                                                 :UNIQUE WELL ID
DATE .        05-Apr-2002                              :LOG DATE {DD-MMM-YYYY}
SRVC .        Schlumberger                             :SERVICE COMPANY
LATI .DEG                                              :LATITUDE
LONG .DEG                                              :LONGITUDE
GDAT .                                                 :GeoDetic Datum
#-----------------------------------------------------------------------------
~PARAMETER INFORMATION
#MNEM.UNIT    VALUE                      DESCRIPTION
#---- -----   --------------------       ------------------------
RUN  .          1                        :RUN NUMBER
PDAT .        GROUND LEVEL               :Permanent Datum
EPD  .F         5214.799805              :Elevation of Permanent Datum above Mean Sea Level
LMF  .          KELLY BUSHING            :Logging Measured From (Name of Logging Elevation Reference)
APD  .F          10.000000               :Elevation of Depth Reference (LMF) above Permanent Datum
#-----------------------------------------------------------------------------
~CURVE INFORMATION
#MNEM.UNIT   API CODE                                  DESCRIPTION
#---- -----  --------                                  -----------------------
DEPT .F                                                :DEPTH (BOREHOLE) {F10.1}
HAZI .DEG                                              :Hole Azimuth {F13.4}
SDEV .DEG                                              :Sonde Deviation {F13.4}
ED   .F                                                :East Departure {F13.4}
ND   .F                                                :North Departure {F13.4}
TVDE .F                                                :True Vertical Depth {F13.4}
VSEC .F                                                :Vertical Section {F13.4}
GR   .GAPI                                             :Gamma Ray {F13.4}
#-----------------------------------------------------------------------------
# 
#     DEPT        HAZI         SDEV         ED           ND           TVDE         VSEC         GR
#
~A  
# ...
    4869.5     326.7228       6.8650     -86.4807     237.8865    4858.5708     237.8865     131.1764
    4870.0     326.7046       6.8630     -86.5136     237.9359    4859.0669     237.9359     119.3877
    4870.5     326.6895       6.8633     -86.5465     237.9852    4859.5635     237.9852     106.9400
    4871.0     326.6690       6.8614     -86.5795     238.0344    4860.0601     238.0344      99.7953
    4871.5     326.6517       6.8586     -86.6124     238.0838    4860.5566     238.0838      93.9605
    4872.0     326.6303       6.8608     -86.6454     238.1331    4861.0532     238.1331      89.4276
    4872.5     326.6165       6.8616     -86.6783     238.1825    4861.5493     238.1825      85.9664
    4873.0     326.6077       6.8589     -86.7113     238.2319    4862.0459     238.2319      87.0381
    4873.5     326.5862       6.8570     -86.7444     238.2814    4862.5425     238.2814      93.0952
    4874.0     326.5767       6.8598     -86.7774     238.3309    4863.0386     238.3309     100.3669
    4874.5     326.5504       6.8588     -86.8105     238.3803    4863.5352     238.3803      99.5334
    4875.0     326.4859       6.8516     -86.8436     238.4297    4864.0317     238.4297     100.9782
    4875.5     326.4640       6.8481     -86.8767     238.4791    4864.5283     238.4791      97.8980
    4876.0     326.4043       6.8316     -86.9099     238.5286    4865.0244     238.5286      99.9224
    4876.5     326.3681       6.8338     -86.9430     238.5780    4865.5210     238.5780      93.2699
    4877.0     326.3607       6.8323     -86.9762     238.6274    4866.0176     238.6274      87.3001
    4877.5     326.3541       6.8273     -87.0095     238.6768    4866.5142     238.6768      83.1958
    4878.0     326.3497       6.8264     -87.0427     238.7262    4867.0103     238.7262      81.9892
    4878.5     326.3472       6.8247     -87.0760     238.7755    4867.5068     238.7755      87.5859
    4879.0     326.3363       6.8202     -87.1093     238.8249    4868.0034     238.8249      97.8742
    4879.5     326.3347       6.8178     -87.1427     238.8742    4868.4995     238.8742     109.1867
    4880.0     326.3115       6.8157     -87.1760     238.9236    4868.9961     238.9236     115.3787
    4880.5     326.3076       6.8150     -87.2093     238.9729    4869.4927     238.9729     110.5521
    4881.0     326.2908       6.8133     -87.2427     239.0222    4869.9888     239.0222     106.1462
    4881.5     326.2742       6.8120     -87.2760     239.0715    4870.4854     239.0715     101.7403
    4882.0     326.2533       6.8105     -87.3094     239.1208    4870.9819     239.1208     104.7887
    4882.5     326.2521       6.8098     -87.3428     239.1701    4871.4785     239.1701     114.0768
    4883.0     326.2345       6.8093     -87.3762     239.2194    4871.9746     239.2194     123.8412
    4883.5     326.2771       6.8132     -87.4095     239.2687    4872.4712     239.2687     131.5813
    4884.0     326.2522       6.8158     -87.4429     239.3179    4872.9678     239.3179     126.6277
    4884.5     326.2894       6.8309     -87.4763     239.3672    4873.4644     239.3672     115.3152
    4885.0     326.2776       6.8295     -87.5098     239.4164    4873.9604     239.4164     103.6456
    4885.5     326.2635       6.8293     -87.5432     239.4656    4874.4570     239.4656      97.1677
    4886.0     326.2328       6.8340     -87.5766     239.5148    4874.9536     239.5148      99.8430
    4886.5     326.2106       6.8321     -87.6100     239.5640    4875.4497     239.5640     102.5818
    4887.0     326.1773       6.8325     -87.6435     239.6132    4875.9463     239.6132     103.0899
    4887.5     326.1574       6.8349     -87.6769     239.6623    4876.4429     239.6623     110.7744
    4888.0     326.1272       6.8365     -87.7104     239.7115    4876.9395     239.7115     120.3007
    4888.5     326.1096       6.8374     -87.7438     239.7606    4877.4355     239.7606     136.3048
    4889.0     326.0741       6.8369     -87.7773     239.8097    4877.9321     239.8097     138.3291
    4889.5     326.0541       6.8397     -87.8108     239.8588    4878.4287     239.8588     127.1357
    4890.0     326.0291       6.8377     -87.8444     239.9078    4878.9253     239.9078     106.4320
    4890.5     326.0047       6.8395     -87.8779     239.9568    4879.4214     239.9568      89.0466
    4891.0     325.9735       6.8402     -87.9115     240.0058    4879.9180     240.0058      83.2673
    4891.5     325.9616       6.8399     -87.9450     240.0548    4880.4146     240.0548      85.0773
    4892.0     325.9456       6.8402     -87.9786     240.1037    4880.9111     240.1037      85.1964
    4892.5     325.9441       6.8398     -88.0122     240.1526    4881.4072     240.1526      90.5311
    4893.0     325.9255       6.8380     -88.0458     240.2015    4881.9038     240.2015      90.7692
    4893.5     325.9125       6.8389     -88.0794     240.2504    4882.4004     240.2504      99.5810
    4894.0     325.8964       6.8368     -88.1130     240.2992    4882.8970     240.2992     112.4097
    4894.5     325.8874       6.8338     -88.1466     240.3481    4883.3931     240.3481     124.6748
    4895.0     325.8844       6.8366     -88.1802     240.3969    4883.8896     240.3969     133.2008
    4895.5     325.8809       6.8375     -88.2138     240.4456    4884.3862     240.4456     119.9831
    4896.0     325.8526       6.8339     -88.2474     240.4944    4884.8828     240.4944     104.1457
    4896.5     325.8434       6.8337     -88.2810     240.5431    4885.3794     240.5431      86.0934
    4897.0     325.8266       6.8319     -88.3146     240.5918    4885.8755     240.5918      80.7349
    4897.5     325.8295       6.8343     -88.3481     240.6405    4886.3721     240.6405      82.3861
    4898.0     325.8065       6.8304     -88.3817     240.6892    4886.8687     240.6892      83.2197
    4898.5     325.7911       6.8325     -88.4153     240.7379    4887.3652     240.7379      83.1244
    4899.0     325.7789       6.8314     -88.4489     240.7865    4887.8618     240.7865      81.4732
    4899.5     325.7550       6.8279     -88.4825     240.8351    4888.3584     240.8351      75.1621
    4900.0     325.7404       6.8289     -88.5160     240.8837    4888.8545     240.8837      72.7487
    4900.5     325.7123       6.8270     -88.5496     240.9323    4889.3511     240.9323      74.4158
    4901.0     325.6844       6.8269     -88.5832     240.9809    4889.8477     240.9809      84.1009
    4901.5     325.6628       6.8246     -88.6168     241.0294    4890.3442     241.0294      93.0397
    4902.0     325.6245       6.8208     -88.6504     241.0779    4890.8408     241.0779      93.7541
    4902.5     325.6225       6.8237     -88.6840     241.1264    4891.3374     241.1264      88.9275
    4903.0     325.5787       6.8211     -88.7176     241.1749    4891.8335     241.1749      83.5690
    4903.5     325.5472       6.8159     -88.7512     241.2233    4892.3301     241.2233      82.2591
    4904.0     325.5258       6.8159     -88.7849     241.2717    4892.8267     241.2717      81.4970
    4904.5     325.5149       6.8134     -88.8185     241.3201    4893.3232     241.3201      82.3306
    4905.0     325.4993       6.8136     -88.8521     241.3685    4893.8198     241.3685      82.8069
    4905.5     325.4941       6.8118     -88.8857     241.4169    4894.3164     241.4169      82.5528
    4906.0     325.4664       6.8078     -88.9194     241.4653    4894.8130     241.4653      81.3621
    4906.5     325.4527       6.8063     -88.9530     241.5136    4895.3091     241.5136      77.4007
    4907.0     325.4444       6.8039     -88.9866     241.5619    4895.8057     241.5619      77.7262
    4907.5     325.4324       6.8016     -89.0201     241.6102    4896.3022     241.6102      79.0758
    4908.0     325.4308       6.8011     -89.0537     241.6585    4896.7988     241.6585      79.2266
    4908.5     325.4196       6.7965     -89.0873     241.7068    4897.2954     241.7068      81.2509
