~VERSION INFORMATION
VERS.           2.0   :CWLS Log ASCII Standard - VERSION 2.0
WRAP.           NO    :One Line per depth step
PROD.  Schlumberger   :LAS Producer
PROG.  DLIS to ASCII 10C0-306                          :LAS Program name and version
CREA.        2002/04/05 15:33                          :LAS Creation date {YYYY/MM/DD hh:mm}
SOURCE.     FMI_033PUP.DLIS                            :DLIS File Name
FILE-ID.     FMI_033PUP                                :File Identification Number
#--------------------------------------------------
~WELL INFORMATION
#MNEM.UNIT      DATA             DESCRIPTION
#---- ------ --------------   -----------------------------
STRT .F      722.0           :START DEPTH     
STOP .F      5952.0          :STOP DEPTH     
STEP .F       0.5            :STEP     
NULL .          -999.25      :NULL VALUE
COMP .        DEPARTMENT OF ENERGY                     :COMPANY
WELL .        NPR-3 25-1-X-14                          :WELL
FLD  .        NPR-3                                    :FIELD
LOC  .        2301' FSL & 782' FWL                     :LOCATION
CNTY .        NATRONA                                  :COUNTY
STAT .        WYOMING                                  :STATE
CTRY .                                                 :COUNTRY
API  .        4902523047                               :API NUMBER
UWI  .                                                 :UNIQUE WELL ID
DATE .        05-Apr-2002                              :LOG DATE {DD-MMM-YYYY}
SRVC .        Schlumberger                             :SERVICE COMPANY
LATI .DEG                                              :LATITUDE
LONG .DEG                                              :LONGITUDE
GDAT .                                                 :GeoDetic Datum
#-----------------------------------------------------------------------------
~PARAMETER INFORMATION
#MNEM.UNIT    VALUE                      DESCRIPTION
#---- -----   --------------------       ------------------------
RUN  .          1                        :RUN NUMBER
PDAT .        GROUND LEVEL               :Permanent Datum
EPD  .F         5214.799805              :Elevation of Permanent Datum above Mean Sea Level
LMF  .          KELLY BUSHING            :Logging Measured From (Name of Logging Elevation Reference)
APD  .F          10.000000               :Elevation of Depth Reference (LMF) above Permanent Datum
#-----------------------------------------------------------------------------
~CURVE INFORMATION
#MNEM.UNIT   API CODE                                  DESCRIPTION
#---- -----  --------                                  -----------------------
DEPT .F                                                :DEPTH (BOREHOLE) {F10.1}
HAZI .DEG                                              :Hole Azimuth {F13.4}
SDEV .DEG                                              :Sonde Deviation {F13.4}
ED   .F                                                :East Departure {F13.4}
ND   .F                                                :North Departure {F13.4}
TVDE .F                                                :True Vertical Depth {F13.4}
VSEC .F                                                :Vertical Section {F13.4}
GR   .GAPI                                             :Gamma Ray {F13.4}
#-----------------------------------------------------------------------------
# 
#     DEPT        HAZI         SDEV         ED           ND           TVDE         VSEC         GR
#
~A  
# ...
    2776.0      74.7585       0.7409     -49.7098      86.8450    2772.8086      86.8450      97.4534
    2776.5      74.8801       0.7294     -49.7035      86.8454    2773.3086      86.8454      92.8094
    2777.0      75.5424       0.7215     -49.6972      86.8458    2773.8086      86.8458      94.3812
    2777.5      76.6488       0.7146     -49.6909      86.8462    2774.3086      86.8462      92.1902
    2778.0      77.4982       0.7107     -49.6846      86.8468    2774.8086      86.8468      94.2145
    2778.5      78.4506       0.7090     -49.6782      86.8474    2775.3086      86.8474      92.4045
    2779.0      78.6651       0.7002     -49.6718      86.8481    2775.8083      86.8481      95.2624
    2779.5      79.5766       0.7058     -49.6653      86.8490    2776.3083      86.8490      94.7543
    2780.0      80.4226       0.7018     -49.6590      86.8499    2776.8083      86.8499      96.0642
    2780.5      81.1736       0.7000     -49.6526      86.8509    2777.3083      86.8509      98.8268
    2781.0      81.8985       0.7025     -49.6463      86.8520    2777.8083      86.8520      98.9776
    2781.5      82.7714       0.6968     -49.6401      86.8532    2778.3081      86.8532      99.8112
    2782.0      83.6281       0.6949     -49.6339      86.8544    2778.8081      86.8544      98.1600
    2782.5      84.6640       0.6923     -49.6279      86.8557    2779.3081      86.8557      98.0409
    2783.0      85.0660       0.6913     -49.6219      86.8571    2779.8081      86.8571      96.3103
    2783.5      85.8602       0.6927     -49.6160      86.8585    2780.3081      86.8585      96.3896
    2784.0      86.3524       0.6969     -49.6101      86.8600    2780.8081      86.8600      96.3896
    2784.5      86.5862       0.6984     -49.6044      86.8615    2781.3081      86.8615      92.8332
    2785.0      87.4851       0.7012     -49.5987      86.8631    2781.8079      86.8631      91.7615
    2785.5      87.3678       0.7041     -49.5932      86.8648    2782.3079      86.8648      86.7602
    2786.0      87.4530       0.7079     -49.5877      86.8665    2782.8079      86.8665      83.3307
    2786.5      87.4754       0.7132     -49.5823      86.8682    2783.3079      86.8682      71.1848
    2787.0      87.2888       0.7128     -49.5770      86.8700    2783.8079      86.8700      66.3740
    2787.5      87.3509       0.7179     -49.5717      86.8719    2784.3079      86.8719      61.6347
    2788.0      87.0372       0.7179     -49.5666      86.8737    2784.8079      86.8737      58.3878
    2788.5      86.6670       0.7219     -49.5615      86.8756    2785.3079      86.8756      54.0296
    2789.0      86.1343       0.7265     -49.5565      86.8776    2785.8076      86.8776      52.5451
    2789.5      85.3944       0.7262     -49.5515      86.8795    2786.3076      86.8795      57.8163
    2790.0      84.7330       0.7300     -49.5465      86.8815    2786.8076      86.8815      61.5077
    2790.5      83.9214       0.7390     -49.5416      86.8835    2787.3076      86.8835      65.8263
    2791.0      83.0007       0.7414     -49.5368      86.8855    2787.8076      86.8855      65.3499
    2791.5      82.2715       0.7411     -49.5319      86.8876    2788.3076      86.8876      69.5177
    2792.0      81.2416       0.7385     -49.5271      86.8896    2788.8076      86.8896      72.9471
    2792.5      80.4200       0.7347     -49.5223      86.8916    2789.3076      86.8916      75.8050
    2793.0      79.9598       0.7284     -49.5176      86.8936    2789.8076      86.8936      69.7320
    2793.5      78.8504       0.7224     -49.5128      86.8955    2790.3074      86.8955      63.6352
    2794.0      78.2623       0.7162     -49.5081      86.8974    2790.8074      86.8974      57.4431
    2794.5      77.5844       0.7088     -49.5034      86.8993    2791.3074      86.8993      56.2047
    2795.0      77.0274       0.6985     -49.4988      86.9011    2791.8074      86.9011      53.8946
    2795.5      76.2877       0.6945     -49.4941      86.9029    2792.3074      86.9029      53.1960
    2796.0      75.2322       0.6878     -49.4894      86.9047    2792.8074      86.9047      53.4818
    2796.5      74.2790       0.6753     -49.4847      86.9064    2793.3074      86.9064      56.1015
    2797.0      73.6841       0.6712     -49.4800      86.9082    2793.8074      86.9082      65.8501
    2797.5      73.0100       0.6606     -49.4752      86.9099    2794.3074      86.9099      70.0099
    2798.0      72.5519       0.6551     -49.4705      86.9116    2794.8071      86.9116      70.9625
    2798.5      71.8162       0.6471     -49.4658      86.9132    2795.3071      86.9132      67.3901
    2799.0      70.9242       0.6392     -49.4610      86.9149    2795.8071      86.9149      67.8982
    2799.5      70.3346       0.6290     -49.4563      86.9166    2796.3071      86.9166      69.4462
    2800.0      69.7134       0.6248     -49.4516      86.9183    2796.8071      86.9183      68.2237
    2800.5      69.3108       0.6195     -49.4468      86.9200    2797.3071      86.9200      67.7236
    2801.0      68.8944       0.6164     -49.4421      86.9218    2797.8071      86.9218      69.1049
    2801.5      68.3508       0.6106     -49.4374      86.9236    2798.3071      86.9236      70.2083
    2802.0      67.9179       0.6091     -49.4326      86.9255    2798.8071      86.9255      68.0649
    2802.5      67.5991       0.6060     -49.4278      86.9275    2799.3071      86.9275      67.6839
    2803.0      67.1906       0.6014     -49.4230      86.9296    2799.8069      86.9296      64.5878
    2803.5      67.1250       0.6042     -49.4182      86.9317    2800.3069      86.9317      65.0642
    2804.0      67.0849       0.5963     -49.4133      86.9339    2800.8069      86.9339      61.6347
    2804.5      67.4612       0.5905     -49.4085      86.9362    2801.3069      86.9362      64.3735
    2805.0      67.9503       0.5888     -49.4036      86.9386    2801.8069      86.9386      70.0893
    2805.5      67.8833       0.5825     -49.3988      86.9411    2802.3069      86.9411      77.8373
    2806.0      68.0127       0.5804     -49.3939      86.9437    2802.8069      86.9437      81.5287
    2806.5      68.3276       0.5766     -49.3891      86.9464    2803.3069      86.9464      78.7423
    2807.0      68.5848       0.5756     -49.3843      86.9492    2803.8066      86.9492      70.3592
    2807.5      69.1097       0.5747     -49.3794      86.9521    2804.3066      86.9521      65.5330
    2808.0      69.4916       0.5763     -49.3746      86.9551    2804.8066      86.9551      61.7225
    2808.5      69.7264       0.5754     -49.3699      86.9582    2805.3066      86.9582      59.5473
    2809.0      69.9710       0.5751     -49.3651      86.9613    2805.8066      86.9613      51.6321
    2809.5      70.2656       0.5751     -49.3604      86.9645    2806.3066      86.9645      46.0434
    2810.0      70.4871       0.5761     -49.3558      86.9678    2806.8066      86.9678      45.3289
    2810.5      70.6889       0.5757     -49.3511      86.9711    2807.3066      86.9711      47.0278
    2811.0      70.5874       0.5741     -49.3466      86.9744    2807.8064      86.9744      50.9971
    2811.5      70.4518       0.5766     -49.3420      86.9777    2808.3064      86.9777      50.1635
    2812.0      70.0885       0.5755     -49.3376      86.9811    2808.8064      86.9811      48.6393
    2812.5      69.6326       0.5785     -49.3332      86.9845    2809.3064      86.9845      46.9722
    2813.0      69.2084       0.5812     -49.3289      86.9879    2809.8064      86.9879      48.1550
    2813.5      68.4659       0.5877     -49.3246      86.9913    2810.3064      86.9913      48.3376
    2814.0      67.7557       0.5923     -49.3205      86.9947    2810.8064      86.9947      47.0278
    2814.5      67.2775       0.5962     -49.3164      86.9981    2811.3064      86.9981      44.5351
    2815.0      66.3770       0.6007     -49.3124      87.0014    2811.8062      87.0014      41.8121
