~VERSION INFORMATION
VERS.           2.0   :CWLS Log ASCII Standard - VERSION 2.0
WRAP.           NO    :One Line per depth step
PROD.  Schlumberger   :LAS Producer
PROG.  DLIS to ASCII 10C0-306                          :LAS Program name and version
CREA.        2002/04/05 15:26                          :LAS Creation date {YYYY/MM/DD hh:mm}
SOURCE.     SONIC_063PUP.DLIS                          :DLIS File Name
FILE-ID.     SONIC_063PUP                              :File Identification Number
#--------------------------------------------------
~WELL INFORMATION
#MNEM.UNIT      DATA             DESCRIPTION
#---- ------ --------------   -----------------------------
STRT .F         5958.0       :START DEPTH     
STOP .F          675.5       :STOP DEPTH     
STEP .F           -0.5       :STEP     
NULL .          -999.25      :NULL VALUE
COMP .        DEPARTMENT OF ENERGY                     :COMPANY
WELL .        NPR-3 25-1-X-14                          :WELL
FLD  .        NPR-3                                    :FIELD
LOC  .        2301' FSL & 782' FWL                     :LOCATION
CNTY .        NATRONA                                  :COUNTY
STAT .        WYOMING                                  :STATE
CTRY .                                                 :COUNTRY
API  .        4902523047                               :API NUMBER
UWI  .                                                 :UNIQUE WELL ID
DATE .        05-Apr-2002                              :LOG DATE {DD-MMM-YYYY}
SRVC .        Schlumberger                             :SERVICE COMPANY
LATI .DEG                                              :LATITUDE
LONG .DEG                                              :LONGITUDE
GDAT .                                                 :GeoDetic Datum
#-----------------------------------------------------------------------------
~PARAMETER INFORMATION
#MNEM.UNIT    VALUE                      DESCRIPTION
#---- -----   --------------------       ------------------------
RUN  .          1                        :RUN NUMBER
PDAT .        GROUND LEVEL               :Permanent Datum
EPD  .F         5214.799805              :Elevation of Permanent Datum above Mean Sea Level
LMF  .          KELLY BUSHING            :Logging Measured From (Name of Logging Elevation Reference)
APD  .F          10.000000               :Elevation of Depth Reference (LMF) above Permanent Datum
#-----------------------------------------------------------------------------
~CURVE INFORMATION
#MNEM.UNIT   API CODE                                  DESCRIPTION
#---- -----  --------                                  -----------------------
DEPT .F                                                :DEPTH (BOREHOLE) {F10.1}
GR   .GAPI                                             :Gamma-Ray {F13.4}
ITT  .S                                                :Integrated Transit Time {F13.4}
SPHI .CFCF                                             :Sonic Porosity {F13.4}
SVEL .FT/S                                             :Sonic Velocity {F13.4}
DT   .US/F                                             :Delta-T {F13.4}
#-----------------------------------------------------------------------------
# 
#     DEPT        GR           ITT          SPHI         SVEL         DT
#
~A  
# ...
    4898.0      97.9844       0.0654       0.1183   14794.2441      67.5939
    4897.5      93.9357       0.0654       0.0935   15583.1582      64.1718
    4897.0      84.4095       0.0655       0.0827   15952.8154      62.6849
    4896.5      88.8324       0.0655       0.0804   16031.4521      62.3774
    4896.0      83.8311       0.0655       0.0779   16121.6865      62.0283
    4895.5      87.6416       0.0656       0.0751   16223.1660      61.6403
    4895.0      87.5735       0.0656       0.0764   16174.1787      61.8269
    4894.5      98.7669       0.0656       0.0903   15688.7061      63.7401
    4894.0     112.8181       0.0657       0.1184   14793.3301      67.5980
    4893.5     124.0795       0.0657       0.1470   13976.8271      71.5470
    4893.0     121.4598       0.0657       0.1661   13482.3516      74.1710
    4892.5     120.7454       0.0658       0.1638   13541.0830      73.8493
    4892.0     126.2230       0.0658       0.1423   14104.4326      70.8997
    4891.5     118.6019       0.0658       0.1200   14744.5029      67.8219
    4891.0     108.3612       0.0659       0.1042   15232.6729      65.6484
    4890.5     100.3319       0.0659       0.0926   15613.9531      64.0453
    4890.0     101.9990       0.0659       0.0881   15764.7031      63.4328
    4889.5     101.7609       0.0660       0.0860   15837.3867      63.1417
    4889.0     102.8836       0.0660       0.0907   15676.6201      63.7893
    4888.5     109.3138       0.0660       0.1063   15164.8535      65.9419
    4888.0     123.6032       0.0661       0.1206   14727.0449      67.9023
    4887.5     121.6639       0.0661       0.1264   14553.5996      68.7115
    4887.0     120.4732       0.0661       0.1249   14597.8604      68.5032
    4886.5     105.9456       0.0662       0.1112   15013.2100      66.6080
    4886.0     104.7888       0.0662       0.0985   15418.1914      64.8585
    4885.5     102.8836       0.0662       0.0988   15407.6758      64.9027
    4885.0     103.8362       0.0663       0.1004   15355.6133      65.1228
    4884.5     101.6928       0.0663       0.1009   15338.9463      65.1935
    4884.0      97.1678       0.0663       0.1019   15305.2744      65.3370
    4883.5      95.5007       0.0664       0.0973   15455.3721      64.7024
    4883.0      95.5348       0.0664       0.0906   15680.7383      63.7725
    4882.5      97.6782       0.0664       0.0830   15939.8809      62.7357
    4882.0      98.8690       0.0665       0.0768   16162.2900      61.8724
    4881.5     100.0257       0.0665       0.0752   16220.0361      61.6521
    4881.0      94.0718       0.0665       0.0765   16173.6514      61.8290
    4880.5      90.2613       0.0666       0.0790   16081.2402      62.1843
    4880.0      90.1933       0.0666       0.0834   15928.8027      62.7794
    4879.5     101.6248       0.0666       0.0925   15616.4385      64.0351
    4879.0     104.4827       0.0666       0.0998   15374.9189      65.0410
    4878.5     105.7415       0.0667       0.1014   15322.2734      65.2645
    4878.0      99.5494       0.0667       0.0974   15452.9629      64.7125
    4877.5      96.4534       0.0667       0.0890   15733.9482      63.5568
    4877.0      90.9758       0.0668       0.0813   16000.1484      62.4994
    4876.5      82.8785       0.0668       0.0776   16134.1523      61.9803
    4876.0      83.1166       0.0668       0.0803   16035.4531      62.3618
    4875.5      88.4241       0.0669       0.0868   15811.0127      63.2471
    4875.0     101.5227       0.0669       0.0960   15500.7061      64.5132
    4874.5     112.2398       0.0669       0.1086   15093.8652      66.2521
    4874.0     120.2690       0.0670       0.1265   14551.5879      68.7210
    4873.5     132.1769       0.0670       0.1477   13958.4473      71.6412
    4873.0     139.7979       0.0670       0.1657   13492.7842      74.1137
    4872.5     144.0166       0.0671       0.1751   13259.6729      75.4166
    4872.0     131.8707       0.0671       0.1552   13761.8398      72.6647
    4871.5     111.8655       0.0672       0.1270   14537.0078      68.7899
    4871.0      90.0232       0.0672       0.1071   15139.8818      66.0507
    4870.5      74.5430       0.0672       0.0869   15807.3516      63.2617
    4870.0      65.2549       0.0672       0.0784   16104.0752      62.0961
    4869.5      63.8259       0.0673       0.0770   16154.9590      61.9005
    4869.0      60.2536       0.0673       0.0738   16271.8057      61.4560
    4868.5      61.2062       0.0673       0.0712   16367.1152      61.0981
    4868.0      57.8040       0.0674       0.0692   16440.6953      60.8247
    4867.5      56.6132       0.0674       0.0686   16461.4531      60.7480
    4867.0      57.5658       0.0674       0.0695   16429.4023      60.8665
    4866.5      55.4905       0.0675       0.0727   16311.6357      61.3059
    4866.0      55.7286       0.0675       0.0754   16210.9541      61.6867
    4865.5      59.7773       0.0675       0.0783   16109.3730      62.0757
    4865.0      61.0361       0.0676       0.0813   16001.6191      62.4937
    4864.5      73.6584       0.0676       0.0843   15895.8809      62.9094
    4864.0      80.5649       0.0676       0.0871   15801.0078      63.2871
    4863.5      97.6442       0.0676       0.0961   15495.0742      64.5366
    4863.0     105.5033       0.0677       0.1033   15262.2549      65.5211
    4862.5     109.3138       0.0677       0.1081   15108.1328      66.1895
    4862.0     105.2992       0.0677       0.1130   14955.4229      66.8654
    4861.5     101.0124       0.0678       0.1087   15088.7012      66.2748
    4861.0     103.8703       0.0678       0.1066   15155.8701      65.9810
    4860.5     104.5507       0.0678       0.1101   15047.6035      66.4558
    4860.0     110.5046       0.0679       0.1260   14565.3516      68.6561
    4859.5     114.5533       0.0679       0.1439   14062.5488      71.1109
    4859.0     120.2691       0.0680       0.1565   13727.4131      72.8469
    4858.5     117.8875       0.0680       0.1543   13783.0215      72.5530
    4858.0     107.8849       0.0680       0.1334   14354.2393      69.6658
    4857.5     104.2105       0.0681       0.1116   15001.2500      66.6611
    4857.0     102.5434       0.0681       0.0963   15490.3955      64.5561
    4856.5     112.0697       0.0681       0.1033   15260.8135      65.5273
    4856.0     114.3151       0.0682       0.1249   14599.0479      68.4976
    4855.5     120.9835       0.0682       0.1476   13960.3740      71.6313
    4855.0     123.6032       0.0682       0.1628   13565.1182      73.7185
    4854.5     124.6239       0.0683       0.1605   13622.6680      73.4071
    4854.0     118.0349       0.0683       0.1424   14102.0986      70.9114
    4853.5     103.3373       0.0683       0.1250   14594.6475      68.5183
    4853.0      96.6008       0.0684       0.1049   15210.6592      65.7434
    4852.5      90.5675       0.0684       0.0924   15618.7754      64.0255
    4852.0      89.7850       0.0684       0.0866   15816.7275      63.2242
    4851.5      83.5929       0.0685       0.0837   15918.0645      62.8217
    4851.0      88.0839       0.0685       0.0876   15780.5596      63.3691
    4850.5      93.0852       0.0685       0.0964   15484.5908      64.5803
    4850.0     109.0417       0.0686       0.1138   14930.9639      66.9749
    4849.5     115.0296       0.0686       0.1308   14427.6104      69.3115
    4849.0     114.0770       0.0686       0.1353   14299.5498      69.9323
    4848.5      94.5482       0.0687       0.1331   14360.8740      69.6336
    4848.0      75.2575       0.0687       0.1223   14676.2959      68.1371
    4847.5      62.1589       0.0687       0.1075   15127.8496      66.1032
    4847.0      64.2342       0.0688       0.1036   15251.0576      65.5692
    4846.5      63.9961       0.0688       0.1025   15285.8516      65.4200
    4846.0      64.4724       0.0688       0.0984   15419.0107      64.8550
    4845.5      60.4918       0.0689       0.0889   15736.4355      63.5468
