~VERSION INFORMATION
VERS.           2.0   :CWLS Log ASCII Standard - VERSION 2.0
WRAP.           NO    :One Line per depth step
PROD.  Schlumberger   :LAS Producer
PROG.  DLIS to ASCII 10C0-306                          :LAS Program name and version
CREA.        2002/04/05 15:18                          :LAS Creation date {YYYY/MM/DD hh:mm}
SOURCE.     TLD_MCFL_CNL_007LUP.DLIS                   :DLIS File Name
FILE-ID.     TLD_MCFL_CNL_007LUP                       :File Identification Number
#--------------------------------------------------
~WELL INFORMATION
#MNEM.UNIT      DATA             DESCRIPTION
#---- ------ --------------   -----------------------------
STRT .F         5962.0       :START DEPTH     
STOP .F           44.0       :STOP DEPTH     
STEP .F           -0.5       :STEP     
NULL .          -999.25      :NULL VALUE
COMP .        DEPARTMENT OF ENERGY                     :COMPANY
WELL .        NPR-3 25-1-X-14                          :WELL
FLD  .        NPR-3                                    :FIELD
LOC  .        2301' FSL & 782' FWL                     :LOCATION
CNTY .        NATRONA                                  :COUNTY
STAT .        WYOMING                                  :STATE
CTRY .                                                 :COUNTRY
API  .        4902523047                               :API NUMBER
UWI  .                                                 :UNIQUE WELL ID
DATE .        05-Apr-2002                              :LOG DATE {DD-MMM-YYYY}
SRVC .        Schlumberger                             :SERVICE COMPANY
LATI .DEG                                              :LATITUDE
LONG .DEG                                              :LONGITUDE
GDAT .                                                 :GeoDetic Datum
#-----------------------------------------------------------------------------
~PARAMETER INFORMATION
#MNEM.UNIT    VALUE                      DESCRIPTION
#---- -----   --------------------       ------------------------
RUN  .          1                        :RUN NUMBER
PDAT .        GROUND LEVEL               :Permanent Datum
EPD  .F         5214.799805              :Elevation of Permanent Datum above Mean Sea Level
LMF  .          KELLY BUSHING            :Logging Measured From (Name of Logging Elevation Reference)
APD  .F          10.000000               :Elevation of Depth Reference (LMF) above Permanent Datum
#-----------------------------------------------------------------------------
~CURVE INFORMATION
#MNEM.UNIT   API CODE                                  DESCRIPTION
#---- -----  --------                                  -----------------------
DEPT .F                                                :DEPTH (BOREHOLE) {F10.1}
IHV  .F3                                               :Integrated Hole Volume {F13.4}
ICV  .F3                                               :Integrated Cement Volume {F13.4}
PXND_HILT.CFCF                                         :HILT Porosity CrossPlot {F13.4}
HTEM .DEGF                                             :HTC Temperature {F13.4}
GR   .GAPI                                             :Gamma-Ray {F13.4}
NPHI .CFCF                                             :Thermal Neutron Porosity (Ratio Method) {F13.4}
TNPH .CFCF                                             :Thermal Neutron Porosity {F13.4}
NPOR .CFCF                                             :Enhanced Thermal Neutron Porosity {F13.4}
GDEV .DEG                                              :HGNS Deviation {F13.4}
RT_HRLT.OHMM                                           :HRLT Computed True Resistivity {F13.4}
RXO_HRLT.OHMM                                          :HRLT Computed Invaded Zone Resistivity {F13.4}
RM_HRLT.OHMM                                           :HRLT Mud Resistivity {F13.4}
RLA1 .OHMM                                             :HRLT Borehole Corrected Resistivity 1 {F13.4}
RLA2 .OHMM                                             :HRLT Borehole Corrected Resistivity 2 {F13.4}
RLA3 .OHMM                                             :HRLT Borehole Corrected Resistivity 3 {F13.4}
RLA4 .OHMM                                             :HRLT Borehole Corrected Resistivity 4 {F13.4}
RLA5 .OHMM                                             :HRLT Borehole Corrected Resistivity 5 {F13.4}
HCAL .IN                                               :HRCC Cal. Caliper {F13.4}
HDRA .G/C3                                             :HRDD Density Correction {F13.4}
PEFZ .                                                 :HRDD Standard Resolution Formation Photoelectric Factor {F13.4}
RHOZ .G/C3                                             :HRDD Standard Resolution Formation Density {F13.4}
HMIN .OHMM                                             :MCFL Micro Inverse Resistivity {F13.4}
HMNO .OHMM                                             :MCFL Micro Normal Resistivity {F13.4}
RXOZ .OHMM                                             :MCFL Standard Resolution Invaded Zone Resistivity {F13.4}
HAZ  .F/S2                                             :Z-Axis Acceleration {F13.4}
#-----------------------------------------------------------------------------
# 
#     DEPT        IHV          ICV       PXND_HILT       HTEM         GR           NPHI         TNPH         NPOR         GDEV       RT_HRLT      RXO_HRLT     RM_HRLT        RLA1         RLA2         RLA3         RLA4         RLA5         HCAL         HDRA         PEFZ         RHOZ         HMIN         HMNO         RXOZ         HAZ
#
~A  
# ...
     454.0    3012.4612    1617.3704       0.3341     117.7068      56.2938       0.6138       0.4360       0.4554       3.8858       0.0674       0.0674       0.2986       0.0883       0.0806       0.0743       0.0697       0.0674       2.5610       0.0481      10.0000       2.2482       0.3473       0.2355       0.2425      32.3138
     453.5    3012.4612    1617.3704       0.3269     117.7068      52.0826       0.5491       0.4441       0.4445       3.9341       0.0756       0.0756       0.3037       0.1011       0.0931       0.0851       0.0792       0.0756       2.5610       0.0563      10.0000       2.2838       0.3479       0.2357       0.2425      31.8911
     453.0    3012.4612    1617.3704       0.3127     117.7068      56.0361       0.5503       0.4313       0.4220       3.8756       0.0766       0.0766       0.2912       0.1000       0.0942       0.0862       0.0804       0.0766       2.5386       0.0649      10.0000       2.3162       0.3467       0.2353       0.2425      32.1679
     452.5    3012.4612    1617.3704       0.3186     117.7068      62.0904       0.5369       0.4651       0.4591       3.8423       0.0643       0.0643       0.2925       0.0789       0.0759       0.0702       0.0658       0.0643       2.5386       0.0692      10.0000       2.3370       0.3455       0.2349       0.2426      31.9719
     452.0    3012.4612    1617.3704       0.3075     117.7068      64.6339       0.5796       0.4470       0.4551       3.8749       0.0804       0.0804       0.2938       0.1051       0.0989       0.0912       0.0848       0.0804       2.5610       0.0729      10.0000       2.3541       0.3453       0.2348       0.2426      31.9579
     451.5    3012.4612    1617.3704       0.3040     117.7068      62.8036       0.5550       0.4278       0.4492       3.8273       0.0828       0.0828       0.2967       0.1106       0.1023       0.0941       0.0875       0.0828       2.5610       0.0529      10.0000       2.3418       0.3455       0.2349       0.2426      32.3022
     451.0    3012.4612    1617.3704       0.3055     117.7068      58.4170       0.5120       0.4286       0.4228       3.8487       0.0708       0.0708       0.3118       0.0978       0.0859       0.0787       0.0736       0.0708       2.5498       0.0348      10.0000       2.3379       0.3283       0.2288       0.2427      31.6914
     450.5    3012.4612    1617.3704       0.3138     117.7068      58.2763       0.5146       0.4451       0.4178       3.7983       0.0701       0.0701       0.3087       0.0957       0.0847       0.0777       0.0724       0.0701       2.5386       0.0132      10.0000       2.3301       0.3059       0.2211       0.2427      32.2951
     450.0    3012.4612    1617.3704       0.3100     117.7068      61.8477       0.5549       0.4465       0.4407       3.8334       0.0718       0.0718       0.3040       0.0974       0.0877       0.0802       0.0750       0.0718       2.5610       0.0167      10.0000       2.3448       0.3025       0.2200       0.2427      31.7755
     449.5    3012.4612    1617.3704       0.2886     117.7068      66.6425       0.5620       0.4201       0.4636       3.7551       0.0793       0.0793       0.2999       0.1091       0.0985       0.0900       0.0838       0.0793       2.5386       0.0529      10.0000       2.3865       0.3108       0.2227       0.2428      32.0425
     449.0    3012.4612    1617.3704       0.2749     117.7068      64.7357       0.5099       0.4162       0.4081       3.8215       0.0734       0.0734       0.3017       0.0985       0.0897       0.0823       0.0768       0.0734       2.5610       0.0916      10.0000       2.4308       0.3091       0.2222       0.2428      31.9188
     448.5    3012.4612    1617.3704       0.2680     117.7068      62.1608       0.5035       0.4316       0.4146       3.7410       0.0655       0.0655       0.2964       0.0826       0.0760       0.0714       0.0669       0.0655       2.5610       0.1273      10.0000       2.4735       0.3071       0.2216       0.2428      32.1316
     448.0    3012.4612    1617.3704       0.2745     117.7068      59.8458       0.5268       0.4640       0.4698       3.7988       0.0770       0.0770       0.2985       0.1031       0.0942       0.0868       0.0809       0.0770       2.5610       0.1292      10.0000       2.4832       0.3086       0.2221       0.2429      32.0762
     447.5    3012.4612    1617.3704       0.2743     117.7068      62.0822       0.5687       0.4671       0.4590       3.6730       0.0876       0.0876       0.2717       0.1091       0.1006       0.0947       0.0900       0.0873       2.5610       0.1317      10.0000       2.4868       0.3088       0.2222       0.2429      31.8586
     447.0    3012.4612    1617.3704       0.2731     117.7068      58.7242       0.5813       0.4602       0.4621       3.7750       0.0679       0.0679       0.2602       0.0771       0.0732       0.0705       0.0678       0.0677       2.5386       0.1291      10.0000       2.4846       0.3070       0.2216       0.2430      32.1174
     446.5    3012.4612    1617.3704       0.2713     117.7068      62.0816       0.5665       0.4494       0.4645       3.6600       0.0472       0.0472       0.2766       0.0479       0.0494       0.0477       0.0458       0.0472       2.5386       0.1276      10.0000       2.4805       0.2997       0.2193       0.2431      31.9563
     446.0    3012.4612    1617.3704       0.2649     117.7068      56.2699       0.5516       0.4275       0.4059       3.7308       0.0669       0.0669       0.2889       0.0829       0.0772       0.0718       0.0689       0.0669       2.5610       0.1272      10.0000       2.4797       0.2970       0.2185       0.2431      32.0376
     445.5    3012.4612    1617.3704       0.2487     117.7068      56.0672       0.5350       0.3857       0.3888       3.6204       0.0703       0.2344       0.2786       0.1184       0.1102       0.1047       0.0998       0.0936       2.5610       0.1347      10.0000       2.4868       0.3087       0.2222       0.2430      32.0849
     445.0    3012.4612    1617.3704       0.2387     117.7068      49.1347       0.4896       0.3671       0.3734       3.6977       0.0865       0.0865       0.2560       0.1019       0.0969       0.0953       0.0918       0.0865       2.5498       0.1465      10.0000       2.4981       0.2982       0.2188       0.2431      31.9926
     444.5    3012.4612    1617.3704       0.2337     117.7068      56.8420       0.4646       0.3608       0.3700       3.6158       0.0608       0.0608       0.2659       0.0677       0.0655       0.0642       0.0615       0.0608       2.5610       0.1615      10.0000       2.5082       0.3046       0.2209       0.2431      32.0574
     444.0    3012.4612    1617.3704       0.2430     117.7068      60.1432       0.4455       0.3915       0.3837       3.6782       0.0783       0.0783       0.2801       0.1008       0.0955       0.0892       0.0831       0.0783       2.5610       0.1701      10.0000       2.5162       0.3043       0.2208       0.2431      31.9321
     443.5    3012.4612    1617.3704       0.2560     117.7068      64.3657       0.4858       0.4338       0.4345       3.5956       0.0705       0.0705       0.3041       0.0944       0.0846       0.0778       0.0728       0.0705       2.5610       0.1659      10.0000       2.5178       0.3041       0.2208       0.2432      32.1737
     443.0    3012.4612    1617.3704       0.2611     117.7068      59.7375       0.5311       0.4461       0.4604       3.5654       0.0708       0.0708       0.3105       0.0953       0.0845       0.0780       0.0727       0.0708       2.5498       0.1525      10.0000       2.5122       0.3033       0.2205       0.2432      31.9839
     442.5    3012.4612    1617.3704       0.2618     117.7068      58.1208       0.5373       0.4393       0.4357       3.5937       0.0727       0.0727       0.3072       0.1013       0.0881       0.0809       0.0756       0.0727       2.5610       0.1400      10.0000       2.5032       0.2969       0.2185       0.2432      32.1418
