~VERSION INFORMATION
VERS.           2.0   :CWLS Log ASCII Standard - VERSION 2.0
WRAP.           NO    :One Line per depth step
PROD.  Schlumberger   :LAS Producer
PROG.  DLIS to ASCII 10C0-306                          :LAS Program name and version
CREA.        2002/04/05 15:33                          :LAS Creation date {YYYY/MM/DD hh:mm}
SOURCE.     FMI_033PUP.DLIS                            :DLIS File Name
FILE-ID.     FMI_033PUP                                :File Identification Number
#--------------------------------------------------
~WELL INFORMATION
#MNEM.UNIT      DATA             DESCRIPTION
#---- ------ --------------   -----------------------------
STRT .F      722.0           :START DEPTH     
STOP .F      5952.0          :STOP DEPTH     
STEP .F       0.5            :STEP     
NULL .          -999.25      :NULL VALUE
COMP .        DEPARTMENT OF ENERGY                     :COMPANY
WELL .        NPR-3 25-1-X-14                          :WELL
FLD  .        NPR-3                                    :FIELD
LOC  .        2301' FSL & 782' FWL                     :LOCATION
CNTY .        NATRONA                                  :COUNTY
STAT .        WYOMING                                  :STATE
CTRY .                                                 :COUNTRY
API  .        4902523047                               :API NUMBER
UWI  .                                                 :UNIQUE WELL ID
DATE .        05-Apr-2002                              :LOG DATE {DD-MMM-YYYY}
SRVC .        Schlumberger                             :SERVICE COMPANY
LATI .DEG                                              :LATITUDE
LONG .DEG                                              :LONGITUDE
GDAT .                                                 :GeoDetic Datum
#-----------------------------------------------------------------------------
~PARAMETER INFORMATION
#MNEM.UNIT    VALUE                      DESCRIPTION
#---- -----   --------------------       ------------------------
RUN  .          1                        :RUN NUMBER
PDAT .        GROUND LEVEL               :Permanent Datum
EPD  .F         5214.799805              :Elevation of Permanent Datum above Mean Sea Level
LMF  .          KELLY BUSHING            :Logging Measured From (Name of Logging Elevation Reference)
APD  .F          10.000000               :Elevation of Depth Reference (LMF) above Permanent Datum
#-----------------------------------------------------------------------------
~CURVE INFORMATION
#MNEM.UNIT   API CODE                                  DESCRIPTION
#---- -----  --------                                  -----------------------
DEPT .F                                                :DEPTH (BOREHOLE) {F10.1}
HAZI .DEG                                              :Hole Azimuth {F13.4}
SDEV .DEG                                              :Sonde Deviation {F13.4}
ED   .F                                                :East Departure {F13.4}
ND   .F                                                :North Departure {F13.4}
TVDE .F                                                :True Vertical Depth {F13.4}
VSEC .F                                                :Vertical Section {F13.4}
GR   .GAPI                                             :Gamma Ray {F13.4}
#-----------------------------------------------------------------------------
# 
#     DEPT        HAZI         SDEV         ED           ND           TVDE         VSEC         GR
#
~A  
     722.0     266.0261       4.2191       0.0552      -0.0641     725.4987      -0.0641      52.1323
     722.5     266.0261       4.2191       0.0552      -0.0641     725.4987      -0.0641      51.5528
     723.0     266.0261       4.2191       0.0552      -0.0641     725.4987      -0.0641      48.4568
     723.5     266.0261       4.2191       0.0552      -0.0641     725.4987      -0.0641      48.4568
     724.0     266.0261       4.2191       0.0552      -0.0641     725.4987      -0.0641      55.4824
     724.5     266.0261       4.2191       0.0552      -0.0641     725.4987      -0.0641      64.1751
     725.0     266.0261       4.2191       0.0552      -0.0641     725.4987      -0.0641      67.3505
     725.5     266.0261       4.2191       0.0552      -0.0641     725.4987      -0.0641      68.7795
     726.0     263.2346       4.1941       0.0380      -0.0482     725.9981      -0.0482      68.5889
     726.5     261.5793       4.1532       0.0207      -0.0278     726.4974      -0.0278      73.7966
     727.0     257.8905       4.0893       0.0033      -0.0027     726.9965      -0.0027      74.7493
     727.5     251.1578       3.9919      -0.0136       0.0265     727.4953       0.0265      77.6786
     728.0     245.3771       3.9299      -0.0291       0.0581     727.9941       0.0581      82.5052
     728.5     241.5580       3.9139      -0.0427       0.0911     728.4928       0.0911      84.4105
     729.0     236.6420       3.8679      -0.0537       0.1260     728.9915       0.1260      83.7675
     729.5     229.4943       3.8934      -0.0627       0.1625     729.4901       0.1625      80.4491
     730.0     222.8632       3.9199      -0.0704       0.2000     729.9885       0.2000      78.6630
     730.5     216.6960       3.9361      -0.0778       0.2379     730.4871       0.2379      80.9493
     731.0     214.4886       3.9327      -0.0852       0.2759     730.9855       0.2759      82.4973
     731.5     217.6038       3.7282      -0.0927       0.3140     731.4841       0.3140      86.5062
     732.0     221.1227       3.5774      -0.1002       0.3521     731.9825       0.3521      79.6235
     732.5     223.7423       3.4690      -0.1078       0.3903     732.4810       0.3903      80.7587
     733.0     225.4766       3.3912      -0.1154       0.4286     732.9795       0.4286      75.6781
     733.5     227.7104       3.2044      -0.1230       0.4669     733.4780       0.4669      82.0527
     734.0     231.3687       2.8989      -0.1307       0.5053     733.9764       0.5053      77.9405
     734.5     237.2106       2.5760      -0.1384       0.5438     734.4749       0.5438      80.6079
     735.0     245.9071       2.2911      -0.1461       0.5824     734.9733       0.5824      81.4970
     735.5     257.4257       2.0921      -0.1539       0.6209     735.4718       0.6209      82.6878
     736.0     271.8146       2.0852      -0.1616       0.6596     735.9702       0.6596      83.1959
     736.5     285.5698       2.1535      -0.1694       0.6982     736.4687       0.6982      85.1011
     737.0     297.8007       2.2428      -0.1771       0.7370     736.9671       0.7370      85.6092
     737.5     308.3860       2.5017      -0.1849       0.7757     737.4656       0.7757      81.8384
     738.0     316.4735       2.8693      -0.1927       0.8145     737.9640       0.8145      79.9331
     738.5     322.7077       3.2801      -0.2006       0.8532     738.4624       0.8532      79.9331
     739.0     327.5379       3.7252      -0.2084       0.8919     738.9609       0.8919      81.2430
     739.5     332.1039       4.0216      -0.2162       0.9306     739.4593       0.9306      78.0676
     740.0     335.4195       4.0597      -0.2241       0.9692     739.9578       0.9692      75.2970
     740.5     339.9558       4.1401      -0.2319       1.0079     740.4562       1.0079      78.1549
     741.0     344.7485       4.2458      -0.2398       1.0465     740.9547       1.0465      80.8222
     741.5     347.7732       4.3767      -0.2477       1.0850     741.4531       1.0850      82.6084
     742.0     348.8761       4.4242      -0.2556       1.1236     741.9515       1.1236      84.4978
     742.5     349.0387       4.4366      -0.2636       1.1621     742.4500       1.1621      85.2440
     743.0     348.9515       4.4446      -0.2715       1.2006     742.9484       1.2006      85.2440
     743.5     348.8675       4.4533      -0.2795       1.2391     743.4469       1.2391      80.4174
     744.0     348.8050       4.4623      -0.2875       1.2776     743.9453       1.2776      81.1318
     744.5     348.7594       4.4712      -0.2956       1.3161     744.4438       1.3161      84.6566
     745.0     348.7322       4.4822      -0.3036       1.3547     744.9422       1.3547      86.5221
     745.5     348.6942       4.4879      -0.3116       1.3932     745.4407       1.3932      83.6642
     746.0     348.6721       4.4962      -0.3197       1.4316     745.9391       1.4316      80.6158
     746.5     348.6919       4.5061      -0.3278       1.4701     746.4376       1.4701      78.7503
     747.0     348.6781       4.5101      -0.3359       1.5085     746.9360       1.5085      79.5838
     747.5     348.6771       4.5167      -0.3441       1.5469     747.4345       1.5469      83.3943
     748.0     348.6451       4.5214      -0.3523       1.5853     747.9330       1.5853      84.7836
     748.5     348.6652       4.5305      -0.3606       1.6237     748.4314       1.6237      85.3790
     749.0     348.6646       4.5331      -0.3688       1.6620     748.9299       1.6620      80.2983
     749.5     348.6170       4.5354      -0.3771       1.7005     749.4283       1.7005      83.5134
     750.0     348.5724       4.5335      -0.3854       1.7389     749.9268       1.7389      87.6732
     750.5     348.5605       4.5277      -0.3937       1.7775     750.4252       1.7775      91.6822
     751.0     348.5489       4.5266      -0.4020       1.8161     750.9236       1.8161      91.2694
     751.5     348.5292       4.5292      -0.4103       1.8547     751.4221       1.8547      88.8958
     752.0     348.5110       4.5224      -0.4185       1.8934     751.9205       1.8934      90.4438
     752.5     348.4742       4.5222      -0.4267       1.9320     752.4189       1.9320      88.4115
     753.0     348.4518       4.5203      -0.4350       1.9707     752.9174       1.9707      89.6023
     753.5     348.4066       4.5127      -0.4432       2.0094     753.4158       2.0094      88.8719
     754.0     348.3801       4.5139      -0.4515       2.0481     753.9142       2.0481      89.0545
     754.5     348.3743       4.5134      -0.4598       2.0868     754.4127       2.0868      82.3623
     755.0     348.2823       4.5066      -0.4681       2.1256     754.9111       2.1256      80.2348
     755.5     348.2293       4.5101      -0.4764       2.1646     755.4095       2.1646      80.1792
     756.0     348.2251       4.5107      -0.4846       2.2035     755.9080       2.2035      87.4668
     756.5     348.2433       4.5166      -0.4928       2.2426     756.4063       2.2426      84.3866
     757.0     348.2131       4.5131      -0.5010       2.2816     756.9047       2.2816      80.8699
     757.5     348.1781       4.5121      -0.5093       2.3206     757.4031       2.3206      76.2496
     758.0     348.1193       4.5092      -0.5175       2.3597     757.9016       2.3597      75.2811
     758.5     348.0876       4.5052      -0.5258       2.3987     758.4000       2.3987      78.1390
     759.0     348.0208       4.5035      -0.5341       2.4377     758.8984       2.4377      73.6934
     759.5     347.9382       4.5035      -0.5425       2.4767     759.3968       2.4767      74.6460
     760.0     347.9080       4.4984      -0.5509       2.5156     759.8952       2.5156      78.7344
     760.5     347.8599       4.5054      -0.5594       2.5547     760.3936       2.5547      84.5851
     761.0     347.8260       4.5048      -0.5679       2.5938     760.8920       2.5938      84.3469
