~VERSION INFORMATION
VERS.           2.0   :CWLS Log ASCII Standard - VERSION 2.0
WRAP.           NO    :One Line per depth step
PROD.  Schlumberger   :LAS Producer
PROG.  DLIS to ASCII 10C0-306                          :LAS Program name and version
CREA.        2002/04/05 15:26                          :LAS Creation date {YYYY/MM/DD hh:mm}
SOURCE.     SONIC_063PUP.DLIS                          :DLIS File Name
FILE-ID.     SONIC_063PUP                              :File Identification Number
#--------------------------------------------------
~WELL INFORMATION
#MNEM.UNIT      DATA             DESCRIPTION
#---- ------ --------------   -----------------------------
STRT .F         5958.0       :START DEPTH     
STOP .F          675.5       :STOP DEPTH     
STEP .F           -0.5       :STEP     
NULL .          -999.25      :NULL VALUE
COMP .        DEPARTMENT OF ENERGY                     :COMPANY
WELL .        NPR-3 25-1-X-14                          :WELL
FLD  .        NPR-3                                    :FIELD
LOC  .        2301' FSL & 782' FWL                     :LOCATION
CNTY .        NATRONA                                  :COUNTY
STAT .        WYOMING                                  :STATE
CTRY .                                                 :COUNTRY
API  .        4902523047                               :API NUMBER
UWI  .                                                 :UNIQUE WELL ID
DATE .        05-Apr-2002                              :LOG DATE {DD-MMM-YYYY}
SRVC .        Schlumberger                             :SERVICE COMPANY
LATI .DEG                                              :LATITUDE
LONG .DEG                                              :LONGITUDE
GDAT .                                                 :GeoDetic Datum
#-----------------------------------------------------------------------------
~PARAMETER INFORMATION
#MNEM.UNIT    VALUE                      DESCRIPTION
#---- -----   --------------------       ------------------------
RUN  .          1                        :RUN NUMBER
PDAT .        GROUND LEVEL               :Permanent Datum
EPD  .F         5214.799805              :Elevation of Permanent Datum above Mean Sea Level
LMF  .          KELLY BUSHING            :Logging Measured From (Name of Logging Elevation Reference)
APD  .F          10.000000               :Elevation of Depth Reference (LMF) above Permanent Datum
#-----------------------------------------------------------------------------
~CURVE INFORMATION
#MNEM.UNIT   API CODE                                  DESCRIPTION
#---- -----  --------                                  -----------------------
DEPT .F                                                :DEPTH (BOREHOLE) {F10.1}
GR   .GAPI                                             :Gamma-Ray {F13.4}
ITT  .S                                                :Integrated Transit Time {F13.4}
SPHI .CFCF                                             :Sonic Porosity {F13.4}
SVEL .FT/S                                             :Sonic Velocity {F13.4}
DT   .US/F                                             :Delta-T {F13.4}
#-----------------------------------------------------------------------------
# 
#     DEPT        GR           ITT          SPHI         SVEL         DT
#
~A  
# ...
    1400.0      89.0705       0.3712       0.3076   10677.1846      93.6576
    1399.5      89.0705       0.3712       0.3063   10698.2275      93.4734
    1399.0      88.8664       0.3713       0.2999   10799.9834      92.5927
    1398.5      85.5322       0.3713       0.2964   10855.7109      92.1174
    1398.0      81.2454       0.3714       0.2937   10899.2568      91.7494
    1397.5      78.8298       0.3714       0.2927   10915.9219      91.6093
    1397.0      78.8298       0.3715       0.2892   10973.4443      91.1291
    1396.5      82.8785       0.3715       0.2903   10955.7832      91.2760
    1396.0      88.3561       0.3716       0.2855   11035.8818      90.6135
    1395.5      89.7850       0.3716       0.2643   11404.1611      87.6873
    1395.0      86.9952       0.3717       0.2490   11683.7334      85.5891
    1394.5      81.7557       0.3717       0.2480   11703.0996      85.4474
    1394.0      84.3755       0.3717       0.2522   11624.1182      86.0280
    1393.5      88.8324       0.3718       0.2708   11287.8584      88.5908
    1393.0      87.6416       0.3718       0.2840   11061.7012      90.4020
    1392.5      82.8785       0.3719       0.2814   11105.3066      90.0470
    1392.0      78.5917       0.3719       0.2764   11191.2686      89.3554
    1391.5      82.5042       0.3720       0.2691   11318.4805      88.3511
    1391.0      82.2661       0.3720       0.2706   11291.4561      88.5625
    1390.5      80.3608       0.3721       0.2724   11260.4092      88.8067
    1390.0      79.0680       0.3721       0.2730   11249.7461      88.8909
    1389.5      79.3061       0.3721       0.2764   11190.1221      89.3645
    1389.0      74.5430       0.3722       0.2722   11263.5664      88.7818
    1388.5      67.3983       0.3722       0.2701   11299.8438      88.4968
    1388.0      66.6838       0.3723       0.2687   11325.3740      88.2973
    1387.5      72.6377       0.3723       0.2644   11401.0117      87.7115
    1387.0      75.7338       0.3724       0.2634   11419.1621      87.5721
    1386.5      77.6390       0.3724       0.2619   11446.1904      87.3653
    1386.0      80.7351       0.3725       0.2646   11398.0957      87.7340
    1385.5      83.8311       0.3725       0.2672   11351.9834      88.0903
    1385.0      81.4155       0.3725       0.2660   11372.9102      87.9282
    1384.5      77.8432       0.3726       0.2670   11355.9072      88.0599
    1384.0      80.2247       0.3726       0.2642   11405.1729      87.6795
    1383.5      80.2587       0.3727       0.2671   11352.6025      88.0855
    1383.0      80.9732       0.3727       0.2670   11355.4844      88.0632
    1382.5      80.7351       0.3728       0.2673   11349.9844      88.1059
    1382.0      85.7364       0.3728       0.2643   11403.5400      87.6921
    1381.5      83.5929       0.3728       0.2639   11411.1279      87.6338
    1381.0      80.7351       0.3729       0.2652   11387.8994      87.8125
    1380.5      82.1640       0.3729       0.2671   11353.9805      88.0748
    1380.0      87.4034       0.3730       0.2736   11239.8242      88.9694
    1379.5      86.6890       0.3730       0.2728   11252.6563      88.8679
    1379.0      84.7837       0.3731       0.2706   11290.8975      88.5669
    1378.5      83.3548       0.3731       0.2736   11239.7266      88.9701
    1378.0      84.0693       0.3732       0.2687   11324.4707      88.3043
    1377.5      83.8311       0.3732       0.2662   11369.2676      87.9564
    1377.0      85.4642       0.3732       0.2717   11271.7920      88.7170
    1376.5      86.6550       0.3733       0.2759   11199.0439      89.2933
    1376.0      90.9418       0.3733       0.2843   11055.3984      90.4535
    1375.5      85.4982       0.3734       0.2911   10942.4092      91.3876
    1375.0      86.9271       0.3734       0.2903   10955.7178      91.2765
    1374.5      84.5456       0.3735       0.2873   11005.1211      90.8668
    1374.0      84.7837       0.3735       0.2950   10879.0869      91.9195
    1373.5      86.4848       0.3736       0.2991   10812.7441      92.4835
    1373.0      91.9624       0.3736       0.3010   10781.4092      92.7523
    1372.5      97.9163       0.3737       0.3034   10744.0068      93.0751
    1372.0      99.7876       0.3737       0.3095   10647.7061      93.9169
    1371.5      90.2613       0.3737       0.3075   10678.3750      93.6472
    1371.0      87.4034       0.3738       0.3047   10723.1045      93.2566
    1370.5      81.4495       0.3738       0.3135   10585.0488      94.4729
    1370.0      86.4508       0.3739       0.3088   10658.3467      93.8232
    1369.5      92.6429       0.3739       0.3074   10681.1016      93.6233
    1369.0      95.9771       0.3740       0.3144   10571.2490      94.5962
    1368.5      94.7863       0.3740       0.3103   10635.6729      94.0232
    1368.0      89.8871       0.3741       0.3111   10622.8926      94.1363
    1367.5      89.0932       0.3741       0.3201   10484.6592      95.3774
    1367.0      93.7203       0.3742       0.3157   10551.8213      94.7704
    1366.5      90.7603       0.3742       0.3177   10520.4189      95.0533
    1366.0      90.3634       0.3743       0.3112   10620.9072      94.1539
    1365.5      82.8785       0.3743       0.3034   10743.5107      93.0794
    1365.0      82.8785       0.3744       0.3048   10721.6855      93.2689
    1364.5      85.2600       0.3744       0.3030   10750.2734      93.0209
    1364.0      84.5796       0.3745       0.3158   10549.5195      94.7910
    1363.5      88.1519       0.3745       0.3201   10484.5449      95.3785
    1363.0      85.0559       0.3746       0.3200   10486.8535      95.3575
    1362.5      88.3561       0.3746       0.3225   10448.2129      95.7101
    1362.0      86.4508       0.3746       0.3141   10576.0215      94.5535
    1361.5      89.7850       0.3747       0.3161   10545.3281      94.8287
    1361.0      91.9284       0.3747       0.3192   10498.4736      95.2519
    1360.5     100.9784       0.3748       0.3202   10482.8477      95.3939
    1360.0     103.5641       0.3748       0.3294   10345.2715      96.6625
    1359.5     107.8509       0.3749       0.3307   10325.8877      96.8440
    1359.0     103.8022       0.3749       0.3315   10315.0635      96.9456
    1358.5     100.2639       0.3750       0.3424   10157.7197      98.4473
    1358.0      95.9771       0.3750       0.3483   10074.2822      99.2627
    1357.5      95.9771       0.3751       0.3474   10086.4512      99.1429
    1357.0      94.0718       0.3751       0.3403   10187.2842      98.1616
    1356.5      88.3560       0.3752       0.3325   10299.8037      97.0892
    1356.0      87.4034       0.3752       0.3338   10280.8545      97.2682
    1355.5      87.8797       0.3753       0.3322   10304.0684      97.0490
    1355.0      87.6416       0.3753       0.3531   10007.7920      99.9221
    1354.5      93.3573       0.3754       0.3610    9900.5674     101.0043
    1354.0     100.2298       0.3754       0.3514   10031.9883      99.6811
    1353.5     106.8982       0.3755       0.3587    9931.3623     100.6911
    1353.0      99.7535       0.3755       0.3566    9959.6729     100.4049
    1352.5      92.8810       0.3756       0.3613    9896.6514     101.0443
    1352.0      93.8336       0.3756       0.3706    9772.6709     102.3262
    1351.5      91.2139       0.3757       0.3679    9807.4004     101.9638
    1351.0      94.5481       0.3757       0.3712    9764.1680     102.4153
    1350.5      96.9637       0.3758       0.3614    9894.8965     101.0622
    1350.0      98.8689       0.3758       0.3652    9844.3418     101.5812
    1349.5     104.3465       0.3759       0.3735    9733.8262     102.7345
    1349.0      95.2626       0.3759       0.3711    9765.5391     102.4009
    1348.5      99.0731       0.3760       0.3719    9755.6113     102.5051
    1348.0      95.2626       0.3760       0.3701    9778.2695     102.2676
    1347.5      95.6368       0.3761       0.3722    9750.7412     102.5563
