~VERSION INFORMATION
VERS.           2.0   :CWLS Log ASCII Standard - VERSION 2.0
WRAP.           NO    :One Line per depth step
PROD.  Schlumberger   :LAS Producer
PROG.  DLIS to ASCII 10C0-306                          :LAS Program name and version
CREA.        2002/04/05 15:18                          :LAS Creation date {YYYY/MM/DD hh:mm}
SOURCE.     TLD_MCFL_CNL_007LUP.DLIS                   :DLIS File Name
FILE-ID.     TLD_MCFL_CNL_007LUP                       :File Identification Number
#--------------------------------------------------
~WELL INFORMATION
#MNEM.UNIT      DATA             DESCRIPTION
#---- ------ --------------   -----------------------------
STRT .F         5962.0       :START DEPTH     
STOP .F           44.0       :STOP DEPTH     
STEP .F           -0.5       :STEP     
NULL .          -999.25      :NULL VALUE
COMP .        DEPARTMENT OF ENERGY                     :COMPANY
WELL .        NPR-3 25-1-X-14                          :WELL
FLD  .        NPR-3                                    :FIELD
LOC  .        2301' FSL & 782' FWL                     :LOCATION
CNTY .        NATRONA                                  :COUNTY
STAT .        WYOMING                                  :STATE
CTRY .                                                 :COUNTRY
API  .        4902523047                               :API NUMBER
UWI  .                                                 :UNIQUE WELL ID
DATE .        05-Apr-2002                              :LOG DATE {DD-MMM-YYYY}
SRVC .        Schlumberger                             :SERVICE COMPANY
LATI .DEG                                              :LATITUDE
LONG .DEG                                              :LONGITUDE
GDAT .                                                 :GeoDetic Datum
#-----------------------------------------------------------------------------
~PARAMETER INFORMATION
#MNEM.UNIT    VALUE                      DESCRIPTION
#---- -----   --------------------       ------------------------
RUN  .          1                        :RUN NUMBER
PDAT .        GROUND LEVEL               :Permanent Datum
EPD  .F         5214.799805              :Elevation of Permanent Datum above Mean Sea Level
LMF  .          KELLY BUSHING            :Logging Measured From (Name of Logging Elevation Reference)
APD  .F          10.000000               :Elevation of Depth Reference (LMF) above Permanent Datum
#-----------------------------------------------------------------------------
~CURVE INFORMATION
#MNEM.UNIT   API CODE                                  DESCRIPTION
#---- -----  --------                                  -----------------------
DEPT .F                                                :DEPTH (BOREHOLE) {F10.1}
IHV  .F3                                               :Integrated Hole Volume {F13.4}
ICV  .F3                                               :Integrated Cement Volume {F13.4}
PXND_HILT.CFCF                                         :HILT Porosity CrossPlot {F13.4}
HTEM .DEGF                                             :HTC Temperature {F13.4}
GR   .GAPI                                             :Gamma-Ray {F13.4}
NPHI .CFCF                                             :Thermal Neutron Porosity (Ratio Method) {F13.4}
TNPH .CFCF                                             :Thermal Neutron Porosity {F13.4}
NPOR .CFCF                                             :Enhanced Thermal Neutron Porosity {F13.4}
GDEV .DEG                                              :HGNS Deviation {F13.4}
RT_HRLT.OHMM                                           :HRLT Computed True Resistivity {F13.4}
RXO_HRLT.OHMM                                          :HRLT Computed Invaded Zone Resistivity {F13.4}
RM_HRLT.OHMM                                           :HRLT Mud Resistivity {F13.4}
RLA1 .OHMM                                             :HRLT Borehole Corrected Resistivity 1 {F13.4}
RLA2 .OHMM                                             :HRLT Borehole Corrected Resistivity 2 {F13.4}
RLA3 .OHMM                                             :HRLT Borehole Corrected Resistivity 3 {F13.4}
RLA4 .OHMM                                             :HRLT Borehole Corrected Resistivity 4 {F13.4}
RLA5 .OHMM                                             :HRLT Borehole Corrected Resistivity 5 {F13.4}
HCAL .IN                                               :HRCC Cal. Caliper {F13.4}
HDRA .G/C3                                             :HRDD Density Correction {F13.4}
PEFZ .                                                 :HRDD Standard Resolution Formation Photoelectric Factor {F13.4}
RHOZ .G/C3                                             :HRDD Standard Resolution Formation Density {F13.4}
HMIN .OHMM                                             :MCFL Micro Inverse Resistivity {F13.4}
HMNO .OHMM                                             :MCFL Micro Normal Resistivity {F13.4}
RXOZ .OHMM                                             :MCFL Standard Resolution Invaded Zone Resistivity {F13.4}
HAZ  .F/S2                                             :Z-Axis Acceleration {F13.4}
#-----------------------------------------------------------------------------
# 
#     DEPT        IHV          ICV       PXND_HILT       HTEM         GR           NPHI         TNPH         NPOR         GDEV       RT_HRLT      RXO_HRLT     RM_HRLT        RLA1         RLA2         RLA3         RLA4         RLA5         HCAL         HDRA         PEFZ         RHOZ         HMIN         HMNO         RXOZ         HAZ
#
~A  
# ...
    3202.0    1383.6309     649.9170       0.1578     145.7329     119.4578       0.2361       0.2258       0.2227       3.7036       8.8632       9.8286       0.4558       8.9732       9.1427       9.3847       9.1871       8.7087       9.4015      -0.0108       2.7524       2.5422       3.9143       4.4377       9.7762      32.3879
    3201.5    1383.8730     650.0256       0.1619     145.7329     114.0829       0.2301       0.2296       0.2226       3.8296       9.0769       9.1749       0.4546       8.9936       9.1282       9.2621       9.2356       8.7327       9.4238      -0.0124       2.7904       2.5309       3.7717       4.2300       9.1127      31.4737
    3201.0    1384.1152     650.1342       0.1723     145.7329     118.0387       0.2430       0.2433       0.2434       3.6860       8.2242       8.4565       0.4543       8.2947       8.2526       8.3222       8.4181       7.9958       9.4238      -0.0115       2.8490       2.5197       3.6956       4.0761       8.3926      31.7492
    3200.5    1384.3585     650.2438       0.1827     145.7329     123.2807       0.2556       0.2609       0.2783       3.6966       7.7820       8.1576       0.4536       8.0000       7.7962       7.8489       8.0028       7.6193       9.4462      -0.0094       2.8788       2.5203       3.4805       3.8510       8.0873      32.4968
    3200.0    1384.6018     650.3535       0.1798     145.7329     123.6524       0.2615       0.2599       0.2726       4.3445       7.5445       8.3353       0.4517       7.9360       7.6436       7.6945       7.8505       7.5337       9.4462      -0.0070       2.8688       2.5332       3.5591       3.9429       8.2758      32.4694
    3199.5    1384.8463     650.4644       0.1733     145.7329     119.4977       0.2488       0.2516       0.2482       3.9695       7.3956       9.5032       0.4529       8.0567       7.7789       7.8187       7.9510       7.6959       9.4686      -0.0070       2.8182       2.5433       3.5733       4.0176       9.4537      31.5184
    3199.0    1385.0908     650.5752       0.1729     145.7329     114.8811       0.2394       0.2518       0.2392       2.9414       8.9860      10.6261       0.4517       9.3804       9.2136       9.2777       9.4061       9.1800       9.4686      -0.0080       2.7536       2.5462       5.0687       5.4928      10.5647      31.6926
    3198.5    1385.3353     650.6860       0.1692     145.7329     115.6586       0.2506       0.2425       0.2274       3.1729      10.6180      11.7734       0.4517      10.7746      10.7420      10.7727      10.8907      10.7393       9.4686      -0.0085       2.7066       2.5351       4.3071       4.9249      11.6268      32.2010
    3198.0    1385.5798     650.7969       0.1766     145.7329     113.9762       0.2540       0.2523       0.2607       3.9222       9.7923       9.9777       0.4546      10.0576       9.8086       9.8126       9.8182       9.7772       9.4686      -0.0039       2.6987       2.5266       3.7756       4.4268       9.9336      32.2521
    3197.5    1385.8254     650.9089       0.1748     145.7329     110.5359       0.2619       0.2485       0.2602       3.9610       9.5675       9.9064       0.4547       9.8021       9.5895       9.5767       9.5577       9.5606       9.4909       0.0025       2.7236       2.5231       3.5815       4.0525       9.8031      32.4301
    3197.0    1386.0710     651.0209       0.1761     145.7329     104.3382       0.2527       0.2526       0.2501       3.7193       9.0890       9.8909       0.4545       9.4771       9.2262       9.1748       9.1533       9.2040       9.4909       0.0031       2.7481       2.5302       4.1741       4.7500       9.8184      32.0238
    3196.5    1386.3156     651.1317       0.1682     145.7329     109.7583       0.2529       0.2416       0.2395       3.7119       9.0841      10.8316       0.4544       9.7335       9.4530       9.3957       9.3584       9.4498       9.4686      -0.0020       2.7651       2.5386       4.0118       4.6033      10.7754      31.7933
    3196.0    1386.5612     651.2437       0.1672     145.7329     115.7170       0.2455       0.2412       0.2316       3.8872       9.0405      10.4036       0.4542       9.5897       9.3075       9.2278       9.1997       9.3345       9.4909      -0.0088       2.7775       2.5430       4.1014       4.6530      10.3345      32.0255
    3195.5    1386.8068     651.3557       0.1664     145.7329     118.8195       0.2492       0.2402       0.2595       4.2723       8.5982       9.9333       0.4544       9.1823       8.8861       8.7970       8.7428       8.8985       9.4909      -0.0108       2.7863       2.5444       4.4021       4.7793       9.8724      32.2430
    3195.0    1387.0513     651.4666       0.1722     145.7329     117.1518       0.2393       0.2499       0.2526       4.0629       8.4799       9.5275       0.4546       8.9509       8.6515       8.6110       8.5267       8.7270       9.4686      -0.0048       2.8074       2.5436       3.9195       4.4294       9.4466      32.0645
    3194.5    1387.2958     651.5774       0.1698     145.7329     112.1465       0.2452       0.2458       0.2405       3.5422       8.6753      10.4189       0.4542       9.2955       9.0648       8.9835       8.8951       9.0569       9.4686      -0.0026       2.8464       2.5440       3.6786       4.2360      10.3660      31.5557
    3194.0    1387.5414     651.6894       0.1689     145.7329     105.9169       0.2409       0.2474       0.2339       3.3591       9.7907      10.1976       0.4542      10.1431       9.8342       9.7798       9.6639       9.8559       9.4909       0.0023       2.8797       2.5545       4.4935       5.1819      10.1158      32.0870
    3193.5    1387.7870     651.8014       0.1645     145.7329     106.1887       0.2553       0.2400       0.2343       3.5365       9.9315       9.6822       0.4548      10.2295       9.9548       9.8891       9.7777       9.9501       9.4909       0.0008       2.9035       2.5552       3.4396       3.8886       9.6033      32.2704
    3193.0    1388.0326     651.9134       0.1612     145.7329     107.0078       0.2528       0.2348       0.2486       3.9453       8.0321       9.1376       0.4584       8.7048       8.3271       8.2420       8.1674       8.3056       9.4909       0.0032       2.8862       2.5560       3.2038       3.6583       9.0945      32.3082
    3192.5    1388.2782     652.0254       0.1636     145.7329     114.6659       0.2433       0.2387       0.2428       3.9988       7.8663       9.9234       0.4594       8.7748       8.4356       8.3572       8.2869       8.3150       9.4909       0.0026       2.8505       2.5557       3.8773       4.3838       9.9059      31.7963
    3192.0    1388.5238     652.1374       0.1687     145.7329     110.4659       0.2410       0.2491       0.2566       3.7502       8.3249       9.6518       0.4585       9.1115       8.7573       8.6285       8.5940       8.6140       9.4909       0.0002       2.8050       2.5615       4.1541       4.6029       9.6095      32.2333
    3191.5    1388.7712     652.2512       0.1710     145.7329     111.5082       0.2432       0.2556       0.2511       3.7964       7.6740       9.5485       0.4611       8.5474       8.1981       8.1256       8.0840       8.0708       9.5244      -0.0023       2.7563       2.5689       4.4455       4.7979       9.5272      32.0336
    3191.0    1389.0181     652.3643       0.1723     145.7329     112.6987       0.2524       0.2556       0.2470       3.7340       8.0155       9.1065       0.4619       8.6359       8.3281       8.2776       8.2336       8.1895       9.5133      -0.0055       2.7131       2.5618       5.0347       5.1422       9.0569      32.0365
    3190.5    1389.2649     652.4775       0.1709     145.7329     119.5456       0.2570       0.2506       0.2512       3.7162       8.0577       9.2594       0.4619       8.7330       8.4539       8.3918       8.3524       8.2487       9.5133      -0.0027       2.6659       2.5537       5.0675       5.0620       9.2161      31.7943
