~VERSION INFORMATION
VERS.           2.0   :CWLS Log ASCII Standard - VERSION 2.0
WRAP.           NO    :One Line per depth step
PROD.  Schlumberger   :LAS Producer
PROG.  DLIS to ASCII 10C0-306                          :LAS Program name and version
CREA.        2002/04/05 15:18                          :LAS Creation date {YYYY/MM/DD hh:mm}
SOURCE.     TLD_MCFL_CNL_007LUP.DLIS                   :DLIS File Name
FILE-ID.     TLD_MCFL_CNL_007LUP                       :File Identification Number
#--------------------------------------------------
~WELL INFORMATION
#MNEM.UNIT      DATA             DESCRIPTION
#---- ------ --------------   -----------------------------
STRT .F         5962.0       :START DEPTH     
STOP .F           44.0       :STOP DEPTH     
STEP .F           -0.5       :STEP     
NULL .          -999.25      :NULL VALUE
COMP .        DEPARTMENT OF ENERGY                     :COMPANY
WELL .        NPR-3 25-1-X-14                          :WELL
FLD  .        NPR-3                                    :FIELD
LOC  .        2301' FSL & 782' FWL                     :LOCATION
CNTY .        NATRONA                                  :COUNTY
STAT .        WYOMING                                  :STATE
CTRY .                                                 :COUNTRY
API  .        4902523047                               :API NUMBER
UWI  .                                                 :UNIQUE WELL ID
DATE .        05-Apr-2002                              :LOG DATE {DD-MMM-YYYY}
SRVC .        Schlumberger                             :SERVICE COMPANY
LATI .DEG                                              :LATITUDE
LONG .DEG                                              :LONGITUDE
GDAT .                                                 :GeoDetic Datum
#-----------------------------------------------------------------------------
~PARAMETER INFORMATION
#MNEM.UNIT    VALUE                      DESCRIPTION
#---- -----   --------------------       ------------------------
RUN  .          1                        :RUN NUMBER
PDAT .        GROUND LEVEL               :Permanent Datum
EPD  .F         5214.799805              :Elevation of Permanent Datum above Mean Sea Level
LMF  .          KELLY BUSHING            :Logging Measured From (Name of Logging Elevation Reference)
APD  .F          10.000000               :Elevation of Depth Reference (LMF) above Permanent Datum
#-----------------------------------------------------------------------------
~CURVE INFORMATION
#MNEM.UNIT   API CODE                                  DESCRIPTION
#---- -----  --------                                  -----------------------
DEPT .F                                                :DEPTH (BOREHOLE) {F10.1}
IHV  .F3                                               :Integrated Hole Volume {F13.4}
ICV  .F3                                               :Integrated Cement Volume {F13.4}
PXND_HILT.CFCF                                         :HILT Porosity CrossPlot {F13.4}
HTEM .DEGF                                             :HTC Temperature {F13.4}
GR   .GAPI                                             :Gamma-Ray {F13.4}
NPHI .CFCF                                             :Thermal Neutron Porosity (Ratio Method) {F13.4}
TNPH .CFCF                                             :Thermal Neutron Porosity {F13.4}
NPOR .CFCF                                             :Enhanced Thermal Neutron Porosity {F13.4}
GDEV .DEG                                              :HGNS Deviation {F13.4}
RT_HRLT.OHMM                                           :HRLT Computed True Resistivity {F13.4}
RXO_HRLT.OHMM                                          :HRLT Computed Invaded Zone Resistivity {F13.4}
RM_HRLT.OHMM                                           :HRLT Mud Resistivity {F13.4}
RLA1 .OHMM                                             :HRLT Borehole Corrected Resistivity 1 {F13.4}
RLA2 .OHMM                                             :HRLT Borehole Corrected Resistivity 2 {F13.4}
RLA3 .OHMM                                             :HRLT Borehole Corrected Resistivity 3 {F13.4}
RLA4 .OHMM                                             :HRLT Borehole Corrected Resistivity 4 {F13.4}
RLA5 .OHMM                                             :HRLT Borehole Corrected Resistivity 5 {F13.4}
HCAL .IN                                               :HRCC Cal. Caliper {F13.4}
HDRA .G/C3                                             :HRDD Density Correction {F13.4}
PEFZ .                                                 :HRDD Standard Resolution Formation Photoelectric Factor {F13.4}
RHOZ .G/C3                                             :HRDD Standard Resolution Formation Density {F13.4}
HMIN .OHMM                                             :MCFL Micro Inverse Resistivity {F13.4}
HMNO .OHMM                                             :MCFL Micro Normal Resistivity {F13.4}
RXOZ .OHMM                                             :MCFL Standard Resolution Invaded Zone Resistivity {F13.4}
HAZ  .F/S2                                             :Z-Axis Acceleration {F13.4}
#-----------------------------------------------------------------------------
# 
#     DEPT        IHV          ICV       PXND_HILT       HTEM         GR           NPHI         TNPH         NPOR         GDEV       RT_HRLT      RXO_HRLT     RM_HRLT        RLA1         RLA2         RLA3         RLA4         RLA5         HCAL         HDRA         PEFZ         RHOZ         HMIN         HMNO         RXOZ         HAZ
#
~A  
# ...
    4390.0     700.3730     284.1449       0.2143     157.5901      87.4482       0.2497       0.2685       0.2124       5.3214       6.5970       2.9161       0.4357       5.9793       5.9289       5.9851       5.8723       5.6985       9.6027       0.2133       3.9122       2.3568       0.6434       0.8780       2.9793      33.4969
    4389.5     700.6812     284.3194       0.2080     157.5901      82.3973       0.2542       0.2697       0.2125       5.0741       7.4331       2.5771       0.4496       7.0244       7.1274       6.7096       6.4192       6.2054      10.6310       0.1786       3.8959       2.4032       0.8815       1.1411       2.7399      31.4874
    4389.0     700.9766     284.4812       0.2564     157.5901      85.8143       0.3220       0.3564       0.4114       6.5576       4.5382       2.7372       0.4612       4.9011       4.8745       4.7329       4.5242       4.3794      10.4075       0.1499       3.8614       2.4077       0.9996       1.1424       2.7166      31.1998
    4388.5     701.2874     284.6584       0.2811     157.5901      92.3201       0.4174       0.3846       0.4167       7.5320       3.4662       2.3354       0.4440       3.9317       3.8717       3.7146       3.5394       3.4210      10.6757       0.1190       3.8537       2.3606       0.9675       1.1273       2.3029      30.3990
    4388.0     701.5955     284.8329       0.2964     157.5901      92.3678       0.4319       0.3906       0.3913       7.5966       3.1227       2.0562       0.4221       3.6179       3.4928       3.3425       3.1729       3.0887      10.6310       0.1049       3.8987       2.3121       0.5944       0.7907       2.0283      30.9305
    4387.5     701.8796     284.9834       0.3041     157.5901      91.8109       0.4139       0.4026       0.4659       7.1522       3.7053       1.7589       0.4046       4.1337       3.8235       3.7726       3.6233       3.5423      10.2063       0.1114       3.9739       2.3038       0.6357       0.7633       1.7762      32.5033
    4387.0     702.1943     285.1645       0.2953     157.5901      81.7612       0.3489       0.3718       0.5030       6.1007       3.2945       1.7536       0.3935       4.0362       3.7166       3.4541       3.3132       3.2516      10.7428       0.0977       4.1079       2.2793       0.8671       0.9261       1.7261      33.0372
    4386.5     702.4697     285.3062       0.2294     157.5901      70.7297       0.2735       0.2433       0.2771       5.6528       3.7330       2.3773       0.3947       4.4192       4.1634       3.9099       3.7796       3.7086      10.0498       0.0598       4.2709       2.2809       0.7359       0.8933       2.3423      32.6067
    4386.0     702.7270     285.4300       0.1553     157.5901      54.4279       0.1764       0.1710       0.1444       6.1420       4.2809       4.4012       0.4115       4.7585       4.5569       4.3215       4.1579       4.0739       9.7145       0.0353       4.4132       2.4070       1.0742       1.4113       4.2829      31.4581
    4385.5     702.9785     285.5478       0.0931     157.5901      45.4100       0.1154       0.1367       0.1212       6.8783       7.1148      15.5193       0.4327       9.6422       9.6328       9.4808       9.1711       8.9439       9.6027       0.0134       4.4721       2.5488      10.5274      10.3503      15.5669      31.2535
    4385.0     703.2288     285.6645       0.0777     157.5901      43.0995       0.1009       0.1271       0.1158       7.5404      25.7341      27.6659       0.4603      25.3240      26.5935      26.6579      25.7687      25.5071       9.5803       0.0208       4.4382       2.6573      17.3089      15.3831      27.4861      31.0227
    4384.5     703.4779     285.7800       0.0682     157.5901      55.7993       0.1115       0.1122       0.0969       7.2238      18.6733      22.2345       0.4995      19.6593      19.7415      19.7015      19.3825      19.2684       9.5580       0.0057       4.2486       2.6340       6.0130       7.5825      22.1443      31.9422
    4384.0     703.7271     285.8955       0.0686     157.5901      67.2399       0.1112       0.1121       0.0956       7.0523      18.3264      14.8085       0.5206      17.7039      17.5714      17.6670      17.8205      17.7768       9.5580       0.0058       3.9444       2.6243       8.5186       8.0642      14.9667      32.6747
    4383.5     703.9785     286.0133       0.0760     157.5901      75.7640       0.1276       0.1219       0.1205       7.0129      12.2088      11.1021       0.5115      12.4405      12.1833      12.2436      12.2015      12.1976       9.6027      -0.0001       3.6099       2.6274       8.1076       7.1872      11.0317      31.9422
    4383.0     704.2323     286.1335       0.1037     157.5901      76.9824       0.1521       0.1616       0.1743       5.3598       9.4049       9.5812       0.5078      10.0908       9.4513       9.3281       9.3613       9.1614       9.6474      -0.0010       3.3960       2.6354       8.1861       7.2569       9.1882      31.7018
    4382.5     704.4879     286.2554       0.1239     157.2308      79.9799       0.1976       0.1916       0.2245       5.0098      10.3702       8.2071       0.5006      11.5780      10.9807      10.7454      10.7446      10.3456       9.6809      -0.0010       3.3054       2.6292       6.3582       5.6315       8.0908      31.5646
    4382.0     704.7452     286.3792       0.1373     157.2308      87.9249       0.2083       0.2104       0.2131       6.1356       9.7061       7.0591       0.5000      10.1679      10.1383       9.8967       9.8255       9.5430       9.7145      -0.0040       3.2783       2.6160       5.4891       4.8595       6.9392      31.8155
    4381.5     705.0031     286.5035       0.1305     157.2308      93.8836       0.2155       0.1990       0.2007       7.2101       7.2939       7.2905       0.5106       7.7955       7.6240       7.4579       7.3435       7.0998       9.7256      -0.0021       3.2305       2.6146       5.3663       4.7504       6.7279      31.7359
    4381.0     705.2628     286.6296       0.1297     157.2308      95.5513       0.1984       0.2026       0.1955       7.2524       6.8692       6.7773       0.5093       7.2329       7.2444       7.1356       6.9247       6.6585       9.7592       0.0179       3.2263       2.6353       3.9752       3.8298       6.2950      32.3809
    4380.5     705.5328     286.7659       0.1281     157.2308      94.4878       0.2051       0.2028       0.2049       7.3975       6.6970       6.5065       0.5015       7.1261       7.0828       7.0932       6.7703       6.5478       9.9492       0.0403       3.2443       2.6466       2.8162       2.9957       5.8408      31.8448
    4380.0     705.7854     286.8849       0.1414     157.2308      94.8323       0.2106       0.2263       0.2296       7.1870       6.1127       6.0715       0.4974       6.5135       6.4001       6.4285       6.1309       5.9263       9.6250       0.0555       3.2871       2.6465       3.8725       3.6459       5.5452      32.0330
    4379.5     706.0457     287.0116       0.1526     157.2308      96.8407       0.2298       0.2402       0.2460       6.4842       6.2135       6.1791       0.4900       6.6380       6.5600       6.4834       6.2716       5.9942       9.7703       0.0437       3.2450       2.6248       3.1691       3.2329       5.6249      31.9065
    4379.0     706.3078     287.1401       0.1560     157.2308      92.9010       0.2405       0.2386       0.2340       5.7418       6.2144       6.3090       0.4838       6.5358       6.4445       6.2755       6.1520       5.8639       9.8039       0.0211       3.1877       2.6009       3.5616       3.5781       6.0519      31.4143
    4378.5     706.5723     287.2710       0.1430     157.2308      88.2365       0.2385       0.2128       0.2188       6.1421       5.1140       6.8538       0.4907       6.1709       5.9760       5.8405       5.7814       5.5058       9.8486      -0.0005       3.1376       2.5870       5.3713       4.7548       6.7999      31.7116
