~VERSION INFORMATION
VERS.           2.0   :CWLS Log ASCII Standard - VERSION 2.0
WRAP.           NO    :One Line per depth step
PROD.  Schlumberger   :LAS Producer
PROG.  DLIS to ASCII 10C0-306                          :LAS Program name and version
CREA.        2002/04/05 15:26                          :LAS Creation date {YYYY/MM/DD hh:mm}
SOURCE.     SONIC_063PUP.DLIS                          :DLIS File Name
FILE-ID.     SONIC_063PUP                              :File Identification Number
#--------------------------------------------------
~WELL INFORMATION
#MNEM.UNIT      DATA             DESCRIPTION
#---- ------ --------------   -----------------------------
STRT .F         5958.0       :START DEPTH     
STOP .F          675.5       :STOP DEPTH     
STEP .F           -0.5       :STEP     
NULL .          -999.25      :NULL VALUE
COMP .        DEPARTMENT OF ENERGY                     :COMPANY
WELL .        NPR-3 25-1-X-14                          :WELL
FLD  .        NPR-3                                    :FIELD
LOC  .        2301' FSL & 782' FWL                     :LOCATION
CNTY .        NATRONA                                  :COUNTY
STAT .        WYOMING                                  :STATE
CTRY .                                                 :COUNTRY
API  .        4902523047                               :API NUMBER
UWI  .                                                 :UNIQUE WELL ID
DATE .        05-Apr-2002                              :LOG DATE {DD-MMM-YYYY}
SRVC .        Schlumberger                             :SERVICE COMPANY
LATI .DEG                                              :LATITUDE
LONG .DEG                                              :LONGITUDE
GDAT .                                                 :GeoDetic Datum
#-----------------------------------------------------------------------------
~PARAMETER INFORMATION
#MNEM.UNIT    VALUE                      DESCRIPTION
#---- -----   --------------------       ------------------------
RUN  .          1                        :RUN NUMBER
PDAT .        GROUND LEVEL               :Permanent Datum
EPD  .F         5214.799805              :Elevation of Permanent Datum above Mean Sea Level
LMF  .          KELLY BUSHING            :Logging Measured From (Name of Logging Elevation Reference)
APD  .F          10.000000               :Elevation of Depth Reference (LMF) above Permanent Datum
#-----------------------------------------------------------------------------
~CURVE INFORMATION
#MNEM.UNIT   API CODE                                  DESCRIPTION
#---- -----  --------                                  -----------------------
DEPT .F                                                :DEPTH (BOREHOLE) {F10.1}
GR   .GAPI                                             :Gamma-Ray {F13.4}
ITT  .S                                                :Integrated Transit Time {F13.4}
SPHI .CFCF                                             :Sonic Porosity {F13.4}
SVEL .FT/S                                             :Sonic Velocity {F13.4}
DT   .US/F                                             :Delta-T {F13.4}
#-----------------------------------------------------------------------------
# 
#     DEPT        GR           ITT          SPHI         SVEL         DT
#
~A  
# ...
    1082.0      73.5904       0.4021       0.3080   10670.5713      93.7157
    1081.5      80.0206       0.4021       0.3010   10781.4473      92.7519
    1081.0      90.0232       0.4022       0.2945   10887.0996      91.8518
    1080.5      95.2626       0.4022       0.2934   10904.5967      91.7044
    1080.0      96.2152       0.4023       0.2970   10846.4893      92.1957
    1079.5      92.8811       0.4023       0.2890   10977.5654      91.0949
    1079.0      85.9745       0.4024       0.2967   10850.7695      92.1594
    1078.5      83.8311       0.4024       0.2961   10861.3438      92.0696
    1078.0      86.6890       0.4024       0.2950   10878.0840      91.9280
    1077.5      88.8324       0.4025       0.3007   10787.2998      92.7016
    1077.0      90.2614       0.4025       0.3045   10726.9678      93.2230
    1076.5      91.9284       0.4026       0.3140   10577.4541      94.5407
    1076.0      93.8337       0.4026       0.3194   10495.4844      95.2791
    1075.5      92.4048       0.4027       0.3193   10496.6885      95.2681
    1075.0      93.8337       0.4027       0.3209   10472.6641      95.4867
    1074.5      95.9771       0.4028       0.3136   10583.2969      94.4885
    1074.0      96.2153       0.4028       0.3206   10476.3418      95.4532
    1073.5      89.7850       0.4029       0.3326   10298.4844      97.1017
    1073.0      90.7377       0.4029       0.3430   10149.1025      98.5309
    1072.5      93.5956       0.4030       0.3452   10118.6338      98.8276
    1072.0      94.7863       0.4030       0.3459   10107.6240      98.9352
    1071.5      93.8337       0.4031       0.3339   10279.4961      97.2810
    1071.0      90.4995       0.4031       0.3331   10290.9922      97.1724
    1070.5      93.3574       0.4032       0.3254   10405.2090      96.1057
    1070.0      91.2140       0.4032       0.3191   10499.9824      95.2383
    1069.5      97.4060       0.4033       0.3344   10272.1035      97.3510
    1069.0      90.7377       0.4033       0.3409   10179.5020      98.2366
    1068.5      95.0245       0.4034       0.3541    9993.6484     100.0636
    1068.0      91.4521       0.4034       0.3574    9949.2529     100.5101
    1067.5     100.0258       0.4035       0.3483   10074.5889      99.2596
    1067.0      97.1679       0.4035       0.3430   10148.7900      98.5339
    1066.5      86.9272       0.4036       0.3355   10255.9043      97.5048
    1066.0      82.8785       0.4036       0.3324   10302.2813      97.0659
    1065.5      80.7351       0.4037       0.3269   10382.6045      96.3149
    1065.0      91.4521       0.4037       0.3407   10182.0586      98.2120
    1064.5      83.8311       0.4037       0.3252   10407.8652      96.0812
    1064.0      78.5917       0.4038       0.4100    9279.8574     107.7603
    1063.5      75.4956       0.4039       0.4666    8653.8135     115.5560
    1063.0      79.3061       0.4039       0.4564    8760.8428     114.1443
    1062.5      83.5930       0.4040       0.4641    8679.8096     115.2099
    1062.0      84.7837       0.4040       0.3805    9644.0713     103.6906
    1061.5      88.0499       0.4041       0.3010   10781.5439      92.7511
    1061.0      87.5736       0.4041       0.3336   10284.6963      97.2318
    1060.5      88.0499       0.4042       0.3341   10277.3779      97.3011
    1060.0      84.9954       0.4042       0.3372   10232.2881      97.7299
    1059.5      84.5191       0.4043       0.3350   10264.4199      97.4239
    1059.0      81.5025       0.4043       0.3385   10212.8799      97.9156
    1058.5      89.7283       0.4044       0.3368   10238.2744      97.6727
    1058.0      94.8090       0.4044       0.3340   10278.2588      97.2927
    1057.5      98.3019       0.4045       0.3407   10181.7627      98.2148
    1057.0      91.7697       0.4045       0.3413   10172.9063      98.3003
    1056.5      94.5822       0.4046       0.3398   10194.0518      98.0964
    1056.0      94.3440       0.4046       0.3432   10145.5908      98.5650
    1055.5      96.9637       0.4047       0.3395   10199.0078      98.0488
    1055.0      92.1666       0.4047       0.3423   10159.5732      98.4293
    1054.5      89.3087       0.4048       0.3407   10182.2559      98.2101
    1054.0      90.4995       0.4048       0.3386   10212.3555      97.9206
    1053.5      95.7389       0.4049       0.3401   10190.4707      98.1309
    1053.0     100.2639       0.4049       0.3401   10189.9863      98.1356
    1052.5     103.1218       0.4050       0.3378   10223.3555      97.8152
    1052.0     100.0257       0.4050       0.3348   10266.6416      97.4028
    1051.5      94.3100       0.4051       0.3340   10277.7637      97.2974
    1051.0      88.3561       0.4051       0.3348   10267.0713      97.3988
    1050.5      88.6207       0.4051       0.3271   10379.6855      96.3420
    1050.0      91.6827       0.4052       0.3273   10377.2217      96.3649
    1049.5      94.3024       0.4052       0.3237   10430.8838      95.8692
    1049.0      90.2273       0.4053       0.3234   10434.9727      95.8316
    1048.5      85.0219       0.4053       0.3187   10505.4414      95.1888
    1048.0      85.0219       0.4054       0.3168   10534.1367      94.9295
    1047.5      89.5468       0.4054       0.3177   10521.1484      95.0467
    1047.0      93.3574       0.4055       0.3197   10490.6953      95.3226
    1046.5      92.1666       0.4055       0.3204   10480.2949      95.4172
    1046.0      87.8797       0.4056       0.3212   10467.2656      95.5359
    1045.5      91.4521       0.4056       0.3183   10512.1699      95.1278
    1045.0      89.7850       0.4057       0.3144   10571.3076      94.5957
    1044.5      89.7850       0.4057       0.3136   10583.6924      94.4850
    1044.0      84.3074       0.4058       0.3124   10603.1230      94.3118
    1043.5      93.3573       0.4058       0.3184   10510.2793      95.1450
    1043.0      95.5008       0.4059       0.3202   10482.9854      95.3927
    1042.5      98.8349       0.4059       0.3139   10579.5479      94.5220
    1042.0      88.8324       0.4060       0.3121   10606.6963      94.2801
    1041.5      89.3087       0.4060       0.3144   10572.0918      94.5887
    1041.0      91.9284       0.4061       0.3094   10648.5078      93.9099
    1040.5      93.1192       0.4061       0.3110   10624.6377      94.1209
    1040.0      90.2613       0.4061       0.3166   10537.3047      94.9009
    1039.5      86.9271       0.4062       0.3170   10531.5654      94.9526
    1039.0      83.7630       0.4062       0.3180   10516.7373      95.0865
    1038.5      81.9107       0.4063       0.3190   10501.0391      95.2287
    1038.0      87.1501       0.4063       0.3188   10504.9766      95.1930
    1037.5      90.4163       0.4064       0.3177   10521.1992      95.0462
    1037.0      93.4594       0.4064       0.3159   10547.9570      94.8051
    1036.5      88.6963       0.4065       0.3139   10579.0859      94.5261
    1036.0      87.8797       0.4065       0.3127   10598.1240      94.3563
    1035.5      84.7837       0.4066       0.3160   10546.5957      94.8173
    1035.0      81.4495       0.4066       0.3175   10523.7061      95.0236
    1034.5      80.4969       0.4067       0.3189   10502.6426      95.2141
    1034.0      78.3535       0.4067       0.3196   10491.7227      95.3132
    1033.5      78.3535       0.4068       0.3124   10603.0527      94.3125
    1033.0      83.3548       0.4068       0.3113   10619.6787      94.1648
    1032.5      85.4982       0.4069       0.3128   10595.9404      94.3758
    1032.0      85.0218       0.4069       0.3112   10621.3857      94.1497
    1031.5      81.6877       0.4070       0.3090   10656.1182      93.8428
    1031.0      87.8797       0.4070       0.3046   10724.5127      93.2443
    1030.5      87.1653       0.4070       0.3030   10750.0996      93.0224
    1030.0      85.4982       0.4071       0.3052   10714.9570      93.3275
    1029.5      77.8772       0.4071       0.3071   10685.4336      93.5854
