~VERSION INFORMATION
VERS.           2.0   :CWLS Log ASCII Standard - VERSION 2.0
WRAP.           NO    :One Line per depth step
PROD.  Schlumberger   :LAS Producer
PROG.  DLIS to ASCII 10C0-306                          :LAS Program name and version
CREA.        2002/04/05 15:18                          :LAS Creation date {YYYY/MM/DD hh:mm}
SOURCE.     TLD_MCFL_CNL_007LUP.DLIS                   :DLIS File Name
FILE-ID.     TLD_MCFL_CNL_007LUP                       :File Identification Number
#--------------------------------------------------
~WELL INFORMATION
#MNEM.UNIT      DATA             DESCRIPTION
#---- ------ --------------   -----------------------------
STRT .F         5962.0       :START DEPTH     
STOP .F           44.0       :STOP DEPTH     
STEP .F           -0.5       :STEP     
NULL .          -999.25      :NULL VALUE
COMP .        DEPARTMENT OF ENERGY                     :COMPANY
WELL .        NPR-3 25-1-X-14                          :WELL
FLD  .        NPR-3                                    :FIELD
LOC  .        2301' FSL & 782' FWL                     :LOCATION
CNTY .        NATRONA                                  :COUNTY
STAT .        WYOMING                                  :STATE
CTRY .                                                 :COUNTRY
API  .        4902523047                               :API NUMBER
UWI  .                                                 :UNIQUE WELL ID
DATE .        05-Apr-2002                              :LOG DATE {DD-MMM-YYYY}
SRVC .        Schlumberger                             :SERVICE COMPANY
LATI .DEG                                              :LATITUDE
LONG .DEG                                              :LONGITUDE
GDAT .                                                 :GeoDetic Datum
#-----------------------------------------------------------------------------
~PARAMETER INFORMATION
#MNEM.UNIT    VALUE                      DESCRIPTION
#---- -----   --------------------       ------------------------
RUN  .          1                        :RUN NUMBER
PDAT .        GROUND LEVEL               :Permanent Datum
EPD  .F         5214.799805              :Elevation of Permanent Datum above Mean Sea Level
LMF  .          KELLY BUSHING            :Logging Measured From (Name of Logging Elevation Reference)
APD  .F          10.000000               :Elevation of Depth Reference (LMF) above Permanent Datum
#-----------------------------------------------------------------------------
~CURVE INFORMATION
#MNEM.UNIT   API CODE                                  DESCRIPTION
#---- -----  --------                                  -----------------------
DEPT .F                                                :DEPTH (BOREHOLE) {F10.1}
IHV  .F3                                               :Integrated Hole Volume {F13.4}
ICV  .F3                                               :Integrated Cement Volume {F13.4}
PXND_HILT.CFCF                                         :HILT Porosity CrossPlot {F13.4}
HTEM .DEGF                                             :HTC Temperature {F13.4}
GR   .GAPI                                             :Gamma-Ray {F13.4}
NPHI .CFCF                                             :Thermal Neutron Porosity (Ratio Method) {F13.4}
TNPH .CFCF                                             :Thermal Neutron Porosity {F13.4}
NPOR .CFCF                                             :Enhanced Thermal Neutron Porosity {F13.4}
GDEV .DEG                                              :HGNS Deviation {F13.4}
RT_HRLT.OHMM                                           :HRLT Computed True Resistivity {F13.4}
RXO_HRLT.OHMM                                          :HRLT Computed Invaded Zone Resistivity {F13.4}
RM_HRLT.OHMM                                           :HRLT Mud Resistivity {F13.4}
RLA1 .OHMM                                             :HRLT Borehole Corrected Resistivity 1 {F13.4}
RLA2 .OHMM                                             :HRLT Borehole Corrected Resistivity 2 {F13.4}
RLA3 .OHMM                                             :HRLT Borehole Corrected Resistivity 3 {F13.4}
RLA4 .OHMM                                             :HRLT Borehole Corrected Resistivity 4 {F13.4}
RLA5 .OHMM                                             :HRLT Borehole Corrected Resistivity 5 {F13.4}
HCAL .IN                                               :HRCC Cal. Caliper {F13.4}
HDRA .G/C3                                             :HRDD Density Correction {F13.4}
PEFZ .                                                 :HRDD Standard Resolution Formation Photoelectric Factor {F13.4}
RHOZ .G/C3                                             :HRDD Standard Resolution Formation Density {F13.4}
HMIN .OHMM                                             :MCFL Micro Inverse Resistivity {F13.4}
HMNO .OHMM                                             :MCFL Micro Normal Resistivity {F13.4}
RXOZ .OHMM                                             :MCFL Standard Resolution Invaded Zone Resistivity {F13.4}
HAZ  .F/S2                                             :Z-Axis Acceleration {F13.4}
#-----------------------------------------------------------------------------
# 
#     DEPT        IHV          ICV       PXND_HILT       HTEM         GR           NPHI         TNPH         NPOR         GDEV       RT_HRLT      RXO_HRLT     RM_HRLT        RLA1         RLA2         RLA3         RLA4         RLA5         HCAL         HDRA         PEFZ         RHOZ         HMIN         HMNO         RXOZ         HAZ
#
~A  
    5962.0       0.0000       0.0000     298.7503     164.4170       4.9892       0.1022       0.0527       0.0527    -999.2500     369.0464       7.7617       0.1088     207.6812     302.0692     303.8712     289.7444     289.7269       2.5162    -999.2500    -999.2500    -999.2500       0.6782       1.0259       7.1034      31.9296
    5961.5       0.0000       0.0000     298.7503     164.4170       4.9892       0.1022       0.0527       0.0527    -999.2500     369.0848       7.8141       0.1088     207.6812     302.0692     303.8712     289.7444     289.7269       2.5162    -999.2500    -999.2500    -999.2500       0.6717       1.0193       7.1368      31.9612
    5961.0       0.0000       0.0000     298.7503     164.4170       4.9892       0.1022       0.0527       0.0527    -999.2500     369.1172       7.8668       0.1088     207.6812     302.0692     303.8712     289.7444     289.7269       2.5162    -999.2500    -999.2500    -999.2500       0.6702       1.0178       7.1878      31.9769
    5960.5       0.0000       0.0000     298.7503     164.4170       4.9892       0.1022       0.0527       0.0527    -999.2500     369.1207       7.8728       0.1088     207.6812     302.0692     303.8712     289.7444     289.7269       2.5162    -999.2500    -999.2500    -999.2500       0.6701       1.0177       7.1936      31.9647
    5960.0       0.0000       0.0000     298.7503     164.4170       4.9892       0.1022       0.0527       0.0527    -999.2500     375.8381       7.8724       0.1377     213.4503     309.1589     310.2997     295.3312     294.4688       2.5162    -999.2500    -999.2500    -999.2500       0.6701       1.0177       7.1939      31.9339
    5959.5       0.0000       0.0000     298.7521     164.4170       4.9892       0.0822       0.0509       0.0509    -999.2500     405.8395       9.1840       0.1909     223.7942     321.4310     321.3073     304.8155     302.4341       4.7338    -999.2500    -999.2500    -999.2500       0.6694       1.0168       8.5214      31.9306
    5959.0       0.0000       0.0000     298.7542     164.4170       4.9892       0.0465       0.0489       0.0489    -999.2500     418.9037      13.6673       0.2474     235.8336     332.7869     331.5239     313.6259     309.7733       8.4537    -999.2500    -999.2500    -999.2500       0.7925       1.2165      13.0772      31.9418
    5958.5       0.0000       0.0000     298.7542     164.4170       4.9892       0.0464       0.0489       0.0489    -999.2500     426.5426      27.9383       0.3064     252.9038     342.7267     340.4522     321.3904     316.1851       8.4626    -999.2500    -999.2500    -999.2500       1.5671       2.2770      27.9099      31.9769
    5958.0       0.0000       0.0000     298.7543     164.4170       4.9892       0.0460       0.0488       0.0488    -999.2500     428.8948      41.4012       0.3520     277.6954     350.1061     346.7138     326.7591     320.4523       8.4961    -999.2500    -999.2500    -999.2500       2.0854       2.9527      42.1735      31.9385
    5957.5       0.0000       0.0000     298.7543     164.4170       4.9892       0.0461       0.0489       0.0489    -999.2500     428.9729      41.4780       0.3529     278.3036     350.2467     346.8300     326.8576     320.5292       8.4849    -999.2500    -999.2500    -999.2500       2.1200       2.9981      42.2566      31.9290
    5957.0       0.0000       0.0000     298.7543     164.4170       4.9892       0.0459       0.0488       0.0488    -999.2500     428.9433      41.6849       0.3532     278.5298     350.2987     346.8730     326.8942     320.5574       8.5073       2.5296       3.1913       2.6509       2.1390       3.0230      42.4762      31.9499
    5956.5       0.0000       0.0000       0.0252     164.4170       4.9892       0.0460       0.0488       0.0488    -999.2500     428.8599      41.8552       0.3532     278.5472     350.3027     346.8762     326.8970     320.5597       8.4961       1.9134       3.1780       2.6513       2.1521       3.0402      42.6529      31.9717
    5956.0       0.0000       0.0000       0.0260     164.4170       4.9892       0.0461       0.0489       0.0489    -999.2500     428.8480      41.9488       0.3534     278.6752     350.3319     346.9005     326.9176     320.5756       8.4849       0.9827       3.1625       2.6482       2.1635       3.0552      42.7520      31.9432
    5955.5       0.0000       0.0000       0.0269     164.4170       4.9892       0.0460       0.0488       0.0488    -999.2500     428.8251      42.0195       0.3534     278.6868     350.3346     346.9026     326.9195     320.5771       8.4961       0.0568       3.1487       2.6449       2.1709       3.0649      42.8268      31.9727
    5955.0       0.0000       0.0000       0.0267     164.4170       4.9892       0.0459       0.0488       0.0488    -999.2500     428.8472      42.0369       0.3536     278.8500     350.3720     346.9336     326.9456     320.5975       8.5073       0.0585       3.1287       2.6457       2.1740       3.0689      42.8451      31.9656
    5954.5       0.0000       0.0000       0.0261     164.4170       4.9892       0.0460       0.0488       0.0488    -999.2500     428.8643      42.0693       0.3539     279.0079     350.4081     346.9632     326.9709     320.6171       8.4999       0.0592       3.1013       2.6480       2.1756       3.0711      42.8795      31.9703
    5954.0       0.0000       0.0000       0.0269     164.4170       4.9892       0.0459       0.0488       0.0488    -999.2500     428.8643      42.0764       0.3539     279.0607     350.4201     346.9730     326.9792     320.6236       8.5073       0.0528       3.0588       2.6451       2.1766       3.0724      42.8860      31.9481
    5953.5       0.0000       0.0000       0.0282     164.4170       4.9892       0.0460       0.0488       0.0488    -999.2500     428.8897      42.0820       0.3541     279.1958     350.4507     346.9983     327.0007     320.6403       8.4961       0.0448       3.0292       2.6403       2.1779       3.0740      42.8924      31.9757
    5953.0       0.0000       0.0000       0.0278     164.4170       4.9892       0.0459       0.0488       0.0488    -999.2500     428.9040      42.0919       0.3543     279.3195     350.4790     347.0213     327.0204     320.6556       8.5073       0.0398       3.0367       2.6417       2.1794       3.0760      42.9023      31.9778
    5952.5       0.0000       0.0000       0.0242     164.4170       4.9892       0.0457       0.0488       0.0488    -999.2500     428.9183      42.1156       0.3545     279.4437     350.5067     347.0444     327.0397     320.6707       8.5185       0.0464       3.0890       2.6551       2.1807       3.0778      42.9274      32.3680
    5952.0       0.0000       0.0000       0.0226     164.4170       4.9892       0.0459       0.0488       0.0488    -999.2500     428.9228      42.1577       0.3547     279.5682     350.5350     347.0674     327.0595     320.6859       8.5073       0.0565       3.1540       2.6608       2.1837       3.0817      42.9717      32.1709
    5951.5       0.0000       0.0000       0.0222     164.4170       4.9892       0.0458       0.0488       0.0488    -999.2500     428.8938      42.2126       0.3546     279.5149     350.5229     347.0577     327.0512     320.6794       8.5148       0.0654       3.1970       2.6622       2.1879       3.0872      43.0298      32.1298
    5951.0       0.0000       0.0000       0.0243     164.4170       4.9892       0.0459       0.0488       0.0488    -999.2500     428.8499      42.3118       0.3546     279.5325     350.5270     347.0610     327.0537     320.6816       8.5073       0.0628       3.1965       2.6544       2.1934       3.0945      43.1333      31.9290
    5950.5       0.0000       0.0000       0.0286     164.4170       4.9892       0.0459       0.0488       0.0488    -999.2500     429.2414      42.3940       0.3577     281.8388     351.0339     347.4753     327.4057     320.9545       8.5073       0.0446       3.1481       2.6387       2.2046       3.1087      43.2219      31.8730
