~VERSION INFORMATION
VERS.           2.0   :CWLS Log ASCII Standard - VERSION 2.0
WRAP.           NO    :One Line per depth step
PROD.  Schlumberger   :LAS Producer
PROG.  DLIS to ASCII 10C0-306                          :LAS Program name and version
CREA.        2002/04/05 15:33                          :LAS Creation date {YYYY/MM/DD hh:mm}
SOURCE.     FMI_033PUP.DLIS                            :DLIS File Name
FILE-ID.     FMI_033PUP                                :File Identification Number
#--------------------------------------------------
~WELL INFORMATION
#MNEM.UNIT      DATA             DESCRIPTION
#---- ------ --------------   -----------------------------
STRT .F      722.0           :START DEPTH     
STOP .F      5952.0          :STOP DEPTH     
STEP .F       0.5            :STEP     
NULL .          -999.25      :NULL VALUE
COMP .        DEPARTMENT OF ENERGY                     :COMPANY
WELL .        NPR-3 25-1-X-14                          :WELL
FLD  .        NPR-3                                    :FIELD
LOC  .        2301' FSL & 782' FWL                     :LOCATION
CNTY .        NATRONA                                  :COUNTY
STAT .        WYOMING                                  :STATE
CTRY .                                                 :COUNTRY
API  .        4902523047                               :API NUMBER
UWI  .                                                 :UNIQUE WELL ID
DATE .        05-Apr-2002                              :LOG DATE {DD-MMM-YYYY}
SRVC .        Schlumberger                             :SERVICE COMPANY
LATI .DEG                                              :LATITUDE
LONG .DEG                                              :LONGITUDE
GDAT .                                                 :GeoDetic Datum
#-----------------------------------------------------------------------------
~PARAMETER INFORMATION
#MNEM.UNIT    VALUE                      DESCRIPTION
#---- -----   --------------------       ------------------------
RUN  .          1                        :RUN NUMBER
PDAT .        GROUND LEVEL               :Permanent Datum
EPD  .F         5214.799805              :Elevation of Permanent Datum above Mean Sea Level
LMF  .          KELLY BUSHING            :Logging Measured From (Name of Logging Elevation Reference)
APD  .F          10.000000               :Elevation of Depth Reference (LMF) above Permanent Datum
#-----------------------------------------------------------------------------
~CURVE INFORMATION
#MNEM.UNIT   API CODE                                  DESCRIPTION
#---- -----  --------                                  -----------------------
DEPT .F                                                :DEPTH (BOREHOLE) {F10.1}
HAZI .DEG                                              :Hole Azimuth {F13.4}
SDEV .DEG                                              :Sonde Deviation {F13.4}
ED   .F                                                :East Departure {F13.4}
ND   .F                                                :North Departure {F13.4}
TVDE .F                                                :True Vertical Depth {F13.4}
VSEC .F                                                :Vertical Section {F13.4}
GR   .GAPI                                             :Gamma Ray {F13.4}
#-----------------------------------------------------------------------------
# 
#     DEPT        HAZI         SDEV         ED           ND           TVDE         VSEC         GR
#
~A  
# ...
    3842.5     349.7752       5.2096     -47.4927     136.6077    3837.4934     136.6077     149.9989
    3843.0     349.6617       5.2018     -47.5016     136.6513    3837.9915     136.6513     152.0311
    3843.5     349.5931       5.1996     -47.5105     136.6949    3838.4895     136.6949     154.9287
    3844.0     349.4957       5.1944     -47.5195     136.7383    3838.9875     136.7383     149.3320
    3844.5     349.3793       5.1914     -47.5285     136.7816    3839.4856     136.7816     135.4872
    3845.0     349.2943       5.1859     -47.5375     136.8249    3839.9836     136.8249     126.5563
    3845.5     349.2013       5.1898     -47.5465     136.8680    3840.4817     136.8680     131.0813
    3846.0     349.1181       5.1868     -47.5555     136.9110    3840.9797     136.9110     142.1317
    3846.5     349.0240       5.1737     -47.5646     136.9540    3841.4778     136.9540     150.7054
    3847.0     348.9438       5.1764     -47.5738     136.9968    3841.9758     136.9968     144.8705
    3847.5     348.8882       5.1697     -47.5829     137.0395    3842.4739     137.0395     153.1266
    3848.0     348.8339       5.1651     -47.5922     137.0821    3842.9719     137.0821     166.3443
    3848.5     348.7851       5.1704     -47.6014     137.1247    3843.4702     137.1247     194.8517
    3849.0     348.7300       5.1619     -47.6107     137.1672    3843.9683     137.1672     196.7648
    3849.5     348.6483       5.1575     -47.6201     137.2096    3844.4663     137.2096     177.1963
    3850.0     348.6494       5.1631     -47.6295     137.2519    3844.9644     137.2519     140.4726
    3850.5     348.6056       5.1517     -47.6391     137.2941    3845.4626     137.2941     117.0142
    3851.0     348.5725       5.1511     -47.6486     137.3363    3845.9607     137.3363     112.6956
    3851.5     348.5448       5.1500     -47.6583     137.3784    3846.4587     137.3784     117.1015
    3852.0     348.5034       5.1423     -47.6679     137.4204    3846.9570     137.4204     126.6278
    3852.5     348.4989       5.1373     -47.6777     137.4624    3847.4551     137.4624     131.2004
    3853.0     348.5227       5.1301     -47.6874     137.5042    3847.9531     137.5042     140.9648
    3853.5     348.5001       5.1271     -47.6971     137.5460    3848.4514     137.5460     144.5371
    3854.0     348.4855       5.1120     -47.7069     137.5878    3848.9495     137.5878     145.0452
    3854.5     348.4342       5.1039     -47.7167     137.6294    3849.4478     137.6294     140.8775
    3855.0     348.4254       5.1071     -47.7265     137.6710    3849.9458     137.6710     130.0175
    3855.5     348.3825       5.0898     -47.7364     137.7126    3850.4441     137.7126     126.7945
    3856.0     348.3369       5.0865     -47.7463     137.7540    3850.9421     137.7540     125.4846
    3856.5     348.2687       5.0750     -47.7562     137.7954    3851.4404     137.7954     131.3433
    3857.0     348.2086       5.0561     -47.7661     137.8367    3851.9387     137.8367     135.5824
    3857.5     348.1485       5.0543     -47.7761     137.8779    3852.4368     137.8779     139.1548
    3858.0     348.0909       5.0416     -47.7860     137.9190    3852.9351     137.9190     144.1561
    3858.5     347.9959       5.0262     -47.7960     137.9601    3853.4333     137.9601     147.3315
    3859.0     347.9300       5.0203     -47.8060     138.0010    3853.9314     138.0010     150.6657
    3859.5     347.8227       5.0074     -47.8160     138.0419    3854.4297     138.0419     153.7776
    3860.0     347.7768       5.0006     -47.8260     138.0827    3854.9280     138.0827     153.0314
    3860.5     347.7121       4.9955     -47.8360     138.1234    3855.4263     138.1234     156.7545
    3861.0     347.5757       4.9864     -47.8461     138.1640    3855.9243     138.1640     156.5005
    3861.5     347.4597       4.9792     -47.8562     138.2045    3856.4226     138.2045     156.7387
    3862.0     347.3701       4.9699     -47.8663     138.2450    3856.9209     138.2450     159.8029
    3862.5     347.2525       4.9637     -47.8765     138.2853    3857.4192     138.2853     159.9300
    3863.0     347.1526       4.9592     -47.8867     138.3256    3857.9175     138.3256     163.5023
    3863.5     347.0544       4.9457     -47.8970     138.3658    3858.4158     138.3658     158.5328
    3864.0     347.0053       4.9502     -47.9073     138.4059    3858.9141     138.4059     152.6900
    3864.5     346.9402       4.9322     -47.9177     138.4460    3859.4124     138.4460     148.6413
    3865.0     346.8892       4.9256     -47.9281     138.4859    3859.9106     138.4859     151.1817
    3865.5     346.8376       4.9227     -47.9385     138.5258    3860.4089     138.5258     155.8257
    3866.0     346.7895       4.9138     -47.9490     138.5656    3860.9072     138.5656     157.8262
    3866.5     346.7381       4.9085     -47.9596     138.6053    3861.4055     138.6053     166.0903
    3867.0     346.6906       4.9007     -47.9702     138.6450    3861.9038     138.6450     180.8560
    3867.5     346.6266       4.8941     -47.9809     138.6846    3862.4021     138.6846     192.6685
    3868.0     346.5665       4.8866     -47.9917     138.7241    3862.9004     138.7241     176.1167
    3868.5     346.5113       4.8778     -48.0025     138.7636    3863.3987     138.7636     156.9451
    3869.0     346.4133       4.8671     -48.0134     138.8031    3863.8970     138.8031     144.4974
    3869.5     346.3994       4.8599     -48.0244     138.8425    3864.3955     138.8425     152.7138
    3870.0     346.3615       4.8507     -48.0355     138.8818    3864.8938     138.8818     155.6908
    3870.5     346.3224       4.8423     -48.0467     138.9211    3865.3921     138.9211     161.0255
    3871.0     346.2876       4.8327     -48.0579     138.9604    3865.8904     138.9604     161.2636
    3871.5     346.2441       4.8192     -48.0692     138.9996    3866.3887     138.9996     164.3994
    3872.0     346.1984       4.8156     -48.0806     139.0387    3866.8870     139.0387     165.7965
    3872.5     346.1246       4.7971     -48.0920     139.0778    3867.3855     139.0778     171.1550
    3873.0     346.0368       4.7983     -48.1036     139.1169    3867.8838     139.1169     176.1087
    3873.5     345.9632       4.7906     -48.1152     139.1559    3868.3821     139.1559     178.3712
    3874.0     345.8737       4.7804     -48.1268     139.1949    3868.8804     139.1949     172.6554
    3874.5     345.7893       4.7718     -48.1386     139.2339    3869.3787     139.2339     171.5123
    3875.0     345.7171       4.7625     -48.1504     139.2728    3869.8772     139.2728     160.6762
    3875.5     345.6429       4.7570     -48.1623     139.3117    3870.3755     139.3117     158.8900
    3876.0     345.5522       4.7492     -48.1743     139.3505    3870.8738     139.3505     154.4444
    3876.5     345.4654       4.7391     -48.1864     139.3893    3871.3721     139.3893     162.8990
    3877.0     345.3594       4.7336     -48.1985     139.4280    3871.8706     139.4280     167.6621
    3877.5     345.2728       4.7271     -48.2107     139.4666    3872.3689     139.4666     170.8375
    3878.0     345.1572       4.7181     -48.2230     139.5052    3872.8672     139.5052     179.7684
    3878.5     345.0452       4.7140     -48.2354     139.5438    3873.3655     139.5438     183.4598
    3879.0     344.9186       4.7070     -48.2479     139.5823    3873.8640     139.5823     188.2626
    3879.5     344.8396       4.7035     -48.2604     139.6208    3874.3623     139.6208     182.0705
    3880.0     344.7155       4.7006     -48.2731     139.6592    3874.8606     139.6592     186.0081
    3880.5     344.6000       4.6951     -48.2858     139.6976    3875.3589     139.6976     186.9607
    3881.0     344.4591       4.6964     -48.2987     139.7359    3875.8574     139.7359     191.8429
    3881.5     344.3419       4.6896     -48.3116     139.7742    3876.3557     139.7742     192.4304
