~VERSION INFORMATION
VERS.           2.0   :CWLS Log ASCII Standard - VERSION 2.0
WRAP.           NO    :One Line per depth step
PROD.  Schlumberger   :LAS Producer
PROG.  DLIS to ASCII 10C0-306                          :LAS Program name and version
CREA.        2002/04/05 15:26                          :LAS Creation date {YYYY/MM/DD hh:mm}
SOURCE.     SONIC_063PUP.DLIS                          :DLIS File Name
FILE-ID.     SONIC_063PUP                              :File Identification Number
#--------------------------------------------------
~WELL INFORMATION
#MNEM.UNIT      DATA             DESCRIPTION
#---- ------ --------------   -----------------------------
STRT .F         5958.0       :START DEPTH     
STOP .F          675.5       :STOP DEPTH     
STEP .F           -0.5       :STEP     
NULL .          -999.25      :NULL VALUE
COMP .        DEPARTMENT OF ENERGY                     :COMPANY
WELL .        NPR-3 25-1-X-14                          :WELL
FLD  .        NPR-3                                    :FIELD
LOC  .        2301' FSL & 782' FWL                     :LOCATION
CNTY .        NATRONA                                  :COUNTY
STAT .        WYOMING                                  :STATE
CTRY .                                                 :COUNTRY
API  .        4902523047                               :API NUMBER
UWI  .                                                 :UNIQUE WELL ID
DATE .        05-Apr-2002                              :LOG DATE {DD-MMM-YYYY}
SRVC .        Schlumberger                             :SERVICE COMPANY
LATI .DEG                                              :LATITUDE
LONG .DEG                                              :LONGITUDE
GDAT .                                                 :GeoDetic Datum
#-----------------------------------------------------------------------------
~PARAMETER INFORMATION
#MNEM.UNIT    VALUE                      DESCRIPTION
#---- -----   --------------------       ------------------------
RUN  .          1                        :RUN NUMBER
PDAT .        GROUND LEVEL               :Permanent Datum
EPD  .F         5214.799805              :Elevation of Permanent Datum above Mean Sea Level
LMF  .          KELLY BUSHING            :Logging Measured From (Name of Logging Elevation Reference)
APD  .F          10.000000               :Elevation of Depth Reference (LMF) above Permanent Datum
#-----------------------------------------------------------------------------
~CURVE INFORMATION
#MNEM.UNIT   API CODE                                  DESCRIPTION
#---- -----  --------                                  -----------------------
DEPT .F                                                :DEPTH (BOREHOLE) {F10.1}
GR   .GAPI                                             :Gamma-Ray {F13.4}
ITT  .S                                                :Integrated Transit Time {F13.4}
SPHI .CFCF                                             :Sonic Porosity {F13.4}
SVEL .FT/S                                             :Sonic Velocity {F13.4}
DT   .US/F                                             :Delta-T {F13.4}
#-----------------------------------------------------------------------------
# 
#     DEPT        GR           ITT          SPHI         SVEL         DT
#
~A  
# ...
    5269.0      70.1200       0.0415       0.0635   16655.2129      60.0413
    5268.5      80.3607       0.0415       0.0724   16320.5859      61.2723
    5268.0      92.0644       0.0415       0.0858   15844.4912      63.1134
    5267.5      90.8736       0.0416       0.0995   15385.9229      64.9945
    5267.0      91.5881       0.0416       0.1074   15129.9658      66.0940
    5266.5      94.5821       0.0416       0.1213   14704.5283      68.0063
    5266.0     104.3465       0.0417       0.1265   14551.8496      68.7198
    5265.5     105.2651       0.0417       0.1232   14649.2354      68.2629
    5265.0     105.2311       0.0417       0.1231   14652.1240      68.2495
    5264.5     101.6587       0.0418       0.1101   15046.1943      66.4620
    5264.0      95.6708       0.0418       0.0944   15553.3652      64.2948
    5263.5      80.9051       0.0418       0.0814   15997.5410      62.5096
    5263.0      70.6643       0.0419       0.0730   16300.0361      61.3496
    5262.5      67.3982       0.0419       0.0647   16610.2637      60.2037
    5262.0      63.5877       0.0419       0.0602   16782.6191      59.5855
    5261.5      63.5877       0.0420       0.0585   16846.9414      59.3580
    5261.0      62.6351       0.0420       0.0542   17016.0918      58.7679
    5260.5      66.9219       0.0420       0.0566   16920.5508      59.0997
    5260.0      75.0192       0.0421       0.0623   16700.1660      59.8796
    5259.5      80.4968       0.0421       0.0658   16568.2852      60.3563
    5259.0      85.0218       0.0421       0.0700   16411.6777      60.9322
    5258.5      87.4033       0.0421       0.0764   16174.2148      61.8268
    5258.0      92.8809       0.0422       0.0921   15629.9150      63.9799
    5257.5     102.6454       0.0422       0.1085   15095.5635      66.2446
    5257.0     108.3611       0.0422       0.1214   14702.4795      68.0157
    5256.5     109.0756       0.0423       0.1273   14529.4229      68.8259
    5256.0     107.6466       0.0423       0.1283   14500.4805      68.9632
    5255.5     105.8775       0.0423       0.1198   14750.0605      67.7963
    5255.0      99.9236       0.0424       0.1159   14868.6602      67.2556
    5254.5      97.3038       0.0424       0.1073   15134.2969      66.0751
    5254.0      93.1191       0.0424       0.1017   15314.0498      65.2995
    5253.5      93.1191       0.0425       0.0989   15405.5000      64.9119
    5253.0      89.7849       0.0425       0.0940   15566.6387      64.2399
    5252.5      87.8796       0.0425       0.0957   15508.4893      64.4808
    5252.0      89.6488       0.0426       0.0933   15589.7773      64.1446
    5251.5      90.8396       0.0426       0.0954   15517.6348      64.4428
    5251.0      98.6988       0.0426       0.1013   15324.4971      65.2550
    5250.5      97.6441       0.0427       0.0969   15471.1865      64.6363
    5250.0      95.5006       0.0427       0.0967   15475.9775      64.6163
    5249.5      94.7862       0.0427       0.0965   15481.1768      64.5946
    5249.0      87.4033       0.0428       0.0903   15690.5127      63.7328
    5248.5      83.5928       0.0428       0.0836   15920.6104      62.8117
    5248.0      75.2573       0.0428       0.0814   15997.5742      62.5095
    5247.5      85.4981       0.0429       0.0861   15833.1963      63.1584
    5247.0      98.7668       0.0429       0.0854   15857.0791      63.0633
    5246.5      99.4548       0.0429       0.0936   15578.0635      64.1928
    5246.0      88.6697       0.0430       0.0898   15705.6045      63.6715
    5245.5      77.7826       0.0430       0.0789   16087.6992      62.1593
    5245.0      75.4275       0.0430       0.0735   16282.5635      61.4154
    5244.5      89.7849       0.0431       0.0798   16054.7432      62.2869
    5244.0      95.7388       0.0431       0.0939   15568.5820      64.2319
    5243.5     105.7414       0.0431       0.1048   15214.2402      65.7279
    5243.0     105.9795       0.0432       0.1180   14804.8701      67.5453
    5242.5     113.6346       0.0432       0.1245   14611.5215      68.4391
    5242.0     116.2543       0.0432       0.1213   14704.3037      68.0073
    5241.5     112.2056       0.0433       0.1201   14740.4355      67.8406
    5241.0     107.0645       0.0433       0.1123   14977.0313      66.7689
    5240.5      99.0352       0.0433       0.1018   15310.4590      65.3148
    5240.0      92.6049       0.0434       0.0966   15478.9844      64.6037
    5239.5      85.3279       0.0434       0.0913   15655.6260      63.8748
    5239.0      82.4020       0.0434       0.0836   15919.0332      62.8179
    5238.5      87.6415       0.0434       0.0872   15794.7871      63.3120
    5238.0      84.0691       0.0435       0.0836   15919.2031      62.8172
    5237.5      83.7289       0.0435       0.0765   16173.6260      61.8291
    5237.0      74.6789       0.0435       0.0725   16317.4355      61.2841
    5236.5      67.5342       0.0436       0.0571   16900.9414      59.1683
    5236.0      57.8719       0.0436       0.0510   17144.9824      58.3261
    5235.5      55.4903       0.0436       0.0485   17249.1875      57.9737
    5235.0      59.0627       0.0437       0.0509   17151.5781      58.3037
    5234.5      62.3969       0.0437       0.0556   16962.9668      58.9520
    5234.0      65.9692       0.0437       0.0571   16902.5684      59.1626
    5233.5      66.4455       0.0437       0.0579   16872.3516      59.2686
    5233.0      65.0166       0.0438       0.0547   16996.8066      58.8346
    5232.5      66.2414       0.0438       0.0569   16911.2227      59.1323
    5232.0      70.0519       0.0438       0.0686   16461.5918      60.7475
    5231.5      76.7203       0.0439       0.0804   16033.0117      62.3713
    5231.0      78.1152       0.0439       0.0872   15796.8721      63.3037
    5230.5      78.1152       0.0439       0.0842   15900.8984      62.8895
    5230.0      80.2586       0.0440       0.0784   16104.8066      62.0933
    5229.5      85.7362       0.0440       0.0775   16137.4424      61.9677
    5229.0      87.6415       0.0440       0.0797   16057.8604      62.2748
    5228.5      84.3073       0.0441       0.0835   15924.1211      62.7978
    5228.0      74.9851       0.0441       0.0849   15875.6309      62.9896
    5227.5      75.6996       0.0441       0.0790   16083.3359      62.1762
    5227.0      76.6522       0.0441       0.0721   16332.4648      61.2277
    5226.5      73.8284       0.0442       0.0704   16394.0488      60.9977
    5226.0      67.6363       0.0442       0.0631   16670.0918      59.9877
    5225.5      58.3482       0.0442       0.0597   16802.7559      59.5140
    5225.0      61.6824       0.0443       0.0569   16910.8984      59.1335
    5224.5      65.2888       0.0443       0.0531   17062.1309      58.6093
    5224.0      74.3387       0.0443       0.0585   16848.7539      59.3516
    5223.5      78.3345       0.0444       0.0652   16589.5723      60.2788
    5223.0      79.6954       0.0444       0.0734   16284.6025      61.4077
    5222.5      85.8874       0.0444       0.0911   15663.7197      63.8418
    5222.0      94.9903       0.0445       0.0970   15467.5713      64.6514
    5221.5     100.7401       0.0445       0.1070   15142.8027      66.0380
    5221.0     101.4546       0.0445       0.1160   14866.2236      67.2666
    5220.5      96.4533       0.0446       0.1038   15246.5967      65.5884
    5220.0      93.3572       0.0446       0.0978   15438.9658      64.7712
    5219.5      92.9149       0.0446       0.0902   15693.9902      63.7187
    5219.0      84.5795       0.0446       0.0772   16147.0977      61.9306
    5218.5      78.6256       0.0447       0.0733   16289.8730      61.3878
    5218.0      69.7797       0.0447       0.0729   16304.6758      61.3321
    5217.5      74.5429       0.0447       0.0675   16503.2813      60.5940
    5217.0      80.2586       0.0448       0.0675   16504.5703      60.5893
    5216.5      79.7823       0.0448       0.0658   16565.3516      60.3670
