~VERSION INFORMATION
VERS.           2.0   :CWLS Log ASCII Standard - VERSION 2.0
WRAP.           NO    :One Line per depth step
PROD.  Schlumberger   :LAS Producer
PROG.  DLIS to ASCII 10C0-306                          :LAS Program name and version
CREA.        2002/04/05 15:26                          :LAS Creation date {YYYY/MM/DD hh:mm}
SOURCE.     SONIC_063PUP.DLIS                          :DLIS File Name
FILE-ID.     SONIC_063PUP                              :File Identification Number
#--------------------------------------------------
~WELL INFORMATION
#MNEM.UNIT      DATA             DESCRIPTION
#---- ------ --------------   -----------------------------
STRT .F         5958.0       :START DEPTH     
STOP .F          675.5       :STOP DEPTH     
STEP .F           -0.5       :STEP     
NULL .          -999.25      :NULL VALUE
COMP .        DEPARTMENT OF ENERGY                     :COMPANY
WELL .        NPR-3 25-1-X-14                          :WELL
FLD  .        NPR-3                                    :FIELD
LOC  .        2301' FSL & 782' FWL                     :LOCATION
CNTY .        NATRONA                                  :COUNTY
STAT .        WYOMING                                  :STATE
CTRY .                                                 :COUNTRY
API  .        4902523047                               :API NUMBER
UWI  .                                                 :UNIQUE WELL ID
DATE .        05-Apr-2002                              :LOG DATE {DD-MMM-YYYY}
SRVC .        Schlumberger                             :SERVICE COMPANY
LATI .DEG                                              :LATITUDE
LONG .DEG                                              :LONGITUDE
GDAT .                                                 :GeoDetic Datum
#-----------------------------------------------------------------------------
~PARAMETER INFORMATION
#MNEM.UNIT    VALUE                      DESCRIPTION
#---- -----   --------------------       ------------------------
RUN  .          1                        :RUN NUMBER
PDAT .        GROUND LEVEL               :Permanent Datum
EPD  .F         5214.799805              :Elevation of Permanent Datum above Mean Sea Level
LMF  .          KELLY BUSHING            :Logging Measured From (Name of Logging Elevation Reference)
APD  .F          10.000000               :Elevation of Depth Reference (LMF) above Permanent Datum
#-----------------------------------------------------------------------------
~CURVE INFORMATION
#MNEM.UNIT   API CODE                                  DESCRIPTION
#---- -----  --------                                  -----------------------
DEPT .F                                                :DEPTH (BOREHOLE) {F10.1}
GR   .GAPI                                             :Gamma-Ray {F13.4}
ITT  .S                                                :Integrated Transit Time {F13.4}
SPHI .CFCF                                             :Sonic Porosity {F13.4}
SVEL .FT/S                                             :Sonic Velocity {F13.4}
DT   .US/F                                             :Delta-T {F13.4}
#-----------------------------------------------------------------------------
# 
#     DEPT        GR           ITT          SPHI         SVEL         DT
#
~A  
# ...
    3520.0     114.3152       0.1821       0.2557   11560.2402      86.5034
    3519.5     123.8414       0.1821       0.2523   11622.5781      86.0394
    3519.0     124.3177       0.1822       0.2401   11853.1748      84.3656
    3518.5     119.0783       0.1822       0.2433   11791.2070      84.8090
    3518.0     113.6007       0.1823       0.2452   11756.6387      85.0583
    3517.5     106.2179       0.1823       0.2572   11531.2607      86.7208
    3517.0     111.6955       0.1823       0.2670   11354.6777      88.0694
    3516.5     113.8389       0.1824       0.2634   11418.9131      87.5740
    3516.0     118.9422       0.1824       0.2598   11484.1406      87.0766
    3515.5     111.7975       0.1825       0.2616   11452.3340      87.3184
    3515.0     106.7962       0.1825       0.2649   11391.8096      87.7824
    3514.5     107.6468       0.1826       0.2613   11457.7920      87.2768
    3514.0     106.9323       0.1826       0.2653   11384.9219      87.8355
    3513.5     110.9810       0.1827       0.2719   11268.3076      88.7445
    3513.0     113.6007       0.1827       0.2738   11235.9287      89.0002
    3512.5     115.7441       0.1827       0.2716   11273.3828      88.7045
    3512.0     110.9810       0.1828       0.2618   11447.8682      87.3525
    3511.5     109.0757       0.1828       0.2370   11914.8857      83.9286
    3511.0     109.4840       0.1829       0.2109   12447.8730      80.3350
    3510.5      98.2906       0.1829       0.2013   12654.7090      79.0220
    3510.0      90.6696       0.1829       0.1979   12730.7637      78.5499
    3509.5      88.1180       0.1830       0.2071   12527.7070      79.8231
    3509.0      96.2153       0.1830       0.2089   12489.0605      80.0701
    3508.5      95.2627       0.1831       0.2078   12514.1592      79.9095
    3508.0      90.0232       0.1831       0.1828   13077.2959      76.4684
    3507.5      90.0232       0.1831       0.1728   13317.0850      75.0915
    3507.0      85.7364       0.1832       0.1711   13358.8008      74.8570
    3506.5      86.9272       0.1832       0.1699   13387.9561      74.6940
    3506.0      89.0706       0.1833       0.1857   13007.8135      76.8769
    3505.5      95.7390       0.1833       0.1875   12967.7822      77.1142
    3505.0      96.6236       0.1833       0.1908   12890.5313      77.5763
    3504.5      85.9065       0.1834       0.1881   12954.0303      77.1961
    3504.0      82.0960       0.1834       0.1859   13004.0850      76.8989
    3503.5      80.0206       0.1835       0.1828   13075.7100      76.4777
    3503.0      86.2127       0.1835       0.1870   12977.5967      77.0559
    3502.5      87.1653       0.1835       0.1908   12890.9521      77.5738
    3502.0      87.1653       0.1836       0.1752   13259.3320      75.4186
    3501.5      84.5456       0.1836       0.1754   13254.2480      75.4475
    3501.0      85.0219       0.1836       0.1714   13352.0313      74.8950
    3500.5      80.7351       0.1837       0.1674   13449.6582      74.3513
    3500.0      90.3294       0.1837       0.1884   12946.3965      77.2416
    3499.5      94.1928       0.1838       0.1964   12763.8682      78.3462
    3499.0     105.9986       0.1838       0.2022   12635.7334      79.1406
    3498.5      99.0240       0.1838       0.2083   12501.6182      79.9896
    3498.0      96.5895       0.1839       0.2048   12578.4590      79.5010
    3497.5      89.0706       0.1839       0.1953   12789.1094      78.1915
    3497.0      88.8324       0.1840       0.1869   12979.9473      77.0419
    3496.5      80.9733       0.1840       0.1839   13050.0313      76.6282
    3496.0      86.2127       0.1840       0.1926   12848.9404      77.8274
    3495.5      87.6416       0.1841       0.2047   12579.7109      79.4931
    3495.0     101.4547       0.1841       0.2170   12318.1592      81.1810
    3494.5      98.1205       0.1842       0.2328   11997.5713      83.3502
    3494.0      95.0245       0.1842       0.2339   11974.2227      83.5127
    3493.5      86.4509       0.1842       0.2301   12050.3184      82.9854
    3493.0      89.8871       0.1843       0.2237   12179.3477      82.1062
    3492.5      95.8410       0.1843       0.2187   12282.0342      81.4197
    3492.0     105.3673       0.1844       0.2353   11946.6201      83.7057
    3491.5     106.2178       0.1844       0.2439   11781.4961      84.8789
    3491.0     103.3600       0.1844       0.2373   11907.9209      83.9777
    3490.5      98.5968       0.1845       0.2236   12182.5674      82.0845
    3490.0      96.2153       0.1845       0.2027   12624.4795      79.2112
    3489.5     103.1218       0.1846       0.2417   11823.1768      84.5796
    3489.0     110.7428       0.1846       0.2558   11557.1064      86.5268
    3488.5     111.9336       0.1847       0.2810   11112.3184      89.9902
    3488.0     112.4439       0.1847       0.2819   11096.6670      90.1171
    3487.5     106.7282       0.1847       0.2492   11680.1191      85.6156
    3487.0     110.0624       0.1848       0.2532   11604.9072      86.1704
    3486.5     105.0271       0.1848       0.2420   11817.0479      84.6235
    3486.0     102.6455       0.1849       0.2452   11755.1807      85.0689
    3485.5      98.3587       0.1849       0.2397   11862.3164      84.3006
    3485.0      97.1679       0.1850       0.2520   11627.0332      86.0065
    3484.5      95.9771       0.1850       0.2679   11338.4268      88.1957
    3484.0     100.9784       0.1850       0.2801   11127.5146      89.8673
    3483.5     102.1692       0.1851       0.2883   10989.8379      90.9932
    3483.0      98.5968       0.1851       0.2716   11273.8496      88.7008
    3482.5      92.1666       0.1852       0.2527   11615.4785      86.0920
    3482.0      87.1653       0.1852       0.2293   12066.0869      82.8769
    3481.5      92.1666       0.1853       0.2193   12269.8896      81.5003
    3481.0      90.2614       0.1853       0.2256   12141.6826      82.3609
    3480.5      98.1205       0.1853       0.2351   11951.7666      83.6696
    3480.0     101.5228       0.1854       0.2444   11771.9014      84.9480
    3479.5     101.5228       0.1854       0.2305   12041.8145      83.0440
    3479.0      96.2833       0.1855       0.2160   12339.9043      81.0379
    3478.5      89.3087       0.1855       0.1976   12737.7910      78.5065
    3478.0      89.3087       0.1855       0.1850   13025.7744      76.7709
    3477.5      90.4995       0.1856       0.1956   12782.2617      78.2334
    3477.0     100.0258       0.1856       0.2105   12455.6230      80.2850
    3476.5     108.5994       0.1857       0.2253   12147.6787      82.3203
    3476.0     113.1244       0.1857       0.2327   11999.1494      83.3392
    3475.5     107.5787       0.1858       0.2476   11710.3984      85.3942
    3475.0     104.2975       0.1858       0.2630   11425.7568      87.5216
    3474.5     101.6437       0.1858       0.2713   11278.6602      88.6630
    3474.0     105.5223       0.1859       0.2809   11114.2139      89.9749
    3473.5     100.7062       0.1859       0.2738   11235.7490      89.0016
    3473.0     105.0271       0.1860       0.2699   11304.2529      88.4623
    3472.5      95.5008       0.1860       0.2581   11514.7861      86.8449
    3472.0     101.4547       0.1861       0.2550   11571.7168      86.4176
    3471.5     100.2639       0.1861       0.2684   11329.9326      88.2618
    3471.0     116.4586       0.1861       0.2700   11302.2148      88.4782
    3470.5     111.9336       0.1862       0.2809   11113.3516      89.9819
    3470.0     111.6954       0.1862       0.2712   11280.2529      88.6505
    3469.5     102.2372       0.1863       0.2609   11465.0439      87.2216
    3469.0     104.6188       0.1863       0.2509   11648.3115      85.8493
    3468.5     100.8083       0.1864       0.2428   11801.9082      84.7321
    3468.0      98.3587       0.1864       0.2539   11591.8975      86.2672
    3467.5      98.1205       0.1865       0.2574   11527.5947      86.7484
