~VERSION INFORMATION
VERS.           2.0   :CWLS Log ASCII Standard - VERSION 2.0
WRAP.           NO    :One Line per depth step
PROD.  Schlumberger   :LAS Producer
PROG.  DLIS to ASCII 10C0-306                          :LAS Program name and version
CREA.        2002/04/05 15:33                          :LAS Creation date {YYYY/MM/DD hh:mm}
SOURCE.     FMI_033PUP.DLIS                            :DLIS File Name
FILE-ID.     FMI_033PUP                                :File Identification Number
#--------------------------------------------------
~WELL INFORMATION
#MNEM.UNIT      DATA             DESCRIPTION
#---- ------ --------------   -----------------------------
STRT .F      722.0           :START DEPTH     
STOP .F      5952.0          :STOP DEPTH     
STEP .F       0.5            :STEP     
NULL .          -999.25      :NULL VALUE
COMP .        DEPARTMENT OF ENERGY                     :COMPANY
WELL .        NPR-3 25-1-X-14                          :WELL
FLD  .        NPR-3                                    :FIELD
LOC  .        2301' FSL & 782' FWL                     :LOCATION
CNTY .        NATRONA                                  :COUNTY
STAT .        WYOMING                                  :STATE
CTRY .                                                 :COUNTRY
API  .        4902523047                               :API NUMBER
UWI  .                                                 :UNIQUE WELL ID
DATE .        05-Apr-2002                              :LOG DATE {DD-MMM-YYYY}
SRVC .        Schlumberger                             :SERVICE COMPANY
LATI .DEG                                              :LATITUDE
LONG .DEG                                              :LONGITUDE
GDAT .                                                 :GeoDetic Datum
#-----------------------------------------------------------------------------
~PARAMETER INFORMATION
#MNEM.UNIT    VALUE                      DESCRIPTION
#---- -----   --------------------       ------------------------
RUN  .          1                        :RUN NUMBER
PDAT .        GROUND LEVEL               :Permanent Datum
EPD  .F         5214.799805              :Elevation of Permanent Datum above Mean Sea Level
LMF  .          KELLY BUSHING            :Logging Measured From (Name of Logging Elevation Reference)
APD  .F          10.000000               :Elevation of Depth Reference (LMF) above Permanent Datum
#-----------------------------------------------------------------------------
~CURVE INFORMATION
#MNEM.UNIT   API CODE                                  DESCRIPTION
#---- -----  --------                                  -----------------------
DEPT .F                                                :DEPTH (BOREHOLE) {F10.1}
HAZI .DEG                                              :Hole Azimuth {F13.4}
SDEV .DEG                                              :Sonde Deviation {F13.4}
ED   .F                                                :East Departure {F13.4}
ND   .F                                                :North Departure {F13.4}
TVDE .F                                                :True Vertical Depth {F13.4}
VSEC .F                                                :Vertical Section {F13.4}
GR   .GAPI                                             :Gamma Ray {F13.4}
#-----------------------------------------------------------------------------
# 
#     DEPT        HAZI         SDEV         ED           ND           TVDE         VSEC         GR
#
~A  
# ...
    5541.0     315.9916       5.4921    -133.2396     297.5873    5525.7500     297.5873      49.9811
    5541.5     316.0127       5.4859    -133.2731     297.6211    5526.2476     297.6211      31.5478
    5542.0     316.0288       5.4728    -133.3066     297.6548    5526.7451     297.6548      12.6223
    5542.5     316.0485       5.4647    -133.3402     297.6885    5527.2432     297.6885       6.3112
    5543.0     316.0510       5.4535    -133.3738     297.7221    5527.7407     297.7221       4.2630
    5543.5     316.0597       5.4454    -133.4074     297.7558    5528.2383     297.7558       5.0251
    5544.0     316.0389       5.4398    -133.4410     297.7894    5528.7363     297.7894       6.0968
    5544.5     316.0367       5.4323    -133.4746     297.8230    5529.2339     297.8230       5.8587
    5545.0     316.0143       5.4202    -133.5082     297.8566    5529.7314     297.8566       4.7631
    5545.5     315.9578       5.4200    -133.5418     297.8902    5530.2295     297.8902       5.0013
    5546.0     315.9406       5.4138    -133.5753     297.9239    5530.7271     297.9239       5.3823
    5546.5     315.9379       5.4128    -133.6089     297.9576    5531.2251     297.9576       6.6922
    5547.0     315.9447       5.4113    -133.6424     297.9914    5531.7227     297.9914       6.8113
    5547.5     315.9229       5.4086    -133.6759     298.0252    5532.2202     298.0252       9.6056
    5548.0     315.8719       5.4144    -133.7094     298.0591    5532.7183     298.0591      13.8925
    5548.5     315.8447       5.4146    -133.7429     298.0930    5533.2158     298.0930      17.8379
    5549.0     315.7734       5.4244    -133.7763     298.1271    5533.7134     298.1271      23.1171
    5549.5     315.7089       5.4305    -133.8096     298.1612    5534.2114     298.1612      32.9688
    5550.0     315.6326       5.4387    -133.8429     298.1954    5534.7090     298.1954      44.1463
    5550.5     315.5511       5.4452    -133.8762     298.2297    5535.2065     298.2297      51.7673
    5551.0     315.4712       5.4469    -133.9093     298.2640    5535.7046     298.2640      51.8943
    5551.5     315.4083       5.4502    -133.9424     298.2984    5536.2021     298.2984      54.8713
    5552.0     315.3231       5.4536    -133.9754     298.3329    5536.6997     298.3329      58.6103
    5552.5     315.2850       5.4574    -134.0083     298.3676    5537.1973     298.3676      63.5163
    5553.0     315.2161       5.4580    -134.0411     298.4022    5537.6953     298.4022      67.7793
    5553.5     315.1556       5.4610    -134.0739     298.4369    5538.1929     298.4369      73.2093
    5554.0     315.1367       5.4572    -134.1065     298.4716    5538.6904     298.4716      75.2336
    5554.5     315.0971       5.4582    -134.1391     298.5063    5539.1885     298.5063      73.4554
    5555.0     315.0497       5.4566    -134.1716     298.5410    5539.6860     298.5410      68.5732
    5555.5     315.0001       5.4538    -134.2040     298.5757    5540.1841     298.5757      69.5179
    5556.0     314.9877       5.4562    -134.2364     298.6104    5540.6816     298.6104      73.9397
    5556.5     314.9950       5.4530    -134.2687     298.6451    5541.1792     298.6451      77.7105
    5557.0     315.0166       5.4556    -134.3009     298.6798    5541.6772     298.6798      78.0756
    5557.5     315.0570       5.4536    -134.3330     298.7145    5542.1748     298.7145      77.0039
    5558.0     315.1077       5.4559    -134.3651     298.7493    5542.6729     298.7493      78.4726
    5558.5     315.1714       5.4593    -134.3971     298.7840    5543.1704     298.7840      82.6800
    5559.0     315.2318       5.4609    -134.4291     298.8187    5543.6680     298.8187      84.2836
    5559.5     315.3246       5.4671    -134.4610     298.8534    5544.1660     298.8534      84.8790
    5560.0     315.3848       5.4708    -134.4928     298.8882    5544.6636     298.8882      81.3860
    5560.5     315.4867       5.4733    -134.5246     298.9229    5545.1616     298.9229      82.6562
    5561.0     315.5735       5.4729    -134.5563     298.9576    5545.6592     298.9576      82.6562
    5561.5     315.6961       5.4806    -134.5880     298.9924    5546.1572     298.9924      75.6306
    5562.0     315.8120       5.4777    -134.6196     299.0272    5546.6548     299.0272      58.9914
    5562.5     315.9332       5.4796    -134.6512     299.0620    5547.1528     299.0620      50.2987
    5563.0     316.0694       5.4800    -134.6826     299.0968    5547.6504     299.0968      57.0861
    5563.5     316.2255       5.4791    -134.7140     299.1317    5548.1484     299.1317      66.8664
    5564.0     316.3686       5.4779    -134.7454     299.1665    5548.6460     299.1665      63.4608
    5564.5     316.4950       5.4797    -134.7766     299.2014    5549.1440     299.2014      48.0997
    5565.0     316.6089       5.4764    -134.8078     299.2362    5549.6416     299.2362      31.7224
    5565.5     316.6835       5.4692    -134.8389     299.2711    5550.1396     299.2711      21.6881
    5566.0     316.7810       5.4679    -134.8700     299.3059    5550.6372     299.3059      25.3795
    5566.5     316.8466       5.4608    -134.9010     299.3406    5551.1353     299.3406      45.4403
    5567.0     316.9165       5.4527    -134.9320     299.3754    5551.6328     299.3754      67.0966
    5567.5     316.9786       5.4470    -134.9630     299.4101    5552.1309     299.4101      79.8301
    5568.0     317.0384       5.4440    -134.9939     299.4448    5552.6284     299.4448      83.2278
    5568.5     317.1214       5.4386    -135.0249     299.4794    5553.1265     299.4794      84.2995
    5569.0     317.1695       5.4302    -135.0558     299.5139    5553.6240     299.5139      86.4587
    5569.5     317.2311       5.4284    -135.0868     299.5485    5554.1221     299.5485      85.8634
    5570.0     317.2856       5.4217    -135.1177     299.5829    5554.6201     299.5829      85.9983
    5570.5     317.3484       5.4161    -135.1486     299.6173    5555.1177     299.6173      83.2039
    5571.0     317.4108       5.4110    -135.1796     299.6517    5555.6157     299.6517      76.4165
    5571.5     317.4638       5.4109    -135.2106     299.6859    5556.1138     299.6859      64.7309
    5572.0     317.5164       5.4063    -135.2415     299.7201    5556.6113     299.7201      49.2349
    5572.5     317.5646       5.4004    -135.2725     299.7542    5557.1094     299.7542      44.8290
    5573.0     317.6204       5.3979    -135.3035     299.7883    5557.6069     299.7883      53.8472
    5573.5     317.6796       5.3965    -135.3344     299.8223    5558.1050     299.8223      72.3678
    5574.0     317.7756       5.3932    -135.3653     299.8563    5558.6030     299.8563      83.4421
    5574.5     317.8505       5.3881    -135.3962     299.8902    5559.1006     299.8902      84.2042
    5575.0     317.9310       5.3853    -135.4271     299.9242    5559.5986     299.9242      81.1082
    5575.5     318.0142       5.3813    -135.4579     299.9580    5560.0967     299.9580      69.5338
    5576.0     318.1177       5.3779    -135.4888     299.9919    5560.5947     299.9919      48.4410
    5576.5     318.1678       5.3677    -135.5195     300.0258    5561.0923     300.0258      25.6495
    5577.0     318.1979       5.3613    -135.5503     300.0596    5561.5903     300.0596      10.5503
    5577.5     318.2444       5.3585    -135.5811     300.0934    5562.0884     300.0934       6.7478
    5578.0     318.2688       5.3510    -135.6118     300.1272    5562.5859     300.1272       5.9619
    5578.5     318.2640       5.3445    -135.6426     300.1609    5563.0840     300.1609       8.4863
    5579.0     318.2656       5.3438    -135.6734     300.1947    5563.5820     300.1947      21.1007
    5579.5     318.2351       5.3380    -135.7041     300.2285    5564.0801     300.2285      41.0661
    5580.0     318.2127       5.3293    -135.7349     300.2622    5564.5776     300.2622      64.0244
