~VERSION INFORMATION
VERS.           2.0   :CWLS Log ASCII Standard - VERSION 2.0
WRAP.           NO    :One Line per depth step
PROD.  Schlumberger   :LAS Producer
PROG.  DLIS to ASCII 10C0-306                          :LAS Program name and version
CREA.        2002/04/05 15:33                          :LAS Creation date {YYYY/MM/DD hh:mm}
SOURCE.     FMI_033PUP.DLIS                            :DLIS File Name
FILE-ID.     FMI_033PUP                                :File Identification Number
#--------------------------------------------------
~WELL INFORMATION
#MNEM.UNIT      DATA             DESCRIPTION
#---- ------ --------------   -----------------------------
STRT .F      722.0           :START DEPTH     
STOP .F      5952.0          :STOP DEPTH     
STEP .F       0.5            :STEP     
NULL .          -999.25      :NULL VALUE
COMP .        DEPARTMENT OF ENERGY                     :COMPANY
WELL .        NPR-3 25-1-X-14                          :WELL
FLD  .        NPR-3                                    :FIELD
LOC  .        2301' FSL & 782' FWL                     :LOCATION
CNTY .        NATRONA                                  :COUNTY
STAT .        WYOMING                                  :STATE
CTRY .                                                 :COUNTRY
API  .        4902523047                               :API NUMBER
UWI  .                                                 :UNIQUE WELL ID
DATE .        05-Apr-2002                              :LOG DATE {DD-MMM-YYYY}
SRVC .        Schlumberger                             :SERVICE COMPANY
LATI .DEG                                              :LATITUDE
LONG .DEG                                              :LONGITUDE
GDAT .                                                 :GeoDetic Datum
#-----------------------------------------------------------------------------
~PARAMETER INFORMATION
#MNEM.UNIT    VALUE                      DESCRIPTION
#---- -----   --------------------       ------------------------
RUN  .          1                        :RUN NUMBER
PDAT .        GROUND LEVEL               :Permanent Datum
EPD  .F         5214.799805              :Elevation of Permanent Datum above Mean Sea Level
LMF  .          KELLY BUSHING            :Logging Measured From (Name of Logging Elevation Reference)
APD  .F          10.000000               :Elevation of Depth Reference (LMF) above Permanent Datum
#-----------------------------------------------------------------------------
~CURVE INFORMATION
#MNEM.UNIT   API CODE                                  DESCRIPTION
#---- -----  --------                                  -----------------------
DEPT .F                                                :DEPTH (BOREHOLE) {F10.1}
HAZI .DEG                                              :Hole Azimuth {F13.4}
SDEV .DEG                                              :Sonde Deviation {F13.4}
ED   .F                                                :East Departure {F13.4}
ND   .F                                                :North Departure {F13.4}
TVDE .F                                                :True Vertical Depth {F13.4}
VSEC .F                                                :Vertical Section {F13.4}
GR   .GAPI                                             :Gamma Ray {F13.4}
#-----------------------------------------------------------------------------
# 
#     DEPT        HAZI         SDEV         ED           ND           TVDE         VSEC         GR
#
~A  
# ...
    5225.0     321.3172       6.9136    -110.3403     271.2249    5211.6968     271.2249      78.6789
    5225.5     321.2918       6.9209    -110.3792     271.2727    5212.1929     271.2727      74.4079
    5226.0     321.2813       6.9295    -110.4182     271.3206    5212.6890     271.3206      76.7895
    5226.5     321.2447       6.9327    -110.4572     271.3685    5213.1851     271.3685      82.8863
    5227.0     321.2227       6.9393    -110.4963     271.4165    5213.6812     271.4165      88.0067
    5227.5     321.2102       6.9443    -110.5354     271.4645    5214.1777     271.4645      77.7659
    5228.0     321.1945       6.9501    -110.5746     271.5126    5214.6738     271.5126      66.8425
    5228.5     321.1876       6.9603    -110.6138     271.5606    5215.1699     271.5606      58.0307
    5229.0     321.1657       6.9639    -110.6531     271.6088    5215.6660     271.6088      61.7698
    5229.5     321.1511       6.9714    -110.6924     271.6570    5216.1621     271.6570      60.3011
    5230.0     321.1234       6.9767    -110.7317     271.7051    5216.6582     271.7051      64.4530
    5230.5     321.1053       6.9832    -110.7710     271.7533    5217.1543     271.7533      60.8330
    5231.0     321.0766       6.9903    -110.8104     271.8014    5217.6504     271.8014      58.9278
    5231.5     321.0580       6.9976    -110.8497     271.8495    5218.1465     271.8495      55.4904
    5232.0     321.0193       7.0036    -110.8890     271.8976    5218.6426     271.8976      55.9349
    5232.5     321.0038       7.0120    -110.9282     271.9456    5219.1387     271.9456      62.7224
    5233.0     320.9605       7.0173    -110.9675     271.9936    5219.6348     271.9936      72.9631
    5233.5     320.9496       7.0287    -111.0067     272.0414    5220.1313     272.0414      81.9813
    5234.0     320.9257       7.0356    -111.0459     272.0892    5220.6274     272.0892      87.5780
    5234.5     320.9132       7.0444    -111.0851     272.1369    5221.1235     272.1369      86.8715
    5235.0     320.9028       7.0511    -111.1242     272.1845    5221.6196     272.1845      90.8090
    5235.5     320.8939       7.0600    -111.1633     272.2320    5222.1157     272.2320      95.2149
    5236.0     320.8880       7.0676    -111.2023     272.2794    5222.6123     272.2794     104.3601
    5236.5     320.8748       7.0743    -111.2413     272.3266    5223.1084     272.3266     107.9880
    5237.0     320.8752       7.0806    -111.2802     272.3738    5223.6045     272.3738     117.6889
    5237.5     320.8596       7.0899    -111.3190     272.4208    5224.1006     272.4208     112.8623
    5238.0     320.8405       7.0955    -111.3577     272.4677    5224.5972     272.4677     112.2669
    5238.5     320.8305       7.1037    -111.3964     272.5145    5225.0933     272.5145     106.5511
    5239.0     320.8221       7.1131    -111.4350     272.5612    5225.5898     272.5612     111.1237
    5239.5     320.8154       7.1197    -111.4736     272.6078    5226.0859     272.6078     107.7895
    5240.0     320.8084       7.1249    -111.5121     272.6543    5226.5825     272.6543      99.6605
    5240.5     320.7882       7.1334    -111.5507     272.7008    5227.0786     272.7008      92.6666
    5241.0     320.8032       7.1409    -111.5892     272.7472    5227.5752     272.7472      86.6174
    5241.5     320.7840       7.1413    -111.6277     272.7936    5228.0713     272.7936      84.2041
    5242.0     320.7656       7.1445    -111.6663     272.8399    5228.5679     272.8399      88.6100
    5242.5     320.7585       7.1439    -111.7048     272.8862    5229.0640     272.8862      90.5153
    5243.0     320.7539       7.1390    -111.7433     272.9324    5229.5605     272.9324      93.1826
    5243.5     320.7310       7.1371    -111.7818     272.9786    5230.0566     272.9786      84.6090
    5244.0     320.7342       7.1304    -111.8203     273.0248    5230.5532     273.0248      82.5767
    5244.5     320.6981       7.1227    -111.8588     273.0710    5231.0498     273.0710      86.3872
    5245.0     320.6836       7.1154    -111.8972     273.1171    5231.5459     273.1171      91.9839
    5245.5     320.6445       7.1068    -111.9357     273.1632    5232.0425     273.1632      94.7783
    5246.0     320.6129       7.0956    -111.9741     273.2094    5232.5386     273.2094      91.8569
    5246.5     320.5973       7.0845    -112.0126     273.2556    5233.0352     273.2556      91.7060
    5247.0     320.5835       7.0752    -112.0510     273.3018    5233.5317     273.3018      91.0392
    5247.5     320.5487       7.0548    -112.0894     273.3481    5234.0278     273.3481      90.5311
    5248.0     320.5098       7.0415    -112.1277     273.3944    5234.5244     273.3944      86.3951
    5248.5     320.4851       7.0302    -112.1660     273.4409    5235.0205     273.4409      87.9511
    5249.0     320.4770       7.0114    -112.2042     273.4874    5235.5171     273.4874      86.1729
    5249.5     320.4445       6.9936    -112.2424     273.5340    5236.0132     273.5340      91.4123
    5250.0     320.4449       6.9816    -112.2806     273.5807    5236.5098     273.5807      95.6039
    5250.5     320.4185       6.9659    -112.3187     273.6276    5237.0059     273.6276     102.9153
    5251.0     320.3962       6.9535    -112.3567     273.6746    5237.5024     273.6746     109.4328
    5251.5     320.3714       6.9483    -112.3947     273.7217    5237.9985     273.7217     108.4167
    5252.0     320.3492       6.9371    -112.4326     273.7690    5238.4951     273.7690     110.9173
    5252.5     320.3139       6.9331    -112.4706     273.8165    5238.9912     273.8165     106.2177
    5253.0     320.2968       6.9292    -112.5084     273.8641    5239.4878     273.8641     105.3286
    5253.5     320.2542       6.9227    -112.5463     273.9119    5239.9839     273.9119      96.7549
    5254.0     320.2377       6.9187    -112.5841     273.9598    5240.4800     273.9598      87.9908
    5254.5     320.2310       6.9154    -112.6219     274.0079    5240.9766     274.0079      77.4484
    5255.0     320.1978       6.9098    -112.6597     274.0561    5241.4727     274.0561      75.1938
    5255.5     320.1766       6.9032    -112.6974     274.1044    5241.9688     274.1044      74.6381
    5256.0     320.1692       6.9060    -112.7352     274.1528    5242.4648     274.1528      75.6543
    5256.5     320.1777       6.9034    -112.7729     274.2013    5242.9614     274.2013      72.8599
    5257.0     320.1843       6.8976    -112.8107     274.2499    5243.4575     274.2499      67.9777
    5257.5     320.2067       6.9016    -112.8484     274.2985    5243.9536     274.2985      67.8507
    5258.0     320.2262       6.9024    -112.8862     274.3472    5244.4497     274.3472      67.3029
    5258.5     320.2373       6.8996    -112.9239     274.3959    5244.9458     274.3959      71.5977
    5259.0     320.3061       6.9065    -112.9617     274.4446    5245.4424     274.4446      79.7903
    5259.5     320.3679       6.9099    -112.9994     274.4934    5245.9385     274.4934      86.9350
    5260.0     320.4360       6.9086    -113.0371     274.5422    5246.4346     274.5422      96.5882
    5260.5     320.5337       6.9164    -113.0748     274.5910    5246.9307     274.5910     101.7086
    5261.0     320.6154       6.9212    -113.1124     274.6397    5247.4268     274.6397     108.3770
    5261.5     320.7301       6.9273    -113.1501     274.6885    5247.9233     274.6885     109.5201
    5262.0     320.8324       6.9314    -113.1878     274.7372    5248.4194     274.7372     106.9004
    5262.5     320.9481       6.9400    -113.2254     274.7859    5248.9155     274.7859     107.6149
    5263.0     321.0645       6.9479    -113.2631     274.8345    5249.4116     274.8345     104.3124
    5263.5     321.1890       6.9596    -113.3008     274.8831    5249.9077     274.8831      97.8822
    5264.0     321.3136       6.9712    -113.3385     274.9317    5250.4043     274.9317      90.2612
