~VERSION INFORMATION
VERS.           2.0   :CWLS Log ASCII Standard - VERSION 2.0
WRAP.           NO    :One Line per depth step
PROD.  Schlumberger   :LAS Producer
PROG.  DLIS to ASCII 10C0-306                          :LAS Program name and version
CREA.        2002/04/05 15:18                          :LAS Creation date {YYYY/MM/DD hh:mm}
SOURCE.     TLD_MCFL_CNL_007LUP.DLIS                   :DLIS File Name
FILE-ID.     TLD_MCFL_CNL_007LUP                       :File Identification Number
#--------------------------------------------------
~WELL INFORMATION
#MNEM.UNIT      DATA             DESCRIPTION
#---- ------ --------------   -----------------------------
STRT .F         5962.0       :START DEPTH     
STOP .F           44.0       :STOP DEPTH     
STEP .F           -0.5       :STEP     
NULL .          -999.25      :NULL VALUE
COMP .        DEPARTMENT OF ENERGY                     :COMPANY
WELL .        NPR-3 25-1-X-14                          :WELL
FLD  .        NPR-3                                    :FIELD
LOC  .        2301' FSL & 782' FWL                     :LOCATION
CNTY .        NATRONA                                  :COUNTY
STAT .        WYOMING                                  :STATE
CTRY .                                                 :COUNTRY
API  .        4902523047                               :API NUMBER
UWI  .                                                 :UNIQUE WELL ID
DATE .        05-Apr-2002                              :LOG DATE {DD-MMM-YYYY}
SRVC .        Schlumberger                             :SERVICE COMPANY
LATI .DEG                                              :LATITUDE
LONG .DEG                                              :LONGITUDE
GDAT .                                                 :GeoDetic Datum
#-----------------------------------------------------------------------------
~PARAMETER INFORMATION
#MNEM.UNIT    VALUE                      DESCRIPTION
#---- -----   --------------------       ------------------------
RUN  .          1                        :RUN NUMBER
PDAT .        GROUND LEVEL               :Permanent Datum
EPD  .F         5214.799805              :Elevation of Permanent Datum above Mean Sea Level
LMF  .          KELLY BUSHING            :Logging Measured From (Name of Logging Elevation Reference)
APD  .F          10.000000               :Elevation of Depth Reference (LMF) above Permanent Datum
#-----------------------------------------------------------------------------
~CURVE INFORMATION
#MNEM.UNIT   API CODE                                  DESCRIPTION
#---- -----  --------                                  -----------------------
DEPT .F                                                :DEPTH (BOREHOLE) {F10.1}
IHV  .F3                                               :Integrated Hole Volume {F13.4}
ICV  .F3                                               :Integrated Cement Volume {F13.4}
PXND_HILT.CFCF                                         :HILT Porosity CrossPlot {F13.4}
HTEM .DEGF                                             :HTC Temperature {F13.4}
GR   .GAPI                                             :Gamma-Ray {F13.4}
NPHI .CFCF                                             :Thermal Neutron Porosity (Ratio Method) {F13.4}
TNPH .CFCF                                             :Thermal Neutron Porosity {F13.4}
NPOR .CFCF                                             :Enhanced Thermal Neutron Porosity {F13.4}
GDEV .DEG                                              :HGNS Deviation {F13.4}
RT_HRLT.OHMM                                           :HRLT Computed True Resistivity {F13.4}
RXO_HRLT.OHMM                                          :HRLT Computed Invaded Zone Resistivity {F13.4}
RM_HRLT.OHMM                                           :HRLT Mud Resistivity {F13.4}
RLA1 .OHMM                                             :HRLT Borehole Corrected Resistivity 1 {F13.4}
RLA2 .OHMM                                             :HRLT Borehole Corrected Resistivity 2 {F13.4}
RLA3 .OHMM                                             :HRLT Borehole Corrected Resistivity 3 {F13.4}
RLA4 .OHMM                                             :HRLT Borehole Corrected Resistivity 4 {F13.4}
RLA5 .OHMM                                             :HRLT Borehole Corrected Resistivity 5 {F13.4}
HCAL .IN                                               :HRCC Cal. Caliper {F13.4}
HDRA .G/C3                                             :HRDD Density Correction {F13.4}
PEFZ .                                                 :HRDD Standard Resolution Formation Photoelectric Factor {F13.4}
RHOZ .G/C3                                             :HRDD Standard Resolution Formation Density {F13.4}
HMIN .OHMM                                             :MCFL Micro Inverse Resistivity {F13.4}
HMNO .OHMM                                             :MCFL Micro Normal Resistivity {F13.4}
RXOZ .OHMM                                             :MCFL Standard Resolution Invaded Zone Resistivity {F13.4}
HAZ  .F/S2                                             :Z-Axis Acceleration {F13.4}
#-----------------------------------------------------------------------------
# 
#     DEPT        IHV          ICV       PXND_HILT       HTEM         GR           NPHI         TNPH         NPOR         GDEV       RT_HRLT      RXO_HRLT     RM_HRLT        RLA1         RLA2         RLA3         RLA4         RLA5         HCAL         HDRA         PEFZ         RHOZ         HMIN         HMNO         RXOZ         HAZ
#
~A  
# ...
    5566.0     164.3904      62.4372       0.0530     166.2135      62.2512       0.1047       0.1210       0.1121       6.0248      81.3226      28.0278       0.4136      64.3223      68.9130      66.3075      62.6052      72.4925       9.2003       0.0258       3.7472       2.8445      17.1143      15.8080      28.2590      32.0726
    5565.5     164.6223      62.5355       0.0828     166.2135      85.8521       0.1585       0.1644       0.1908       5.9377      54.7149      16.7997       0.4170      34.2988      35.5765      36.1559      37.3847      45.4456       9.2227       0.0262       3.5374       2.8027      11.6852      10.3769      16.6212      32.3928
    5565.0     164.8554      62.6350       0.1053     166.2135      95.0774       0.1987       0.1900       0.2234       5.8776      24.4990      13.6171       0.4225      15.8279      15.9087      16.2149      16.0685      20.5031       9.2450       0.0134       3.3750       2.7466      10.9025       9.6797      13.9596      32.3456
    5564.5     165.0907      62.7367       0.1078     166.2135      95.7447       0.1984       0.1861       0.1978       5.9915      22.6224      12.4418       0.4214      15.3767      14.7447      14.8324      14.9388      18.7363       9.2897       0.0021       3.2976       2.7172      10.1593       9.0182      12.6612      31.6702
    5564.0     165.3227      62.8350       0.1103     166.2135      93.4077       0.1809       0.1894       0.1856       6.0211      24.3898      11.8161       0.4103      15.8527      15.2141      15.3861      15.5515      19.3541       9.2227      -0.0024       3.2524       2.7131       8.8347       7.8378      11.7248      31.5931
    5563.5     165.5501      62.9289       0.1081     166.2135      92.7628       0.1790       0.1845       0.1871       6.0922      25.8075      12.3863       0.4058      16.3925      16.4150      16.5443      16.8769      20.6881       9.1332      -0.0057       3.2251       2.7094       8.5587       7.7401      12.2421      31.7474
    5563.0     165.7765      63.0216       0.1059     166.2135      88.9684       0.1758       0.1795       0.1673       6.2207      25.5752      14.4312       0.4032      16.0675      17.0275      17.0920      17.6662      21.2652       9.1109      -0.0087       3.2027       2.7056      12.0118      10.6677      14.5195      31.8272
    5562.5     166.0029      63.1143       0.1045     166.2135      88.4107       0.1784       0.1750       0.1761       6.1554      27.0113      16.5298       0.4025      16.8835      18.3409      18.7473      19.7710      23.1657       9.1109      -0.0098       3.2096       2.6969      14.9614      13.2968      17.6704      31.9333
    5562.0     166.2276      63.2054       0.1002     166.2135      87.2076       0.1740       0.1697       0.1729       6.0791      32.8704      17.4494       0.4026      18.8797      20.1261      21.4395      22.9887      26.0677       9.0773      -0.0073       3.1816       2.7054      13.5112      12.1706      17.9526      32.3196
    5561.5     166.4506      63.2948       0.0924     166.2135      87.9035       0.1706       0.1589       0.1579       5.9711      34.7266      16.8881       0.4047      18.4792      19.4268      21.7489      23.5685      26.5025       9.0438      -0.0049       3.1571       2.7150      12.0210      10.8183      17.3559      32.1246
    5561.0     166.6736      63.3843       0.0833     166.2135      87.0019       0.1574       0.1449       0.1556       6.0626      35.6945      17.6846       0.4059      18.8283      19.6466      21.6828      24.4128      27.0372       9.0438      -0.0042       3.1571       2.7185      13.9442      12.4473      18.6420      31.7167
    5560.5     166.8989      63.4759       0.0791     166.2135      81.7902       0.1343       0.1370       0.1410       6.1806      34.8111      20.3934       0.4064      19.8954      20.3521      22.3023      25.6614      28.1049       9.0885      -0.0064       3.1897       2.7123      18.2320      16.2139      23.1200      31.8581
    5560.0     167.1230      63.5664       0.0769     166.2135      78.4279       0.1259       0.1340       0.1175       6.3223      31.0816      22.7742       0.4077      20.6835      20.9884      22.8506      26.6407      28.9559       9.0662      -0.0073       3.2007       2.7147      20.3837      18.3383      26.0907      31.9133
    5559.5     167.3472      63.6569       0.0786     166.2135      75.5093       0.1296       0.1373       0.1340       6.2764      36.6321      22.1600       0.4081      21.4500      21.8384      23.6295      27.6620      30.0348       9.0662      -0.0084       3.1798       2.7181      16.9595      15.2639      25.1918      31.6501
    5559.0     167.5714      63.7475       0.0761     166.2135      80.2557       0.1399       0.1357       0.1321       6.0961      34.8473      20.1402       0.4085      20.0107      20.6509      21.7751      25.2802      27.6257       9.0662      -0.0079       3.1130       2.7309      15.3098      13.9127      22.3775      31.5590
    5558.5     167.7933      63.8358       0.0785     166.2135      85.2557       0.1426       0.1390       0.1512       6.0306      36.9574      20.4028       0.4080      21.3749      22.0173      22.7577      26.0441      28.9047       9.0215      -0.0107       3.0894       2.7280      14.3526      13.0849      21.4530      31.6825
    5558.0     168.0147      63.9235       0.0812     166.2135      88.1742       0.1401       0.1450       0.1445       5.9709      38.4755      19.3115       0.4070      22.3363      22.5368      23.7390      26.3306      29.9040       9.0103      -0.0104       3.0794       2.7360      14.1212      12.8109      19.6943      32.3733
    5557.5     168.2366      64.0119       0.0836     166.2135      86.5058       0.1461       0.1482       0.1489       5.9018      36.6027      17.2493       0.4070      21.3831      21.2949      22.5953      24.0242      28.0976       9.0215      -0.0114       3.1656       2.7331      13.2878      11.9682      17.3089      31.8906
    5557.0     168.4586      64.1002       0.0781     166.2135      81.8792       0.1449       0.1413       0.1539       5.9861      29.8964      17.8030       0.4077      19.4614      19.5680      20.7055      21.2747      25.4474       9.0215      -0.0101       3.2926       2.7434      13.1202      11.6550      18.6072      31.5918
    5556.5     168.6816      64.1896       0.0654     166.2135      72.0667       0.1316       0.1257       0.1326       6.0238      23.5928      20.7382       0.4081      19.4683      19.9219      20.4595      20.6474      24.9910       9.0438      -0.0075       3.4615       2.7695      19.4534      17.4701      23.1949      31.5005
    5556.0     168.9035      64.2779       0.0552     166.2135      66.0701       0.1098       0.1168       0.1108       6.0956      25.6666      39.2034       0.4070      24.9227      26.1940      25.1884      25.6243      30.5530       9.0215      -0.0053       3.7042       2.8094      22.2172      20.3857      34.8690      31.8077
    5555.5     169.1222      64.3629       0.0456     166.2135      59.1907       0.1021       0.1075       0.1020       6.1978      23.9958      69.2647       0.4066      27.9874      29.1823      28.8956      28.6907      34.4055       8.9544      -0.0052       3.9685       2.8425      39.1125      34.8904      59.6035      31.8776
    5555.0     169.3441      64.4513       0.0426     166.2135      53.9702       0.0980       0.1033       0.0882       6.3504      25.1956      69.1372       0.4062      28.9194      29.0848      28.5772      28.3239      33.8178       9.0215      -0.0066       4.1246       2.8471     170.6501     153.2200      60.8141      32.0580
    5554.5     169.5661      64.5396       0.0415     166.2135      51.2601       0.1061       0.1006       0.1012       6.1749      28.4986      42.6728       0.4016      30.4162      29.6684      29.0775      28.8788      34.5644       9.0215      -0.0059       4.0626       2.8433      22.7950      20.7625      42.4412      31.8418
