~VERSION INFORMATION
VERS.           2.0   :CWLS Log ASCII Standard - VERSION 2.0
WRAP.           NO    :One Line per depth step
PROD.  Schlumberger   :LAS Producer
PROG.  DLIS to ASCII 10C0-306                          :LAS Program name and version
CREA.        2002/04/05 15:26                          :LAS Creation date {YYYY/MM/DD hh:mm}
SOURCE.     SONIC_063PUP.DLIS                          :DLIS File Name
FILE-ID.     SONIC_063PUP                              :File Identification Number
#--------------------------------------------------
~WELL INFORMATION
#MNEM.UNIT      DATA             DESCRIPTION
#---- ------ --------------   -----------------------------
STRT .F         5958.0       :START DEPTH     
STOP .F          675.5       :STOP DEPTH     
STEP .F           -0.5       :STEP     
NULL .          -999.25      :NULL VALUE
COMP .        DEPARTMENT OF ENERGY                     :COMPANY
WELL .        NPR-3 25-1-X-14                          :WELL
FLD  .        NPR-3                                    :FIELD
LOC  .        2301' FSL & 782' FWL                     :LOCATION
CNTY .        NATRONA                                  :COUNTY
STAT .        WYOMING                                  :STATE
CTRY .                                                 :COUNTRY
API  .        4902523047                               :API NUMBER
UWI  .                                                 :UNIQUE WELL ID
DATE .        05-Apr-2002                              :LOG DATE {DD-MMM-YYYY}
SRVC .        Schlumberger                             :SERVICE COMPANY
LATI .DEG                                              :LATITUDE
LONG .DEG                                              :LONGITUDE
GDAT .                                                 :GeoDetic Datum
#-----------------------------------------------------------------------------
~PARAMETER INFORMATION
#MNEM.UNIT    VALUE                      DESCRIPTION
#---- -----   --------------------       ------------------------
RUN  .          1                        :RUN NUMBER
PDAT .        GROUND LEVEL               :Permanent Datum
EPD  .F         5214.799805              :Elevation of Permanent Datum above Mean Sea Level
LMF  .          KELLY BUSHING            :Logging Measured From (Name of Logging Elevation Reference)
APD  .F          10.000000               :Elevation of Depth Reference (LMF) above Permanent Datum
#-----------------------------------------------------------------------------
~CURVE INFORMATION
#MNEM.UNIT   API CODE                                  DESCRIPTION
#---- -----  --------                                  -----------------------
DEPT .F                                                :DEPTH (BOREHOLE) {F10.1}
GR   .GAPI                                             :Gamma-Ray {F13.4}
ITT  .S                                                :Integrated Transit Time {F13.4}
SPHI .CFCF                                             :Sonic Porosity {F13.4}
SVEL .FT/S                                             :Sonic Velocity {F13.4}
DT   .US/F                                             :Delta-T {F13.4}
#-----------------------------------------------------------------------------
# 
#     DEPT        GR           ITT          SPHI         SVEL         DT
#
~A  
# ...
    2831.0      55.2523       0.2390       0.1723   13329.7412      75.0202
    2830.5      59.0628       0.2390       0.1705   13372.6016      74.7798
    2830.0      56.2050       0.2390       0.1680   13433.7061      74.4396
    2829.5      56.9194       0.2391       0.1688   13414.2012      74.5479
    2829.0      54.2997       0.2391       0.1670   13460.8623      74.2894
    2828.5      58.9948       0.2391       0.1688   13413.7676      74.5503
    2828.0      62.5671       0.2392       0.1701   13382.3398      74.7253
    2827.5      59.9474       0.2392       0.1614   13599.7139      73.5310
    2827.0      51.6800       0.2393       0.1625   13573.4658      73.6731
    2826.5      45.4879       0.2393       0.1635   13548.5693      73.8085
    2826.0      50.9655       0.2393       0.1591   13659.2109      73.2107
    2825.5      56.6813       0.2394       0.1638   13538.8584      73.8615
    2825.0      62.3970       0.2394       0.1641   13531.2129      73.9032
    2824.5      56.4431       0.2394       0.1680   13434.3262      74.4362
    2824.0      54.7760       0.2395       0.1702   13380.5586      74.7353
    2823.5      53.4151       0.2395       0.1715   13347.2012      74.9221
    2823.0      54.4207       0.2396       0.1699   13388.1875      74.6927
    2822.5      53.1959       0.2396       0.1665   13472.7520      74.2239
    2822.0      49.3173       0.2396       0.1538   13796.7578      72.4808
    2821.5      47.5633       0.2397       0.1288   14485.7363      69.0334
    2821.0      44.0249       0.2397       0.1097   15060.3047      66.3997
    2820.5      46.1684       0.2397       0.1147   14904.2012      67.0952
    2820.0      44.2971       0.2398       0.1266   14550.1191      68.7280
    2819.5      48.9242       0.2398       0.1490   13923.6846      71.8201
    2819.0      45.1137       0.2398       0.1669   13461.6436      74.2851
    2818.5      46.0663       0.2399       0.1740   13287.0752      75.2611
    2818.0      42.6300       0.2399       0.1686   13418.9756      74.5213
    2817.5      42.1877       0.2399       0.1688   13415.9932      74.5379
    2817.0      47.6653       0.2400       0.1672   13454.7275      74.3233
    2816.5      48.3798       0.2400       0.1650   13510.7656      74.0151
    2816.0      51.2037       0.2401       0.1629   13563.5146      73.7272
    2815.5      45.0116       0.2401       0.1632   13554.9180      73.7740
    2815.0      46.9169       0.2401       0.1656   13494.9980      74.1015
    2814.5      45.2498       0.2402       0.1651   13508.4297      74.0278
    2814.0      47.9715       0.2402       0.1615   13599.1904      73.5338
    2813.5      46.0663       0.2402       0.1582   13683.8242      73.0790
    2813.0      54.6399       0.2403       0.1608   13616.7471      73.4390
    2812.5      65.9694       0.2403       0.1686   13419.5645      74.5181
    2812.0      75.2234       0.2404       0.1740   13286.5498      75.2641
    2811.5      79.0340       0.2404       0.1807   13127.2422      76.1775
    2811.0      81.1774       0.2404       0.1781   13188.3760      75.8243
    2810.5      83.8311       0.2405       0.1774   13205.7373      75.7247
    2810.0      83.8991       0.2405       0.1757   13246.6982      75.4905
    2809.5      70.0861       0.2405       0.1775   13203.9229      75.7351
    2809.0      58.4164       0.2406       0.1815   13107.7822      76.2906
    2808.5      50.5232       0.2406       0.1806   13128.6084      76.1695
    2808.0      58.8587       0.2407       0.1789   13169.4229      75.9335
    2807.5      65.0508       0.2407       0.1769   13218.2480      75.6530
    2807.0      68.5891       0.2407       0.1653   13502.4492      74.0606
    2806.5      68.5891       0.2408       0.1667   13467.7754      74.2513
    2806.0      67.1601       0.2408       0.1704   13376.2461      74.7594
    2805.5      63.5878       0.2408       0.1725   13323.2607      75.0567
    2805.0      63.7579       0.2409       0.1839   13050.3721      76.6262
    2804.5      70.6645       0.2409       0.1885   12942.7822      77.2631
    2804.0      72.8079       0.2410       0.1868   12984.0781      77.0174
    2803.5      71.9233       0.2410       0.1740   13286.1260      75.2665
    2803.0      73.3522       0.2410       0.1745   13275.9229      75.3243
    2802.5      78.3535       0.2411       0.1749   13266.5684      75.3774
    2802.0      75.9719       0.2411       0.1652   13505.6104      74.0433
    2801.5      68.8272       0.2411       0.1430   14086.3496      70.9907
    2801.0      59.2670       0.2412       0.1162   14858.1230      67.3033
    2800.5      58.5525       0.2412       0.0813   16001.1504      62.4955
    2800.0      55.3544       0.2412       0.0566   16923.0410      59.0910
    2799.5      57.5318       0.2413       0.0605   16769.9492      59.6305
    2799.0      60.3897       0.2413       0.0818   15984.5928      62.5602
    2798.5      68.1128       0.2413       0.1213   14706.0244      67.9993
    2798.0      72.1614       0.2414       0.1458   14011.2314      71.3713
    2797.5      74.5430       0.2414       0.1687   13416.4150      74.5356
    2797.0      73.0800       0.2414       0.1805   13131.3037      76.1539
    2796.5      73.5564       0.2415       0.1807   13126.1289      76.1839
    2796.0      69.8479       0.2415       0.1839   13052.0068      76.6166
    2795.5      67.9767       0.2416       0.1928   12844.7637      77.8527
    2795.0      63.6899       0.2416       0.1986   12714.3721      78.6512
    2794.5      58.5865       0.2416       0.1993   12698.8174      78.7475
    2794.0      52.1563       0.2417       0.1954   12786.9980      78.2044
    2793.5      45.3858       0.2417       0.1836   13057.0781      76.5868
    2793.0      51.5779       0.2418       0.1779   13193.3594      75.7957
    2792.5      55.8647       0.2418       0.1810   13118.1396      76.2303
    2792.0      65.6632       0.2418       0.1819   13098.6299      76.3439
    2791.5      65.1869       0.2419       0.1939   12820.4639      78.0003
    2791.0      72.8079       0.2419       0.2158   12343.3008      81.0156
    2790.5      78.5236       0.2420       0.2292   12068.5635      82.8599
    2790.0      86.3828       0.2420       0.2432   11793.6729      84.7912
    2789.5      91.3841       0.2420       0.2676   11343.7676      88.1541
    2789.0      97.6442       0.2421       0.2646   11397.6240      87.7376
    2788.5      92.4388       0.2421       0.2635   11417.2178      87.5870
    2788.0      92.2006       0.2422       0.2529   11611.1885      86.1238
    2787.5      92.4388       0.2422       0.2473   11716.0645      85.3529
    2787.0      95.0245       0.2423       0.2530   11609.5898      86.1357
    2786.5      92.6429       0.2423       0.2554   11565.2129      86.4662
    2786.0      86.4508       0.2423       0.2559   11556.0625      86.5347
    2785.5      93.5955       0.2424       0.2527   11614.6016      86.0985
    2785.0      93.5955       0.2424       0.2618   11448.6348      87.3467
    2784.5      93.5615       0.2425       0.2464   11732.3213      85.2346
    2784.0      89.2747       0.2425       0.2403   11850.2695      84.3863
    2783.5      94.9904       0.2426       0.2388   11879.7451      84.1769
    2783.0     103.1558       0.2426       0.2376   11901.4395      84.0235
    2782.5      99.3453       0.2426       0.2377   11900.5361      84.0298
    2782.0      98.8690       0.2427       0.2364   11926.2695      83.8485
    2781.5      92.8810       0.2427       0.2381   11891.7988      84.0916
    2781.0      98.3246       0.2428       0.2439   11780.0859      84.8890
    2780.5      97.3720       0.2428       0.2463   11734.0635      85.2220
    2780.0     101.8969       0.2429       0.2472   11718.3428      85.3363
    2779.5     104.6187       0.2429       0.2451   11758.0020      85.0485
    2779.0     107.2385       0.2429       0.2451   11757.5439      85.0518
    2778.5     111.5253       0.2430       0.2443   11773.9541      84.9332
