~VERSION INFORMATION
VERS.           2.0   :CWLS Log ASCII Standard - VERSION 2.0
WRAP.           NO    :One Line per depth step
PROD.  Schlumberger   :LAS Producer
PROG.  DLIS to ASCII 10C0-306                          :LAS Program name and version
CREA.        2002/04/05 15:18                          :LAS Creation date {YYYY/MM/DD hh:mm}
SOURCE.     TLD_MCFL_CNL_007LUP.DLIS                   :DLIS File Name
FILE-ID.     TLD_MCFL_CNL_007LUP                       :File Identification Number
#--------------------------------------------------
~WELL INFORMATION
#MNEM.UNIT      DATA             DESCRIPTION
#---- ------ --------------   -----------------------------
STRT .F         5962.0       :START DEPTH     
STOP .F           44.0       :STOP DEPTH     
STEP .F           -0.5       :STEP     
NULL .          -999.25      :NULL VALUE
COMP .        DEPARTMENT OF ENERGY                     :COMPANY
WELL .        NPR-3 25-1-X-14                          :WELL
FLD  .        NPR-3                                    :FIELD
LOC  .        2301' FSL & 782' FWL                     :LOCATION
CNTY .        NATRONA                                  :COUNTY
STAT .        WYOMING                                  :STATE
CTRY .                                                 :COUNTRY
API  .        4902523047                               :API NUMBER
UWI  .                                                 :UNIQUE WELL ID
DATE .        05-Apr-2002                              :LOG DATE {DD-MMM-YYYY}
SRVC .        Schlumberger                             :SERVICE COMPANY
LATI .DEG                                              :LATITUDE
LONG .DEG                                              :LONGITUDE
GDAT .                                                 :GeoDetic Datum
#-----------------------------------------------------------------------------
~PARAMETER INFORMATION
#MNEM.UNIT    VALUE                      DESCRIPTION
#---- -----   --------------------       ------------------------
RUN  .          1                        :RUN NUMBER
PDAT .        GROUND LEVEL               :Permanent Datum
EPD  .F         5214.799805              :Elevation of Permanent Datum above Mean Sea Level
LMF  .          KELLY BUSHING            :Logging Measured From (Name of Logging Elevation Reference)
APD  .F          10.000000               :Elevation of Depth Reference (LMF) above Permanent Datum
#-----------------------------------------------------------------------------
~CURVE INFORMATION
#MNEM.UNIT   API CODE                                  DESCRIPTION
#---- -----  --------                                  -----------------------
DEPT .F                                                :DEPTH (BOREHOLE) {F10.1}
IHV  .F3                                               :Integrated Hole Volume {F13.4}
ICV  .F3                                               :Integrated Cement Volume {F13.4}
PXND_HILT.CFCF                                         :HILT Porosity CrossPlot {F13.4}
HTEM .DEGF                                             :HTC Temperature {F13.4}
GR   .GAPI                                             :Gamma-Ray {F13.4}
NPHI .CFCF                                             :Thermal Neutron Porosity (Ratio Method) {F13.4}
TNPH .CFCF                                             :Thermal Neutron Porosity {F13.4}
NPOR .CFCF                                             :Enhanced Thermal Neutron Porosity {F13.4}
GDEV .DEG                                              :HGNS Deviation {F13.4}
RT_HRLT.OHMM                                           :HRLT Computed True Resistivity {F13.4}
RXO_HRLT.OHMM                                          :HRLT Computed Invaded Zone Resistivity {F13.4}
RM_HRLT.OHMM                                           :HRLT Mud Resistivity {F13.4}
RLA1 .OHMM                                             :HRLT Borehole Corrected Resistivity 1 {F13.4}
RLA2 .OHMM                                             :HRLT Borehole Corrected Resistivity 2 {F13.4}
RLA3 .OHMM                                             :HRLT Borehole Corrected Resistivity 3 {F13.4}
RLA4 .OHMM                                             :HRLT Borehole Corrected Resistivity 4 {F13.4}
RLA5 .OHMM                                             :HRLT Borehole Corrected Resistivity 5 {F13.4}
HCAL .IN                                               :HRCC Cal. Caliper {F13.4}
HDRA .G/C3                                             :HRDD Density Correction {F13.4}
PEFZ .                                                 :HRDD Standard Resolution Formation Photoelectric Factor {F13.4}
RHOZ .G/C3                                             :HRDD Standard Resolution Formation Density {F13.4}
HMIN .OHMM                                             :MCFL Micro Inverse Resistivity {F13.4}
HMNO .OHMM                                             :MCFL Micro Normal Resistivity {F13.4}
RXOZ .OHMM                                             :MCFL Standard Resolution Invaded Zone Resistivity {F13.4}
HAZ  .F/S2                                             :Z-Axis Acceleration {F13.4}
#-----------------------------------------------------------------------------
# 
#     DEPT        IHV          ICV       PXND_HILT       HTEM         GR           NPHI         TNPH         NPOR         GDEV       RT_HRLT      RXO_HRLT     RM_HRLT        RLA1         RLA2         RLA3         RLA4         RLA5         HCAL         HDRA         PEFZ         RHOZ         HMIN         HMNO         RXOZ         HAZ
#
~A  
# ...
      58.0    3012.4612    1617.3704       0.6509     111.9579      42.7572       0.6985       0.6694       0.6692       2.0119       0.0817       0.0817       0.3378       0.0981       0.0984       0.0932       0.0866       0.0817       2.5610       0.1319       8.7264       1.6021       0.4483       0.3385       0.3837      32.1207
      57.5    3012.4612    1617.3704       0.6925     111.9579      35.6145       0.7269       0.7914       0.7678       1.9347       0.0841       0.0841       0.3380       0.1001       0.1004       0.0965       0.0895       0.0841       2.5684       0.1353       8.7317       1.6104       0.4409       0.3352       0.3837      32.1196
      57.0    3012.4612    1617.3704       0.6126     111.9579      33.7071       0.7722       0.6093       0.6241       1.9342       0.0833       0.0833       0.3413       0.0990       0.0988       0.0954       0.0885       0.0833       2.5684       0.1418       8.7103       1.6315       0.4329       0.3338       0.3845      32.0010
      56.5    3012.4612    1617.3704       0.5949     111.9579      31.9243       0.7004       0.5835       0.5446       1.9124       0.0858       0.0858       0.3457       0.1032       0.1028       0.0987       0.0915       0.0858       2.5665       0.1457       8.6560       1.6485       0.4369       0.3356       0.3849      32.1539
      56.0    3012.4612    1617.3704       0.5861     111.9579      34.0636       0.7065       0.5604       0.5944       1.9319       0.0841       0.0841       0.3510       0.1006       0.1004       0.0964       0.0895       0.0841       2.5699       0.1429       8.6239       1.6416       0.4501       0.3392       0.3858      31.7539
      55.5    3012.4612    1617.3704       0.6277     111.9579      39.2704       0.6653       0.6321       0.6356       1.8589       0.0827       0.0827       0.3559       0.0993       0.0991       0.0953       0.0884       0.0827       2.5673       0.1370       8.6082       1.6199       0.4431       0.3377       0.3866      32.3964
      55.0    3012.4612    1617.3704       0.6160     111.9579      43.8038       0.7186       0.5975       0.5767       1.8553       0.0853       0.0853       0.3581       0.1011       0.1012       0.0979       0.0909       0.0853       2.5673       0.1311       8.5995       1.6016       0.4477       0.3408       0.3882      31.9361
      54.5    3012.4612    1617.3704       0.6072     111.9579      45.2617       0.6950       0.5803       0.6088       1.9010       0.0847       0.0847       0.3594       0.0999       0.0995       0.0973       0.0904       0.0847       2.5647       0.1295       8.6079       1.6035       0.4469       0.3388       0.3865      31.9872
      54.0    3012.4612    1617.3704       0.5731     111.9579      46.4860       0.6754       0.5183       0.5092       1.9054       0.0857       0.0857       0.3585       0.1016       0.0993       0.0984       0.0915       0.0857       2.5668       0.1328       8.6671       1.6207       0.4412       0.3355       0.3829      32.1563
      53.5    3012.4612    1617.3704       0.5792     111.9579      46.6567       0.6287       0.5541       0.5408       1.8226       0.0834       0.0834       0.3646       0.0975       0.0968       0.0955       0.0888       0.0834       2.5610       0.1428       8.7695       1.6539       0.4277       0.3257       0.3714      32.1287
      53.0    3012.4612    1617.3704       0.5544     111.9579      47.3104       0.6624       0.5276       0.5474       1.9329       0.0872       0.0872       0.3615       0.1028       0.1006       0.0996       0.0930       0.0872       2.5721       0.1553       8.8907       1.6940       0.4160       0.3131       0.3594      32.1614
      52.5    3012.4612    1617.3704       0.5421     111.9579      45.2530       0.6411       0.5299       0.5159       1.9499       0.0761       0.3217       0.3549       0.1044       0.1005       0.1004       0.0938       0.0876       2.5833       0.1681       9.0476       1.7355       0.4174       0.3111       0.3500      32.1664
      52.0    3012.4612    1617.3704       0.5097     111.9579      44.5735       0.6518       0.4859       0.4760       1.9276       0.0870       0.0870       0.3522       0.1026       0.1005       0.0997       0.0930       0.0870       2.5684       0.1794       9.2398       1.7745       0.4047       0.3044       0.3439      31.9559
      51.5    3012.4612    1617.3704       0.5005     111.9579      42.2536       0.6056       0.4976       0.4973       1.9756       0.0863       0.0863       0.3479       0.1034       0.1020       0.0996       0.0927       0.0863       2.5759       0.1900       9.4462       1.8173       0.4036       0.2996       0.3387      32.1326
      51.0    3012.4612    1617.3704       0.4840     111.5986      41.4459       0.6225       0.4948       0.5172       2.0562       0.0834       0.0834       0.3506       0.1000       0.1004       0.0961       0.0891       0.0834       2.5833       0.1975       9.6338       1.8609       0.4065       0.2988       0.3317      32.0065
      50.5    3012.4612    1617.3704       0.4708     111.5986      38.7868       0.6004       0.4978       0.5049       2.0789       0.0822       0.0822       0.3504       0.0994       0.0993       0.0941       0.0875       0.0822       2.5684       0.2033       9.8083       1.9024       0.4000       0.2932       0.3262      31.9924
      50.0    3012.4612    1617.3704       0.4559     111.5986      41.9109       0.5964       0.4938       0.4756       2.0009       0.0806       0.0806       0.3521       0.0995       0.0993       0.0931       0.0864       0.0806       2.5665       0.2102       9.9306       1.9402       0.4015       0.2898       0.3185      32.1015
      49.5    3012.4612    1617.3704       0.4465     111.5986      43.1410       0.5996       0.4966       0.4933       2.0754       0.0821       0.0821       0.3526       0.1016       0.1012       0.0948       0.0880       0.0821       2.5759       0.2155       9.9928       1.9720       0.3994       0.2864       0.3145      32.1252
      49.0    3012.4612    1617.3704       0.4465     111.5986      46.8673       0.6094       0.5100       0.5147       2.0476       0.0784       0.0784       0.3502       0.0953       0.0947       0.0897       0.0836       0.0784       2.5610       0.2198      10.0000       1.9920       0.4052       0.2887       0.3132      32.0827
      48.5    3012.4612    1617.3704       0.4465     111.5986      46.2424       0.6307       0.5002       0.4957       2.0661       0.0759       0.0759       0.3490       0.0921       0.0909       0.0863       0.0805       0.0759       2.5721       0.2198      10.0000       1.9920       0.4101       0.2910       0.3139      32.0273
      48.0    3012.4612    1617.3704       0.4465     111.5986      47.3077       0.6167       0.5227       0.5466       2.0806       0.0467       0.2714       0.3368       0.1063       0.1053       0.1019       0.0948       0.0891       2.5721       0.2198      10.0000       1.9920       0.4164       0.2929       0.3134      32.2479
      47.5    3012.4612    1617.3704       0.4465     111.5986      44.0977       0.6234       0.5230       0.5205       2.0955       0.0873       0.0873       0.3330       0.1033       0.1016       0.1000       0.0930       0.0873       2.5665       0.2198      10.0000       1.9920       0.4150       0.2915       0.3117      32.0385
      47.0    3012.4612    1617.3704       0.4465     111.5986      45.1702       0.6295       0.5306       0.4921       2.0115       0.0845       0.0845       0.3373       0.0978       0.0981       0.0959       0.0893       0.0845       2.5665       0.2198      10.0000       1.9920       0.4110       0.2885       0.3095      32.1574
      46.5    3012.4612    1617.3704       0.4465     111.5986      44.7240       0.6623       0.5288       0.5241       2.0590       0.0561       0.2741       0.3318       0.1063       0.1034       0.1018       0.0949       0.0891       2.5721       0.2198      10.0000       1.9920       0.4099       0.2880       0.3085      32.0798
