~VERSION INFORMATION
VERS.           2.0   :CWLS Log ASCII Standard - VERSION 2.0
WRAP.           NO    :One Line per depth step
PROD.  Schlumberger   :LAS Producer
PROG.  DLIS to ASCII 10C0-306                          :LAS Program name and version
CREA.        2002/04/05 15:18                          :LAS Creation date {YYYY/MM/DD hh:mm}
SOURCE.     TLD_MCFL_CNL_007LUP.DLIS                   :DLIS File Name
FILE-ID.     TLD_MCFL_CNL_007LUP                       :File Identification Number
#--------------------------------------------------
~WELL INFORMATION
#MNEM.UNIT      DATA             DESCRIPTION
#---- ------ --------------   -----------------------------
STRT .F         5962.0       :START DEPTH     
STOP .F           44.0       :STOP DEPTH     
STEP .F           -0.5       :STEP     
NULL .          -999.25      :NULL VALUE
COMP .        DEPARTMENT OF ENERGY                     :COMPANY
WELL .        NPR-3 25-1-X-14                          :WELL
FLD  .        NPR-3                                    :FIELD
LOC  .        2301' FSL & 782' FWL                     :LOCATION
CNTY .        NATRONA                                  :COUNTY
STAT .        WYOMING                                  :STATE
CTRY .                                                 :COUNTRY
API  .        4902523047                               :API NUMBER
UWI  .                                                 :UNIQUE WELL ID
DATE .        05-Apr-2002                              :LOG DATE {DD-MMM-YYYY}
SRVC .        Schlumberger                             :SERVICE COMPANY
LATI .DEG                                              :LATITUDE
LONG .DEG                                              :LONGITUDE
GDAT .                                                 :GeoDetic Datum
#-----------------------------------------------------------------------------
~PARAMETER INFORMATION
#MNEM.UNIT    VALUE                      DESCRIPTION
#---- -----   --------------------       ------------------------
RUN  .          1                        :RUN NUMBER
PDAT .        GROUND LEVEL               :Permanent Datum
EPD  .F         5214.799805              :Elevation of Permanent Datum above Mean Sea Level
LMF  .          KELLY BUSHING            :Logging Measured From (Name of Logging Elevation Reference)
APD  .F          10.000000               :Elevation of Depth Reference (LMF) above Permanent Datum
#-----------------------------------------------------------------------------
~CURVE INFORMATION
#MNEM.UNIT   API CODE                                  DESCRIPTION
#---- -----  --------                                  -----------------------
DEPT .F                                                :DEPTH (BOREHOLE) {F10.1}
IHV  .F3                                               :Integrated Hole Volume {F13.4}
ICV  .F3                                               :Integrated Cement Volume {F13.4}
PXND_HILT.CFCF                                         :HILT Porosity CrossPlot {F13.4}
HTEM .DEGF                                             :HTC Temperature {F13.4}
GR   .GAPI                                             :Gamma-Ray {F13.4}
NPHI .CFCF                                             :Thermal Neutron Porosity (Ratio Method) {F13.4}
TNPH .CFCF                                             :Thermal Neutron Porosity {F13.4}
NPOR .CFCF                                             :Enhanced Thermal Neutron Porosity {F13.4}
GDEV .DEG                                              :HGNS Deviation {F13.4}
RT_HRLT.OHMM                                           :HRLT Computed True Resistivity {F13.4}
RXO_HRLT.OHMM                                          :HRLT Computed Invaded Zone Resistivity {F13.4}
RM_HRLT.OHMM                                           :HRLT Mud Resistivity {F13.4}
RLA1 .OHMM                                             :HRLT Borehole Corrected Resistivity 1 {F13.4}
RLA2 .OHMM                                             :HRLT Borehole Corrected Resistivity 2 {F13.4}
RLA3 .OHMM                                             :HRLT Borehole Corrected Resistivity 3 {F13.4}
RLA4 .OHMM                                             :HRLT Borehole Corrected Resistivity 4 {F13.4}
RLA5 .OHMM                                             :HRLT Borehole Corrected Resistivity 5 {F13.4}
HCAL .IN                                               :HRCC Cal. Caliper {F13.4}
HDRA .G/C3                                             :HRDD Density Correction {F13.4}
PEFZ .                                                 :HRDD Standard Resolution Formation Photoelectric Factor {F13.4}
RHOZ .G/C3                                             :HRDD Standard Resolution Formation Density {F13.4}
HMIN .OHMM                                             :MCFL Micro Inverse Resistivity {F13.4}
HMNO .OHMM                                             :MCFL Micro Normal Resistivity {F13.4}
RXOZ .OHMM                                             :MCFL Standard Resolution Invaded Zone Resistivity {F13.4}
HAZ  .F/S2                                             :Z-Axis Acceleration {F13.4}
#-----------------------------------------------------------------------------
# 
#     DEPT        IHV          ICV       PXND_HILT       HTEM         GR           NPHI         TNPH         NPOR         GDEV       RT_HRLT      RXO_HRLT     RM_HRLT        RLA1         RLA2         RLA3         RLA4         RLA5         HCAL         HDRA         PEFZ         RHOZ         HMIN         HMNO         RXOZ         HAZ
#
~A  
# ...
    2026.0    2049.3037    1001.3246       0.2017     134.5944     121.4514       0.3000       0.3054       0.3068       4.2449       7.6760       7.2810       0.6216       8.1238       7.8124       7.7157       7.6264       7.6784      11.1228      -0.0041       3.4654       2.5421       5.7228       5.0613       7.2352      32.0467
    2025.5    2049.6384    1001.5257       0.1965     134.5944     117.2363       0.2979       0.2927       0.2732       4.3041       7.9239       7.3331       0.6217       8.3307       8.0242       7.9518       7.8605       7.9238      11.0781      -0.0062       3.4640       2.5375       5.8024       5.1319       7.2931      31.7149
    2025.0    2049.9731    1001.7267       0.1991     134.5944     114.8206       0.2978       0.2954       0.2971       4.3673       7.9281       7.2067       0.6245       8.3186       7.9841       7.9546       7.8830       7.9195      11.0781      -0.0084       3.4503       2.5311       5.7530       5.0881       7.1746      32.1117
    2024.5    2050.3064    1001.9265       0.2066     134.5944     109.2859       0.2996       0.3098       0.3355       4.2198       7.8436       7.0219       0.6256       8.2248       7.8529       7.8192       7.8251       7.8261      11.0557      -0.0091       3.4431       2.5289       5.4928       4.8573       6.9897      32.3757
    2024.0    2050.6384    1002.1248       0.2046     134.5944     117.8789       0.3038       0.3083       0.2986       4.2789       7.7531       6.8547       0.6239       8.1365       7.7239       7.6667       7.7187       7.7197      11.0334       0.0030       3.4428       2.5348       5.4044       4.7789       6.8253      31.7702
    2023.5    2050.9690    1002.3218       0.1997     134.2350     120.3368       0.3027       0.2977       0.2885       4.2797       7.8005       6.9555       0.6209       8.1986       7.7318       7.7466       7.7720       7.7681      11.0110       0.0038       3.4940       2.5342       5.4041       4.7787       6.9280      32.0710
    2023.0    2051.2996    1002.5189       0.1999     134.5944     125.8715       0.2950       0.2967       0.3018       4.4570       8.0179       7.0245       0.6196       8.3075       7.8259       7.9098       7.9071       7.9049      11.0110       0.0032       3.5815       2.5310       5.8647       5.1871       6.9880      31.5802
    2022.5    2051.6274    1002.7132       0.2062     134.2350     126.7653       0.2966       0.3037       0.3056       4.3065       8.6549       7.2205       0.6178       8.7817       8.3503       8.4369       8.4348       8.4571      10.9663      -0.0090       3.6994       2.5174       5.7191       5.0580       7.2317      32.2581
    2022.0    2051.9568    1002.9089       0.2044     134.2350     131.3953       0.3009       0.2975       0.2999       4.2273       8.7951       7.3678       0.6173       8.8723       8.6354       8.6117       8.6011       8.6051      10.9887      -0.0099       3.7563       2.5107       6.0001       5.3072       7.3297      31.7881
    2021.5    2052.2854    1003.1039       0.2013     134.2350     129.4760       0.2916       0.2887       0.2879       4.4879       8.7352       7.5589       0.6172       8.9739       8.7367       8.6904       8.6720       8.6789      10.9775      -0.0029       3.7603       2.5035       5.9986       5.3060       7.5254      31.9702
    2021.0    2052.6133    1003.2982       0.2100     134.2350     126.8570       0.2860       0.2992       0.2807       4.4013       8.7446       7.4946       0.6161       9.1813       8.7585       8.6967       8.6845       8.6779      10.9663      -0.0009       3.7088       2.4881       5.9051       5.2230       7.4643      32.1312
    2020.5    2052.9399    1003.4912       0.2196     134.2350     124.9808       0.3150       0.3196       0.3149       4.2154       9.5946       4.4811       0.6062       8.9621       8.5033       8.4631       8.4537       8.4690      10.9440       0.0083       3.6633       2.4910       4.0885       3.7465       4.5392      32.0304
    2020.0    2053.2666    1003.6842       0.2292     134.2350     122.8357       0.3371       0.3371       0.3777       4.3331       6.7922       4.4758       0.6005       7.1369       6.6321       6.6110       6.6104       6.6939      10.9440       0.0051       3.6180       2.4851       2.3107       2.1777       4.4435      31.8304
    2019.5    2053.5918    1003.8759       0.2157     134.2350     127.2710       0.3306       0.3180       0.3284       4.4131       4.6187       4.6462       0.6049       4.9659       4.6588       4.6188       4.5936       4.5808      10.9216       0.0058       3.5779       2.5052       5.3905       4.7665       4.4274      31.7292
    2019.0    2053.9170    1004.0675       0.2058     134.2350     123.3255       0.3022       0.2999       0.2752       4.1727       7.8261       6.8296       0.5954       8.2260       7.8167       7.7825       7.7769       7.7820      10.9216      -0.0036       3.5376       2.5100       5.4565       4.8251       6.7971      32.4272
    2018.5    2054.2410    1004.2578       0.2088     134.2350     126.5164       0.2881       0.3109       0.3258       4.3170       8.3683       6.6623       0.5973       8.5950       8.2185       8.1483       8.1050       8.1031      10.8993      -0.0080       3.5193       2.5212       5.3644       4.7434       6.6346      31.9133
    2018.0    2054.5649    1004.4481       0.2058     134.2350     125.2239       0.2974       0.3049       0.2967       4.5230       8.0737       6.5873       0.6123       8.1571       7.9559       7.9024       7.8347       7.8657      10.8993      -0.0103       3.5161       2.5219       5.1858       4.5850       6.5477      31.6206
    2017.5    2054.8875    1004.6371       0.2056     134.2350     130.2292       0.3015       0.3069       0.2952       4.4444       7.7682       6.5096       0.6142       7.7671       7.6617       7.6151       7.5719       7.6133      10.8769      -0.0078       3.5009       2.5272       5.2435       4.6362       6.4662      32.1735
    2017.0    2055.2100    1004.8262       0.2070     134.2350     131.9365       0.3064       0.3093       0.3192       4.0068       8.1963       5.7925       0.6106       7.9316       7.6898       7.7193       7.6791       7.7498      10.8769      -0.0071       3.4783       2.5262       5.1725       4.5732       5.8626      32.3917
    2016.5    2055.5313    1005.0139       0.2048     134.2350     130.6984       0.3073       0.3048       0.3164       4.3756       7.4008       5.8288       0.6104       7.3109       7.0150       7.1152       7.0934       7.1475      10.8545      -0.0073       3.4087       2.5263       4.3331       3.8290       5.9021      31.5848
    2016.0    2055.8525    1005.2015       0.2007     134.2350     128.3878       0.2942       0.2966       0.2979       4.4975       6.4837       5.9046       0.6127       6.6844       6.4096       6.4527       6.4403       6.4750      10.8545      -0.0085       3.3310       2.5268       5.2821       4.6704       5.8725      31.5425
    2015.5    2056.1726    1005.3879       0.1914     134.2350     122.5362       0.2827       0.2827       0.2692       4.2533       7.5601       6.6571       0.6099       7.7709       7.4837       7.4986       7.5136       7.5197      10.8322      -0.0071       3.2722       2.5375       5.1494       4.5527       6.6383      31.9263
    2015.0    2056.4939    1005.5756       0.1919     134.2350     116.1026       0.2784       0.2878       0.2787       4.5065       7.6622       6.2909       0.6108       7.7721       7.4560       7.4233       7.4569       7.4667      10.8545      -0.0047       3.2778       2.5481       5.4010       4.7759       6.2875      32.2386
    2014.5    2056.8179    1005.7659       0.2036     134.2350     111.9384       0.2901       0.3089       0.3272       4.3031       7.4128       6.4746       0.6117       7.6357       7.4122       7.3673       7.3735       7.3716      10.8993      -0.0053       3.3533       2.5409       4.8206       4.2611       6.4405      31.4286
