~VERSION INFORMATION
VERS.           2.0   :CWLS Log ASCII Standard - VERSION 2.0
WRAP.           NO    :One Line per depth step
PROD.  Schlumberger   :LAS Producer
PROG.  DLIS to ASCII 10C0-306                          :LAS Program name and version
CREA.        2002/04/05 15:18                          :LAS Creation date {YYYY/MM/DD hh:mm}
SOURCE.     TLD_MCFL_CNL_007LUP.DLIS                   :DLIS File Name
FILE-ID.     TLD_MCFL_CNL_007LUP                       :File Identification Number
#--------------------------------------------------
~WELL INFORMATION
#MNEM.UNIT      DATA             DESCRIPTION
#---- ------ --------------   -----------------------------
STRT .F         5962.0       :START DEPTH     
STOP .F           44.0       :STOP DEPTH     
STEP .F           -0.5       :STEP     
NULL .          -999.25      :NULL VALUE
COMP .        DEPARTMENT OF ENERGY                     :COMPANY
WELL .        NPR-3 25-1-X-14                          :WELL
FLD  .        NPR-3                                    :FIELD
LOC  .        2301' FSL & 782' FWL                     :LOCATION
CNTY .        NATRONA                                  :COUNTY
STAT .        WYOMING                                  :STATE
CTRY .                                                 :COUNTRY
API  .        4902523047                               :API NUMBER
UWI  .                                                 :UNIQUE WELL ID
DATE .        05-Apr-2002                              :LOG DATE {DD-MMM-YYYY}
SRVC .        Schlumberger                             :SERVICE COMPANY
LATI .DEG                                              :LATITUDE
LONG .DEG                                              :LONGITUDE
GDAT .                                                 :GeoDetic Datum
#-----------------------------------------------------------------------------
~PARAMETER INFORMATION
#MNEM.UNIT    VALUE                      DESCRIPTION
#---- -----   --------------------       ------------------------
RUN  .          1                        :RUN NUMBER
PDAT .        GROUND LEVEL               :Permanent Datum
EPD  .F         5214.799805              :Elevation of Permanent Datum above Mean Sea Level
LMF  .          KELLY BUSHING            :Logging Measured From (Name of Logging Elevation Reference)
APD  .F          10.000000               :Elevation of Depth Reference (LMF) above Permanent Datum
#-----------------------------------------------------------------------------
~CURVE INFORMATION
#MNEM.UNIT   API CODE                                  DESCRIPTION
#---- -----  --------                                  -----------------------
DEPT .F                                                :DEPTH (BOREHOLE) {F10.1}
IHV  .F3                                               :Integrated Hole Volume {F13.4}
ICV  .F3                                               :Integrated Cement Volume {F13.4}
PXND_HILT.CFCF                                         :HILT Porosity CrossPlot {F13.4}
HTEM .DEGF                                             :HTC Temperature {F13.4}
GR   .GAPI                                             :Gamma-Ray {F13.4}
NPHI .CFCF                                             :Thermal Neutron Porosity (Ratio Method) {F13.4}
TNPH .CFCF                                             :Thermal Neutron Porosity {F13.4}
NPOR .CFCF                                             :Enhanced Thermal Neutron Porosity {F13.4}
GDEV .DEG                                              :HGNS Deviation {F13.4}
RT_HRLT.OHMM                                           :HRLT Computed True Resistivity {F13.4}
RXO_HRLT.OHMM                                          :HRLT Computed Invaded Zone Resistivity {F13.4}
RM_HRLT.OHMM                                           :HRLT Mud Resistivity {F13.4}
RLA1 .OHMM                                             :HRLT Borehole Corrected Resistivity 1 {F13.4}
RLA2 .OHMM                                             :HRLT Borehole Corrected Resistivity 2 {F13.4}
RLA3 .OHMM                                             :HRLT Borehole Corrected Resistivity 3 {F13.4}
RLA4 .OHMM                                             :HRLT Borehole Corrected Resistivity 4 {F13.4}
RLA5 .OHMM                                             :HRLT Borehole Corrected Resistivity 5 {F13.4}
HCAL .IN                                               :HRCC Cal. Caliper {F13.4}
HDRA .G/C3                                             :HRDD Density Correction {F13.4}
PEFZ .                                                 :HRDD Standard Resolution Formation Photoelectric Factor {F13.4}
RHOZ .G/C3                                             :HRDD Standard Resolution Formation Density {F13.4}
HMIN .OHMM                                             :MCFL Micro Inverse Resistivity {F13.4}
HMNO .OHMM                                             :MCFL Micro Normal Resistivity {F13.4}
RXOZ .OHMM                                             :MCFL Standard Resolution Invaded Zone Resistivity {F13.4}
HAZ  .F/S2                                             :Z-Axis Acceleration {F13.4}
#-----------------------------------------------------------------------------
# 
#     DEPT        IHV          ICV       PXND_HILT       HTEM         GR           NPHI         TNPH         NPOR         GDEV       RT_HRLT      RXO_HRLT     RM_HRLT        RLA1         RLA2         RLA3         RLA4         RLA5         HCAL         HDRA         PEFZ         RHOZ         HMIN         HMNO         RXOZ         HAZ
#
~A  
# ...
    2422.0    1823.0624     880.9037       0.2424     138.5468     129.3896       0.3532       0.3555       0.3535       3.2112       7.0933       5.8140       0.5686       7.7694       7.3331       7.2089       7.1430       7.1070      10.6645       0.0006       3.1581       2.4639       3.8074       3.3643       5.7420      32.3749
    2421.5    1823.3718     881.0796       0.2402     138.5468     124.1932       0.3676       0.3449       0.3411       3.0380       6.1353       5.7397       0.5637       6.8361       6.3400       6.2258       6.1953       6.1677      10.6534      -0.0020       3.1771       2.4533       5.6290       4.9792       5.6336      31.9093
    2421.0    1823.6813     881.2554       0.2361     138.5468     118.8426       0.3528       0.3362       0.3606       2.9139       7.5527       6.0895       0.5491       8.3082       7.7861       7.6796       7.6450       7.5599      10.6534      -0.0040       3.2047       2.4536       4.3378       3.8339       6.0163      31.5719
    2420.5    1823.9921     881.4326       0.2267     138.5468     123.3122       0.3256       0.3275       0.3431       3.1869       6.0470       6.0469       0.5516       6.5457       6.0377       5.9958       5.9765       5.8950      10.6757      -0.0057       3.1986       2.4764       4.6804       4.1378       6.0277      31.2548
    2420.0    1824.3035     881.6104       0.2234     138.5468     121.2121       0.3057       0.3263       0.3002       3.4898       6.6326       6.8513       0.5569       7.0702       6.7131       6.6224       6.6512       6.4967      10.6869      -0.0036       3.2089       2.4887       5.6831       5.0271       6.7552      33.0743
    2419.5    1824.6168     881.7902       0.2317     138.5468     123.4643       0.3159       0.3461       0.3387       3.2579       8.2091       6.7487       0.5579       8.7123       8.4021       8.2680       8.2392       8.1064      10.7204      -0.0017       3.2146       2.4911       5.4469       4.8176       6.6900      31.8239
    2419.0    1824.9329     881.9726       0.2280     138.5468     120.8453       0.3412       0.3384       0.3497       2.4966       7.6616       6.6614       0.5695       8.1394       7.8698       7.8469       7.7274       7.6218      10.7651       0.0015       3.2994       2.4927       4.8895       4.3232       6.6228      31.5979
    2418.5    1825.2528     882.1589       0.2322     138.5468     120.2198       0.3401       0.3451       0.3225       3.1702       7.0785       6.4270       0.5748       7.6214       7.2427       7.2813       7.1373       7.0533      10.8322       0.0028       3.3919       2.4873       5.5285       4.8899       6.3831      32.3036
    2418.0    1825.5728     882.3453       0.2408     138.5468     117.5980       0.3657       0.3603       0.3696       3.8640       9.1267       3.6304       0.5627       8.3590       8.1127       8.0979       7.9416       7.7855      10.8322       0.0021       3.4526       2.4787       2.4234       2.1734       3.7106      32.7166
    2417.5    1825.9054     882.5443       0.2529     138.5468     120.1253       0.3746       0.3849       0.4157       3.3869       5.9101       3.6049       0.5533       6.1987       5.8898       5.8108       5.7547       5.7328      11.0446       0.0001       3.3771       2.4695       2.0458       1.8119       3.6032      31.8272
    2417.0    1826.2280     882.7333       0.2468     138.5468     123.5240       0.3837       0.3681       0.3646       3.1198       4.2313       4.3420       0.5567       4.6183       4.3254       4.2317       4.1908       4.1181      10.8769       0.0004       3.2708       2.4677       4.8502       4.2884       4.2629      31.6646
    2416.5    1826.5487     882.9203       0.2448     138.5468     118.4735       0.3632       0.3633       0.3238       2.7773       6.4859       5.4105       0.5362       7.0865       6.7448       6.5893       6.6034       6.4345      10.8434       0.0082       3.1975       2.4674       4.9268       4.3563       5.3585      31.9264
    2416.0    1826.9067     883.1448       0.2495     138.5468     109.5519       0.3808       0.3700       0.3938       3.2431       6.6334       4.7800       0.5229       7.4392       6.9254       6.7843       6.7715       6.6034      11.4581       0.0184       3.2008       2.4597       2.3501       2.3550       4.7282      32.3355
    2415.5    1827.2253     883.3298       0.2450     138.5468     104.6939       0.3837       0.3587       0.4036       3.5144       4.7614       4.9256       0.5355       5.2194       4.8226       4.7580       4.7204       4.6560      10.8098       0.0199       3.2026       2.4588       3.3455       3.0450       4.8549      32.2448
    2415.0    1827.5453     883.5162       0.2356     138.5468     102.0789       0.3418       0.3437       0.3371       3.1228       5.9886       6.2852       0.5365       6.3401       6.1307       6.0839       6.0231       5.9171      10.8322       0.0118       3.1730       2.4702       5.1388       4.5443       6.1884      31.7182
    2414.5    1827.8652     883.7025       0.2267     138.5468     105.1634       0.3135       0.3353       0.3236       2.7288       7.4448       7.3150       0.5411       7.8897       7.5909       7.5835       7.4522       7.3167      10.8322       0.0005       3.1259       2.4924       5.4919       4.8576       7.0867      31.8321
    2414.0    1828.1838     883.8876       0.2296     138.5468     108.8714       0.3113       0.3508       0.3386       3.4108       7.7676       7.3810       0.5639       8.3001       7.9258       7.9978       7.8680       7.7407      10.8098      -0.0034       3.0932       2.5083       6.0093       5.3164       7.3288      32.1216
    2413.5    1828.5012     884.0713       0.2333     138.5468     110.4441       0.3433       0.3603       0.3520       3.3972       8.5153       6.8678       0.5798       8.8562       8.5928       8.5970       8.4951       8.3716      10.7875      -0.0025       3.0798       2.5087       5.6611       5.0075       6.8429      32.4759
    2413.0    1828.8198     884.2563       0.2326     138.5468     109.4683       0.3668       0.3548       0.3555       3.0141       8.1152       6.0734       0.5816       8.3146       7.9828       7.8797       7.8263       7.7291      10.8098      -0.0053       3.0725       2.5028       4.8217       4.2631       6.0449      32.1816
    2412.5    1829.1372     884.4401       0.2379     138.5468     110.7635       0.3650       0.3666       0.3745       3.2762       6.7738       5.7598       0.5816       7.4290       6.9230       6.8616       6.8661       6.7931      10.7875      -0.0060       3.1002       2.5006       4.3073       3.8068       5.6854      31.6792
    2412.0    1829.4558     884.6251       0.2360     138.5468     110.4211       0.3699       0.3694       0.3870       3.5774       6.0875       5.4816       0.5803       6.8069       6.2706       6.2159       6.1830       6.1202      10.8098      -0.0050       3.1736       2.5123       4.7274       4.1794       5.3860      31.7459
    2411.5    1829.7744     884.8102       0.2326     138.5468     109.1037       0.3561       0.3623       0.3654       3.1160       6.6540       5.7561       0.5741       7.4230       6.8884       6.7870       6.7544       6.6857      10.8098      -0.0012       3.2975       2.5147       4.0077       3.5415       5.6657      32.6564
    2411.0    1830.0930     884.9952       0.2234     138.5468     107.0934       0.3425       0.3340       0.3282       2.9631       6.5610       6.6229       0.5760       7.1760       6.6898       6.5496       6.5319       6.5013      10.8098      -0.0010       3.4514       2.5037       4.5589       4.0300       6.2382      32.3133
    2410.5    1830.4091     885.1776       0.2274     138.5468     108.0061       0.3183       0.3341       0.3181       3.6201       7.4921       7.5638       0.5792       8.0404       7.6648       7.5301       7.5222       7.3877      10.7651      -0.0037       3.5309       2.4868       6.6304       5.8677       7.3715      31.3426
