~VERSION INFORMATION
VERS.           2.0   :CWLS Log ASCII Standard - VERSION 2.0
WRAP.           NO    :One Line per depth step
PROD.  Schlumberger   :LAS Producer
PROG.  DLIS to ASCII 10C0-306                          :LAS Program name and version
CREA.        2002/04/05 15:33                          :LAS Creation date {YYYY/MM/DD hh:mm}
SOURCE.     FMI_033PUP.DLIS                            :DLIS File Name
FILE-ID.     FMI_033PUP                                :File Identification Number
#--------------------------------------------------
~WELL INFORMATION
#MNEM.UNIT      DATA             DESCRIPTION
#---- ------ --------------   -----------------------------
STRT .F      722.0           :START DEPTH     
STOP .F      5952.0          :STOP DEPTH     
STEP .F       0.5            :STEP     
NULL .          -999.25      :NULL VALUE
COMP .        DEPARTMENT OF ENERGY                     :COMPANY
WELL .        NPR-3 25-1-X-14                          :WELL
FLD  .        NPR-3                                    :FIELD
LOC  .        2301' FSL & 782' FWL                     :LOCATION
CNTY .        NATRONA                                  :COUNTY
STAT .        WYOMING                                  :STATE
CTRY .                                                 :COUNTRY
API  .        4902523047                               :API NUMBER
UWI  .                                                 :UNIQUE WELL ID
DATE .        05-Apr-2002                              :LOG DATE {DD-MMM-YYYY}
SRVC .        Schlumberger                             :SERVICE COMPANY
LATI .DEG                                              :LATITUDE
LONG .DEG                                              :LONGITUDE
GDAT .                                                 :GeoDetic Datum
#-----------------------------------------------------------------------------
~PARAMETER INFORMATION
#MNEM.UNIT    VALUE                      DESCRIPTION
#---- -----   --------------------       ------------------------
RUN  .          1                        :RUN NUMBER
PDAT .        GROUND LEVEL               :Permanent Datum
EPD  .F         5214.799805              :Elevation of Permanent Datum above Mean Sea Level
LMF  .          KELLY BUSHING            :Logging Measured From (Name of Logging Elevation Reference)
APD  .F          10.000000               :Elevation of Depth Reference (LMF) above Permanent Datum
#-----------------------------------------------------------------------------
~CURVE INFORMATION
#MNEM.UNIT   API CODE                                  DESCRIPTION
#---- -----  --------                                  -----------------------
DEPT .F                                                :DEPTH (BOREHOLE) {F10.1}
HAZI .DEG                                              :Hole Azimuth {F13.4}
SDEV .DEG                                              :Sonde Deviation {F13.4}
ED   .F                                                :East Departure {F13.4}
ND   .F                                                :North Departure {F13.4}
TVDE .F                                                :True Vertical Depth {F13.4}
VSEC .F                                                :Vertical Section {F13.4}
GR   .GAPI                                             :Gamma Ray {F13.4}
#-----------------------------------------------------------------------------
# 
#     DEPT        HAZI         SDEV         ED           ND           TVDE         VSEC         GR
#
~A  
# ...
    3131.5     351.7000       1.6466     -49.5297      90.4535    3128.2703      90.4535      99.8351
    3132.0     351.7172       1.6466     -49.5317      90.4685    3128.7700      90.4685      98.5966
    3132.5     351.8025       1.6541     -49.5337      90.4835    3129.2698      90.4835      99.2317
    3133.0     352.0639       1.6544     -49.5357      90.4985    3129.7695      90.4985     102.3278
    3133.5     352.0691       1.6541     -49.5376      90.5136    3130.2693      90.5136     106.6146
    3134.0     352.0525       1.6572     -49.5396      90.5287    3130.7690      90.5287     111.9493
    3134.5     352.3279       1.6630     -49.5414      90.5439    3131.2690      90.5439     122.0630
    3135.0     352.4282       1.6682     -49.5433      90.5591    3131.7688      90.5591     129.5649
    3135.5     352.5298       1.6734     -49.5451      90.5743    3132.2686      90.5743     138.7101
    3136.0     352.5966       1.6756     -49.5469      90.5895    3132.7683      90.5895     141.6315
    3136.5     352.6468       1.6817     -49.5486      90.6048    3133.2681      90.6048     136.7493
    3137.0     352.7009       1.6857     -49.5503      90.6202    3133.7678      90.6202     126.8738
    3137.5     352.6613       1.6876     -49.5520      90.6356    3134.2676      90.6356     113.0289
    3138.0     352.6167       1.6917     -49.5536      90.6510    3134.7673      90.6510     106.7178
    3138.5     352.6131       1.6937     -49.5552      90.6664    3135.2671      90.6664     101.0973
    3139.0     352.5439       1.7025     -49.5567      90.6818    3135.7668      90.6818     100.3590
    3139.5     352.4272       1.7008     -49.5583      90.6973    3136.2666      90.6973     102.0182
    3140.0     352.3156       1.7015     -49.5598      90.7127    3136.7664      90.7127     104.1854
    3140.5     352.3791       1.7086     -49.5612      90.7282    3137.2661      90.7282     103.0184
    3141.0     352.4068       1.7092     -49.5627      90.7438    3137.7659      90.7438     102.4310
    3141.5     352.2419       1.7163     -49.5641      90.7593    3138.2656      90.7593     105.0904
    3142.0     352.3387       1.7232     -49.5655      90.7748    3138.7654      90.7748     105.7810
    3142.5     352.5047       1.7268     -49.5669      90.7904    3139.2651      90.7904     104.0822
    3143.0     352.3641       1.7287     -49.5682      90.8060    3139.7649      90.8060      99.6366
    3143.5     352.3831       1.7318     -49.5696      90.8217    3140.2646      90.8217      97.8504
    3144.0     352.4156       1.7342     -49.5710      90.8373    3140.7644      90.8373      97.8504
    3144.5     352.5077       1.7384     -49.5723      90.8529    3141.2642      90.8529      98.0886
    3145.0     352.5871       1.7415     -49.5736      90.8686    3141.7639      90.8686     101.2164
    3145.5     352.6902       1.7478     -49.5750      90.8843    3142.2637      90.8843      97.7949
    3146.0     352.7771       1.7454     -49.5763      90.9000    3142.7634      90.9000      99.4619
    3146.5     352.9755       1.7511     -49.5777      90.9157    3143.2632      90.9157     101.0973
    3147.0     353.0726       1.7565     -49.5790      90.9314    3143.7629      90.9314     108.7104
    3147.5     353.2426       1.7576     -49.5804      90.9472    3144.2627      90.9472     109.9805
    3148.0     353.4633       1.7631     -49.5817      90.9630    3144.7625      90.9630     112.6002
    3148.5     353.6568       1.7657     -49.5830      90.9788    3145.2622      90.9788     107.3925
    3149.0     353.7980       1.7708     -49.5843      90.9946    3145.7620      90.9946     106.9559
    3149.5     353.9235       1.7729     -49.5856      91.0105    3146.2615      91.0105     103.6217
    3150.0     354.0990       1.7765     -49.5870      91.0264    3146.7612      91.0264     101.7165
    3150.5     354.2094       1.7758     -49.5882      91.0423    3147.2610      91.0423      99.5731
    3151.0     354.2673       1.7783     -49.5895      91.0582    3147.7607      91.0582      95.2227
    3151.5     354.4265       1.7834     -49.5908      91.0741    3148.2605      91.0741     100.6765
    3152.0     354.4838       1.7819     -49.5920      91.0901    3148.7603      91.0901     104.9078
    3152.5     354.6995       1.7881     -49.5931      91.1061    3149.2600      91.1061     109.7344
    3153.0     354.6742       1.7860     -49.5942      91.1221    3149.7598      91.1221     104.4076
    3153.5     354.7912       1.7877     -49.5953      91.1382    3150.2595      91.1382     100.2955
    3154.0     354.8793       1.7902     -49.5963      91.1543    3150.7593      91.1543      98.8983
    3154.5     355.0208       1.7970     -49.5973      91.1703    3151.2590      91.1703     110.0758
    3155.0     355.0186       1.7952     -49.5982      91.1864    3151.7588      91.1864     120.3165
    3155.5     355.0403       1.7965     -49.5991      91.2024    3152.2585      91.2024     139.8771
    3156.0     355.0678       1.7979     -49.5999      91.2185    3152.7583      91.2185     159.0328
    3156.5     355.0984       1.8008     -49.6007      91.2345    3153.2581      91.2345     174.3701
    3157.0     355.0968       1.8033     -49.6014      91.2505    3153.7578      91.2505     165.2566
    3157.5     355.0934       1.8034     -49.6020      91.2665    3154.2576      91.2665     136.3206
    3158.0     355.1072       1.8072     -49.6026      91.2824    3154.7573      91.2824     107.5275
    3158.5     355.1029       1.8082     -49.6031      91.2984    3155.2571      91.2984      92.8888
    3159.0     355.1410       1.8146     -49.6035      91.3143    3155.7568      91.3143      87.8875
    3159.5     355.2041       1.8154     -49.6039      91.3302    3156.2563      91.3302      86.3236
    3160.0     355.1771       1.8178     -49.6043      91.3461    3156.7561      91.3461      87.5938
    3160.5     355.2603       1.8215     -49.6046      91.3619    3157.2559      91.3619      89.3800
    3161.0     355.1976       1.8199     -49.6049      91.3777    3157.7556      91.3777      91.0630
    3161.5     355.3009       1.8249     -49.6051      91.3935    3158.2554      91.3935      85.9823
    3162.0     355.3074       1.8285     -49.6054      91.4092    3158.7551      91.4092      82.8862
    3162.5     355.4002       1.8268     -49.6055      91.4250    3159.2549      91.4250      85.9029
    3163.0     355.4150       1.8303     -49.6057      91.4407    3159.7546      91.4407      88.6338
    3163.5     355.5887       1.8358     -49.6058      91.4565    3160.2544      91.4565      95.1989
    3164.0     355.7786       1.8396     -49.6058      91.4722    3160.7542      91.4722      98.3744
    3164.5     355.9823       1.8397     -49.6058      91.4880    3161.2539      91.4880     102.2484
    3165.0     356.1540       1.8420     -49.6058      91.5038    3161.7537      91.5038     101.1052
    3165.5     356.2606       1.8440     -49.6058      91.5196    3162.2534      91.5196      95.5085
    3166.0     356.5193       1.8453     -49.6057      91.5355    3162.7532      91.5355      99.6128
    3166.5     356.6028       1.8437     -49.6056      91.5513    3163.2529      91.5513     104.9475
    3167.0     356.7241       1.8436     -49.6055      91.5673    3163.7527      91.5673     112.5764
    3167.5     356.8922       1.8415     -49.6053      91.5832    3164.2524      91.5832     121.7455
    3168.0     357.2063       1.8395     -49.6051      91.5992    3164.7522      91.5992     131.4702
    3168.5     357.4356       1.8346     -49.6049      91.6152    3165.2520      91.6152     137.8210
    3169.0     357.6529       1.8352     -49.6046      91.6313    3165.7517      91.6313     133.1770
    3169.5     357.8444       1.8321     -49.6043      91.6475    3166.2515      91.6475     122.6901
    3170.0     358.1205       1.8310     -49.6039      91.6636    3166.7512      91.6636     112.0446
    3170.5     358.2916       1.8270     -49.6035      91.6798    3167.2510      91.6798     104.1775
