~VERSION INFORMATION
VERS.           2.0   :CWLS Log ASCII Standard - VERSION 2.0
WRAP.           NO    :One Line per depth step
PROD.  Schlumberger   :LAS Producer
PROG.  DLIS to ASCII 10C0-306                          :LAS Program name and version
CREA.        2002/04/05 15:26                          :LAS Creation date {YYYY/MM/DD hh:mm}
SOURCE.     SONIC_063PUP.DLIS                          :DLIS File Name
FILE-ID.     SONIC_063PUP                              :File Identification Number
#--------------------------------------------------
~WELL INFORMATION
#MNEM.UNIT      DATA             DESCRIPTION
#---- ------ --------------   -----------------------------
STRT .F         5958.0       :START DEPTH     
STOP .F          675.5       :STOP DEPTH     
STEP .F           -0.5       :STEP     
NULL .          -999.25      :NULL VALUE
COMP .        DEPARTMENT OF ENERGY                     :COMPANY
WELL .        NPR-3 25-1-X-14                          :WELL
FLD  .        NPR-3                                    :FIELD
LOC  .        2301' FSL & 782' FWL                     :LOCATION
CNTY .        NATRONA                                  :COUNTY
STAT .        WYOMING                                  :STATE
CTRY .                                                 :COUNTRY
API  .        4902523047                               :API NUMBER
UWI  .                                                 :UNIQUE WELL ID
DATE .        05-Apr-2002                              :LOG DATE {DD-MMM-YYYY}
SRVC .        Schlumberger                             :SERVICE COMPANY
LATI .DEG                                              :LATITUDE
LONG .DEG                                              :LONGITUDE
GDAT .                                                 :GeoDetic Datum
#-----------------------------------------------------------------------------
~PARAMETER INFORMATION
#MNEM.UNIT    VALUE                      DESCRIPTION
#---- -----   --------------------       ------------------------
RUN  .          1                        :RUN NUMBER
PDAT .        GROUND LEVEL               :Permanent Datum
EPD  .F         5214.799805              :Elevation of Permanent Datum above Mean Sea Level
LMF  .          KELLY BUSHING            :Logging Measured From (Name of Logging Elevation Reference)
APD  .F          10.000000               :Elevation of Depth Reference (LMF) above Permanent Datum
#-----------------------------------------------------------------------------
~CURVE INFORMATION
#MNEM.UNIT   API CODE                                  DESCRIPTION
#---- -----  --------                                  -----------------------
DEPT .F                                                :DEPTH (BOREHOLE) {F10.1}
GR   .GAPI                                             :Gamma-Ray {F13.4}
ITT  .S                                                :Integrated Transit Time {F13.4}
SPHI .CFCF                                             :Sonic Porosity {F13.4}
SVEL .FT/S                                             :Sonic Velocity {F13.4}
DT   .US/F                                             :Delta-T {F13.4}
#-----------------------------------------------------------------------------
# 
#     DEPT        GR           ITT          SPHI         SVEL         DT
#
~A  
# ...
    5587.0      89.9211       0.0220       0.0848   15877.1963      62.9834
    5586.5      88.7303       0.0220       0.0834   15925.8760      62.7909
    5586.0      87.8797       0.0221       0.0802   16039.8750      62.3446
    5585.5      83.3547       0.0221       0.0735   16281.8477      61.4181
    5585.0      80.8031       0.0221       0.0706   16387.3926      61.0225
    5584.5      72.9439       0.0222       0.0698   16416.1543      60.9156
    5584.0      61.5124       0.0222       0.0570   16907.6895      59.1447
    5583.5      35.2471       0.0222       0.0427   17490.6523      57.1734
    5583.0      17.6236       0.0223       0.0297   18054.9063      55.3866
    5582.5       7.5529       0.0223       0.0104   18966.0918      52.7257
    5582.0       7.5529       0.0223       0.0059   19188.9863      52.1132
    5581.5       8.2674       0.0223       0.0065   19157.2715      52.1995
    5581.0      15.0038       0.0224       0.0087   19049.3711      52.4952
    5580.5      34.2945       0.0224       0.0216   18424.1816      54.2765
    5580.0      52.3944       0.0224       0.0388   17653.1914      56.6470
    5579.5      72.0593       0.0224       0.0524   17091.4902      58.5087
    5579.0      83.2527       0.0225       0.0669   16526.7168      60.5081
    5578.5      87.5395       0.0225       0.0716   16351.8848      61.1550
    5578.0      86.4508       0.0225       0.0752   16220.8145      61.6492
    5577.5      69.9840       0.0226       0.0610   16749.9980      59.7015
    5577.0      56.6472       0.0226       0.0470   17307.5762      57.7782
    5576.5      46.6446       0.0226       0.0443   17423.0566      57.3952
    5576.0      55.4904       0.0226       0.0396   17619.0566      56.7567
    5575.5      69.5417       0.0227       0.0571   16901.6758      59.1657
    5575.0      85.8044       0.0227       0.0770   16154.0469      61.9040
    5574.5      86.2807       0.0227       0.0848   15877.2090      62.9834
    5574.0      87.9478       0.0228       0.0888   15742.0566      63.5241
    5573.5      85.7363       0.0228       0.0932   15593.3994      64.1297
    5573.0      87.6415       0.0228       0.0868   15809.5459      63.2529
    5572.5      84.7837       0.0229       0.0831   15939.5938      62.7369
    5572.0      79.1019       0.0229       0.0803   16037.8926      62.3523
    5571.5      73.3862       0.0229       0.0798   16053.9229      62.2901
    5571.0      56.9534       0.0230       0.0626   16689.0098      59.9197
    5570.5      36.4379       0.0230       0.0419   17523.1953      57.0672
    5570.0      20.9577       0.0230       0.0254   18246.9316      54.8037
    5569.5      23.6795       0.0230       0.0145   18763.9453      53.2937
    5569.0      32.4913       0.0231       0.0274   18159.3730      55.0680
    5568.5      52.2583       0.0231       0.0456   17366.9043      57.5808
    5568.0      58.3483       0.0231       0.0615   16729.3281      59.7753
    5567.5      59.5391       0.0232       0.0639   16637.3379      60.1058
    5567.0      45.3858       0.0232       0.0538   17031.5098      58.7147
    5566.5      53.2449       0.0232       0.0566   16921.4316      59.0967
    5566.0      68.2488       0.0232       0.0632   16665.8301      60.0030
    5565.5      82.1639       0.0233       0.0833   15930.5879      62.7723
    5565.0      82.8784       0.0233       0.0995   15385.3936      64.9967
    5564.5      80.9732       0.0233       0.0971   15462.5791      64.6723
    5564.0      83.6609       0.0234       0.0970   15465.4160      64.6604
    5563.5      84.1372       0.0234       0.0914   15652.5615      63.8873
    5563.0      80.5649       0.0234       0.0864   15821.9717      63.2032
    5562.5      79.7824       0.0235       0.0846   15885.6084      62.9501
    5562.0      79.7824       0.0235       0.0842   15899.4385      62.8953
    5561.5      77.2307       0.0235       0.0835   15924.6768      62.7956
    5561.0      70.8005       0.0236       0.0830   15943.2197      62.7226
    5560.5      71.7531       0.0236       0.0804   16033.5762      62.3691
    5560.0      80.0205       0.0236       0.0763   16180.2363      61.8038
    5559.5      83.3547       0.0237       0.0740   16262.3457      61.4917
    5559.0      79.2380       0.0237       0.0754   16210.2422      61.6894
    5558.5      75.4275       0.0237       0.0778   16124.6611      62.0168
    5558.0      77.5709       0.0238       0.0791   16080.3584      62.1877
    5557.5      79.5442       0.0238       0.0822   15970.0830      62.6171
    5557.0      75.0193       0.0238       0.0773   16142.1367      61.9497
    5556.5      65.3229       0.0238       0.0715   16354.4922      61.1453
    5556.0      61.0361       0.0239       0.0652   16590.0488      60.2771
    5555.5      58.4164       0.0239       0.0578   16873.9551      59.2629
    5555.0      59.3009       0.0239       0.0628   16680.2168      59.9513
    5554.5      51.2036       0.0240       0.0594   16814.4023      59.4728
    5554.0      40.7247       0.0240       0.0484   17253.4238      57.9595
    5553.5      31.4366       0.0240       0.0394   17630.2422      56.7207
    5553.0      24.4280       0.0240       0.0249   18270.4102      54.7333
    5552.5      19.4267       0.0241       0.0159   18695.6992      53.4882
    5552.0      11.8057       0.0241       0.0130   18836.2188      53.0892
    5551.5       6.6683       0.0241       0.0070   19134.1855      52.2625
    5551.0       6.1920       0.0242       0.0020   19391.1934      51.5698
    5550.5       6.7024       0.0242       0.0033   19320.5410      51.7584
    5550.0       6.7024       0.0242       0.0042   19276.2695      51.8773
    5549.5       5.0353       0.0242       0.0045   19258.3223      51.9256
    5549.0       5.0353       0.0243       0.0048   19245.4746      51.9603
    5548.5       4.8500       0.0243       0.0062   19175.7051      52.1493
    5548.0       4.7480       0.0243       0.0042   19275.4160      51.8796
    5547.5       4.4758       0.0243       0.0051   19231.8945      51.9970
    5547.0       4.1847       0.0244       0.0048   19246.6113      51.9572
    5546.5       8.5736       0.0244       0.0094   19011.0488      52.6010
    5546.0      20.2433       0.0244       0.0279   18136.7207      55.1368
    5545.5      43.3444       0.0244       0.0649   16600.2109      60.2402
    5545.0      59.9133       0.0245       0.0993   15392.2900      64.9676
    5544.5      58.2462       0.0245       0.1081   15108.4434      66.1882
    5544.0      43.9568       0.0245       0.0852   15863.6387      63.0372
    5543.5      29.2932       0.0246       0.0483   17257.4590      57.9460
    5543.0      21.1959       0.0246       0.0213   18438.2910      54.2350
    5542.5      15.0038       0.0246      -0.0106   20064.5293      49.8392
    5542.0      10.7170       0.0246      -0.0093   19991.2480      50.0219
    5541.5      11.6696       0.0247      -0.0037   19688.2813      50.7916
    5541.0      10.2407       0.0247      -0.0036   19684.0293      50.8026
    5540.5      10.2407       0.0247      -0.0015   19569.4902      51.1000
    5540.0       6.5663       0.0248      -0.0014   19565.2578      51.1110
    5539.5       6.8044       0.0248      -0.0013   19560.9844      51.1222
    5539.0       5.8518       0.0248      -0.0005   19520.6426      51.2278
    5538.5       7.4849       0.0248       0.0002   19481.0840      51.3318
    5538.0       7.8289       0.0249       0.0004   19471.4609      51.3572
    5537.5       9.4960       0.0249       0.0015   19415.6113      51.5049
    5537.0      12.7281       0.0249      -0.0002   19503.5293      51.2728
    5536.5      16.4328       0.0249       0.0077   19098.6074      52.3598
    5536.0      20.9577       0.0250       0.0195   18521.4727      53.9914
    5535.5      22.3867       0.0250       0.0351   17814.5723      56.1338
    5535.0      20.0051       0.0250       0.0464   17336.1582      57.6829
    5534.5      14.3914       0.0250       0.0387   17659.3867      56.6271
