~VERSION INFORMATION
VERS.           2.0   :CWLS Log ASCII Standard - VERSION 2.0
WRAP.           NO    :One Line per depth step
PROD.  Schlumberger   :LAS Producer
PROG.  DLIS to ASCII 10C0-306                          :LAS Program name and version
CREA.        2002/04/05 15:18                          :LAS Creation date {YYYY/MM/DD hh:mm}
SOURCE.     TLD_MCFL_CNL_007LUP.DLIS                   :DLIS File Name
FILE-ID.     TLD_MCFL_CNL_007LUP                       :File Identification Number
#--------------------------------------------------
~WELL INFORMATION
#MNEM.UNIT      DATA             DESCRIPTION
#---- ------ --------------   -----------------------------
STRT .F         5962.0       :START DEPTH     
STOP .F           44.0       :STOP DEPTH     
STEP .F           -0.5       :STEP     
NULL .          -999.25      :NULL VALUE
COMP .        DEPARTMENT OF ENERGY                     :COMPANY
WELL .        NPR-3 25-1-X-14                          :WELL
FLD  .        NPR-3                                    :FIELD
LOC  .        2301' FSL & 782' FWL                     :LOCATION
CNTY .        NATRONA                                  :COUNTY
STAT .        WYOMING                                  :STATE
CTRY .                                                 :COUNTRY
API  .        4902523047                               :API NUMBER
UWI  .                                                 :UNIQUE WELL ID
DATE .        05-Apr-2002                              :LOG DATE {DD-MMM-YYYY}
SRVC .        Schlumberger                             :SERVICE COMPANY
LATI .DEG                                              :LATITUDE
LONG .DEG                                              :LONGITUDE
GDAT .                                                 :GeoDetic Datum
#-----------------------------------------------------------------------------
~PARAMETER INFORMATION
#MNEM.UNIT    VALUE                      DESCRIPTION
#---- -----   --------------------       ------------------------
RUN  .          1                        :RUN NUMBER
PDAT .        GROUND LEVEL               :Permanent Datum
EPD  .F         5214.799805              :Elevation of Permanent Datum above Mean Sea Level
LMF  .          KELLY BUSHING            :Logging Measured From (Name of Logging Elevation Reference)
APD  .F          10.000000               :Elevation of Depth Reference (LMF) above Permanent Datum
#-----------------------------------------------------------------------------
~CURVE INFORMATION
#MNEM.UNIT   API CODE                                  DESCRIPTION
#---- -----  --------                                  -----------------------
DEPT .F                                                :DEPTH (BOREHOLE) {F10.1}
IHV  .F3                                               :Integrated Hole Volume {F13.4}
ICV  .F3                                               :Integrated Cement Volume {F13.4}
PXND_HILT.CFCF                                         :HILT Porosity CrossPlot {F13.4}
HTEM .DEGF                                             :HTC Temperature {F13.4}
GR   .GAPI                                             :Gamma-Ray {F13.4}
NPHI .CFCF                                             :Thermal Neutron Porosity (Ratio Method) {F13.4}
TNPH .CFCF                                             :Thermal Neutron Porosity {F13.4}
NPOR .CFCF                                             :Enhanced Thermal Neutron Porosity {F13.4}
GDEV .DEG                                              :HGNS Deviation {F13.4}
RT_HRLT.OHMM                                           :HRLT Computed True Resistivity {F13.4}
RXO_HRLT.OHMM                                          :HRLT Computed Invaded Zone Resistivity {F13.4}
RM_HRLT.OHMM                                           :HRLT Mud Resistivity {F13.4}
RLA1 .OHMM                                             :HRLT Borehole Corrected Resistivity 1 {F13.4}
RLA2 .OHMM                                             :HRLT Borehole Corrected Resistivity 2 {F13.4}
RLA3 .OHMM                                             :HRLT Borehole Corrected Resistivity 3 {F13.4}
RLA4 .OHMM                                             :HRLT Borehole Corrected Resistivity 4 {F13.4}
RLA5 .OHMM                                             :HRLT Borehole Corrected Resistivity 5 {F13.4}
HCAL .IN                                               :HRCC Cal. Caliper {F13.4}
HDRA .G/C3                                             :HRDD Density Correction {F13.4}
PEFZ .                                                 :HRDD Standard Resolution Formation Photoelectric Factor {F13.4}
RHOZ .G/C3                                             :HRDD Standard Resolution Formation Density {F13.4}
HMIN .OHMM                                             :MCFL Micro Inverse Resistivity {F13.4}
HMNO .OHMM                                             :MCFL Micro Normal Resistivity {F13.4}
RXOZ .OHMM                                             :MCFL Standard Resolution Invaded Zone Resistivity {F13.4}
HAZ  .F/S2                                             :Z-Axis Acceleration {F13.4}
#-----------------------------------------------------------------------------
# 
#     DEPT        IHV          ICV       PXND_HILT       HTEM         GR           NPHI         TNPH         NPOR         GDEV       RT_HRLT      RXO_HRLT     RM_HRLT        RLA1         RLA2         RLA3         RLA4         RLA5         HCAL         HDRA         PEFZ         RHOZ         HMIN         HMNO         RXOZ         HAZ
#
~A  
# ...
    1234.0    2535.1519    1275.5487       0.1835     125.9709      90.5778       0.2470       0.2558       0.2558       4.5908       8.3006       6.2407       0.6555       7.2425       7.1597       7.2869       7.3985       7.9082      11.3687      -0.0061       2.8836       2.4980       5.1181       4.5228       6.2754      32.2172
    1233.5    2535.5029    1275.7661       0.1867     125.9709      95.0233       0.2513       0.2643       0.2669       4.5516       8.8908       5.9452       0.6569       7.5090       7.3409       7.4796       7.6370       8.1702      11.3463      -0.0070       2.8928       2.5088       4.7719       4.2164       5.9582      32.0773
    1233.0    2535.8540    1275.9835       0.1786     125.9709      96.3803       0.2565       0.2563       0.2531       4.5530       8.5825       5.6454       0.6606       7.2525       7.1020       7.2231       7.3952       7.8777      11.3463      -0.0053       2.9109       2.5281       4.5102       3.9849       5.6565      31.3695
    1232.5    2536.2051    1276.2009       0.1727     125.9709     100.4741       0.2528       0.2505       0.2480       4.7286       8.2807       5.4947       0.6612       6.9888       6.8619       6.9862       7.1629       7.6128      11.3463      -0.0041       2.9409       2.5427       4.3424       3.8364       5.5096      32.5133
    1232.0    2536.5547    1276.4170       0.1700     125.9709      97.8550       0.2453       0.2482       0.2613       4.5257       8.1121       5.8553       0.6607       6.9920       6.8300       6.9948       7.1526       7.5658      11.3240      -0.0020       2.9841       2.5508       4.6844       4.1389       5.8835      31.8264
    1231.5    2536.9031    1276.6317       0.1703     125.9709      95.3534       0.2375       0.2493       0.2391       4.3986       8.6505       5.8175       0.6601       7.2865       7.1584       7.3417       7.5103       7.9424      11.3016      -0.0013       2.9772       2.5527       5.0336       4.4480       5.8326      32.2010
    1231.0    2537.2527    1276.8478       0.1677     125.9709      95.1151       0.2441       0.2446       0.2355       4.8185       8.7089       5.8215       0.6603       7.2916       7.2366       7.4165       7.5694       8.0140      11.3240      -0.0009       2.9413       2.5517       4.2980       3.7971       5.8366      31.6493
    1230.5    2537.6052    1277.0667       0.1776     125.9709      96.8325       0.2437       0.2593       0.2635       4.3329       8.4782       5.5388       0.6617       7.0915       7.0456       7.1918       7.3602       7.7727      11.3687      -0.0025       2.9153       2.5436       4.4289       3.9129       5.5518      31.9504
    1230.0    2537.9583    1277.2861       0.1836     125.9709     100.0854       0.2653       0.2683       0.2611       4.5554       8.7138       5.4839       0.6604       7.3306       7.2652       7.4153       7.5734       7.9171      11.3799      -0.0043       2.9155       2.5380       4.5033       3.9787       5.4860      32.1310
    1229.5    2538.3162    1277.5105       0.1929     125.9709     102.4840       0.2794       0.2813       0.2777       4.6688       8.3095       5.2343       0.6582       6.9327       6.8605       6.9933       7.1568       7.5478      11.4581      -0.0033       2.9328       2.5265       4.1514       3.6673       5.2411      31.8085
    1229.0    2538.6785    1277.7391       0.1907     125.9709     100.7984       0.2938       0.2772       0.2833       4.4544       7.1367       4.9907       0.6561       6.2267       6.0907       6.2129       6.3186       6.6647      11.5252       0.0028       2.9253       2.5263       3.9563       3.4947       5.0084      31.5761
    1228.5    2539.0435    1277.9706       0.1971     125.9709      97.9625       0.2878       0.2877       0.3003       4.5764       6.6052       4.8929       0.6511       5.8852       5.7758       5.8683       5.9492       6.2698      11.5699       0.0092       2.9290       2.5218       3.9648       3.5022       4.9096      31.9048
    1228.0    2539.4084    1278.2020       0.1909     125.9709      95.2893       0.2886       0.2758       0.2795       4.7502       6.6894       4.8631       0.6433       6.0330       5.8501       5.9273       6.0185       6.3118      11.5699       0.0036       2.9296       2.5214       3.8996       3.4445       4.8782      31.8512
    1227.5    2539.7749    1278.4348       0.1967     125.9709      99.0596       0.2737       0.2857       0.2768       4.4187       6.4903       4.8069       0.6379       5.8699       5.7420       5.8000       5.9018       6.1507      11.5923      -0.0009       2.9492       2.5189       3.8186       3.3728       4.8207      31.7605
    1227.0    2540.1399    1278.6663       0.2038     125.9709     105.7460       0.2857       0.2985       0.3065       4.5537       6.3036       4.8723       0.6345       5.7692       5.6477       5.7129       5.7992       6.0411      11.5699      -0.0050       2.9611       2.5164       3.8474       3.3983       4.8913      32.1440
    1226.5    2540.5078    1278.9005       0.2153     125.9709     106.2589       0.2960       0.3229       0.3185       4.4676       6.2930       4.9009       0.6333       5.7459       5.6447       5.7234       5.8037       6.0357      11.6146      -0.0030       2.9687       2.5173       3.9879       3.5227       4.9183      31.6754
    1226.0    2540.8784    1279.1376       0.2130     125.9709     107.2689       0.3224       0.3189       0.3084       4.6355       6.5058       4.8719       0.6338       5.8602       5.7851       5.8728       5.9494       6.1801      11.6593      -0.0056       2.9574       2.5194       3.8651       3.4140       4.8861      32.2074
    1225.5    2541.2449    1279.3704       0.2122     125.9709     105.3621       0.3217       0.3188       0.3318       4.6014       6.5228       4.7680       0.6362       5.7988       5.7282       5.8508       5.9228       6.1484      11.5923      -0.0090       2.9495       2.5229       3.7741       3.3334       4.7820      32.4710
    1225.0    2541.6213    1279.6132       0.2058     125.9709     105.2292       0.3181       0.3054       0.2985       4.3807       6.2843       4.8329       0.6399       5.7735       5.6606       5.7618       5.8242       6.0231      11.7487      -0.0092       2.9380       2.5231       3.8334       3.3859       4.8493      31.6347
    1224.5    2541.9934    1279.8517       0.2006     125.9709     106.3694       0.3115       0.2950       0.2908       4.6788       6.3594       4.8936       0.6420       5.7851       5.6539       5.7778       5.8862       6.0489      11.6817      -0.0083       2.9208       2.5231       3.9972       3.5308       4.9121      32.2416
    1224.0    2542.3828    1280.1074       0.1946     125.9709     106.1310       0.2985       0.2830       0.2950       4.4764       6.6193       4.7964       0.6407       5.8964       5.8127       5.9295       6.0225       6.2204      11.9499      -0.0079       2.9068       2.5220       3.8569       3.4067       4.8089      32.1961
    1223.5    2542.7693    1280.3604       0.1909     125.9709     110.5089       0.2862       0.2789       0.2743       4.5912       6.5281       4.6990       0.6384       5.9597       5.7936       5.8915       5.9751       6.1497      11.9052      -0.0080       2.8960       2.5298       3.6640       3.2361       4.7056      31.6624
    1223.0    2543.1479    1280.6053       0.1940     125.9709     103.1583       0.2812       0.2845       0.2902       4.7096       5.9561       4.7321       0.6368       5.4678       5.3561       5.4510       5.5552       5.7305      11.7823      -0.0097       2.9251       2.5290       3.7797       3.3383       4.7565      31.8544
    1222.5    2543.5215    1280.8453       0.2004     125.9709     103.2034       0.2813       0.2955       0.2931       4.5032       6.1717       4.9092       0.6338       5.6439       5.5609       5.6402       5.7724       5.9291      11.7040      -0.0110       2.9637       2.5257       3.9100       3.4537       4.9280      32.2514
