~VERSION INFORMATION
VERS.           2.0   :CWLS Log ASCII Standard - VERSION 2.0
WRAP.           NO    :One Line per depth step
PROD.  Schlumberger   :LAS Producer
PROG.  DLIS to ASCII 10C0-306                          :LAS Program name and version
CREA.        2002/04/05 15:18                          :LAS Creation date {YYYY/MM/DD hh:mm}
SOURCE.     TLD_MCFL_CNL_007LUP.DLIS                   :DLIS File Name
FILE-ID.     TLD_MCFL_CNL_007LUP                       :File Identification Number
#--------------------------------------------------
~WELL INFORMATION
#MNEM.UNIT      DATA             DESCRIPTION
#---- ------ --------------   -----------------------------
STRT .F         5962.0       :START DEPTH     
STOP .F           44.0       :STOP DEPTH     
STEP .F           -0.5       :STEP     
NULL .          -999.25      :NULL VALUE
COMP .        DEPARTMENT OF ENERGY                     :COMPANY
WELL .        NPR-3 25-1-X-14                          :WELL
FLD  .        NPR-3                                    :FIELD
LOC  .        2301' FSL & 782' FWL                     :LOCATION
CNTY .        NATRONA                                  :COUNTY
STAT .        WYOMING                                  :STATE
CTRY .                                                 :COUNTRY
API  .        4902523047                               :API NUMBER
UWI  .                                                 :UNIQUE WELL ID
DATE .        05-Apr-2002                              :LOG DATE {DD-MMM-YYYY}
SRVC .        Schlumberger                             :SERVICE COMPANY
LATI .DEG                                              :LATITUDE
LONG .DEG                                              :LONGITUDE
GDAT .                                                 :GeoDetic Datum
#-----------------------------------------------------------------------------
~PARAMETER INFORMATION
#MNEM.UNIT    VALUE                      DESCRIPTION
#---- -----   --------------------       ------------------------
RUN  .          1                        :RUN NUMBER
PDAT .        GROUND LEVEL               :Permanent Datum
EPD  .F         5214.799805              :Elevation of Permanent Datum above Mean Sea Level
LMF  .          KELLY BUSHING            :Logging Measured From (Name of Logging Elevation Reference)
APD  .F          10.000000               :Elevation of Depth Reference (LMF) above Permanent Datum
#-----------------------------------------------------------------------------
~CURVE INFORMATION
#MNEM.UNIT   API CODE                                  DESCRIPTION
#---- -----  --------                                  -----------------------
DEPT .F                                                :DEPTH (BOREHOLE) {F10.1}
IHV  .F3                                               :Integrated Hole Volume {F13.4}
ICV  .F3                                               :Integrated Cement Volume {F13.4}
PXND_HILT.CFCF                                         :HILT Porosity CrossPlot {F13.4}
HTEM .DEGF                                             :HTC Temperature {F13.4}
GR   .GAPI                                             :Gamma-Ray {F13.4}
NPHI .CFCF                                             :Thermal Neutron Porosity (Ratio Method) {F13.4}
TNPH .CFCF                                             :Thermal Neutron Porosity {F13.4}
NPOR .CFCF                                             :Enhanced Thermal Neutron Porosity {F13.4}
GDEV .DEG                                              :HGNS Deviation {F13.4}
RT_HRLT.OHMM                                           :HRLT Computed True Resistivity {F13.4}
RXO_HRLT.OHMM                                          :HRLT Computed Invaded Zone Resistivity {F13.4}
RM_HRLT.OHMM                                           :HRLT Mud Resistivity {F13.4}
RLA1 .OHMM                                             :HRLT Borehole Corrected Resistivity 1 {F13.4}
RLA2 .OHMM                                             :HRLT Borehole Corrected Resistivity 2 {F13.4}
RLA3 .OHMM                                             :HRLT Borehole Corrected Resistivity 3 {F13.4}
RLA4 .OHMM                                             :HRLT Borehole Corrected Resistivity 4 {F13.4}
RLA5 .OHMM                                             :HRLT Borehole Corrected Resistivity 5 {F13.4}
HCAL .IN                                               :HRCC Cal. Caliper {F13.4}
HDRA .G/C3                                             :HRDD Density Correction {F13.4}
PEFZ .                                                 :HRDD Standard Resolution Formation Photoelectric Factor {F13.4}
RHOZ .G/C3                                             :HRDD Standard Resolution Formation Density {F13.4}
HMIN .OHMM                                             :MCFL Micro Inverse Resistivity {F13.4}
HMNO .OHMM                                             :MCFL Micro Normal Resistivity {F13.4}
RXOZ .OHMM                                             :MCFL Standard Resolution Invaded Zone Resistivity {F13.4}
HAZ  .F/S2                                             :Z-Axis Acceleration {F13.4}
#-----------------------------------------------------------------------------
# 
#     DEPT        IHV          ICV       PXND_HILT       HTEM         GR           NPHI         TNPH         NPOR         GDEV       RT_HRLT      RXO_HRLT     RM_HRLT        RLA1         RLA2         RLA3         RLA4         RLA5         HCAL         HDRA         PEFZ         RHOZ         HMIN         HMNO         RXOZ         HAZ
#
~A  
# ...
     850.0    2889.0925    1526.8706       0.1974     122.3779     103.8414       0.2898       0.2898       0.2904       5.2400       8.7030       6.3035       0.7688       7.5570       7.5085       7.6873       7.8510       8.1602      13.0230       0.0134       2.8702       2.5261       5.0131       4.4293       6.3291      31.7479
     849.5    2889.5535    1527.1979       0.1956     122.3779      95.7111       0.2951       0.2893       0.2882       5.4663       8.7947       6.5575       0.7659       7.7098       7.6490       7.8306       7.9962       8.3145      13.0006       0.0036       2.8642       2.5337       5.2542       4.6426       6.5910      32.1693
     849.0    2890.0159    1527.5267       0.1953     122.3779      98.6026       0.2937       0.2936       0.2929       4.8819       8.9045       6.6036       0.7630       7.8098       7.7483       7.9351       8.0790       8.4065      13.0230      -0.0026       2.8647       2.5454       5.4449       4.8114       6.6326      31.3268
     848.5    2890.4792    1527.8564       0.1880     122.3779      94.0919       0.3012       0.2772       0.2692       5.1914       9.1258       6.5583       0.7600       7.9619       7.8782       8.0480       8.2057       8.5475      13.0341      -0.0066       2.8921       2.5398       5.2818       4.6671       6.5808      32.1828
     848.0    2890.9448    1528.1885       0.1895     122.3779      93.8918       0.2885       0.2757       0.2865       5.3415       9.0521       6.3009       0.7569       7.8145       7.7508       7.9175       8.0857       8.4027      13.0677      -0.0084       2.9082       2.5284       5.0415       4.4544       6.3162      31.7402
     847.5    2891.4104    1528.5205       0.1892     122.3779      94.4448       0.2825       0.2737       0.2787       5.2434       8.7019       6.1929       0.7556       7.5823       7.4845       7.6388       7.8103       8.1320      13.0677      -0.0084       2.8808       2.5243       4.9540       4.3770       6.2157      32.5507
     847.0    2891.8745    1528.8510       0.1911     122.3779      97.7638       0.2736       0.2768       0.2867       5.2160       8.7924       6.0961       0.7544       7.5774       7.4951       7.6771       7.8361       8.1537      13.0453      -0.0073       2.8591       2.5230       4.8821       4.3133       6.1145      31.5221
     846.5    2892.3418    1529.1846       0.1885     122.3779      98.9542       0.2683       0.2710       0.2580       5.2913       8.8286       6.1406       0.7540       7.5936       7.5201       7.7126       7.8721       8.1863      13.0900      -0.0080       2.8456       2.5199       4.7080       4.1593       6.1573      32.2917
     846.0    2892.8091    1529.5182       0.1922     122.3779      97.9119       0.2713       0.2743       0.2688       5.2156       8.4930       6.2803       0.7566       7.4324       7.3513       7.5440       7.6894       8.0160      13.0900      -0.0113       2.8707       2.5100       4.9327       4.3581       6.3130      32.1373
     845.5    2893.2747    1529.8502       0.1936     122.3779      96.0051       0.2767       0.2793       0.2899       5.3390       8.8209       6.3973       0.7576       7.5737       7.5904       7.7918       7.9509       8.2700      13.0677      -0.0114       2.8737       2.5169       5.1623       4.5613       6.4241      31.7667
     845.0    2893.7388    1530.1807       0.1875     122.3779      97.7248       0.2821       0.2694       0.2577       5.1587       9.1117       6.4747       0.7576       7.7561       7.7908       7.9967       8.1672       8.4987      13.0453      -0.0087       2.8907       2.5204       5.1219       4.5255       6.5028      32.4660
     844.5    2894.2012    1530.5095       0.1741     122.3779      99.3703       0.2791       0.2509       0.2489       5.3964       9.1878       6.2591       0.7581       7.7333       7.7607       7.9626       8.1387       8.4767      13.0230      -0.0064       2.9061       2.5363       5.0847       4.4927       6.2771      31.3642
     844.0    2894.6604    1530.8352       0.1728     122.3779     102.3359       0.2599       0.2521       0.2672       5.1736       9.2148       6.2120       0.7574       7.7030       7.7289       7.9501       8.1128       8.4735      12.9782      -0.0047       2.9620       2.5474       4.8485       4.2836       6.2333      32.1402
     843.5    2895.1165    1531.1577       0.1709     122.0186     108.2787       0.2561       0.2551       0.2531       5.3439       8.5156       6.0267       0.7562       7.2231       7.2583       7.4408       7.6047       7.9541      12.9335      -0.0033       2.9802       2.5680       4.8728       4.3051       6.0558      31.8427
     843.0    2895.5757    1531.4834       0.1755     122.0186     104.5485       0.2547       0.2595       0.2625       5.2588       8.4407       6.0502       0.7544       7.2397       7.2189       7.4078       7.5686       7.9081      12.9782      -0.0050       3.0065       2.5558       4.8655       4.2987       6.0804      31.8232
     842.5    2896.0303    1531.8043       0.1747     122.3779     101.3115       0.2564       0.2550       0.2468       5.3304       8.4131       6.1270       0.7527       7.2250       7.2115       7.3943       7.5737       7.9205      12.9112      -0.0060       2.9565       2.5464       4.9667       4.3882       6.1630      32.0315
     842.0    2896.4863    1532.1268       0.1755     122.3779      93.7009       0.2583       0.2505       0.2489       5.2723       8.7582       6.3160       0.7516       7.4638       7.4876       7.6788       7.8770       8.1951      12.9335      -0.0101       2.9465       2.5263       5.1668       4.5652       6.3447      31.7239
     841.5    2896.9424    1532.4493       0.1774     122.0186      96.0366       0.2545       0.2540       0.2565       5.2385       9.0730       6.3497       0.7506       7.6380       7.6949       7.8859       8.0885       8.4318      12.9335      -0.0099       2.9175       2.5274       5.0658       4.4759       6.3751      31.7906
     841.0    2897.3970    1532.7703       0.1778     122.0186     102.2270       0.2606       0.2564       0.2577       5.1892       8.8978       6.2782       0.7506       7.5441       7.5388       7.7315       7.9363       8.3103      12.9112      -0.0080       2.9097       2.5334       4.9600       4.3822       6.3131      31.5205
     840.5    2897.8540    1533.0936       0.1831     122.0186      93.2855       0.2556       0.2690       0.2882       5.2757       8.8884       6.3754       0.7509       7.5382       7.5492       7.7805       7.9639       8.3217      12.9447      -0.0044       2.9027       2.5430       5.0870       4.4947       6.4110      33.3091
     840.0    2898.3086    1533.4146       0.1819     122.0186      93.0133       0.2606       0.2688       0.2483       5.3057       8.8937       6.3984       0.7514       7.5352       7.5694       7.7841       7.9686       8.3493      12.9112      -0.0021       2.8972       2.5488       5.0729       4.4822       6.4372      31.3219
     839.5    2898.7639    1533.7363       0.1855     122.0186      93.6039       0.2697       0.2747       0.2741       5.1597       8.8712       6.4219       0.7533       7.5239       7.5316       7.7679       7.9496       8.3291      12.9224      -0.0028       2.8947       2.5462       5.0297       4.4439       6.4617      32.6157
     839.0    2899.2217    1534.0604       0.1824     122.0186      98.7154       0.2755       0.2708       0.2748       5.3346       9.1276       6.3726       0.7548       7.6346       7.6987       7.9272       8.1165       8.4916      12.9559      -0.0030       2.8420       2.5518       5.2250       4.6168       6.4048      31.7492
     838.5    2899.6763    1534.3813       0.1887     122.0186      96.8603       0.2778       0.2807       0.2761       5.1431       9.3159       6.2797       0.7568       7.7413       7.7780       7.9935       8.2006       8.5808      12.9112      -0.0062       2.8040       2.5462       5.0770       4.4858       6.3025      33.4425
