~VERSION INFORMATION
VERS.           2.0   :CWLS Log ASCII Standard - VERSION 2.0
WRAP.           NO    :One Line per depth step
PROD.  Schlumberger   :LAS Producer
PROG.  DLIS to ASCII 10C0-306                          :LAS Program name and version
CREA.        2002/04/05 15:33                          :LAS Creation date {YYYY/MM/DD hh:mm}
SOURCE.     FMI_033PUP.DLIS                            :DLIS File Name
FILE-ID.     FMI_033PUP                                :File Identification Number
#--------------------------------------------------
~WELL INFORMATION
#MNEM.UNIT      DATA             DESCRIPTION
#---- ------ --------------   -----------------------------
STRT .F      722.0           :START DEPTH     
STOP .F      5952.0          :STOP DEPTH     
STEP .F       0.5            :STEP     
NULL .          -999.25      :NULL VALUE
COMP .        DEPARTMENT OF ENERGY                     :COMPANY
WELL .        NPR-3 25-1-X-14                          :WELL
FLD  .        NPR-3                                    :FIELD
LOC  .        2301' FSL & 782' FWL                     :LOCATION
CNTY .        NATRONA                                  :COUNTY
STAT .        WYOMING                                  :STATE
CTRY .                                                 :COUNTRY
API  .        4902523047                               :API NUMBER
UWI  .                                                 :UNIQUE WELL ID
DATE .        05-Apr-2002                              :LOG DATE {DD-MMM-YYYY}
SRVC .        Schlumberger                             :SERVICE COMPANY
LATI .DEG                                              :LATITUDE
LONG .DEG                                              :LONGITUDE
GDAT .                                                 :GeoDetic Datum
#-----------------------------------------------------------------------------
~PARAMETER INFORMATION
#MNEM.UNIT    VALUE                      DESCRIPTION
#---- -----   --------------------       ------------------------
RUN  .          1                        :RUN NUMBER
PDAT .        GROUND LEVEL               :Permanent Datum
EPD  .F         5214.799805              :Elevation of Permanent Datum above Mean Sea Level
LMF  .          KELLY BUSHING            :Logging Measured From (Name of Logging Elevation Reference)
APD  .F          10.000000               :Elevation of Depth Reference (LMF) above Permanent Datum
#-----------------------------------------------------------------------------
~CURVE INFORMATION
#MNEM.UNIT   API CODE                                  DESCRIPTION
#---- -----  --------                                  -----------------------
DEPT .F                                                :DEPTH (BOREHOLE) {F10.1}
HAZI .DEG                                              :Hole Azimuth {F13.4}
SDEV .DEG                                              :Sonde Deviation {F13.4}
ED   .F                                                :East Departure {F13.4}
ND   .F                                                :North Departure {F13.4}
TVDE .F                                                :True Vertical Depth {F13.4}
VSEC .F                                                :Vertical Section {F13.4}
GR   .GAPI                                             :Gamma Ray {F13.4}
#-----------------------------------------------------------------------------
# 
#     DEPT        HAZI         SDEV         ED           ND           TVDE         VSEC         GR
#
~A  
# ...
    4514.0     336.5321       5.7406     -67.4199     204.3641    4505.1826     204.3641      53.0055
    4514.5     336.5259       5.7381     -67.4406     204.4091    4505.6802     204.4091      57.5464
    4515.0     336.5183       5.7340     -67.4614     204.4541    4506.1777     204.4541      54.4345
    4515.5     336.4850       5.7326     -67.4822     204.4990    4506.6753     204.4990      52.3943
    4516.0     336.4720       5.7267     -67.5030     204.5439    4507.1729     204.5439      52.2593
    4516.5     336.4596       5.7254     -67.5238     204.5887    4507.6704     204.5887      54.4821
    4517.0     336.4181       5.7211     -67.5447     204.6334    4508.1680     204.6334      55.3315
    4517.5     336.3833       5.7231     -67.5657     204.6781    4508.6655     204.6781      54.4503
    4518.0     336.3297       5.7254     -67.5867     204.7228    4509.1631     204.7228      52.9420
    4518.5     336.3035       5.7157     -67.6077     204.7674    4509.6606     204.7674      54.4900
    4519.0     336.2448       5.7164     -67.6288     204.8120    4510.1582     204.8120      60.2058
    4519.5     336.2023       5.7165     -67.6498     204.8566    4510.6558     204.8566      66.1597
    4520.0     336.1478       5.7101     -67.6710     204.9011    4511.1533     204.9011      68.8985
    4520.5     336.1086       5.7145     -67.6921     204.9456    4511.6509     204.9456      71.1848
    4521.0     336.0730       5.7117     -67.7132     204.9900    4512.1484     204.9900      70.9466
    4521.5     336.0059       5.7071     -67.7344     205.0344    4512.6460     205.0344      67.3346
    4522.0     335.9281       5.7070     -67.7556     205.0788    4513.1436     205.0788      60.6900
    4522.5     335.8721       5.7070     -67.7768     205.1232    4513.6411     205.1232      59.1500
    4523.0     335.7884       5.7046     -67.7980     205.1675    4514.1387     205.1675      55.3791
    4523.5     335.7047       5.7012     -67.8192     205.2119    4514.6362     205.2119      55.7364
    4524.0     335.6360       5.7003     -67.8404     205.2562    4515.1338     205.2562      52.8150
    4524.5     335.5342       5.6976     -67.8616     205.3005    4515.6313     205.3005      53.1564
    4525.0     335.4625       5.6971     -67.8829     205.3448    4516.1289     205.3448      51.8465
    4525.5     335.4179       5.6960     -67.9040     205.3892    4516.6265     205.3892      50.3223
    4526.0     335.3337       5.6893     -67.9252     205.4335    4517.1240     205.4335      54.1487
    4526.5     335.2672       5.6820     -67.9464     205.4778    4517.6216     205.4778      53.5533
    4527.0     335.2160       5.6873     -67.9675     205.5221    4518.1196     205.5221      55.9666
    4527.5     335.1313       5.6774     -67.9886     205.5664    4518.6172     205.5664      53.1087
    4528.0     335.0657       5.6740     -68.0097     205.6106    4519.1147     205.6106      51.7750
    4528.5     335.0185       5.6740     -68.0307     205.6549    4519.6123     205.6549      51.1797
    4529.0     334.8948       5.6652     -68.0518     205.6991    4520.1099     205.6991      51.5369
    4529.5     334.8500       5.6651     -68.0727     205.7433    4520.6074     205.7433      51.0288
    4530.0     334.8103       5.6650     -68.0937     205.7875    4521.1050     205.7875      45.1940
    4530.5     334.7451       5.6602     -68.1146     205.8317    4521.6025     205.8317      41.9630
    4531.0     334.7007       5.6591     -68.1355     205.8759    4522.1001     205.8759      39.5179
    4531.5     334.6540       5.6537     -68.1563     205.9201    4522.5977     205.9201      41.6296
    4532.0     334.6100       5.6552     -68.1772     205.9643    4523.0952     205.9643      41.8836
    4532.5     334.5762       5.6510     -68.1979     206.0084    4523.5928     206.0084      40.8119
    4533.0     334.5322       5.6485     -68.2187     206.0526    4524.0908     206.0526      36.9141
    4533.5     334.5043       5.6445     -68.2394     206.0967    4524.5884     206.0967      35.4851
    4534.0     334.4482       5.6447     -68.2601     206.1408    4525.0859     206.1408      36.2075
    4534.5     334.4428       5.6442     -68.2808     206.1849    4525.5835     206.1849      44.1858
    4535.0     334.4448       5.6411     -68.3014     206.2289    4526.0811     206.2289      50.8542
    4535.5     334.4247       5.6420     -68.3220     206.2730    4526.5786     206.2730      55.9348
    4536.0     334.4418       5.6430     -68.3426     206.3170    4527.0762     206.3170      56.8875
    4536.5     334.4337       5.6387     -68.3631     206.3610    4527.5742     206.3610      56.3477
    4537.0     334.4197       5.6381     -68.3837     206.4049    4528.0718     206.4049      55.6649
    4537.5     334.4937       5.6405     -68.4042     206.4489    4528.5693     206.4489      53.8073
    4538.0     334.4746       5.6353     -68.4246     206.4927    4529.0669     206.4927      55.4188
    4538.5     334.4898       5.6344     -68.4451     206.5366    4529.5645     206.5366      53.8708
    4539.0     334.5079       5.6306     -68.4655     206.5804    4530.0625     206.5804      53.9978
    4539.5     334.4994       5.6263     -68.4860     206.6241    4530.5601     206.6241      51.6163
    4540.0     334.5372       5.6274     -68.5064     206.6679    4531.0576     206.6679      53.5215
    4540.5     334.5621       5.6200     -68.5268     206.7115    4531.5552     206.7115      53.9026
    4541.0     334.5877       5.6196     -68.5473     206.7552    4532.0527     206.7552      56.2842
    4541.5     334.6262       5.6182     -68.5677     206.7987    4532.5508     206.7987      59.5310
    4542.0     334.6598       5.6122     -68.5881     206.8423    4533.0483     206.8423      62.6667
    4542.5     334.6943       5.6104     -68.6085     206.8857    4533.5459     206.8857      63.4685
    4543.0     334.7276       5.6090     -68.6290     206.9291    4534.0435     206.9291      62.9605
    4543.5     334.7465       5.6056     -68.6494     206.9725    4534.5415     206.9725      60.2217
    4544.0     334.7784       5.6036     -68.6699     207.0158    4535.0391     207.0158      56.1571
    4544.5     334.8056       5.5996     -68.6904     207.0591    4535.5366     207.0591      55.6808
    4545.0     334.8244       5.5979     -68.7109     207.1023    4536.0347     207.1023      57.2288
    4545.5     334.8521       5.5928     -68.7315     207.1455    4536.5322     207.1455      57.2288
    4546.0     334.8579       5.5900     -68.7520     207.1887    4537.0298     207.1887      52.7039
    4546.5     334.8948       5.5849     -68.7726     207.2318    4537.5278     207.2318      44.9638
    4547.0     334.9186       5.5818     -68.7933     207.2749    4538.0254     207.2749      40.2642
    4547.5     334.9339       5.5798     -68.8140     207.3180    4538.5229     207.3180      33.9530
    4548.0     334.9655       5.5733     -68.8347     207.3610    4539.0205     207.3610      34.2864
    4548.5     334.9862       5.5702     -68.8554     207.4040    4539.5186     207.4040      33.7942
    4549.0     334.9838       5.5653     -68.8762     207.4469    4540.0161     207.4469      34.0562
    4549.5     334.9877       5.5610     -68.8970     207.4900    4540.5137     207.4900      36.6998
    4550.0     334.9907       5.5539     -68.9179     207.5331    4541.0117     207.5331      38.7162
    4550.5     334.9793       5.5511     -68.9388     207.5760    4541.5093     207.5760      41.4311
    4551.0     334.9881       5.5469     -68.9597     207.6189    4542.0068     207.6189      36.2473
    4551.5     334.9476       5.5390     -68.9806     207.6619    4542.5049     207.6619      37.5651
    4552.0     334.9443       5.5372     -69.0016     207.7049    4543.0024     207.7049      37.0094
    4552.5     334.9219       5.5290     -69.0227     207.7478    4543.5000     207.7478      36.9538
    4553.0     334.8869       5.5261     -69.0439     207.7908    4543.9980     207.7908      33.6037
