~VERSION INFORMATION
VERS.           2.0   :CWLS Log ASCII Standard - VERSION 2.0
WRAP.           NO    :One Line per depth step
PROD.  Schlumberger   :LAS Producer
PROG.  DLIS to ASCII 10C0-306                          :LAS Program name and version
CREA.        2002/04/05 15:33                          :LAS Creation date {YYYY/MM/DD hh:mm}
SOURCE.     FMI_033PUP.DLIS                            :DLIS File Name
FILE-ID.     FMI_033PUP                                :File Identification Number
#--------------------------------------------------
~WELL INFORMATION
#MNEM.UNIT      DATA             DESCRIPTION
#---- ------ --------------   -----------------------------
STRT .F      722.0           :START DEPTH     
STOP .F      5952.0          :STOP DEPTH     
STEP .F       0.5            :STEP     
NULL .          -999.25      :NULL VALUE
COMP .        DEPARTMENT OF ENERGY                     :COMPANY
WELL .        NPR-3 25-1-X-14                          :WELL
FLD  .        NPR-3                                    :FIELD
LOC  .        2301' FSL & 782' FWL                     :LOCATION
CNTY .        NATRONA                                  :COUNTY
STAT .        WYOMING                                  :STATE
CTRY .                                                 :COUNTRY
API  .        4902523047                               :API NUMBER
UWI  .                                                 :UNIQUE WELL ID
DATE .        05-Apr-2002                              :LOG DATE {DD-MMM-YYYY}
SRVC .        Schlumberger                             :SERVICE COMPANY
LATI .DEG                                              :LATITUDE
LONG .DEG                                              :LONGITUDE
GDAT .                                                 :GeoDetic Datum
#-----------------------------------------------------------------------------
~PARAMETER INFORMATION
#MNEM.UNIT    VALUE                      DESCRIPTION
#---- -----   --------------------       ------------------------
RUN  .          1                        :RUN NUMBER
PDAT .        GROUND LEVEL               :Permanent Datum
EPD  .F         5214.799805              :Elevation of Permanent Datum above Mean Sea Level
LMF  .          KELLY BUSHING            :Logging Measured From (Name of Logging Elevation Reference)
APD  .F          10.000000               :Elevation of Depth Reference (LMF) above Permanent Datum
#-----------------------------------------------------------------------------
~CURVE INFORMATION
#MNEM.UNIT   API CODE                                  DESCRIPTION
#---- -----  --------                                  -----------------------
DEPT .F                                                :DEPTH (BOREHOLE) {F10.1}
HAZI .DEG                                              :Hole Azimuth {F13.4}
SDEV .DEG                                              :Sonde Deviation {F13.4}
ED   .F                                                :East Departure {F13.4}
ND   .F                                                :North Departure {F13.4}
TVDE .F                                                :True Vertical Depth {F13.4}
VSEC .F                                                :Vertical Section {F13.4}
GR   .GAPI                                             :Gamma Ray {F13.4}
#-----------------------------------------------------------------------------
# 
#     DEPT        HAZI         SDEV         ED           ND           TVDE         VSEC         GR
#
~A  
# ...
    3487.0      10.1983       3.4121     -49.3886     104.9517    3483.4595     104.9517      99.0810
    3487.5      10.2318       3.4179     -49.3833     104.9820    3483.9585     104.9820     100.0336
    3488.0      10.2483       3.4226     -49.3781     105.0123    3484.4575     105.0123      91.3965
    3488.5      10.2381       3.4276     -49.3729     105.0427    3484.9565     105.0427      93.3017
    3489.0      10.2653       3.4339     -49.3677     105.0731    3485.4556     105.0731      96.3502
    3489.5      10.2502       3.4386     -49.3626     105.1036    3485.9546     105.1036      97.9537
    3490.0      10.2735       3.4418     -49.3574     105.1342    3486.4536     105.1342      98.7714
    3490.5      10.1718       3.4505     -49.3523     105.1648    3486.9526     105.1648      93.9448
    3491.0      10.1820       3.4507     -49.3471     105.1955    3487.4517     105.1955      92.1586
    3491.5      10.1293       3.4547     -49.3420     105.2262    3487.9507     105.2262      87.6495
    3492.0      10.1485       3.4623     -49.3369     105.2570    3488.4497     105.2570      85.3632
    3492.5      10.1113       3.4652     -49.3317     105.2880    3488.9487     105.2880      86.3158
    3493.0      10.1123       3.4683     -49.3266     105.3190    3489.4478     105.3190      91.5870
    3493.5      10.1046       3.4728     -49.3215     105.3500    3489.9468     105.3500      94.4608
    3494.0      10.1040       3.4752     -49.3163     105.3812    3490.4458     105.3812     107.4403
    3494.5      10.0871       3.4839     -49.3111     105.4125    3490.9448     105.4125     114.8073
    3495.0      10.0580       3.4878     -49.3060     105.4438    3491.4438     105.4438     114.3468
    3495.5      10.0758       3.4905     -49.3007     105.4752    3491.9429     105.4752     100.5338
    3496.0      10.0391       3.4965     -49.2955     105.5067    3492.4417     105.5067      89.4833
    3496.5       9.9964       3.4973     -49.2901     105.5382    3492.9407     105.5382      87.5622
    3497.0       9.9945       3.5024     -49.2848     105.5699    3493.4397     105.5699      82.5450
    3497.5       9.9379       3.5055     -49.2794     105.6016    3493.9387     105.6016      81.6718
    3498.0       9.8888       3.5103     -49.2739     105.6333    3494.4377     105.6333      80.6001
    3498.5       9.8703       3.5163     -49.2684     105.6651    3494.9365     105.6651      83.3944
    3499.0       9.8215       3.5182     -49.2628     105.6969    3495.4355     105.6969      81.9655
    3499.5       9.7730       3.5260     -49.2572     105.7288    3495.9346     105.7288      82.4180
    3500.0       9.7338       3.5326     -49.2515     105.7608    3496.4333     105.7608      85.3552
    3500.5       9.6722       3.5376     -49.2457     105.7928    3496.9324     105.7928      95.7865
    3501.0       9.6514       3.5417     -49.2399     105.8248    3497.4314     105.8248     100.3353
    3501.5       9.6020       3.5512     -49.2340     105.8569    3497.9302     105.8569     101.4626
    3502.0       9.5756       3.5560     -49.2280     105.8889    3498.4292     105.8889      97.1043
    3502.5       9.5388       3.5651     -49.2220     105.9210    3498.9282     105.9210      92.9365
    3503.0       9.4971       3.5696     -49.2159     105.9531    3499.4270     105.9531      91.0948
    3503.5       9.4448       3.5769     -49.2097     105.9853    3499.9260     105.9853      85.9268
    3504.0       9.4039       3.5908     -49.2035     106.0174    3500.4248     106.0174      89.6182
    3504.5       9.4202       3.5965     -49.1972     106.0496    3500.9238     106.0496      95.6912
    3505.0       9.4040       3.6082     -49.1909     106.0817    3501.4229     106.0817      98.9937
    3505.5       9.3881       3.6183     -49.1844     106.1139    3501.9216     106.1139      98.5173
    3506.0       9.3752       3.6259     -49.1780     106.1461    3502.4207     106.1461      90.6582
    3506.5       9.3978       3.6374     -49.1715     106.1784    3502.9194     106.1784      91.8013
    3507.0       9.4144       3.6451     -49.1649     106.2107    3503.4185     106.2107      92.6507
    3507.5       9.4842       3.6565     -49.1583     106.2431    3503.9172     106.2431     103.3678
    3508.0       9.5262       3.6641     -49.1516     106.2755    3504.4163     106.2755     109.5916
    3508.5       9.5674       3.6750     -49.1450     106.3079    3504.9150     106.3079     115.7678
    3509.0       9.6626       3.6840     -49.1382     106.3404    3505.4141     106.3404     112.3145
    3509.5       9.7159       3.6918     -49.1315     106.3729    3505.9128     106.3729     110.2823
    3510.0       9.8056       3.6930     -49.1247     106.4055    3506.4119     106.4055     105.1619
    3510.5       9.8885       3.7038     -49.1179     106.4381    3506.9106     106.4381     108.7660
    3511.0       9.9810       3.7111     -49.1110     106.4708    3507.4097     106.4708     110.2981
    3511.5      10.0756       3.7216     -49.1042     106.5035    3507.9084     106.5035     115.5931
    3512.0      10.1801       3.7276     -49.0973     106.5363    3508.4075     106.5363     114.6088
    3512.5      10.2912       3.7260     -49.0904     106.5692    3508.9063     106.5692     111.9335
    3513.0      10.3611       3.7357     -49.0835     106.6022    3509.4050     106.6022     110.4490
    3513.5      10.4847       3.7390     -49.0766     106.6352    3509.9041     106.6352     114.4818
    3514.0      10.5878       3.7414     -49.0697     106.6683    3510.4028     106.6683     113.3465
    3514.5      10.6920       3.7473     -49.0629     106.7015    3510.9016     106.7015     114.1960
    3515.0      10.7966       3.7498     -49.0561     106.7347    3511.4006     106.7347     111.1158
    3515.5      10.9124       3.7529     -49.0493     106.7680    3511.8994     106.7680     113.0211
    3516.0      11.0069       3.7547     -49.0425     106.8014    3512.3982     106.8014     110.9888
    3516.5      11.1173       3.7599     -49.0358     106.8348    3512.8970     106.8348     106.5829
    3517.0      11.2180       3.7621     -49.0291     106.8683    3513.3958     106.8683     102.8915
    3517.5      11.2918       3.7658     -49.0224     106.9019    3513.8948     106.9019      98.1204
    3518.0      11.3989       3.7712     -49.0158     106.9355    3514.3936     106.9355      94.0479
    3518.5      11.4397       3.7824     -49.0092     106.9693    3514.8923     106.9693      91.3091
    3519.0      11.5110       3.7810     -49.0026     107.0031    3515.3911     107.0031      92.0157
    3519.5      11.5736       3.7898     -48.9961     107.0370    3515.8899     107.0370      96.6835
    3520.0      11.6179       3.7934     -48.9897     107.0710    3516.3887     107.0710      97.5171
    3520.5      11.6710       3.8005     -48.9833     107.1051    3516.8875     107.1051     103.1058
    3521.0      11.7102       3.8086     -48.9770     107.1392    3517.3862     107.1392      96.6756
    3521.5      11.7459       3.8113     -48.9707     107.1735    3517.8850     107.1735      96.1675
    3522.0      11.7982       3.8183     -48.9645     107.2077    3518.3838     107.2077      89.9913
    3522.5      11.8260       3.8261     -48.9584     107.2421    3518.8828     107.2421      95.7071
    3523.0      11.8467       3.8307     -48.9523     107.2765    3519.3813     107.2765     101.4229
    3523.5      11.8762       3.8391     -48.9463     107.3111    3519.8801     107.3111     105.7097
    3524.0      11.8653       3.8489     -48.9403     107.3456    3520.3789     107.3456     105.6938
    3524.5      11.8166       3.8601     -48.9344     107.3803    3520.8777     107.3803     104.1775
    3525.0      11.7837       3.8659     -48.9286     107.4150    3521.3765     107.4150     104.7967
    3525.5      11.7417       3.8730     -48.9228     107.4498    3521.8752     107.4498     110.2585
    3526.0      11.6798       3.8792     -48.9171     107.4846    3522.3740     107.4846     114.3071
