~VERSION INFORMATION
VERS.           2.0   :CWLS Log ASCII Standard - VERSION 2.0
WRAP.           NO    :One Line per depth step
PROD.  Schlumberger   :LAS Producer
PROG.  DLIS to ASCII 10C0-306                          :LAS Program name and version
CREA.        2002/04/05 15:26                          :LAS Creation date {YYYY/MM/DD hh:mm}
SOURCE.     SONIC_063PUP.DLIS                          :DLIS File Name
FILE-ID.     SONIC_063PUP                              :File Identification Number
#--------------------------------------------------
~WELL INFORMATION
#MNEM.UNIT      DATA             DESCRIPTION
#---- ------ --------------   -----------------------------
STRT .F         5958.0       :START DEPTH     
STOP .F          675.5       :STOP DEPTH     
STEP .F           -0.5       :STEP     
NULL .          -999.25      :NULL VALUE
COMP .        DEPARTMENT OF ENERGY                     :COMPANY
WELL .        NPR-3 25-1-X-14                          :WELL
FLD  .        NPR-3                                    :FIELD
LOC  .        2301' FSL & 782' FWL                     :LOCATION
CNTY .        NATRONA                                  :COUNTY
STAT .        WYOMING                                  :STATE
CTRY .                                                 :COUNTRY
API  .        4902523047                               :API NUMBER
UWI  .                                                 :UNIQUE WELL ID
DATE .        05-Apr-2002                              :LOG DATE {DD-MMM-YYYY}
SRVC .        Schlumberger                             :SERVICE COMPANY
LATI .DEG                                              :LATITUDE
LONG .DEG                                              :LONGITUDE
GDAT .                                                 :GeoDetic Datum
#-----------------------------------------------------------------------------
~PARAMETER INFORMATION
#MNEM.UNIT    VALUE                      DESCRIPTION
#---- -----   --------------------       ------------------------
RUN  .          1                        :RUN NUMBER
PDAT .        GROUND LEVEL               :Permanent Datum
EPD  .F         5214.799805              :Elevation of Permanent Datum above Mean Sea Level
LMF  .          KELLY BUSHING            :Logging Measured From (Name of Logging Elevation Reference)
APD  .F          10.000000               :Elevation of Depth Reference (LMF) above Permanent Datum
#-----------------------------------------------------------------------------
~CURVE INFORMATION
#MNEM.UNIT   API CODE                                  DESCRIPTION
#---- -----  --------                                  -----------------------
DEPT .F                                                :DEPTH (BOREHOLE) {F10.1}
GR   .GAPI                                             :Gamma-Ray {F13.4}
ITT  .S                                                :Integrated Transit Time {F13.4}
SPHI .CFCF                                             :Sonic Porosity {F13.4}
SVEL .FT/S                                             :Sonic Velocity {F13.4}
DT   .US/F                                             :Delta-T {F13.4}
#-----------------------------------------------------------------------------
# 
#     DEPT        GR           ITT          SPHI         SVEL         DT
#
~A  
# ...
    3149.0      98.6988       0.2131       0.2103   12459.4248      80.2605
    3148.5      99.3112       0.2132       0.2084   12501.5205      79.9903
    3148.0      97.9503       0.2132       0.2112   12439.5391      80.3888
    3147.5      94.1398       0.2133       0.2127   12409.1572      80.5856
    3147.0      92.9491       0.2133       0.2173   12311.5166      81.2248
    3146.5      93.1192       0.2133       0.2200   12255.0947      81.5987
    3146.0      98.1205       0.2134       0.2226   12202.4766      81.9506
    3145.5     105.0270       0.2134       0.2253   12146.2666      82.3298
    3145.0     103.5981       0.2135       0.2265   12123.6416      82.4835
    3144.5     104.3125       0.2135       0.2308   12037.3008      83.0751
    3144.0      94.4460       0.2136       0.2353   11947.2598      83.7012
    3143.5      98.2566       0.2136       0.2300   12052.1924      82.9725
    3143.0      98.0184       0.2136       0.2279   12093.6357      82.6881
    3142.5     107.0003       0.2137       0.2238   12177.1328      82.1211
    3142.0     105.3332       0.2137       0.2189   12279.3301      81.4377
    3141.5     115.0976       0.2138       0.2975   10839.0381      92.2591
    3141.0     132.4150       0.2138       0.4180    9186.6475     108.8536
    3140.5     154.6656       0.2139       0.4232    9126.1465     109.5753
    3140.0     156.8090       0.2139       0.4430    8904.9385     112.2972
    3139.5     140.3762       0.2140       0.4426    8908.7637     112.2490
    3139.0     124.0795       0.2140       0.2960   10862.5840      92.0591
    3138.5     118.2277       0.2141       0.2790   11145.5313      89.7221
    3138.0     113.2264       0.2141       0.2705   11293.3662      88.5476
    3137.5     109.6541       0.2142       0.2581   11516.0566      86.8353
    3137.0     110.9809       0.2142       0.2488   11688.3750      85.5551
    3136.5     107.4086       0.2142       0.2445   11768.9893      84.9691
    3136.0     104.4146       0.2143       0.2370   11914.6895      83.9300
    3135.5      95.3647       0.2143       0.2375   11903.3594      84.0099
    3135.0     101.3186       0.2144       0.2439   11781.2568      84.8806
    3134.5     110.5046       0.2144       0.2509   11647.9756      85.8518
    3134.0     110.6067       0.2145       0.2558   11557.3291      86.5252
    3133.5     102.7475       0.2145       0.2592   11496.1416      86.9857
    3133.0      95.8410       0.2145       0.2586   11505.3936      86.9158
    3132.5      95.7389       0.2146       0.2519   11629.9316      85.9850
    3132.0     100.5020       0.2146       0.2443   11772.3496      84.9448
    3131.5      93.0511       0.2147       0.2329   11994.8350      83.3692
    3131.0      94.9564       0.2147       0.2259   12135.6387      82.4019
    3130.5      97.5761       0.2148       0.2252   12149.8652      82.3054
    3130.0     102.4073       0.2148       0.2727   11254.5303      88.8531
    3129.5     100.0598       0.2148       0.2845   11052.7676      90.4751
    3129.0      93.6295       0.2149       0.2305   12042.7432      83.0376
    3128.5      95.2966       0.2149       0.2250   12153.3379      82.2819
    3128.0     103.1218       0.2150       0.2063   12545.7539      79.7082
    3127.5     109.0417       0.2150       0.2163   12333.1260      81.0824
    3127.0     117.1390       0.2150       0.2117   12429.3018      80.4550
    3126.5     120.4732       0.2151       0.2213   12228.6006      81.7755
    3126.0     118.2957       0.2151       0.2956   10869.2021      92.0031
    3125.5     118.7720       0.2152       0.2907   10948.9854      91.3327
    3125.0     112.1037       0.2152       0.2074   12522.7529      79.8546
    3124.5     115.6420       0.2153       0.2070   12529.7578      79.8100
    3124.0     109.6881       0.2153       0.2413   11830.6084      84.5265
    3123.5     108.2591       0.2153       0.2517   11633.1963      85.9609
    3123.0     104.0744       0.2154       0.2544   11584.2383      86.3242
    3122.5     101.6928       0.2154       0.2532   11606.1826      86.1610
    3122.0      99.7195       0.2155       0.2426   11806.0576      84.7023
    3121.5     101.3866       0.2155       0.2389   11877.0303      84.1961
    3121.0     101.8629       0.2156       0.2338   11976.3809      83.4977
    3120.5     101.6928       0.2156       0.2347   11958.2148      83.6245
    3120.0     100.9443       0.2156       0.2414   11827.6680      84.5475
    3119.5     107.3746       0.2157       0.2470   11720.7920      85.3185
    3119.0     109.9943       0.2157       0.2513   11641.0791      85.9027
    3118.5     110.2665       0.2158       0.2529   11611.6953      86.1201
    3118.0     102.4073       0.2158       0.2523   11621.8584      86.0448
    3117.5     101.6928       0.2159       0.2511   11644.2051      85.8796
    3117.0      99.7876       0.2159       0.2506   11653.9385      85.8079
    3116.5      98.9030       0.2159       0.2564   11546.6768      86.6050
    3116.0      97.2359       0.2160       0.2563   11548.4297      86.5919
    3115.5     104.3806       0.2160       0.2551   11570.1299      86.4295
    3115.0     110.9129       0.2161       0.2535   11599.1563      86.2132
    3114.5     115.1997       0.2161       0.2347   11959.6895      83.6142
    3114.0     109.7221       0.2162       0.2377   11900.5928      84.0294
    3113.5     111.2191       0.2162       0.3202   10483.2158      95.3906
    3113.0     114.4852       0.2163       0.3209   10473.0303      95.4833
    3112.5     114.7234       0.2163       0.3364   10243.0068      97.6276
    3112.0     112.3418       0.2164       0.3450   10121.4580      98.8000
    3111.5     106.4560       0.2164       0.2862   11024.3525      90.7083
    3111.0     108.1230       0.2164       0.3030   10749.5967      93.0267
    3110.5     108.1230       0.2165       0.3131   10591.1006      94.4189
    3110.0     105.5714       0.2165       0.3108   10626.9463      94.1004
    3109.5     102.9517       0.2166       0.2954   10872.7031      91.9734
    3109.0     100.5701       0.2166       0.3122   10605.9619      94.2866
    3108.5     100.2979       0.2167       0.2933   10906.1445      91.6914
    3108.0      96.2492       0.2167       0.2872   11007.0605      90.8508
    3107.5      98.8690       0.2168       0.2850   11043.6270      90.5500
    3107.0      96.9297       0.2168       0.2723   11262.0664      88.7936
    3106.5      98.3926       0.2169       0.2795   11137.6689      89.7854
    3106.0      95.5348       0.2169       0.2917   10932.2793      91.4722
    3105.5     102.2032       0.2169       0.2945   10887.6816      91.8469
    3105.0     105.0270       0.2170       0.2947   10884.5049      91.8737
    3104.5     107.1704       0.2170       0.2980   10830.1416      92.3349
    3104.0     102.7135       0.2171       0.2942   10892.1006      91.8097
    3103.5      96.9977       0.2171       0.2989   10815.4492      92.4603
    3103.0      98.9030       0.2172       0.3028   10753.2734      92.9949
    3102.5      99.3113       0.2172       0.3063   10697.4941      93.4798
    3102.0     108.8375       0.2173       0.3043   10729.2676      93.2030
    3101.5     105.2652       0.2173       0.3009   10784.1895      92.7283
    3101.0     108.6674       0.2174       0.3055   10709.6914      93.3734
    3100.5     100.5701       0.2174       0.3080   10670.3438      93.7177
    3100.0     101.0464       0.2175       0.3141   10576.1367      94.5525
    3099.5      99.7876       0.2175       0.3196   10491.4961      95.3153
    3099.0     109.4159       0.2176       0.3179   10517.4668      95.0799
    3098.5     110.1304       0.2176       0.3136   10583.6699      94.4852
    3098.0     112.7501       0.2176       0.3093   10651.4248      93.8842
    3097.5     114.3151       0.2177       0.3374   10229.1729      97.7596
    3097.0     114.2471       0.2177       0.3316   10313.4766      96.9605
    3096.5     115.9142       0.2178       0.3324   10301.8438      97.0700
