~VERSION INFORMATION
VERS.           2.0   :CWLS Log ASCII Standard - VERSION 2.0
WRAP.           NO    :One Line per depth step
PROD.  Schlumberger   :LAS Producer
PROG.  DLIS to ASCII 10C0-306                          :LAS Program name and version
CREA.        2002/04/05 15:26                          :LAS Creation date {YYYY/MM/DD hh:mm}
SOURCE.     SONIC_063PUP.DLIS                          :DLIS File Name
FILE-ID.     SONIC_063PUP                              :File Identification Number
#--------------------------------------------------
~WELL INFORMATION
#MNEM.UNIT      DATA             DESCRIPTION
#---- ------ --------------   -----------------------------
STRT .F         5958.0       :START DEPTH     
STOP .F          675.5       :STOP DEPTH     
STEP .F           -0.5       :STEP     
NULL .          -999.25      :NULL VALUE
COMP .        DEPARTMENT OF ENERGY                     :COMPANY
WELL .        NPR-3 25-1-X-14                          :WELL
FLD  .        NPR-3                                    :FIELD
LOC  .        2301' FSL & 782' FWL                     :LOCATION
CNTY .        NATRONA                                  :COUNTY
STAT .        WYOMING                                  :STATE
CTRY .                                                 :COUNTRY
API  .        4902523047                               :API NUMBER
UWI  .                                                 :UNIQUE WELL ID
DATE .        05-Apr-2002                              :LOG DATE {DD-MMM-YYYY}
SRVC .        Schlumberger                             :SERVICE COMPANY
LATI .DEG                                              :LATITUDE
LONG .DEG                                              :LONGITUDE
GDAT .                                                 :GeoDetic Datum
#-----------------------------------------------------------------------------
~PARAMETER INFORMATION
#MNEM.UNIT    VALUE                      DESCRIPTION
#---- -----   --------------------       ------------------------
RUN  .          1                        :RUN NUMBER
PDAT .        GROUND LEVEL               :Permanent Datum
EPD  .F         5214.799805              :Elevation of Permanent Datum above Mean Sea Level
LMF  .          KELLY BUSHING            :Logging Measured From (Name of Logging Elevation Reference)
APD  .F          10.000000               :Elevation of Depth Reference (LMF) above Permanent Datum
#-----------------------------------------------------------------------------
~CURVE INFORMATION
#MNEM.UNIT   API CODE                                  DESCRIPTION
#---- -----  --------                                  -----------------------
DEPT .F                                                :DEPTH (BOREHOLE) {F10.1}
GR   .GAPI                                             :Gamma-Ray {F13.4}
ITT  .S                                                :Integrated Transit Time {F13.4}
SPHI .CFCF                                             :Sonic Porosity {F13.4}
SVEL .FT/S                                             :Sonic Velocity {F13.4}
DT   .US/F                                             :Delta-T {F13.4}
#-----------------------------------------------------------------------------
# 
#     DEPT        GR           ITT          SPHI         SVEL         DT
#
~A  
# ...
    3838.0     144.3229       0.1535       0.3291   10349.5293      96.6227
    3837.5     144.7992       0.1535       0.3421   10162.2119      98.4038
    3837.0     148.8479       0.1536       0.3818    9626.5293     103.8796
    3836.5     158.1360       0.1536       0.3671    9817.9141     101.8546
    3836.0     155.5163       0.1537       0.3798    9652.3809     103.6014
    3835.5     141.7032       0.1537       0.3597    9918.1045     100.8257
    3835.0     130.0335       0.1538       0.2566   11542.3389      86.6376
    3834.5     128.3664       0.1538       0.3118   10612.4932      94.2286
    3834.0     131.7006       0.1539       0.2830   11078.3721      90.2660
    3833.5     125.9848       0.1539       0.2936   10901.7676      91.7282
    3833.0     116.3905       0.1539       0.2784   11157.0635      89.6293
    3832.5     101.4660       0.1540       0.2197   12261.5850      81.5555
    3832.0      97.8937       0.1540       0.1988   12710.2158      78.6769
    3831.5     105.3446       0.1541       0.2239   12176.5010      82.1254
    3831.0     125.5085       0.1541       0.2604   11473.8330      87.1548
    3830.5     134.0821       0.1542       0.2657   11377.4531      87.8931
    3830.0     127.1756       0.1542       0.2823   11090.2402      90.1694
    3829.5     119.7928       0.1542       0.2608   11465.5957      87.2174
    3829.0     112.4099       0.1543       0.2205   12245.8994      81.6600
    3828.5     118.8401       0.1543       0.2312   12028.7285      83.1343
    3828.0     125.2704       0.1544       0.2437   11785.1748      84.8524
    3827.5     130.5098       0.1544       0.2515   11636.3477      85.9376
    3827.0     132.8914       0.1544       0.2554   11565.6885      86.4626
    3826.5     127.9241       0.1545       0.2595   11489.3779      87.0369
    3826.0     134.4072       0.1545       0.2533   11604.5049      86.1734
    3825.5     137.5033       0.1546       0.2618   11447.6943      87.3538
    3825.0     144.0356       0.1546       0.2707   11289.2676      88.5797
    3824.5     139.3783       0.1547       0.2693   11314.4512      88.3825
    3824.0     141.6238       0.1547       0.2899   10963.0449      91.2155
    3823.5     142.9166       0.1548       0.2864   11021.2520      90.7338
    3823.0     146.8065       0.1548       0.2834   11071.5088      90.3219
    3822.5     140.2742       0.1549       0.2952   10875.1230      91.9530
    3822.0     136.9400       0.1549       0.2877   10998.8447      90.9186
    3821.5     135.7493       0.1549       0.3087   10660.7354      93.8022
    3821.0     145.5137       0.1550       0.3146   10569.1133      94.6153
    3820.5     150.0386       0.1550       0.3150   10562.5918      94.6737
    3820.0     155.2781       0.1551       0.3202   10483.5986      95.3871
    3819.5     145.0374       0.1551       0.2872   11007.1514      90.8500
    3819.0     137.4163       0.1552       0.2865   11018.4590      90.7568
    3818.5     134.5585       0.1552       0.2779   11164.7979      89.5672
    3818.0     146.6780       0.1553       0.2778   11165.9932      89.5576
    3817.5     151.6793       0.1553       0.2951   10876.7920      91.9389
    3817.0     161.2055       0.1554       0.3007   10787.1670      92.7027
    3816.5     161.5382       0.1554       0.3109   10625.3291      94.1147
    3816.0     160.3739       0.1555       0.3086   10660.9150      93.8006
    3815.5     146.4928       0.1555       0.3119   10609.9053      94.2515
    3815.0     134.9932       0.1555       0.3013   10776.7002      92.7928
    3814.5     133.2996       0.1556       0.2993   10808.9668      92.5158
    3814.0     134.5585       0.1556       0.3024   10759.0410      92.9451
    3813.5     137.6545       0.1557       0.3089   10656.6514      93.8381
    3813.0     143.1321       0.1557       0.3336   10283.9072      97.2393
    3812.5     151.7057       0.1558       0.3405   10183.9717      98.1935
    3812.0     147.8952       0.1558       0.3496   10056.9834      99.4334
    3811.5     143.6084       0.1559       0.3483   10074.4082      99.2614
    3811.0     135.9874       0.1559       0.3289   10353.3447      96.5871
    3810.5     137.1782       0.1560       0.3218   10458.7871      95.6134
    3810.0     141.9753       0.1560       0.3134   10587.3037      94.4528
    3809.5     147.4529       0.1561       0.3094   10649.8555      93.8980
    3809.0     152.4542       0.1561       0.3166   10537.6572      94.8978
    3808.5     155.5162       0.1562       0.3124   10602.4932      94.3174
    3808.0     146.9426       0.1562       0.3076   10677.7734      93.6525
    3807.5     137.6545       0.1563       0.2987   10819.0771      92.4293
    3807.0     124.7940       0.1563       0.2886   10984.3203      91.0389
    3806.5     130.5098       0.1564       0.2802   11124.8057      89.8892
    3806.0     143.3702       0.1564       0.2705   11292.7266      88.5526
    3805.5     154.3254       0.1564       0.3568    9957.0293     100.4316
    3805.0     158.3741       0.1565       0.3923    9495.2900     105.3154
    3804.5     149.0860       0.1565       0.3815    9630.3447     103.8384
    3804.0     135.2729       0.1566       0.3577    9944.4082     100.5590
    3803.5     114.9616       0.1566       0.2608   11465.7656      87.2162
    3803.0     108.2932       0.1567       0.2025   12629.8242      79.1777
    3802.5     110.6748       0.1567       0.2045   12585.5313      79.4563
    3802.0     109.3139       0.1568       0.1955   12783.4785      78.2260
    3801.5     107.8849       0.1568       0.2128   12405.8984      80.6068
    3801.0     114.0770       0.1568       0.3029   10752.0732      93.0053
    3800.5     145.1054       0.1569       0.3731    9739.1797     102.6781
    3800.0     158.9185       0.1570       0.4071    9314.4346     107.3602
    3799.5     147.2488       0.1570       0.4116    9261.2949     107.9763
    3799.0     125.7467       0.1571       0.3218   10458.2627      95.6182
    3798.5     114.7915       0.1571       0.2644   11401.8691      87.7049
    3798.0     115.7441       0.1571       0.2565   11543.8154      86.6265
    3797.5     119.0783       0.1572       0.2682   11334.3057      88.2277
    3797.0     119.3164       0.1572       0.2695   11311.1963      88.4080
    3796.5     122.8888       0.1573       0.2811   11110.5898      90.0042
    3796.0     130.5098       0.1573       0.2824   11088.3857      90.1845
    3795.5     138.3690       0.1574       0.2810   11111.8633      89.9939
    3795.0     138.3690       0.1574       0.2941   10894.0781      91.7930
    3794.5     125.0322       0.1575       0.2860   11026.7383      90.6887
    3794.0     116.2204       0.1575       0.2803   11124.3340      89.8930
    3793.5     117.6494       0.1575       0.2712   11281.2090      88.6430
    3793.0     119.7928       0.1576       0.2752   11211.8779      89.1911
    3792.5     120.0309       0.1576       0.2850   11045.0273      90.5385
    3792.0     114.0770       0.1577       0.2791   11144.7695      89.7282
    3791.5     108.8376       0.1577       0.2820   11094.7617      90.1326
    3791.0     106.4560       0.1578       0.2727   11255.0684      88.8489
    3790.5     103.8363       0.1578       0.2710   11284.5283      88.6169
    3790.0     104.7889       0.1579       0.2701   11300.3008      88.4932
    3789.5     105.7415       0.1579       0.2699   11303.3994      88.4690
    3789.0     119.7928       0.1580       0.3057   10707.2891      93.3943
    3788.5     133.1295       0.1580       0.2903   10956.3730      91.2711
    3788.0     147.6571       0.1580       0.3727    9744.6641     102.6203
    3787.5     154.9719       0.1581       0.3571    9952.9307     100.4729
    3787.0     142.5878       0.1581       0.3164   10540.7441      94.8700
    3786.5     127.8221       0.1582       0.3164   10540.3477      94.8735
    3786.0     113.3626       0.1582       0.2300   12052.2344      82.9722
    3785.5     121.2217       0.1583       0.2813   11106.3555      90.0385
