~VERSION INFORMATION
VERS.           2.0   :CWLS Log ASCII Standard - VERSION 2.0
WRAP.           NO    :One Line per depth step
PROD.  Schlumberger   :LAS Producer
PROG.  DLIS to ASCII 10C0-306                          :LAS Program name and version
CREA.        2002/04/05 15:26                          :LAS Creation date {YYYY/MM/DD hh:mm}
SOURCE.     SONIC_063PUP.DLIS                          :DLIS File Name
FILE-ID.     SONIC_063PUP                              :File Identification Number
#--------------------------------------------------
~WELL INFORMATION
#MNEM.UNIT      DATA             DESCRIPTION
#---- ------ --------------   -----------------------------
STRT .F         5958.0       :START DEPTH     
STOP .F          675.5       :STOP DEPTH     
STEP .F           -0.5       :STEP     
NULL .          -999.25      :NULL VALUE
COMP .        DEPARTMENT OF ENERGY                     :COMPANY
WELL .        NPR-3 25-1-X-14                          :WELL
FLD  .        NPR-3                                    :FIELD
LOC  .        2301' FSL & 782' FWL                     :LOCATION
CNTY .        NATRONA                                  :COUNTY
STAT .        WYOMING                                  :STATE
CTRY .                                                 :COUNTRY
API  .        4902523047                               :API NUMBER
UWI  .                                                 :UNIQUE WELL ID
DATE .        05-Apr-2002                              :LOG DATE {DD-MMM-YYYY}
SRVC .        Schlumberger                             :SERVICE COMPANY
LATI .DEG                                              :LATITUDE
LONG .DEG                                              :LONGITUDE
GDAT .                                                 :GeoDetic Datum
#-----------------------------------------------------------------------------
~PARAMETER INFORMATION
#MNEM.UNIT    VALUE                      DESCRIPTION
#---- -----   --------------------       ------------------------
RUN  .          1                        :RUN NUMBER
PDAT .        GROUND LEVEL               :Permanent Datum
EPD  .F         5214.799805              :Elevation of Permanent Datum above Mean Sea Level
LMF  .          KELLY BUSHING            :Logging Measured From (Name of Logging Elevation Reference)
APD  .F          10.000000               :Elevation of Depth Reference (LMF) above Permanent Datum
#-----------------------------------------------------------------------------
~CURVE INFORMATION
#MNEM.UNIT   API CODE                                  DESCRIPTION
#---- -----  --------                                  -----------------------
DEPT .F                                                :DEPTH (BOREHOLE) {F10.1}
GR   .GAPI                                             :Gamma-Ray {F13.4}
ITT  .S                                                :Integrated Transit Time {F13.4}
SPHI .CFCF                                             :Sonic Porosity {F13.4}
SVEL .FT/S                                             :Sonic Velocity {F13.4}
DT   .US/F                                             :Delta-T {F13.4}
#-----------------------------------------------------------------------------
# 
#     DEPT        GR           ITT          SPHI         SVEL         DT
#
~A  
# ...
     711.0      54.0614       0.4383       0.0484   17252.6484      57.9621
     710.5      50.2509       0.4383       0.0495   17205.1621      58.1221
     710.0      47.6312       0.4383       0.0515   17124.3672      58.3963
     709.5      49.2983       0.4384       0.0604   16775.0625      59.6123
     709.0      44.7733       0.4384       0.0614   16735.8027      59.7521
     708.5      46.2023       0.4384       0.0578   16874.1211      59.2623
     708.0      45.4878       0.4385       0.0621   16706.4902      59.8570
     707.5      46.9167       0.4385       0.0622   16704.7910      59.8631
     707.0      46.6786       0.4385       0.0597   16799.4668      59.5257
     706.5      49.5364       0.4385       0.0614   16733.5352      59.7602
     706.0      56.2048       0.4386       0.0533   17053.6738      58.6384
     705.5      58.8246       0.4386       0.0460   17350.9590      57.6337
     705.0      56.6811       0.4386       0.0500   17187.2637      58.1826
     704.5      52.8706       0.4387       0.0495   17205.7246      58.1202
     704.0      50.9654       0.4387       0.0515   17126.8223      58.3879
     703.5      52.6325       0.4387       0.0496   17200.8398      58.1367
     703.0      51.9180       0.4387       0.0430   17475.6895      57.2224
     702.5      52.6325       0.4388       0.0408   17567.3848      56.9237
     702.0      47.8694       0.4388       0.0378   17698.1797      56.5030
     701.5      48.5838       0.4388       0.0431   17471.5605      57.2359
     701.0      45.9981       0.4389       0.0527   17076.4414      58.5602
     700.5      49.0412       0.4389       0.0527   17076.3281      58.5606
     700.0      51.8991       0.4389       0.0559   16950.7441      58.9945
     699.5      60.3367       0.4390       0.1760   13238.9658      75.5346
     699.0      57.7963       0.4390       0.1760   13238.8594      75.5352
     698.5      54.4621       0.4390       0.1794   13158.4609      75.9967
     698.0      44.1193       0.4391       0.1862   12996.2754      76.9451
     697.5      42.6639       0.4391       0.1888   12937.4238      77.2951
     697.0      41.9495       0.4391       0.0590   16827.4629      59.4267
     696.5      43.3444       0.4392       0.0550   16985.8379      58.8726
     696.0      44.5352       0.4392       0.0482   17260.2246      57.9367
     695.5      44.2970       0.4392       0.0457   17363.0234      57.5937
     695.0      43.5825       0.4393       0.0429   17479.0840      57.2112
     694.5      41.6773       0.4393       0.0448   17402.0020      57.4647
     694.0      44.2970       0.4393       0.0515   17127.3496      58.3861
     693.5      45.2496       0.4393       0.0481   17265.8809      57.9177
     693.0      45.0115       0.4394       0.0435   17453.7480      57.2943
     692.5      41.4391       0.4394       0.0454   17376.6133      57.5486
     692.0      41.9154       0.4394       0.0399   17606.5957      56.7969
     691.5      40.0102       0.4395       0.0663   16546.6895      60.4351
     691.0      38.5812       0.4395       0.0715   16356.0557      61.1394
     690.5      37.8668       0.4395       0.0756   16206.5186      61.7036
     690.0      42.6299       0.4395       0.0785   16100.1270      62.1113
     689.5      47.9034       0.4396       0.1218   14689.3682      68.0764
     689.0      50.2849       0.4396       0.0562   16938.9863      59.0354
     688.5      51.7139       0.4396       0.1750   13263.4541      75.3951
     688.0      46.4404       0.4397       0.1793   13159.7041      75.9895
     687.5      43.8207       0.4397       0.1954   12785.5439      78.2133
     687.0      44.2970       0.4398       0.2018   12644.9434      79.0830
     686.5      46.9167       0.4398       0.2131   12400.8350      80.6397
     686.0      48.1075       0.4398       0.2272   12107.8477      82.5911
     685.5      44.5352       0.4399       0.3752    9711.6357     102.9693
     685.0      39.5339       0.4400       0.3731    9739.0381     102.6796
     684.5      40.4865       0.4400       0.3727    9745.0195     102.6165
     684.0      37.6286       0.4401       0.3728    9742.8926     102.6389
     683.5      43.8207       0.4401       0.4930    8390.4072     119.1837
     683.0      44.0588       0.4402       0.3457   10111.2256      98.9000
     682.5      46.4404       0.4402       0.3477   10082.7871      99.1789
     682.0      40.9628       0.4403       0.2247   12159.8213      82.2381
     681.5      39.2957       0.4403       0.3275   10373.6318      96.3983
     681.0      39.5339       0.4403       0.3241   10425.0342      95.9230
     680.5      39.7720       0.4404       0.3225   10447.9121      95.7129
     680.0      40.7247       0.4404       0.3302   10333.6514      96.7712
     679.5      39.2957       0.4405       0.0477   17279.8906      57.8707
     679.0      41.4391       0.4405       0.0501   17182.4004      58.1991
     678.5      42.8681       0.4405       0.0501   17182.4004      58.1991
     678.0      45.2496       0.4405       0.0501   17182.4004      58.1991
     677.5      44.5352       0.4405       0.0501   17182.4004      58.1991
     677.0      42.8681       0.4405       0.0501   17182.4004      58.1991
     676.5      40.9628       0.4405       0.0501   17182.4004      58.1991
     676.0      42.3918       0.4405       0.0501   17182.4004      58.1991
     675.5      42.8681       0.4405       0.0501   17182.4004      58.1991
