~VERSION INFORMATION
VERS.           2.0   :CWLS Log ASCII Standard - VERSION 2.0
WRAP.           NO    :One Line per depth step
PROD.  Schlumberger   :LAS Producer
PROG.  DLIS to ASCII 10C0-306                          :LAS Program name and version
CREA.        2002/04/05 15:33                          :LAS Creation date {YYYY/MM/DD hh:mm}
SOURCE.     FMI_033PUP.DLIS                            :DLIS File Name
FILE-ID.     FMI_033PUP                                :File Identification Number
#--------------------------------------------------
~WELL INFORMATION
#MNEM.UNIT      DATA             DESCRIPTION
#---- ------ --------------   -----------------------------
STRT .F      722.0           :START DEPTH     
STOP .F      5952.0          :STOP DEPTH     
STEP .F       0.5            :STEP     
NULL .          -999.25      :NULL VALUE
COMP .        DEPARTMENT OF ENERGY                     :COMPANY
WELL .        NPR-3 25-1-X-14                          :WELL
FLD  .        NPR-3                                    :FIELD
LOC  .        2301' FSL & 782' FWL                     :LOCATION
CNTY .        NATRONA                                  :COUNTY
STAT .        WYOMING                                  :STATE
CTRY .                                                 :COUNTRY
API  .        4902523047                               :API NUMBER
UWI  .                                                 :UNIQUE WELL ID
DATE .        05-Apr-2002                              :LOG DATE {DD-MMM-YYYY}
SRVC .        Schlumberger                             :SERVICE COMPANY
LATI .DEG                                              :LATITUDE
LONG .DEG                                              :LONGITUDE
GDAT .                                                 :GeoDetic Datum
#-----------------------------------------------------------------------------
~PARAMETER INFORMATION
#MNEM.UNIT    VALUE                      DESCRIPTION
#---- -----   --------------------       ------------------------
RUN  .          1                        :RUN NUMBER
PDAT .        GROUND LEVEL               :Permanent Datum
EPD  .F         5214.799805              :Elevation of Permanent Datum above Mean Sea Level
LMF  .          KELLY BUSHING            :Logging Measured From (Name of Logging Elevation Reference)
APD  .F          10.000000               :Elevation of Depth Reference (LMF) above Permanent Datum
#-----------------------------------------------------------------------------
~CURVE INFORMATION
#MNEM.UNIT   API CODE                                  DESCRIPTION
#---- -----  --------                                  -----------------------
DEPT .F                                                :DEPTH (BOREHOLE) {F10.1}
HAZI .DEG                                              :Hole Azimuth {F13.4}
SDEV .DEG                                              :Sonde Deviation {F13.4}
ED   .F                                                :East Departure {F13.4}
ND   .F                                                :North Departure {F13.4}
TVDE .F                                                :True Vertical Depth {F13.4}
VSEC .F                                                :Vertical Section {F13.4}
GR   .GAPI                                             :Gamma Ray {F13.4}
#-----------------------------------------------------------------------------
# 
#     DEPT        HAZI         SDEV         ED           ND           TVDE         VSEC         GR
#
~A  
# ...
    4158.5     346.1508       6.8460     -54.7519     166.5799    4151.9443     166.5799     102.7247
    4159.0     346.0652       6.8509     -54.7666     166.6392    4152.4409     166.6392     100.5813
    4159.5     346.0157       6.8549     -54.7813     166.6986    4152.9370     166.6986     101.4704
    4160.0     345.8892       6.8467     -54.7960     166.7579    4153.4331     166.7579      99.0571
    4160.5     345.8428       6.8507     -54.8108     166.8174    4153.9297     166.8174      96.1516
    4161.0     345.8224       6.8577     -54.8255     166.8769    4154.4258     166.8769      91.9600
    4161.5     345.7889       6.8642     -54.8403     166.9363    4154.9219     166.9363      87.0064
    4162.0     345.7211       6.8591     -54.8550     166.9957    4155.4180     166.9957      84.7201
    4162.5     345.6911       6.8657     -54.8698     167.0550    4155.9146     167.0550      81.4414
    4163.0     345.6699       6.8752     -54.8846     167.1144    4156.4106     167.1144      81.4414
    4163.5     345.6947       6.8784     -54.8994     167.1739    4156.9067     167.1739      79.4092
    4164.0     345.7167       6.8929     -54.9143     167.2335    4157.4033     167.2335      81.9257
    4164.5     345.7301       6.8938     -54.9291     167.2931    4157.8994     167.2931      78.2422
    4165.0     345.7145       6.9045     -54.9439     167.3527    4158.3955     167.3527      84.2755
    4165.5     345.7685       6.9272     -54.9587     167.4123    4158.8916     167.4123      83.1324
    4166.0     345.7620       6.9346     -54.9735     167.4720    4159.3882     167.4720      84.2755
    4166.5     345.7229       6.9177     -54.9883     167.5318    4159.8843     167.5318      82.0527
    4167.0     345.8078       6.9434     -55.0031     167.5916    4160.3804     167.5916      86.3713
    4167.5     345.7993       6.9410     -55.0179     167.6515    4160.8765     167.6515      92.2141
    4168.0     345.8004       6.9350     -55.0327     167.7114    4161.3726     167.7114      91.1979
    4168.5     345.9511       6.9790     -55.0475     167.7714    4161.8687     167.7714      86.8159
    4169.0     345.9601       6.9865     -55.0623     167.8314    4162.3652     167.8314      87.9590
    4169.5     345.9692       6.9911     -55.0771     167.8915    4162.8613     167.8915      91.1344
    4170.0     345.9820       7.0032     -55.0919     167.9517    4163.3574     167.9517      99.2000
    4170.5     346.0527       7.0138     -55.1066     168.0119    4163.8535     168.0119     104.3362
    4171.0     346.1112       7.0276     -55.1214     168.0721    4164.3496     168.0721     116.6569
    4171.5     346.1011       7.0191     -55.1362     168.1324    4164.8457     168.1324     127.1993
    4172.0     346.0893       7.0387     -55.1510     168.1926    4165.3418     168.1926     135.2456
    4172.5     346.0774       7.0401     -55.1658     168.2528    4165.8379     168.2528     131.0858
    4173.0     346.0575       7.0289     -55.1806     168.3130    4166.3340     168.3130     124.8619
    4173.5     346.0610       7.0351     -55.1954     168.3731    4166.8301     168.3731     117.9032
    4174.0     346.0023       7.0249     -55.2103     168.4333    4167.3267     168.4333     113.0449
    4174.5     346.0053       7.0297     -55.2251     168.4933    4167.8228     168.4933     107.5831
    4175.0     346.0132       7.0426     -55.2400     168.5533    4168.3188     168.5533     104.3521
    4175.5     346.0020       7.0423     -55.2549     168.6132    4168.8149     168.6132     103.9711
    4176.0     346.0465       7.0543     -55.2699     168.6731    4169.3110     168.6731     104.6062
    4176.5     346.0433       7.0576     -55.2848     168.7329    4169.8071     168.7329     103.5186
    4177.0     346.0201       7.0537     -55.2998     168.7926    4170.3037     168.7926     101.7403
    4177.5     346.0462       7.0677     -55.3148     168.8522    4170.7998     168.8522      97.1598
    4178.0     346.0893       7.0669     -55.3297     168.9117    4171.2959     168.9117      95.1275
    4178.5     346.1071       7.0796     -55.3447     168.9711    4171.7920     168.9711      93.7303
    4179.0     346.1160       7.0842     -55.3597     169.0306    4172.2886     169.0306      95.5165
    4179.5     346.0999       7.0838     -55.3747     169.0901    4172.7847     169.0901      98.9936
    4180.0     346.1784       7.0958     -55.3896     169.1495    4173.2808     169.1495     102.0420
    4180.5     346.1474       7.0983     -55.4046     169.2089    4173.7769     169.2089     103.4392
    4181.0     346.1807       7.1048     -55.4195     169.2684    4174.2734     169.2684     103.6456
    4181.5     346.1949       7.1212     -55.4344     169.3278    4174.7695     169.3278     107.5831
    4182.0     346.2078       7.1207     -55.4493     169.3872    4175.2656     169.3872     110.8300
    4182.5     346.2035       7.1203     -55.4643     169.4466    4175.7622     169.4466     114.3865
    4183.0     346.2127       7.1264     -55.4792     169.5060    4176.2583     169.5060     114.6405
    4183.5     346.2170       7.1262     -55.4941     169.5654    4176.7544     169.5654     116.6013
    4184.0     346.1949       7.1239     -55.5090     169.6248    4177.2505     169.6248     113.9340
    4184.5     346.1756       7.1217     -55.5239     169.6842    4177.7471     169.6842     113.8069
    4185.0     346.1372       7.1194     -55.5388     169.7436    4178.2432     169.7436     107.8372
    4185.5     346.1436       7.1157     -55.5536     169.8030    4178.7393     169.8030     106.0272
    4186.0     346.1408       7.1146     -55.5685     169.8625    4179.2358     169.8625     105.0110
    4186.5     346.0634       7.1010     -55.5834     169.9220    4179.7319     169.9220     110.7268
    4187.0     346.0580       7.0993     -55.5983     169.9816    4180.2280     169.9816     113.8228
    4187.5     346.0177       7.0889     -55.6131     170.0411    4180.7241     170.0411     111.4095
    4188.0     345.9796       7.0855     -55.6280     170.1007    4181.2207     170.1007     109.1232
    4188.5     345.9228       7.0775     -55.6430     170.1604    4181.7168     170.1604     101.8674
    4189.0     345.9290       7.0623     -55.6579     170.2201    4182.2129     170.2201      95.5165
    4189.5     345.8765       7.0597     -55.6729     170.2799    4182.7090     170.2799      88.4036
    4190.0     345.8569       7.0430     -55.6879     170.3397    4183.2051     170.3397      93.8653
    4190.5     345.8477       7.0426     -55.7029     170.3995    4183.7017     170.3995      97.0407
    4191.0     345.8702       7.0525     -55.7179     170.4594    4184.1978     170.4594      98.5411
    4191.5     345.8708       7.0373     -55.7330     170.5193    4184.6938     170.5193      94.2226
    4192.0     345.8917       7.0385     -55.7481     170.5793    4185.1899     170.5793      97.1439
    4192.5     345.8871       7.0390     -55.7632     170.6393    4185.6860     170.6393      99.7081
    4193.0     345.9047       7.0377     -55.7784     170.6994    4186.1821     170.6994      99.9860
    4193.5     345.9081       7.0365     -55.7937     170.7595    4186.6782     170.7595     100.1130
    4194.0     345.8918       7.0357     -55.8089     170.8197    4187.1743     170.8197     100.7480
    4194.5     345.8956       7.0330     -55.8242     170.8798    4187.6709     170.8798     102.8835
    4195.0     345.9072       7.0382     -55.8395     170.9400    4188.1670     170.9400     104.2807
    4195.5     345.9068       7.0335     -55.8549     171.0003    4188.6631     171.0003     104.6538
    4196.0     345.9265       7.0378     -55.8702     171.0606    4189.1592     171.0606     109.6075
    4196.5     345.9387       7.0363     -55.8856     171.1209    4189.6553     171.1209     112.1478
    4197.0     345.9355       7.0372     -55.9010     171.1812    4190.1514     171.1812     120.5389
    4197.5     345.9454       7.0425     -55.9164     171.2415    4190.6475     171.2415     129.5253
