~VERSION INFORMATION
VERS.           2.0   :CWLS Log ASCII Standard - VERSION 2.0
WRAP.           NO    :One Line per depth step
PROD.  Schlumberger   :LAS Producer
PROG.  DLIS to ASCII 10C0-306                          :LAS Program name and version
CREA.        2002/04/05 15:18                          :LAS Creation date {YYYY/MM/DD hh:mm}
SOURCE.     TLD_MCFL_CNL_007LUP.DLIS                   :DLIS File Name
FILE-ID.     TLD_MCFL_CNL_007LUP                       :File Identification Number
#--------------------------------------------------
~WELL INFORMATION
#MNEM.UNIT      DATA             DESCRIPTION
#---- ------ --------------   -----------------------------
STRT .F         5962.0       :START DEPTH     
STOP .F           44.0       :STOP DEPTH     
STEP .F           -0.5       :STEP     
NULL .          -999.25      :NULL VALUE
COMP .        DEPARTMENT OF ENERGY                     :COMPANY
WELL .        NPR-3 25-1-X-14                          :WELL
FLD  .        NPR-3                                    :FIELD
LOC  .        2301' FSL & 782' FWL                     :LOCATION
CNTY .        NATRONA                                  :COUNTY
STAT .        WYOMING                                  :STATE
CTRY .                                                 :COUNTRY
API  .        4902523047                               :API NUMBER
UWI  .                                                 :UNIQUE WELL ID
DATE .        05-Apr-2002                              :LOG DATE {DD-MMM-YYYY}
SRVC .        Schlumberger                             :SERVICE COMPANY
LATI .DEG                                              :LATITUDE
LONG .DEG                                              :LONGITUDE
GDAT .                                                 :GeoDetic Datum
#-----------------------------------------------------------------------------
~PARAMETER INFORMATION
#MNEM.UNIT    VALUE                      DESCRIPTION
#---- -----   --------------------       ------------------------
RUN  .          1                        :RUN NUMBER
PDAT .        GROUND LEVEL               :Permanent Datum
EPD  .F         5214.799805              :Elevation of Permanent Datum above Mean Sea Level
LMF  .          KELLY BUSHING            :Logging Measured From (Name of Logging Elevation Reference)
APD  .F          10.000000               :Elevation of Depth Reference (LMF) above Permanent Datum
#-----------------------------------------------------------------------------
~CURVE INFORMATION
#MNEM.UNIT   API CODE                                  DESCRIPTION
#---- -----  --------                                  -----------------------
DEPT .F                                                :DEPTH (BOREHOLE) {F10.1}
IHV  .F3                                               :Integrated Hole Volume {F13.4}
ICV  .F3                                               :Integrated Cement Volume {F13.4}
PXND_HILT.CFCF                                         :HILT Porosity CrossPlot {F13.4}
HTEM .DEGF                                             :HTC Temperature {F13.4}
GR   .GAPI                                             :Gamma-Ray {F13.4}
NPHI .CFCF                                             :Thermal Neutron Porosity (Ratio Method) {F13.4}
TNPH .CFCF                                             :Thermal Neutron Porosity {F13.4}
NPOR .CFCF                                             :Enhanced Thermal Neutron Porosity {F13.4}
GDEV .DEG                                              :HGNS Deviation {F13.4}
RT_HRLT.OHMM                                           :HRLT Computed True Resistivity {F13.4}
RXO_HRLT.OHMM                                          :HRLT Computed Invaded Zone Resistivity {F13.4}
RM_HRLT.OHMM                                           :HRLT Mud Resistivity {F13.4}
RLA1 .OHMM                                             :HRLT Borehole Corrected Resistivity 1 {F13.4}
RLA2 .OHMM                                             :HRLT Borehole Corrected Resistivity 2 {F13.4}
RLA3 .OHMM                                             :HRLT Borehole Corrected Resistivity 3 {F13.4}
RLA4 .OHMM                                             :HRLT Borehole Corrected Resistivity 4 {F13.4}
RLA5 .OHMM                                             :HRLT Borehole Corrected Resistivity 5 {F13.4}
HCAL .IN                                               :HRCC Cal. Caliper {F13.4}
HDRA .G/C3                                             :HRDD Density Correction {F13.4}
PEFZ .                                                 :HRDD Standard Resolution Formation Photoelectric Factor {F13.4}
RHOZ .G/C3                                             :HRDD Standard Resolution Formation Density {F13.4}
HMIN .OHMM                                             :MCFL Micro Inverse Resistivity {F13.4}
HMNO .OHMM                                             :MCFL Micro Normal Resistivity {F13.4}
RXOZ .OHMM                                             :MCFL Standard Resolution Invaded Zone Resistivity {F13.4}
HAZ  .F/S2                                             :Z-Axis Acceleration {F13.4}
#-----------------------------------------------------------------------------
# 
#     DEPT        IHV          ICV       PXND_HILT       HTEM         GR           NPHI         TNPH         NPOR         GDEV       RT_HRLT      RXO_HRLT     RM_HRLT        RLA1         RLA2         RLA3         RLA4         RLA5         HCAL         HDRA         PEFZ         RHOZ         HMIN         HMNO         RXOZ         HAZ
#
~A  
# ...
    2818.0    1599.8374     763.5052       0.1576     142.1398      50.9030       0.1718       0.1684       0.1735       2.9622      25.5346      15.7449       0.4737      19.4450      20.6504      21.0478      21.6527      23.1068       9.0438       0.0184       2.1454       2.3977       2.7873       3.6478      15.7411      31.9148
    2817.5    1600.0593     763.5935       0.1553     142.1398      53.4812       0.1684       0.1679       0.1647       3.4520      24.8228      15.8311       0.4737      18.1822      19.8497      20.3079      20.7347      22.1478       9.0215       0.0186       2.1674       2.4035       2.7512       3.6104      15.9010      31.5427
    2817.0    1600.2813     763.6818       0.1576     142.1398      52.4023       0.1701       0.1725       0.1748       3.6088      25.5269      16.6076       0.4737      18.4573      20.0343      20.7941      21.2474      22.6140       9.0215       0.0147       2.1675       2.4023       2.7930       3.6879      16.7607      32.0288
    2816.5    1600.5032     763.7701       0.1610     142.1398      53.4819       0.1714       0.1750       0.1817       2.8623      26.8118      16.5935       0.4736      18.8857      20.3807      21.5523      21.9364      23.4016       9.0215       0.0095       2.1443       2.3955       3.0770       4.0198      16.7098      32.6937
    2816.0    1600.7251     763.8585       0.1656     142.1398      48.8190       0.1712       0.1773       0.1753       2.3109      27.1791      16.1828       0.4750      18.8296      20.0507      21.4006      21.9851      23.4517       9.0215       0.0057       2.1190       2.3852       3.0772       3.9796      16.2462      32.4590
    2815.5    1600.9459     763.9457       0.1670     142.1398      53.4511       0.1730       0.1783       0.1761       2.7915      25.8005      15.6893       0.4767      17.8827      18.7633      20.0407      20.8703      22.1579       8.9991       0.0044       2.1196       2.3825       3.1434       4.0624      15.7878      31.7476
    2815.0    1601.1667     764.0329       0.1714     142.1398      51.3292       0.1749       0.1839       0.1834       3.4200      25.9852      16.2545       0.4774      17.8980      18.7785      20.0845      21.0534      22.3209       8.9991       0.0004       2.1423       2.3762       3.3751       4.3235      16.5178      31.1802
    2814.5    1601.3876     764.1201       0.1611     142.1398      51.4840       0.1814       0.1794       0.1776       3.6105      24.5804      17.2923       0.4786      17.4023      18.2774      19.5255      20.4915      21.7587       8.9991       0.0043       2.1854       2.4001       3.2674       4.2672      18.1022      32.3426
    2814.0    1601.6117     764.2106       0.1517     142.1398      56.4413       0.1797       0.1835       0.1714       2.9055      26.1103      19.0700       0.4809      18.6526      19.7829      21.0471      22.1321      23.5484       9.0662       0.0117       2.2382       2.4310       3.3583       4.4365      20.3560      33.0659
    2813.5    1601.8380     764.3033       0.1457     142.1398      65.4480       0.1919       0.1890       0.1881       2.3808      30.6571      19.5451       0.4803      21.0663      22.6132      23.6874      24.9740      26.5867       9.1109       0.0174       2.3170       2.4538       3.2944       4.3710      19.9907      31.7150
    2813.0    1602.0667     764.3983       0.1492     142.1398      75.7167       0.2030       0.1946       0.1895       3.0437      29.7741      17.8117       0.4813      19.7108      20.9786      22.4962      23.3748      25.3259       9.1556       0.0154       2.3851       2.4498       2.9221       3.8487      18.1080      31.5508
    2812.5    1602.2964     764.4944       0.1603     142.1398      74.1181       0.2141       0.2064       0.2150       3.7256      23.7586      15.4978       0.4813      17.0220      17.8538      18.6648      19.3592      20.9444       9.1779       0.0079       2.4182       2.4311       2.9676       3.8515      15.7154      31.7654
    2812.0    1602.5244     764.5888       0.1712     142.1398      75.9518       0.2212       0.2170       0.2391       3.2684      20.7044      14.4301       0.4782      15.8105      16.1370      16.8372      17.4884      18.7196       9.1444      -0.0004       2.4328       2.4118       2.9934       3.8616      14.6260      32.5685
    2811.5    1602.7531     764.6838       0.1694     142.1398      86.6195       0.2187       0.2149       0.2150       2.7439      19.7989      14.7161       0.4746      15.7582      15.9403      16.6291      17.2135      18.3472       9.1556      -0.0034       2.4479       2.4145       3.2695       4.1475      14.9827      31.9914
    2811.0    1602.9828     764.7798       0.1647     142.1398      91.3452       0.2122       0.2059       0.1946       2.6584      19.8057      15.2708       0.4716      16.0412      16.2556      16.9721      17.5880      18.5984       9.1779      -0.0057       2.5229       2.4184       3.4933       4.4324      15.6125      31.6870
    2810.5    1603.2125     764.8759       0.1670     142.1398      93.3523       0.2058       0.2074       0.2116       3.3164      22.3800      15.9841       0.4682      17.0706      17.8708      18.6046      19.2924      20.2631       9.1779      -0.0068       2.6394       2.4137       3.1337       4.0639      16.2673      31.8321
    2810.0    1603.4355     764.9653       0.1761     142.1398      78.7236       0.2094       0.2153       0.2210       3.3743      21.7107      15.3990       0.4658      16.6973      17.5113      18.1893      18.8394      19.6678       9.0438      -0.0069       2.7473       2.3965       2.8091       3.6784      15.6024      32.4179
    2809.5    1603.6520     765.0482       0.1800     142.1398      70.4228       0.2149       0.2055       0.2040       3.0778      21.6112      15.3986       0.4627      16.5337      17.4642      18.1343      18.7896      19.5374       8.9097      -0.0048       2.7805       2.3757       2.4197       3.2426      15.6353      32.2385
    2809.0    1603.8657     765.1283       0.1824     142.1398      65.7056       0.2055       0.1968       0.1879       3.0491      21.9869      15.1672       0.4587      16.6454      17.5279      18.2865      19.0409      19.6701       8.8538       0.0012       2.7478       2.3600       2.1081       2.8892      15.3404      32.1361
    2808.5    1604.0779     765.2068       0.1761     142.1398      70.3344       0.2003       0.1914       0.1990       3.2580      22.0201      15.1608       0.4547      16.7446      17.4597      18.3489      19.1509      19.6616       8.8203       0.0252       2.7478       2.3716       1.9512       2.6986      15.3210      31.7959
    2808.0    1604.2889     765.2843       0.1697     142.1398      75.7167       0.1919       0.1920       0.1974       3.2188      22.4855      14.6690       0.4534      17.0064      17.7035      18.6415      19.5443      19.8861       8.7979       0.0509       2.8342       2.3900       2.1423       2.9197      14.7164      31.0729
    2807.5    1604.4946     765.3564       0.1596     142.1398      73.0452       0.1908       0.1870       0.1819       3.2254      22.6955      14.9922       0.4536      17.2055      17.9048      18.9557      19.9435      20.0144       8.6861       0.0709       2.9549       2.4127       1.8372       2.5643      15.0700      32.6335
    2807.0    1604.7079     765.4360       0.1603     142.1398      78.0451       0.1856       0.1888       0.1763       2.7862      22.9167      16.2039       0.4578      17.6836      18.4256      19.5396      20.5761      20.4384       8.8426       0.0558       2.9799       2.4125       2.0956       2.9042      16.3951      32.6149
    2806.5    1604.9222     765.5167       0.1650     142.1398      78.6705       0.1957       0.1921       0.1957       2.6098      29.5371      16.6099       0.4599      21.2332      22.8270      24.2996      25.6059      25.2377       8.8650       0.0281       2.8590       2.4029       2.0333       2.8411      16.6131      31.8223
