~VERSION INFORMATION
VERS.           2.0   :CWLS Log ASCII Standard - VERSION 2.0
WRAP.           NO    :One Line per depth step
PROD.  Schlumberger   :LAS Producer
PROG.  DLIS to ASCII 10C0-306                          :LAS Program name and version
CREA.        2002/04/05 15:18                          :LAS Creation date {YYYY/MM/DD hh:mm}
SOURCE.     TLD_MCFL_CNL_007LUP.DLIS                   :DLIS File Name
FILE-ID.     TLD_MCFL_CNL_007LUP                       :File Identification Number
#--------------------------------------------------
~WELL INFORMATION
#MNEM.UNIT      DATA             DESCRIPTION
#---- ------ --------------   -----------------------------
STRT .F         5962.0       :START DEPTH     
STOP .F           44.0       :STOP DEPTH     
STEP .F           -0.5       :STEP     
NULL .          -999.25      :NULL VALUE
COMP .        DEPARTMENT OF ENERGY                     :COMPANY
WELL .        NPR-3 25-1-X-14                          :WELL
FLD  .        NPR-3                                    :FIELD
LOC  .        2301' FSL & 782' FWL                     :LOCATION
CNTY .        NATRONA                                  :COUNTY
STAT .        WYOMING                                  :STATE
CTRY .                                                 :COUNTRY
API  .        4902523047                               :API NUMBER
UWI  .                                                 :UNIQUE WELL ID
DATE .        05-Apr-2002                              :LOG DATE {DD-MMM-YYYY}
SRVC .        Schlumberger                             :SERVICE COMPANY
LATI .DEG                                              :LATITUDE
LONG .DEG                                              :LONGITUDE
GDAT .                                                 :GeoDetic Datum
#-----------------------------------------------------------------------------
~PARAMETER INFORMATION
#MNEM.UNIT    VALUE                      DESCRIPTION
#---- -----   --------------------       ------------------------
RUN  .          1                        :RUN NUMBER
PDAT .        GROUND LEVEL               :Permanent Datum
EPD  .F         5214.799805              :Elevation of Permanent Datum above Mean Sea Level
LMF  .          KELLY BUSHING            :Logging Measured From (Name of Logging Elevation Reference)
APD  .F          10.000000               :Elevation of Depth Reference (LMF) above Permanent Datum
#-----------------------------------------------------------------------------
~CURVE INFORMATION
#MNEM.UNIT   API CODE                                  DESCRIPTION
#---- -----  --------                                  -----------------------
DEPT .F                                                :DEPTH (BOREHOLE) {F10.1}
IHV  .F3                                               :Integrated Hole Volume {F13.4}
ICV  .F3                                               :Integrated Cement Volume {F13.4}
PXND_HILT.CFCF                                         :HILT Porosity CrossPlot {F13.4}
HTEM .DEGF                                             :HTC Temperature {F13.4}
GR   .GAPI                                             :Gamma-Ray {F13.4}
NPHI .CFCF                                             :Thermal Neutron Porosity (Ratio Method) {F13.4}
TNPH .CFCF                                             :Thermal Neutron Porosity {F13.4}
NPOR .CFCF                                             :Enhanced Thermal Neutron Porosity {F13.4}
GDEV .DEG                                              :HGNS Deviation {F13.4}
RT_HRLT.OHMM                                           :HRLT Computed True Resistivity {F13.4}
RXO_HRLT.OHMM                                          :HRLT Computed Invaded Zone Resistivity {F13.4}
RM_HRLT.OHMM                                           :HRLT Mud Resistivity {F13.4}
RLA1 .OHMM                                             :HRLT Borehole Corrected Resistivity 1 {F13.4}
RLA2 .OHMM                                             :HRLT Borehole Corrected Resistivity 2 {F13.4}
RLA3 .OHMM                                             :HRLT Borehole Corrected Resistivity 3 {F13.4}
RLA4 .OHMM                                             :HRLT Borehole Corrected Resistivity 4 {F13.4}
RLA5 .OHMM                                             :HRLT Borehole Corrected Resistivity 5 {F13.4}
HCAL .IN                                               :HRCC Cal. Caliper {F13.4}
HDRA .G/C3                                             :HRDD Density Correction {F13.4}
PEFZ .                                                 :HRDD Standard Resolution Formation Photoelectric Factor {F13.4}
RHOZ .G/C3                                             :HRDD Standard Resolution Formation Density {F13.4}
HMIN .OHMM                                             :MCFL Micro Inverse Resistivity {F13.4}
HMNO .OHMM                                             :MCFL Micro Normal Resistivity {F13.4}
RXOZ .OHMM                                             :MCFL Standard Resolution Invaded Zone Resistivity {F13.4}
HAZ  .F/S2                                             :Z-Axis Acceleration {F13.4}
#-----------------------------------------------------------------------------
# 
#     DEPT        IHV          ICV       PXND_HILT       HTEM         GR           NPHI         TNPH         NPOR         GDEV       RT_HRLT      RXO_HRLT     RM_HRLT        RLA1         RLA2         RLA3         RLA4         RLA5         HCAL         HDRA         PEFZ         RHOZ         HMIN         HMNO         RXOZ         HAZ
#
~A  
# ...
    4786.0     506.8939     196.4932       0.2397     161.1832      34.6021       0.2539       0.2295       0.2217       7.1044       5.0476       4.8030       0.3978       5.0572       5.1326       5.0785       5.0129       5.0488       8.6638      -0.0038       2.3621       2.2437       1.8757       2.1510       4.7762      31.7086
    4785.5     507.0996     196.5653       0.2349     161.1832      35.3124       0.2426       0.2267       0.2388       7.0377       5.1217       4.9966       0.3970       5.0919       5.1726       5.1608       5.0686       5.1269       8.6861      -0.0032       2.3666       2.2528       1.9374       2.1919       4.9751      32.2688
    4785.0     507.3043     196.6364       0.2330     161.1832      31.9205       0.2330       0.2274       0.2366       7.0689       5.0626       5.2283       0.3980       5.0415       5.1267       5.1480       5.0444       5.1012       8.6638      -0.0028       2.3841       2.2576       2.1385       2.4147       5.2452      31.9634
    4784.5     507.5090     196.7074       0.2308     161.1832      31.8395       0.2264       0.2215       0.2292       7.1440       5.3708       5.5698       0.3987       5.3480       5.4182       5.4799       5.3611       5.4148       8.6638      -0.0035       2.3831       2.2590       2.0428       2.3908       5.5946      32.2623
    4784.0     507.7158     196.7806       0.2289     161.1832      30.4031       0.2123       0.2118       0.2071       7.2529       6.0537       5.6429       0.3990       5.9206       5.9813       6.0408       5.9929       6.0513       8.7085      -0.0052       2.3657       2.2574       2.0315       2.3789       5.6353      32.1940
    4783.5     507.9226     196.8538       0.2264     161.1832      30.2511       0.2044       0.2090       0.2054       7.3285       5.8455       5.9021       0.4026       5.8063       5.8223       5.8607       5.8826       5.9080       8.7085      -0.0061       2.3590       2.2616       2.1085       2.4322       5.8996      31.9146
    4783.0     508.1289     196.9265       0.2182     161.1832      30.1070       0.2015       0.2048       0.2182       7.2916       5.9591       6.3893       0.4049       5.9643       5.9819       6.0091       6.0605       6.0918       8.6973      -0.0053       2.3674       2.2776       2.2416       2.6173       6.3857      31.9990
    4782.5     508.3347     196.9986       0.2056     161.1832      27.3740       0.1932       0.1893       0.1894       7.1950       6.3049       7.5413       0.4050       6.4328       6.4590       6.4829       6.5690       6.5698       8.6861      -0.0035       2.3928       2.2974       2.4311       2.8942       7.4903      31.8058
    4782.0     508.5393     197.0697       0.1984     161.1832      28.4700       0.1784       0.1841       0.1728       7.0433       7.0103       7.8429       0.4057       7.0822       7.0482       7.1176       7.1712       7.2242       8.6638      -0.0021       2.4060       2.3105       2.3291       2.8359       7.7918      31.8139
    4781.5     508.7430     197.1397       0.1962     161.1832      25.0701       0.1783       0.1813       0.1731       6.9643       7.7106       7.6046       0.4066       7.6059       7.5732       7.6915       7.7297       7.8132       8.6414      -0.0018       2.3932       2.3139       2.1674       2.6550       7.6805      31.7359
    4781.0     508.9456     197.2086       0.1980     161.1832      27.0990       0.1849       0.1837       0.1785       6.9932       7.5252       7.4958       0.4091       7.5019       7.4271       7.4925       7.5176       7.6256       8.6191      -0.0028       2.3860       2.3111       2.0930       2.5753       7.5226      32.6213
    4780.5     509.1492     197.2786       0.1978     161.1832      28.2895       0.1933       0.1879       0.1922       7.1222       7.7528       7.7470       0.4089       7.6852       7.7286       7.7103       7.7434       7.8406       8.6414      -0.0036       2.3977       2.3137       2.0612       2.5606       7.8235      31.8350
    4780.0     509.3528     197.3486       0.1981     161.1832      34.1266       0.1959       0.1972       0.2017       7.2473       7.6482       9.2855       0.4074       7.9847       7.9191       7.8869       7.8952       7.9898       8.6414      -0.0041       2.4083       2.3177       2.2609       2.8304       9.2242      31.5118
    4779.5     509.5565     197.4187       0.2027     161.1832      37.9401       0.2070       0.2065       0.1925       7.1088       9.0953       8.0131       0.4064       9.1284       8.9732       8.9435       8.9508       9.0566       8.6414      -0.0035       2.3821       2.3127       2.3556       2.9480       7.9977      31.8350
    4779.0     509.7596     197.4881       0.2139     161.1832      40.6569       0.2190       0.2127       0.2352       6.8963      10.1898       6.3616       0.4024       9.5091       9.3911       9.3101       9.3371       9.4249       8.6303      -0.0022       2.3545       2.2917       1.9647       2.3285       6.4641      31.8773
    4778.5     509.9622     197.5571       0.2137     161.1832      35.3496       0.2145       0.2013       0.2105       6.8488       6.9910       5.8631       0.4048       7.0911       6.7381       6.6842       6.7225       6.9233       8.6191       0.0116       2.3950       2.2857       1.7376       2.0696       5.9156      31.9345
    4778.0     510.1632     197.6245       0.2008     161.1832      31.1749       0.1983       0.1928       0.1870       7.0190       5.4830       7.0309       0.4082       5.9294       5.7947       5.7699       5.7527       5.7825       8.5855       0.0362       2.4886       2.3098       1.7892       2.2625       6.9889      32.8861
    4777.5     510.3637     197.6913       0.1871     161.1832      30.3756       0.1890       0.1929       0.1781       7.2954       9.1224       8.3081       0.3996       9.0864       9.0681       9.1063       9.0607       9.1106       8.5744       0.0592       2.5732       2.3427       1.7784       2.3100       8.2621      32.4881
    4777.0     510.5631     197.7572       0.1894     160.8239      32.5558       0.2002       0.2027       0.1995       7.4024       8.0662       7.7082       0.3992       8.0690       8.1327       8.1721       8.0211       8.0576       8.5520       0.0611       2.5992       2.3470       1.7787       2.2576       7.6605      31.0585
    4776.5     510.7625     197.8230       0.1985     161.1832      34.5855       0.2166       0.2124       0.2113       7.2512       7.1640       7.1339       0.4038       7.1088       7.2589       7.2595       7.1149       7.1266       8.5520       0.0510       2.5898       2.3324       1.7681       2.2000       7.0008      31.3233
    4776.0     510.9609     197.8878       0.2058     160.8239      33.0916       0.2293       0.2174       0.2286       6.8450       6.9984       7.0442       0.4006       6.9639       7.0822       7.0955       6.9717       6.9460       8.5297       0.0430       2.5764       2.3179       1.7920       2.2280       6.9083      31.0358
    4775.5     511.1604     197.9536       0.2174     160.8239      31.3876       0.2283       0.2313       0.2314       6.6837       7.1203       7.1486       0.3972       7.1177       7.1906       7.2317       7.0832       7.0467       8.5520       0.0354       2.5545       2.3007       1.8562       2.3233       6.8629      32.6018
    4775.0     511.3598     198.0194       0.2296     160.8239      31.8596       0.2414       0.2389       0.2380       6.8974       6.9558       6.5691       0.3962       7.0615       7.1197       7.1532       6.9879       6.9353       8.5520       0.0230       2.5072       2.2758       1.7891       2.2018       6.5091      31.5231
    4774.5     511.5603     198.0863       0.2411     160.8239      32.8767       0.2458       0.2481       0.2549       7.2137       5.9448       6.2548       0.4001       6.1040       6.0988       6.0346       5.9178       5.8927       8.5744       0.0064       2.4439       2.2545       1.8028       2.1790       6.1943      32.3321
