~VERSION INFORMATION
VERS.           2.0   :CWLS Log ASCII Standard - VERSION 2.0
WRAP.           NO    :One Line per depth step
PROD.  Schlumberger   :LAS Producer
PROG.  DLIS to ASCII 10C0-306                          :LAS Program name and version
CREA.        2002/04/05 15:33                          :LAS Creation date {YYYY/MM/DD hh:mm}
SOURCE.     FMI_033PUP.DLIS                            :DLIS File Name
FILE-ID.     FMI_033PUP                                :File Identification Number
#--------------------------------------------------
~WELL INFORMATION
#MNEM.UNIT      DATA             DESCRIPTION
#---- ------ --------------   -----------------------------
STRT .F      722.0           :START DEPTH     
STOP .F      5952.0          :STOP DEPTH     
STEP .F       0.5            :STEP     
NULL .          -999.25      :NULL VALUE
COMP .        DEPARTMENT OF ENERGY                     :COMPANY
WELL .        NPR-3 25-1-X-14                          :WELL
FLD  .        NPR-3                                    :FIELD
LOC  .        2301' FSL & 782' FWL                     :LOCATION
CNTY .        NATRONA                                  :COUNTY
STAT .        WYOMING                                  :STATE
CTRY .                                                 :COUNTRY
API  .        4902523047                               :API NUMBER
UWI  .                                                 :UNIQUE WELL ID
DATE .        05-Apr-2002                              :LOG DATE {DD-MMM-YYYY}
SRVC .        Schlumberger                             :SERVICE COMPANY
LATI .DEG                                              :LATITUDE
LONG .DEG                                              :LONGITUDE
GDAT .                                                 :GeoDetic Datum
#-----------------------------------------------------------------------------
~PARAMETER INFORMATION
#MNEM.UNIT    VALUE                      DESCRIPTION
#---- -----   --------------------       ------------------------
RUN  .          1                        :RUN NUMBER
PDAT .        GROUND LEVEL               :Permanent Datum
EPD  .F         5214.799805              :Elevation of Permanent Datum above Mean Sea Level
LMF  .          KELLY BUSHING            :Logging Measured From (Name of Logging Elevation Reference)
APD  .F          10.000000               :Elevation of Depth Reference (LMF) above Permanent Datum
#-----------------------------------------------------------------------------
~CURVE INFORMATION
#MNEM.UNIT   API CODE                                  DESCRIPTION
#---- -----  --------                                  -----------------------
DEPT .F                                                :DEPTH (BOREHOLE) {F10.1}
HAZI .DEG                                              :Hole Azimuth {F13.4}
SDEV .DEG                                              :Sonde Deviation {F13.4}
ED   .F                                                :East Departure {F13.4}
ND   .F                                                :North Departure {F13.4}
TVDE .F                                                :True Vertical Depth {F13.4}
VSEC .F                                                :Vertical Section {F13.4}
GR   .GAPI                                             :Gamma Ray {F13.4}
#-----------------------------------------------------------------------------
# 
#     DEPT        HAZI         SDEV         ED           ND           TVDE         VSEC         GR
#
~A  
# ...
    5896.5     317.0349       4.4704    -153.5611     319.4886    5879.9858     319.4886      26.9276
    5897.0     316.9714       4.4642    -153.5877     319.5163    5880.4844     319.5163      19.1875
    5897.5     316.9721       4.4618    -153.6145     319.5440    5880.9829     319.5440      13.8290
    5898.0     316.9803       4.4605    -153.6413     319.5718    5881.4814     319.5718      11.4156
    5898.5     317.0060       4.4599    -153.6683     319.5996    5881.9795     319.5996      12.0110
    5899.0     316.9852       4.4573    -153.6953     319.6274    5882.4780     319.6274      13.6781
    5899.5     316.9944       4.4431    -153.7224     319.6553    5882.9766     319.6553      14.1862
    5900.0     317.0006       4.4413    -153.7497     319.6833    5883.4751     319.6833      13.1145
    5900.5     317.0188       4.4388    -153.7770     319.7113    5883.9736     319.7113      12.4000
    5901.0     316.9953       4.4336    -153.8043     319.7393    5884.4722     319.7393      12.6223
    5901.5     317.0533       4.4245    -153.8317     319.7675    5884.9707     319.7675      12.9795
    5902.0     317.0007       4.4242    -153.8591     319.7956    5885.4688     319.7956      12.2651
    5902.5     317.0090       4.4163    -153.8866     319.8238    5885.9673     319.8238      12.8605
    5903.0     316.9855       4.4072    -153.9140     319.8520    5886.4658     319.8520      12.7414
    5903.5     316.9341       4.4021    -153.9414     319.8803    5886.9644     319.8803      12.7652
    5904.0     316.8991       4.4031    -153.9688     319.9086    5887.4629     319.9086      11.4553
    5904.5     316.8099       4.3977    -153.9962     319.9369    5887.9614     319.9369      11.5744
    5905.0     316.7448       4.3930    -154.0235     319.9652    5888.4595     319.9652      12.3365
    5905.5     316.6931       4.3943    -154.0508     319.9935    5888.9580     319.9935      12.9319
    5906.0     316.6184       4.3919    -154.0781     320.0219    5889.4565     320.0219      13.6464
    5906.5     316.5136       4.3913    -154.1054     320.0502    5889.9551     320.0502      12.8605
    5907.0     316.3587       4.3856    -154.1327     320.0786    5890.4536     320.0786      12.5032
    5907.5     316.2884       4.3888    -154.1599     320.1069    5890.9521     320.1069      11.1537
    5908.0     316.2048       4.4000    -154.1871     320.1353    5891.4502     320.1353      10.6774
    5908.5     316.1143       4.4086    -154.2144     320.1636    5891.9487     320.1636      10.7964
    5909.0     316.0429       4.4141    -154.2415     320.1920    5892.4473     320.1920      12.1460
    5909.5     315.9958       4.4235    -154.2686     320.2204    5892.9458     320.2204      12.1380
    5910.0     315.9405       4.4367    -154.2958     320.2487    5893.4443     320.2487      15.1150
    5910.5     315.8758       4.4456    -154.3229     320.2771    5893.9429     320.2771      16.6630
    5911.0     315.8136       4.4590    -154.3499     320.3055    5894.4409     320.3055      19.1716
    5911.5     315.7686       4.4730    -154.3770     320.3339    5894.9395     320.3339      18.1078
    5912.0     315.7116       4.4785    -154.4040     320.3623    5895.4380     320.3623      17.5124
    5912.5     315.7123       4.4881    -154.4309     320.3907    5895.9365     320.3907      17.0361
    5913.0     315.7464       4.5040    -154.4578     320.4191    5896.4351     320.4191      17.8617
    5913.5     315.7511       4.5058    -154.4847     320.4475    5896.9336     320.4475      18.9334
    5914.0     315.7807       4.5109    -154.5115     320.4760    5897.4321     320.4760      20.8387
    5914.5     315.7844       4.5143    -154.5381     320.5044    5897.9302     320.5044      22.1486
    5915.0     315.8340       4.5155    -154.5648     320.5327    5898.4287     320.5327      22.1486
    5915.5     315.9009       4.5173    -154.5913     320.5611    5898.9272     320.5611      20.6005
    5916.0     315.9383       4.5183    -154.6177     320.5894    5899.4258     320.5894      21.4341
    5916.5     315.9946       4.5153    -154.6441     320.6176    5899.9243     320.6176      22.8630
    5917.0     316.0576       4.5143    -154.6705     320.6457    5900.4229     320.6457      26.3163
    5917.5     316.0386       4.5127    -154.6969     320.6737    5900.9214     320.6737      25.3637
    5918.0     316.0685       4.5105    -154.7232     320.7017    5901.4199     320.7017      24.7683
    5918.5     316.1013       4.5128    -154.7496     320.7296    5901.9185     320.7296      22.0295
    5919.0     316.1249       4.5118    -154.7760     320.7574    5902.4170     320.7574      20.7196
    5919.5     316.1487       4.5095    -154.8026     320.7851    5902.9155     320.7851      22.2676
    5920.0     316.1841       4.5087    -154.8292     320.8127    5903.4141     320.8127      22.6249
    5920.5     316.2557       4.5099    -154.8559     320.8401    5903.9126     320.8401      21.6722
    5921.0     316.2721       4.5039    -154.8828     320.8676    5904.4111     320.8676      19.6003
    5921.5     316.2747       4.5013    -154.9097     320.8949    5904.9097     320.8949      19.6955
    5922.0     316.2793       4.5034    -154.9368     320.9222    5905.4082     320.9222      20.7037
    5922.5     316.3397       4.4997    -154.9640     320.9495    5905.9067     320.9495      20.8308
    5923.0     316.3777       4.4961    -154.9913     320.9768    5906.4053     320.9768      18.9255
    5923.5     316.4172       4.4956    -155.0188     321.0041    5906.9038     321.0041      19.5844
    5924.0     316.4879       4.4957    -155.0464     321.0313    5907.4023     321.0313      18.6505
    5924.5     316.5363       4.4891    -155.0742     321.0585    5907.9004     321.0585      19.7039
    5925.0     316.5854       4.4887    -155.1020     321.0856    5908.3989     321.0856      19.4595
    5925.5     316.6571       4.4837    -155.1299     321.1128    5908.8975     321.1128      19.9517
    5926.0     316.7852       4.4761    -155.1578     321.1399    5909.3960     321.1399      22.7849
    5926.5     316.8135       4.4660    -155.1858     321.1671    5909.8945     321.1671      22.7730
    5927.0     316.8587       4.4548    -155.2139     321.1942    5910.3931     321.1942      23.1171
    5927.5     316.8906       4.4476    -155.2419     321.2215    5910.8916     321.2215      20.7595
    5928.0     316.9183       4.4356    -155.2699     321.2488    5911.3901     321.2488      21.4206
    5928.5     316.8825       4.4255    -155.2980     321.2762    5911.8882     321.2762      21.9846
    5929.0     316.8072       4.4175    -155.3260     321.3036    5912.3867     321.3036      22.0274
    5929.5     316.7477       4.4151    -155.3539     321.3311    5912.8853     321.3311      21.5959
    5930.0     316.6364       4.4046    -155.3819     321.3586    5913.3838     321.3586      25.5753
    5930.5     316.5400       4.4011    -155.4097     321.3861    5913.8823     321.3861      30.1002
    5931.0     316.3225       4.4007    -155.4374     321.4136    5914.3809     321.4136      34.2945
    5931.5     316.1535       4.3993    -155.4650     321.4411    5914.8794     321.4411      34.2945
    5932.0     315.9067       4.3955    -155.4925     321.4686    5915.3779     321.4686      34.2945
    5932.5     315.7035       4.3978    -155.5198     321.4961    5915.8760     321.4961      34.2945
    5933.0     315.4978       4.4038    -155.5470     321.5237    5916.3745     321.5237      34.2945
    5933.5     315.3746       4.4072    -155.5740     321.5513    5916.8730     321.5513      34.2945
    5934.0     315.1615       4.4124    -155.6009     321.5789    5917.3716     321.5789      34.2945
    5934.5     314.9840       4.4232    -155.6277     321.6066    5917.8701     321.6066      34.2945
    5935.0     314.8348       4.4373    -155.6543     321.6343    5918.3687     321.6343      34.2945
    5935.5     314.6672       4.4455    -155.6808     321.6621    5918.8672     321.6621      34.2945
