~VERSION INFORMATION
VERS.           2.0   :CWLS Log ASCII Standard - VERSION 2.0
WRAP.           NO    :One Line per depth step
PROD.  Schlumberger   :LAS Producer
PROG.  DLIS to ASCII 10C0-306                          :LAS Program name and version
CREA.        2002/04/05 15:18                          :LAS Creation date {YYYY/MM/DD hh:mm}
SOURCE.     TLD_MCFL_CNL_007LUP.DLIS                   :DLIS File Name
FILE-ID.     TLD_MCFL_CNL_007LUP                       :File Identification Number
#--------------------------------------------------
~WELL INFORMATION
#MNEM.UNIT      DATA             DESCRIPTION
#---- ------ --------------   -----------------------------
STRT .F         5962.0       :START DEPTH     
STOP .F           44.0       :STOP DEPTH     
STEP .F           -0.5       :STEP     
NULL .          -999.25      :NULL VALUE
COMP .        DEPARTMENT OF ENERGY                     :COMPANY
WELL .        NPR-3 25-1-X-14                          :WELL
FLD  .        NPR-3                                    :FIELD
LOC  .        2301' FSL & 782' FWL                     :LOCATION
CNTY .        NATRONA                                  :COUNTY
STAT .        WYOMING                                  :STATE
CTRY .                                                 :COUNTRY
API  .        4902523047                               :API NUMBER
UWI  .                                                 :UNIQUE WELL ID
DATE .        05-Apr-2002                              :LOG DATE {DD-MMM-YYYY}
SRVC .        Schlumberger                             :SERVICE COMPANY
LATI .DEG                                              :LATITUDE
LONG .DEG                                              :LONGITUDE
GDAT .                                                 :GeoDetic Datum
#-----------------------------------------------------------------------------
~PARAMETER INFORMATION
#MNEM.UNIT    VALUE                      DESCRIPTION
#---- -----   --------------------       ------------------------
RUN  .          1                        :RUN NUMBER
PDAT .        GROUND LEVEL               :Permanent Datum
EPD  .F         5214.799805              :Elevation of Permanent Datum above Mean Sea Level
LMF  .          KELLY BUSHING            :Logging Measured From (Name of Logging Elevation Reference)
APD  .F          10.000000               :Elevation of Depth Reference (LMF) above Permanent Datum
#-----------------------------------------------------------------------------
~CURVE INFORMATION
#MNEM.UNIT   API CODE                                  DESCRIPTION
#---- -----  --------                                  -----------------------
DEPT .F                                                :DEPTH (BOREHOLE) {F10.1}
IHV  .F3                                               :Integrated Hole Volume {F13.4}
ICV  .F3                                               :Integrated Cement Volume {F13.4}
PXND_HILT.CFCF                                         :HILT Porosity CrossPlot {F13.4}
HTEM .DEGF                                             :HTC Temperature {F13.4}
GR   .GAPI                                             :Gamma-Ray {F13.4}
NPHI .CFCF                                             :Thermal Neutron Porosity (Ratio Method) {F13.4}
TNPH .CFCF                                             :Thermal Neutron Porosity {F13.4}
NPOR .CFCF                                             :Enhanced Thermal Neutron Porosity {F13.4}
GDEV .DEG                                              :HGNS Deviation {F13.4}
RT_HRLT.OHMM                                           :HRLT Computed True Resistivity {F13.4}
RXO_HRLT.OHMM                                          :HRLT Computed Invaded Zone Resistivity {F13.4}
RM_HRLT.OHMM                                           :HRLT Mud Resistivity {F13.4}
RLA1 .OHMM                                             :HRLT Borehole Corrected Resistivity 1 {F13.4}
RLA2 .OHMM                                             :HRLT Borehole Corrected Resistivity 2 {F13.4}
RLA3 .OHMM                                             :HRLT Borehole Corrected Resistivity 3 {F13.4}
RLA4 .OHMM                                             :HRLT Borehole Corrected Resistivity 4 {F13.4}
RLA5 .OHMM                                             :HRLT Borehole Corrected Resistivity 5 {F13.4}
HCAL .IN                                               :HRCC Cal. Caliper {F13.4}
HDRA .G/C3                                             :HRDD Density Correction {F13.4}
PEFZ .                                                 :HRDD Standard Resolution Formation Photoelectric Factor {F13.4}
RHOZ .G/C3                                             :HRDD Standard Resolution Formation Density {F13.4}
HMIN .OHMM                                             :MCFL Micro Inverse Resistivity {F13.4}
HMNO .OHMM                                             :MCFL Micro Normal Resistivity {F13.4}
RXOZ .OHMM                                             :MCFL Standard Resolution Invaded Zone Resistivity {F13.4}
HAZ  .F/S2                                             :Z-Axis Acceleration {F13.4}
#-----------------------------------------------------------------------------
# 
#     DEPT        IHV          ICV       PXND_HILT       HTEM         GR           NPHI         TNPH         NPOR         GDEV       RT_HRLT      RXO_HRLT     RM_HRLT        RLA1         RLA2         RLA3         RLA4         RLA5         HCAL         HDRA         PEFZ         RHOZ         HMIN         HMNO         RXOZ         HAZ
#
~A  
# ...
    1630.0    2270.4573    1116.6779       0.1850     130.2827      95.7391       0.2613       0.2790       0.2709       4.3954       7.0872       6.0904       0.5391       6.9434       6.7896       6.8302       6.8888       7.0234      10.3627      -0.0009       3.0112       2.5604       4.8653       4.2996       6.1429      31.9603
    1629.5    2270.7500    1116.8370       0.1936     130.2827      90.9907       0.2768       0.2984       0.2965       4.4481       7.0146       6.3949       0.5395       6.9394       6.8116       6.8419       6.9176       7.0448      10.3627      -0.0063       2.9861       2.5642       4.9472       4.3722       6.4101      31.9513
    1629.0    2271.0442    1116.9976       0.1990     130.2827     100.3288       0.2957       0.3104       0.3045       4.1609       7.4654       6.3237       0.5393       7.2438       7.1186       7.1853       7.2359       7.3654      10.3851      -0.0035       2.9937       2.5651       5.3328       4.7142       6.3738      31.8156
    1628.5    2271.3369    1117.1567       0.1933     130.2827     106.7573       0.3156       0.2994       0.2997       4.3696       8.0758       5.8814       0.5384       7.4960       7.4076       7.5048       7.5413       7.6866      10.3627       0.0050       3.0353       2.5681       3.2765       3.2710       5.8988      31.8481
    1628.0    2271.6311    1117.3173       0.1918     130.2827     112.5944       0.3029       0.2891       0.3038       4.2281       7.5464       5.8110       0.5406       7.1186       7.0204       7.1014       7.1243       7.2797      10.3851      -0.0070       3.0614       2.5516       3.4054       3.2846       5.8321      32.1474
    1627.5    2271.9277    1117.4802       0.1878     130.2827     101.6305       0.2845       0.2837       0.2833       4.1285       7.1816       6.1347       0.5419       6.9511       6.8548       6.9135       6.9585       7.1058      10.4298      -0.0091       3.0735       2.5580       5.1586       4.5597       6.1781      31.9170
    1627.0    2272.2268    1117.6458       0.2000     130.2827     100.7322       0.2756       0.3068       0.2994       4.3221       7.6403       6.3798       0.5413       7.3779       7.2854       7.3281       7.3763       7.5219      10.4745      -0.0152       3.0591       2.5527       5.0608       4.4730       6.4360      31.9246
    1626.5    2272.5259    1117.8113       0.2024     130.2827      98.8941       0.3028       0.3144       0.3098       4.3561       7.7998       6.2436       0.5425       7.4753       7.3218       7.3800       7.4435       7.5949      10.4745      -0.0044       3.0641       2.5578       5.1205       4.5260       6.2790      32.1962
    1626.0    2272.8250    1117.9768       0.1998     130.2827     102.3962       0.3137       0.3077       0.3159       4.2706       7.7416       6.2799       0.5433       7.4263       7.2881       7.3416       7.4042       7.5631      10.4745      -0.0057       3.0549       2.5555       4.8619       4.2966       6.3091      32.0840
    1625.5    2273.1235    1118.1417       0.1877     130.2827      99.0442       0.3049       0.2849       0.2895       4.4329       7.2811       6.2035       0.5447       7.0869       6.9547       7.0025       7.0444       7.2057      10.4633      -0.0003       3.0655       2.5618       5.1301       4.5344       6.2467      31.8172
    1625.0    2273.4226    1118.3073       0.1855     130.2827     103.0917       0.2759       0.2852       0.2875       4.1667       7.4052       6.5574       0.5458       7.2733       7.1174       7.1934       7.2422       7.3918      10.4745      -0.0007       3.0795       2.5733       5.3689       4.7463       6.6029      32.1686
    1624.5    2273.7217    1118.4728       0.1807     130.2827     101.8409       0.2741       0.2751       0.2663       4.3059       7.6558       7.0049       0.5464       7.6002       7.4262       7.4840       7.5388       7.7176      10.4745      -0.0017       3.0872       2.5720       5.4251       4.7961       7.0399      32.0758
    1624.0    2274.0195    1118.6371       0.1859     130.2827      97.3123       0.2691       0.2808       0.2861       4.3357       8.1645       6.8638       0.5485       7.8919       7.7365       7.7900       7.8552       8.0476      10.4522      -0.0075       3.0547       2.5602       5.9516       5.2630       6.8942      31.6893
    1623.5    2274.3213    1118.8052       0.1871     130.2827      96.1453       0.2720       0.2816       0.2759       4.3015       8.4626       6.7685       0.5485       7.9896       7.8843       7.9611       8.0319       8.2182      10.5192      -0.0053       3.0035       2.5562       5.0733       4.4840       6.7856      31.7830
    1623.0    2274.6238    1118.9740       0.1978     129.9233      93.4173       0.2824       0.3077       0.2936       4.4159       8.0706       6.0793       0.5480       7.6118       7.4121       7.4687       7.5315       7.7405      10.5304      -0.0013       2.9571       2.5650       5.0840       4.4935       6.0864      32.5437
    1622.5    2274.9280    1119.1447       0.1986     130.2827      99.8059       0.3115       0.3159       0.3337       4.3505       7.6179       6.2757       0.5459       7.3917       7.1786       7.2342       7.2973       7.4627      10.5639      -0.0013       2.9141       2.5777       4.8404       4.2776       6.3003      31.6236
    1622.0    2275.2297    1119.3127       0.1941     129.9233      98.3899       0.3158       0.3052       0.3002       4.3152       7.1356       6.2595       0.5446       7.0696       6.8403       6.9016       6.9508       7.1142      10.5192      -0.0031       2.8811       2.5765       4.9994       4.4185       6.3004      31.8660
    1621.5    2275.5315    1119.4808       0.1843     129.9233      97.9132       0.3060       0.2824       0.2852       4.2172       7.3694       6.5989       0.5436       7.3131       7.1541       7.1643       7.2376       7.3730      10.5192      -0.0078       2.8469       2.5723       5.1411       4.5442       6.6185      32.4158
    1621.0    2275.8333    1119.6489       0.1754     129.9233      94.6104       0.2791       0.2675       0.2672       4.3634       7.7511       6.4945       0.5430       7.5357       7.4104       7.4383       7.4780       7.6468      10.5192      -0.0086       2.8573       2.5788       5.1147       4.5208       6.5454      32.1816
    1620.5    2276.1338    1119.8158       0.1757     129.9233      98.8601       0.2667       0.2704       0.2703       4.3220       7.6417       6.5551       0.5445       7.4381       7.3334       7.3854       7.4160       7.5684      10.4969      -0.0082       2.9042       2.5854       5.0321       4.4475       6.6128      31.7326
    1620.0    2276.4355    1119.9839       0.1831     129.9233     103.7325       0.2710       0.2851       0.2754       4.2287       7.6440       6.2800       0.5446       7.3236       7.2561       7.3277       7.3377       7.4942      10.5192      -0.0050       2.9719       2.5844       5.1584       4.5596       6.3211      32.1865
    1619.5    2276.7373    1120.1520       0.1939     129.9233      99.6934       0.2929       0.3018       0.3078       4.2826       7.5928       6.2030       0.5433       7.2860       7.1976       7.2841       7.3011       7.4236      10.5192      -0.0043       3.0119       2.5704       4.9173       4.3457       6.2527      31.7821
    1619.0    2277.0391    1120.3201       0.1936     129.9233      94.1495       0.3042       0.2980       0.3058       4.4474       7.1592       6.1932       0.5442       7.0068       6.9013       6.9683       6.9877       7.0954      10.5192      -0.0036       3.0096       2.5632       5.0318       4.4472       6.2445      32.1620
    1618.5    2277.3408    1120.4882       0.1901     129.9233      92.8172       0.2957       0.2890       0.2924       4.2149       7.4855       6.2262       0.5440       7.2579       7.1353       7.1980       7.2384       7.3465      10.5192      -0.0055       3.0004       2.5598       5.1207       4.5261       6.2857      32.0221
