~VERSION INFORMATION
VERS.           2.0   :CWLS Log ASCII Standard - VERSION 2.0
WRAP.           NO    :One Line per depth step
PROD.  Schlumberger   :LAS Producer
PROG.  DLIS to ASCII 10C0-306                          :LAS Program name and version
CREA.        2002/04/05 15:18                          :LAS Creation date {YYYY/MM/DD hh:mm}
SOURCE.     TLD_MCFL_CNL_007LUP.DLIS                   :DLIS File Name
FILE-ID.     TLD_MCFL_CNL_007LUP                       :File Identification Number
#--------------------------------------------------
~WELL INFORMATION
#MNEM.UNIT      DATA             DESCRIPTION
#---- ------ --------------   -----------------------------
STRT .F         5962.0       :START DEPTH     
STOP .F           44.0       :STOP DEPTH     
STEP .F           -0.5       :STEP     
NULL .          -999.25      :NULL VALUE
COMP .        DEPARTMENT OF ENERGY                     :COMPANY
WELL .        NPR-3 25-1-X-14                          :WELL
FLD  .        NPR-3                                    :FIELD
LOC  .        2301' FSL & 782' FWL                     :LOCATION
CNTY .        NATRONA                                  :COUNTY
STAT .        WYOMING                                  :STATE
CTRY .                                                 :COUNTRY
API  .        4902523047                               :API NUMBER
UWI  .                                                 :UNIQUE WELL ID
DATE .        05-Apr-2002                              :LOG DATE {DD-MMM-YYYY}
SRVC .        Schlumberger                             :SERVICE COMPANY
LATI .DEG                                              :LATITUDE
LONG .DEG                                              :LONGITUDE
GDAT .                                                 :GeoDetic Datum
#-----------------------------------------------------------------------------
~PARAMETER INFORMATION
#MNEM.UNIT    VALUE                      DESCRIPTION
#---- -----   --------------------       ------------------------
RUN  .          1                        :RUN NUMBER
PDAT .        GROUND LEVEL               :Permanent Datum
EPD  .F         5214.799805              :Elevation of Permanent Datum above Mean Sea Level
LMF  .          KELLY BUSHING            :Logging Measured From (Name of Logging Elevation Reference)
APD  .F          10.000000               :Elevation of Depth Reference (LMF) above Permanent Datum
#-----------------------------------------------------------------------------
~CURVE INFORMATION
#MNEM.UNIT   API CODE                                  DESCRIPTION
#---- -----  --------                                  -----------------------
DEPT .F                                                :DEPTH (BOREHOLE) {F10.1}
IHV  .F3                                               :Integrated Hole Volume {F13.4}
ICV  .F3                                               :Integrated Cement Volume {F13.4}
PXND_HILT.CFCF                                         :HILT Porosity CrossPlot {F13.4}
HTEM .DEGF                                             :HTC Temperature {F13.4}
GR   .GAPI                                             :Gamma-Ray {F13.4}
NPHI .CFCF                                             :Thermal Neutron Porosity (Ratio Method) {F13.4}
TNPH .CFCF                                             :Thermal Neutron Porosity {F13.4}
NPOR .CFCF                                             :Enhanced Thermal Neutron Porosity {F13.4}
GDEV .DEG                                              :HGNS Deviation {F13.4}
RT_HRLT.OHMM                                           :HRLT Computed True Resistivity {F13.4}
RXO_HRLT.OHMM                                          :HRLT Computed Invaded Zone Resistivity {F13.4}
RM_HRLT.OHMM                                           :HRLT Mud Resistivity {F13.4}
RLA1 .OHMM                                             :HRLT Borehole Corrected Resistivity 1 {F13.4}
RLA2 .OHMM                                             :HRLT Borehole Corrected Resistivity 2 {F13.4}
RLA3 .OHMM                                             :HRLT Borehole Corrected Resistivity 3 {F13.4}
RLA4 .OHMM                                             :HRLT Borehole Corrected Resistivity 4 {F13.4}
RLA5 .OHMM                                             :HRLT Borehole Corrected Resistivity 5 {F13.4}
HCAL .IN                                               :HRCC Cal. Caliper {F13.4}
HDRA .G/C3                                             :HRDD Density Correction {F13.4}
PEFZ .                                                 :HRDD Standard Resolution Formation Photoelectric Factor {F13.4}
RHOZ .G/C3                                             :HRDD Standard Resolution Formation Density {F13.4}
HMIN .OHMM                                             :MCFL Micro Inverse Resistivity {F13.4}
HMNO .OHMM                                             :MCFL Micro Normal Resistivity {F13.4}
RXOZ .OHMM                                             :MCFL Standard Resolution Invaded Zone Resistivity {F13.4}
HAZ  .F/S2                                             :Z-Axis Acceleration {F13.4}
#-----------------------------------------------------------------------------
# 
#     DEPT        IHV          ICV       PXND_HILT       HTEM         GR           NPHI         TNPH         NPOR         GDEV       RT_HRLT      RXO_HRLT     RM_HRLT        RLA1         RLA2         RLA3         RLA4         RLA5         HCAL         HDRA         PEFZ         RHOZ         HMIN         HMNO         RXOZ         HAZ
#
~A  
# ...
    5170.0     338.0929     130.3121       0.0583     164.0577      91.1762       0.0978       0.1052       0.0921       6.9231      43.8640      43.1923       0.4203      44.4281      45.1061      44.7880      43.6526      42.9838       8.9991      -0.0069       3.2562       2.7065      24.5905      22.6024      41.6859      31.6629
    5169.5     338.3126     130.3983       0.0642     164.0577      99.3683       0.1012       0.1135       0.1069       6.9587      38.9976      35.9964       0.4223      40.9353      40.6161      40.3063      39.5888      38.8205       8.9768      -0.0068       3.2193       2.7050      25.3936      23.0828      35.6682      31.8644
    5169.0     338.5313     130.4833       0.0731     164.0577      98.6702       0.1203       0.1251       0.1330       7.0348      32.8881      30.1791       0.4244      35.2366      33.9881      33.7792      33.0289      32.9044       8.9544      -0.0073       3.1760       2.6945      19.5744      17.9831      29.7585      32.1834
    5168.5     338.7510     130.5694       0.0711     164.0577      93.8587       0.1272       0.1222       0.1440       7.0897      28.3285      29.5297       0.4222      30.6325      28.9763      28.4940      27.9845      27.8681       8.9768       0.0003       3.1287       2.6938      19.6630      17.4880      29.0708      31.9927
    5168.0     338.9708     130.6555       0.0597     164.0577      76.0225       0.1132       0.1061       0.1106       7.1176      19.2500      35.3333       0.4223      25.6373      23.7908      23.2882      22.8248      22.9035       8.9768      -0.0001       3.1144       2.6969      27.9694      24.9041      35.2794      31.9245
    5167.5     339.1889     130.7400       0.0502     164.0577      72.2404       0.0911       0.0935       0.0857       7.0414      24.3584      51.7631       0.4200      40.2414      38.1506      33.3577      33.9356      33.1555       8.9432       0.0049       3.1263       2.7048      38.6740      34.7675      52.1661      31.5557
    5167.0     339.4076     130.8251       0.0482     164.0577      71.0500       0.0788       0.0916       0.0810       7.0241      49.4318      51.0372       0.4175      52.7803      51.1523      49.0976      48.8726      49.5036       8.9544       0.0091       3.1390       2.7138      34.8449      31.4356      50.6828      31.4224
    5166.5     339.6251     130.9090       0.0499     164.0577      80.3042       0.0869       0.0947       0.0863       7.0232      45.9427      48.7660       0.4191      48.7543      47.7597      46.3388      45.4322      46.1045       8.9320       0.0119       3.1550       2.7200      32.8952      29.4336      48.1924      31.7393
    5166.0     339.8416     130.9919       0.0515     164.0577      76.7602       0.0971       0.0971       0.1065       7.0276      40.0228      45.5103       0.4201      42.5764      42.0744      41.3550      40.1285      41.0142       8.9097       0.0050       3.1609       2.7222      34.8754      31.3748      45.1801      32.0162
    5165.5     340.0591     131.0758       0.0498     164.0577      80.8376       0.0970       0.0958       0.0973       7.0918      35.6086      47.4808       0.4200      39.6861      37.9654      38.7030      37.4560      38.2348       8.9320      -0.0045       3.1286       2.7311      31.9799      28.4959      47.2966      31.9570
    5165.0     340.2767     131.1597       0.0516     164.0577      84.3815       0.0956       0.0970       0.0887       7.1138      36.5349      40.6902       0.4193      40.7295      39.1085      37.9777      36.8181      37.5742       8.9320      -0.0084       3.1481       2.7186      38.9590      34.7463      40.1381      31.9619
    5164.5     340.4932     131.2426       0.0579     164.0577      89.5140       0.1005       0.1050       0.1053       7.1334      33.6076      42.1196       0.4184      38.4215      37.0015      36.0265      35.4313      35.8833       8.9097      -0.0090       3.1573       2.7100      28.7032      25.5613      41.9878      31.5898
    5164.0     340.7096     131.3254       0.0647     164.0577      92.1358       0.1100       0.1130       0.1176       6.9761      24.3652      35.4855       0.4191      29.7403      28.1318      27.4107      26.9962      27.1869       8.9097      -0.0119       3.1887       2.6945      31.9546      28.7272      35.5195      31.8027
    5163.5     340.9261     131.4083       0.0687     164.0577      95.8882       0.1183       0.1190       0.1211       6.8692      28.7632      33.8886       0.4176      34.2316      32.5855      30.2792      30.5827      30.0138       8.9097      -0.0112       3.1810       2.6962      21.6210      19.5919      32.9283      31.7165
    5163.0     341.1425     131.4911       0.0711     164.0577      97.4268       0.1201       0.1222       0.1359       6.8950      29.3116      30.3041       0.4162      30.9918      29.3612      29.4128      29.0712      28.9199       8.9097      -0.0110       3.1853       2.6945      20.1559      18.0811      29.6207      31.9180
    5162.5     341.3590     131.5740       0.0677     164.0577      94.5371       0.1165       0.1165       0.1109       7.0268      21.2764      33.0466       0.4170      25.8893      24.6889      24.3087      24.1126      23.6595       8.9097      -0.0116       3.2071       2.6883      25.5416      22.7573      33.0698      31.7035
    5162.0     341.5766     131.6579       0.0620     164.0577      93.2863       0.1112       0.1090       0.1044       7.0807      25.4123      39.5267       0.4163      30.3634      29.7430      29.1426      28.9115      28.0045       8.9320      -0.0097       3.2062       2.6927      32.5896      29.0761      39.5641      32.0155
    5161.5     341.7941     131.7419       0.0628     164.0577      90.1109       0.1057       0.1108       0.1038       7.1023      33.5543      41.1418       0.4155      36.8180      36.8054      36.0739      36.1599      34.6205       8.9320      -0.0085       3.1844       2.6992      32.1040      28.9223      40.9727      31.5208
    5161.0     342.0122     131.8264       0.0663     164.0577      96.0631       0.1147       0.1172       0.1151       7.0213      34.6105      35.3690       0.4169      34.4987      34.7562      35.6693      35.0602      33.3478       8.9432      -0.0063       3.1477       2.7099      25.1484      22.6209      35.0169      31.6467
    5160.5     342.2309     131.9114       0.0768     164.0577      97.9394       0.1256       0.1322       0.1312       6.9314      26.6166      29.0160       0.4186      27.6309      27.9303      27.9614      27.4992      26.0489       8.9544      -0.0037       3.1534       2.7046      21.7219      19.5086      28.8207      31.9716
    5160.0     342.4496     131.9964       0.0871     164.0577     108.2027       0.1454       0.1462       0.1473       6.8994      24.6554      24.6701       0.4190      25.2999      25.2523      25.2790      24.8608      23.4899       8.9544      -0.0028       3.2168       2.6934      18.9593      17.0564      24.5440      31.8179
    5159.5     342.6682     132.0815       0.0999     164.0577     115.3890       0.1613       0.1642       0.1657       6.9293      22.7348      22.7147       0.4183      23.6344      22.9461      23.2117      22.7441      21.5037       8.9544      -0.0026       3.3134       2.6821      17.0943      15.1969      22.1408      31.9650
    5159.0     342.8885     132.1682       0.1050     164.0577     115.5975       0.1786       0.1714       0.1880       7.0180      19.3685      20.4611       0.4180      21.2597      20.3076      20.2378      19.8232      18.6515       8.9879      -0.0044       3.3889       2.6768      16.2229      14.4197      19.9294      31.7003
    5158.5     343.1093     132.2554       0.1060     164.0577     115.0660       0.1734       0.1731       0.1915       7.1508      14.8071      21.6938       0.4184      19.5184      18.6282      18.2979      17.8457      16.7940       8.9991       0.0014       3.3999       2.6775      14.6229      13.1176      21.5300      31.9586
