~VERSION INFORMATION
VERS.           2.0   :CWLS Log ASCII Standard - VERSION 2.0
WRAP.           NO    :One Line per depth step
PROD.  Schlumberger   :LAS Producer
PROG.  DLIS to ASCII 10C0-306                          :LAS Program name and version
CREA.        2002/04/05 15:26                          :LAS Creation date {YYYY/MM/DD hh:mm}
SOURCE.     SONIC_063PUP.DLIS                          :DLIS File Name
FILE-ID.     SONIC_063PUP                              :File Identification Number
#--------------------------------------------------
~WELL INFORMATION
#MNEM.UNIT      DATA             DESCRIPTION
#---- ------ --------------   -----------------------------
STRT .F         5958.0       :START DEPTH     
STOP .F          675.5       :STOP DEPTH     
STEP .F           -0.5       :STEP     
NULL .          -999.25      :NULL VALUE
COMP .        DEPARTMENT OF ENERGY                     :COMPANY
WELL .        NPR-3 25-1-X-14                          :WELL
FLD  .        NPR-3                                    :FIELD
LOC  .        2301' FSL & 782' FWL                     :LOCATION
CNTY .        NATRONA                                  :COUNTY
STAT .        WYOMING                                  :STATE
CTRY .                                                 :COUNTRY
API  .        4902523047                               :API NUMBER
UWI  .                                                 :UNIQUE WELL ID
DATE .        05-Apr-2002                              :LOG DATE {DD-MMM-YYYY}
SRVC .        Schlumberger                             :SERVICE COMPANY
LATI .DEG                                              :LATITUDE
LONG .DEG                                              :LONGITUDE
GDAT .                                                 :GeoDetic Datum
#-----------------------------------------------------------------------------
~PARAMETER INFORMATION
#MNEM.UNIT    VALUE                      DESCRIPTION
#---- -----   --------------------       ------------------------
RUN  .          1                        :RUN NUMBER
PDAT .        GROUND LEVEL               :Permanent Datum
EPD  .F         5214.799805              :Elevation of Permanent Datum above Mean Sea Level
LMF  .          KELLY BUSHING            :Logging Measured From (Name of Logging Elevation Reference)
APD  .F          10.000000               :Elevation of Depth Reference (LMF) above Permanent Datum
#-----------------------------------------------------------------------------
~CURVE INFORMATION
#MNEM.UNIT   API CODE                                  DESCRIPTION
#---- -----  --------                                  -----------------------
DEPT .F                                                :DEPTH (BOREHOLE) {F10.1}
GR   .GAPI                                             :Gamma-Ray {F13.4}
ITT  .S                                                :Integrated Transit Time {F13.4}
SPHI .CFCF                                             :Sonic Porosity {F13.4}
SVEL .FT/S                                             :Sonic Velocity {F13.4}
DT   .US/F                                             :Delta-T {F13.4}
#-----------------------------------------------------------------------------
# 
#     DEPT        GR           ITT          SPHI         SVEL         DT
#
~A  
# ...
    2460.0      98.8350       0.2717       0.3321   10306.3594      97.0275
    2459.5     104.2105       0.2717       0.3142   10573.9541      94.5720
    2459.0     112.0697       0.2718       0.3194   10495.3008      95.2807
    2458.5     106.5921       0.2718       0.3211   10469.5322      95.5153
    2458.0      97.6442       0.2719       0.3323   10303.8691      97.0509
    2457.5      98.9711       0.2719       0.3280   10365.8545      96.4706
    2457.0     102.5434       0.2720       0.2966   10852.3086      92.1463
    2456.5     104.9250       0.2720       0.3378   10224.0078      97.8090
    2456.0     104.1085       0.2721       0.3571    9953.1582     100.4706
    2455.5     100.5361       0.2721       0.3598    9915.7354     100.8498
    2455.0     103.6321       0.2722       0.3803    9646.2021     103.6677
    2454.5     103.9043       0.2722       0.3404   10185.6855      98.1770
    2454.0     105.3333       0.2723       0.3150   10562.6973      94.6728
    2453.5     106.7622       0.2723       0.3077   10676.0273      93.6678
    2453.0     101.4547       0.2724       0.3039   10735.9658      93.1449
    2452.5     101.7949       0.2724       0.3662    9830.8467     101.7206
    2452.0     103.4620       0.2725       0.3732    9738.5322     102.6849
    2451.5     112.0357       0.2725       0.3759    9702.8545     103.0625
    2451.0     119.3164       0.2726       0.3818    9627.3301     103.8710
    2450.5     118.0576       0.2726       0.2951   10877.9531      91.9291
    2450.0     114.2471       0.2727       0.3456   10112.5518      98.8870
    2449.5     102.3393       0.2727       0.3448   10124.2803      98.7725
    2449.0     102.8836       0.2728       0.3516   10027.9102      99.7217
    2448.5     102.0671       0.2728       0.3475   10086.3311      99.1441
    2448.0     111.1170       0.2729       0.3058   10705.3945      93.4109
    2447.5     100.4000       0.2729       0.3389   10207.9902      97.9625
    2447.0      97.8824       0.2730       0.3387   10210.0498      97.9427
    2446.5      91.2820       0.2730       0.3391   10204.9785      97.9914
    2446.0      97.4741       0.2731       0.3371   10233.8477      97.7150
    2445.5      96.9978       0.2731       0.3283   10362.5762      96.5011
    2445.0     103.5301       0.2732       0.3002   10794.3105      92.6414
    2444.5     106.3879       0.2732       0.3275   10374.0127      96.3947
    2444.0     104.9590       0.2733       0.3697    9783.7666     102.2101
    2443.5      99.7876       0.2733       0.4123    9252.7725     108.0757
    2443.0      97.6442       0.2734       0.4162    9206.8535     108.6147
    2442.5     101.2165       0.2734       0.3930    9485.7500     105.4213
    2442.0     106.6941       0.2735       0.3489   10066.7646      99.3368
    2441.5     109.6881       0.2735       0.3286   10357.4678      96.5487
    2441.0     113.2605       0.2736       0.3263   10391.4609      96.2329
    2440.5     109.2118       0.2736       0.3249   10412.5664      96.0378
    2440.0     104.3126       0.2737       0.3243   10421.2969      95.9573
    2439.5     104.0404       0.2737       0.3227   10445.0664      95.7390
    2439.0     104.7549       0.2738       0.3135   10584.8555      94.4746
    2438.5     111.1851       0.2738       0.3123   10604.5078      94.2995
    2438.0     108.1231       0.2739       0.3056   10708.3125      93.3854
    2437.5     106.2519       0.2739       0.3038   10737.1553      93.1345
    2437.0     102.6795       0.2740       0.4240    9116.7832     109.6878
    2436.5     106.4900       0.2740       0.4201    9162.3555     109.1422
    2436.0     109.7562       0.2741       0.4230    9128.5342     109.5466
    2435.5     109.7562       0.2741       0.4263    9090.5938     110.0038
    2435.0     108.5654       0.2742       0.3189   10503.2500      95.2086
    2434.5     106.6941       0.2742       0.3260   10396.6270      96.1850
    2434.0     111.6954       0.2743       0.3315   10315.1563      96.9447
    2433.5     113.7708       0.2743       0.3314   10316.8242      96.9291
    2433.0     123.2971       0.2744       0.3289   10353.0283      96.5901
    2432.5     122.3444       0.2744       0.3309   10323.2236      96.8690
    2432.0     123.9775       0.2745       0.3290   10352.3145      96.5968
    2431.5     118.7381       0.2745       0.3282   10363.5723      96.4918
    2431.0     115.4039       0.2745       0.3263   10391.1680      96.2356
    2430.5     109.7902       0.2746       0.3293   10346.5752      96.6503
    2430.0     107.9189       0.2746       0.3324   10301.6123      97.0722
    2429.5     111.4913       0.2747       0.3339   10279.1738      97.2841
    2429.0     110.5387       0.2747       0.3327   10296.9795      97.1159
    2428.5     106.6941       0.2748       0.3370   10235.1885      97.7022
    2428.0      99.0051       0.2748       0.3555    9975.0361     100.2503
    2427.5     107.5787       0.2749       0.3464   10100.9404      99.0007
    2427.0     115.5059       0.2749       0.3499   10052.7881      99.4749
    2426.5     122.2423       0.2750       0.3511   10035.8447      99.6428
    2426.0     113.4306       0.2750       0.3204   10480.1982      95.4180
    2425.5     104.5507       0.2751       0.3277   10370.6631      96.4258
    2425.0     104.3466       0.2751       0.3421   10161.5996      98.4097
    2424.5     111.9676       0.2752       0.3443   10131.3701      98.7033
    2424.0     120.3031       0.2752       0.3343   10274.1816      97.3314
    2423.5     120.0309       0.2753       0.3389   10208.0107      97.9623
    2423.0     114.8595       0.2753       0.3295   10344.4346      96.6703
    2422.5     113.4306       0.2754       0.3219   10458.1670      95.6190
    2422.0     116.7647       0.2754       0.3539    9997.1777     100.0282
    2421.5     115.9822       0.2755       0.3512   10033.6699      99.6644
    2421.0     117.4112       0.2755       0.3710    9766.4121     102.3917
    2420.5     106.2178       0.2756       0.3722    9751.5488     102.5478
    2420.0     102.3733       0.2756       0.3413   10172.5771      98.3035
    2419.5     102.8496       0.2757       0.3421   10162.2764      98.4032
    2419.0     111.4232       0.2757       0.3399   10193.3047      98.1036
    2418.5     120.9835       0.2758       0.3110   10623.5166      94.1308
    2418.0     111.5253       0.2758       0.3102   10636.6357      94.0147
    2417.5     105.5714       0.2759       0.3518   10026.1152      99.7395
    2417.0      99.3793       0.2759       0.3372   10232.1582      97.7311
    2416.5     101.6928       0.2760       0.3332   10289.8770      97.1829
    2416.0     102.6455       0.2760       0.3746    9720.1309     102.8793
    2415.5      99.2773       0.2761       0.3464   10101.3105      98.9971
    2415.0     100.9443       0.2761       0.3567    9958.5811     100.4159
    2414.5     106.6601       0.2762       0.3656    9837.7383     101.6494
    2414.0     110.4706       0.2762       0.3241   10425.0469      95.9228
    2413.5     108.3272       0.2763       0.3180   10516.6426      95.0874
    2413.0     111.8995       0.2763       0.3310   10322.5029      96.8757
    2412.5     112.7161       0.2764       0.3359   10251.0811      97.5507
    2412.0     113.1924       0.2764       0.3405   10184.6846      98.1866
    2411.5     100.8083       0.2765       0.3515   10029.9971      99.7009
    2411.0      96.6916       0.2765       0.3532   10006.9570      99.9305
    2410.5      92.8811       0.2766       0.3349   10265.1533      97.4170
    2410.0      99.1752       0.2766       0.3275   10374.0664      96.3942
    2409.5     102.9857       0.2767       0.3163   10542.4727      94.8544
    2409.0     107.0344       0.2767       0.3168   10534.2617      94.9283
    2408.5     108.3953       0.2768       0.3286   10357.3164      96.5501
    2408.0     107.9189       0.2768       0.3317   10312.3408      96.9712
    2407.5     108.1571       0.2769       0.3313   10317.7715      96.9202
