~VERSION INFORMATION
VERS.           2.0   :CWLS Log ASCII Standard - VERSION 2.0
WRAP.           NO    :One Line per depth step
PROD.  Schlumberger   :LAS Producer
PROG.  DLIS to ASCII 10C0-306                          :LAS Program name and version
CREA.        2002/04/05 15:18                          :LAS Creation date {YYYY/MM/DD hh:mm}
SOURCE.     TLD_MCFL_CNL_007LUP.DLIS                   :DLIS File Name
FILE-ID.     TLD_MCFL_CNL_007LUP                       :File Identification Number
#--------------------------------------------------
~WELL INFORMATION
#MNEM.UNIT      DATA             DESCRIPTION
#---- ------ --------------   -----------------------------
STRT .F         5962.0       :START DEPTH     
STOP .F           44.0       :STOP DEPTH     
STEP .F           -0.5       :STEP     
NULL .          -999.25      :NULL VALUE
COMP .        DEPARTMENT OF ENERGY                     :COMPANY
WELL .        NPR-3 25-1-X-14                          :WELL
FLD  .        NPR-3                                    :FIELD
LOC  .        2301' FSL & 782' FWL                     :LOCATION
CNTY .        NATRONA                                  :COUNTY
STAT .        WYOMING                                  :STATE
CTRY .                                                 :COUNTRY
API  .        4902523047                               :API NUMBER
UWI  .                                                 :UNIQUE WELL ID
DATE .        05-Apr-2002                              :LOG DATE {DD-MMM-YYYY}
SRVC .        Schlumberger                             :SERVICE COMPANY
LATI .DEG                                              :LATITUDE
LONG .DEG                                              :LONGITUDE
GDAT .                                                 :GeoDetic Datum
#-----------------------------------------------------------------------------
~PARAMETER INFORMATION
#MNEM.UNIT    VALUE                      DESCRIPTION
#---- -----   --------------------       ------------------------
RUN  .          1                        :RUN NUMBER
PDAT .        GROUND LEVEL               :Permanent Datum
EPD  .F         5214.799805              :Elevation of Permanent Datum above Mean Sea Level
LMF  .          KELLY BUSHING            :Logging Measured From (Name of Logging Elevation Reference)
APD  .F          10.000000               :Elevation of Depth Reference (LMF) above Permanent Datum
#-----------------------------------------------------------------------------
~CURVE INFORMATION
#MNEM.UNIT   API CODE                                  DESCRIPTION
#---- -----  --------                                  -----------------------
DEPT .F                                                :DEPTH (BOREHOLE) {F10.1}
IHV  .F3                                               :Integrated Hole Volume {F13.4}
ICV  .F3                                               :Integrated Cement Volume {F13.4}
PXND_HILT.CFCF                                         :HILT Porosity CrossPlot {F13.4}
HTEM .DEGF                                             :HTC Temperature {F13.4}
GR   .GAPI                                             :Gamma-Ray {F13.4}
NPHI .CFCF                                             :Thermal Neutron Porosity (Ratio Method) {F13.4}
TNPH .CFCF                                             :Thermal Neutron Porosity {F13.4}
NPOR .CFCF                                             :Enhanced Thermal Neutron Porosity {F13.4}
GDEV .DEG                                              :HGNS Deviation {F13.4}
RT_HRLT.OHMM                                           :HRLT Computed True Resistivity {F13.4}
RXO_HRLT.OHMM                                          :HRLT Computed Invaded Zone Resistivity {F13.4}
RM_HRLT.OHMM                                           :HRLT Mud Resistivity {F13.4}
RLA1 .OHMM                                             :HRLT Borehole Corrected Resistivity 1 {F13.4}
RLA2 .OHMM                                             :HRLT Borehole Corrected Resistivity 2 {F13.4}
RLA3 .OHMM                                             :HRLT Borehole Corrected Resistivity 3 {F13.4}
RLA4 .OHMM                                             :HRLT Borehole Corrected Resistivity 4 {F13.4}
RLA5 .OHMM                                             :HRLT Borehole Corrected Resistivity 5 {F13.4}
HCAL .IN                                               :HRCC Cal. Caliper {F13.4}
HDRA .G/C3                                             :HRDD Density Correction {F13.4}
PEFZ .                                                 :HRDD Standard Resolution Formation Photoelectric Factor {F13.4}
RHOZ .G/C3                                             :HRDD Standard Resolution Formation Density {F13.4}
HMIN .OHMM                                             :MCFL Micro Inverse Resistivity {F13.4}
HMNO .OHMM                                             :MCFL Micro Normal Resistivity {F13.4}
RXOZ .OHMM                                             :MCFL Standard Resolution Invaded Zone Resistivity {F13.4}
HAZ  .F/S2                                             :Z-Axis Acceleration {F13.4}
#-----------------------------------------------------------------------------
# 
#     DEPT        IHV          ICV       PXND_HILT       HTEM         GR           NPHI         TNPH         NPOR         GDEV       RT_HRLT      RXO_HRLT     RM_HRLT        RLA1         RLA2         RLA3         RLA4         RLA5         HCAL         HDRA         PEFZ         RHOZ         HMIN         HMNO         RXOZ         HAZ
#
~A  
# ...
    3994.0     941.3345     419.2774       0.2433     153.6377     114.8081       0.3237       0.3247       0.3527       6.2247       3.9272       1.9185       0.5111       4.2015       3.7920       3.6794       3.6043       3.4508      13.1124       0.1800       3.5120       2.3949       0.9846       1.0800       1.9825      32.0073
    3993.5     941.7628     419.5720       0.2420     153.6377     117.7000       0.3220       0.3230       0.3083       6.5786       4.0605       2.1555       0.5007       4.3893       3.9446       3.8062       3.7718       3.6077      12.5311       0.1798       3.4508       2.3962       0.9954       1.0985       2.2201      32.3550
    3993.0     942.1683     419.8440       0.2404     153.6377     105.4896       0.3159       0.3366       0.3476       6.1784       4.1293       2.2774       0.4932       4.4670       4.0097       3.8649       3.8559       3.6925      12.1958       0.1873       3.3979       2.4357       0.9252       1.1020       2.3406      32.4487
    3992.5     942.5391     420.0811       0.2300     153.6377     111.1208       0.3161       0.3281       0.3468       5.8543       4.3238       2.9248       0.4908       4.7043       4.2592       4.1301       4.1440       3.9798      11.6593       0.1737       3.3402       2.4629       1.2177       1.3776       3.0240      31.2584
    3992.0     942.9112     420.3195       0.2041     153.6377     106.3528       0.3038       0.2952       0.2714       5.5234       4.3552       3.4226       0.4937       4.9464       4.5402       4.4302       4.4004       4.2610      11.6817       0.1556       3.2737       2.5065       1.3375       1.6112       3.3943      31.7994
    3991.5     943.2650     420.5398       0.1905     153.6377     101.6882       0.2829       0.2769       0.2756       5.4981       4.9105       4.0673       0.4986       5.4700       5.1664       5.0697       4.9997       4.8675      11.3911       0.1384       3.2341       2.5263       1.3317       1.5532       4.0147      32.0203
    3991.0     943.6175     420.7586       0.1861     153.6377      99.1530       0.2672       0.2801       0.2736       6.0210       5.4214       3.7009       0.5145       5.6458       5.2813       5.1912       5.1142       5.0497      11.3687       0.1471       3.2488       2.5575       1.6325       1.8618       3.9221      32.3310
    3990.5     943.9672     420.9747       0.1964     153.6377      95.8600       0.2862       0.2930       0.2740       6.2318       6.3447       3.8009       0.5259       6.4647       6.1349       5.9815       5.8941       5.8002      11.3240       0.1684       3.3288       2.5386       1.1685       1.4653       3.9181      32.4818
    3990.0     944.3698     421.2437       0.2125     153.6377     104.0686       0.3085       0.3055       0.3052       6.2774       7.5473       2.8239       0.5313       7.1171       6.7032       6.5909       6.5226       6.4658      12.1511       0.1865       3.3977       2.4920       0.9547       1.1805       2.8780      32.1471
    3989.5     944.7585     421.4987       0.2430     153.6377     101.1277       0.3403       0.3251       0.3138       6.1448       6.2034       2.2177       0.5300       6.1670       5.6584       5.4219       5.3715       5.3327      11.9387       0.1839       3.4370       2.3970       0.7443       0.9017       2.2830      32.1714
    3989.0     945.1761     421.7827       0.2654     153.6377     105.0461       0.3711       0.3440       0.3926       6.0367       4.6585       1.7027       0.5175       4.5652       4.1893       4.1248       4.0603       4.0223      12.3747       0.1840       3.5162       2.3426       0.8618       0.9608       1.7522      31.4338
    3988.5     945.5684     422.0414       0.2506     153.6377      93.2623       0.3619       0.3428       0.3623       6.1046       4.1932       1.6936       0.5047       4.0364       3.7715       3.7153       3.6743       3.6574      11.9946       0.2199       3.7175       2.4044       0.8173       0.8575       1.7306      31.8562
    3988.0     945.9349     422.2742       0.2313     153.6377      90.6433       0.3453       0.3456       0.3147       5.7110       3.1843       2.1753       0.4989       3.4024       3.1293       3.0580       3.0079       2.9824      11.5923       0.2498       3.9622       2.4922       1.1055       1.2189       2.1812      33.0147
    3987.5     946.3661     422.5719       0.2394     153.6377      89.8095       0.3493       0.3601       0.3562       5.9282       5.1913       2.1647       0.4896       4.7838       4.5333       4.6344       4.5322       4.5374      12.5759       0.2325       4.0313       2.4842       1.0705       1.2874       2.1890      31.4842
    3987.0     946.8334     422.9055       0.2918     153.6377      97.6749       0.3927       0.4077       0.3999       5.9288       3.0131       1.7979       0.4953       3.2792       3.0333       2.8985       2.8084       2.7627      13.0900       0.1673       3.7898       2.3574       0.6326       0.7351       1.8078      31.2697
    3986.5     947.3299     423.2684       0.3316     153.6377     105.5279       0.4590       0.4305       0.4485       6.0142       2.9908       1.3692       0.4974       3.1058       2.8860       2.7818       2.6964       2.6386      13.4924       0.1187       3.4110       2.2486       0.8833       0.8906       1.4163      31.6548
    3986.0     947.8649     423.6697       0.3389     153.6377     107.4092       0.4721       0.4282       0.4388       6.1677       2.8955       1.4009       0.4937       3.0461       2.8290       2.7299       2.6344       2.5650      14.0066       0.1044       3.0975       2.2194       1.0003       0.9158       1.4666      30.3583
    3985.5     948.4050     424.0762       0.3365     153.6377     112.5783       0.4619       0.4195       0.4261       6.2310       2.6730       1.3241       0.4964       2.8734       2.6253       2.5351       2.4482       2.3799      14.0736       0.0967       2.9827       2.2138       1.1412       1.0310       1.4076      31.7718
    3985.0     948.9942     424.5319       0.3462     153.6377     104.7582       0.4373       0.4340       0.4337       6.0353       2.3830       1.3161       0.4935       2.6047       2.3795       2.2945       2.2221       2.1460      14.6996       0.0875       2.9915       2.2032       1.0747       0.9638       1.4454      33.9027
    3984.5     949.5621     424.9662       0.3517     153.6377     100.5837       0.4561       0.4530       0.4649       5.8076       2.4978       1.2776       0.4888       2.6976       2.5266       2.4308       2.3659       2.2691      14.4313       0.0913       3.0475       2.2121       0.9537       0.9149       1.4328      32.2023
    3984.0     950.0627     425.3331       0.3444     153.6377      95.3805       0.4685       0.4563       0.4462       5.6458       2.7405       1.4032       0.4802       2.8650       2.6752       2.6010       2.5468       2.4349      13.5483       0.1140       3.1205       2.2406       1.0230       0.9865       1.4833      31.5540
    3983.5     950.5690     425.7058       0.3046     153.6377      94.4449       0.4756       0.3897       0.3736       5.8241       2.8914       1.3695       0.4658       2.8637       2.7760       2.7105       2.6492       2.5380      13.6265       0.1589       3.2385       2.2789       0.9526       0.9234       1.4156      30.8977
    3983.0     951.0435     426.0467       0.2838     153.6377      92.4619       0.4172       0.3879       0.4035       6.0673       2.6234       1.3728       0.4555       2.5850       2.5323       2.4933       2.4305       2.3394      13.1906       0.2187       3.3997       2.3558       0.7913       0.7954       1.4323      30.7953
    3982.5     951.4257     426.2952       0.2841     153.6377      92.7000       0.4071       0.3965       0.4059       6.0986       2.3466       1.9808       0.4569       2.5560       2.4999       2.4688       2.4100       2.3224      11.8382       0.2292       3.6501       2.3687       1.0404       1.1097       1.9653      32.3242
