~VERSION INFORMATION
VERS.           2.0   :CWLS Log ASCII Standard - VERSION 2.0
WRAP.           NO    :One Line per depth step
PROD.  Schlumberger   :LAS Producer
PROG.  DLIS to ASCII 10C0-306                          :LAS Program name and version
CREA.        2002/04/05 15:33                          :LAS Creation date {YYYY/MM/DD hh:mm}
SOURCE.     FMI_033PUP.DLIS                            :DLIS File Name
FILE-ID.     FMI_033PUP                                :File Identification Number
#--------------------------------------------------
~WELL INFORMATION
#MNEM.UNIT      DATA             DESCRIPTION
#---- ------ --------------   -----------------------------
STRT .F      722.0           :START DEPTH     
STOP .F      5952.0          :STOP DEPTH     
STEP .F       0.5            :STEP     
NULL .          -999.25      :NULL VALUE
COMP .        DEPARTMENT OF ENERGY                     :COMPANY
WELL .        NPR-3 25-1-X-14                          :WELL
FLD  .        NPR-3                                    :FIELD
LOC  .        2301' FSL & 782' FWL                     :LOCATION
CNTY .        NATRONA                                  :COUNTY
STAT .        WYOMING                                  :STATE
CTRY .                                                 :COUNTRY
API  .        4902523047                               :API NUMBER
UWI  .                                                 :UNIQUE WELL ID
DATE .        05-Apr-2002                              :LOG DATE {DD-MMM-YYYY}
SRVC .        Schlumberger                             :SERVICE COMPANY
LATI .DEG                                              :LATITUDE
LONG .DEG                                              :LONGITUDE
GDAT .                                                 :GeoDetic Datum
#-----------------------------------------------------------------------------
~PARAMETER INFORMATION
#MNEM.UNIT    VALUE                      DESCRIPTION
#---- -----   --------------------       ------------------------
RUN  .          1                        :RUN NUMBER
PDAT .        GROUND LEVEL               :Permanent Datum
EPD  .F         5214.799805              :Elevation of Permanent Datum above Mean Sea Level
LMF  .          KELLY BUSHING            :Logging Measured From (Name of Logging Elevation Reference)
APD  .F          10.000000               :Elevation of Depth Reference (LMF) above Permanent Datum
#-----------------------------------------------------------------------------
~CURVE INFORMATION
#MNEM.UNIT   API CODE                                  DESCRIPTION
#---- -----  --------                                  -----------------------
DEPT .F                                                :DEPTH (BOREHOLE) {F10.1}
HAZI .DEG                                              :Hole Azimuth {F13.4}
SDEV .DEG                                              :Sonde Deviation {F13.4}
ED   .F                                                :East Departure {F13.4}
ND   .F                                                :North Departure {F13.4}
TVDE .F                                                :True Vertical Depth {F13.4}
VSEC .F                                                :Vertical Section {F13.4}
GR   .GAPI                                             :Gamma Ray {F13.4}
#-----------------------------------------------------------------------------
# 
#     DEPT        HAZI         SDEV         ED           ND           TVDE         VSEC         GR
#
~A  
# ...
    1749.0     319.3167       3.2355     -26.9888      62.9982    1746.5858      62.9982      93.9446
    1749.5     319.3015       3.2320     -27.0071      63.0196    1747.0851      63.0196      95.7228
    1750.0     319.2402       3.2297     -27.0254      63.0410    1747.5842      63.0410      96.6754
    1750.5     319.2378       3.2284     -27.0437      63.0625    1748.0835      63.0625      95.0242
    1751.0     319.1842       3.2282     -27.0620      63.0839    1748.5826      63.0839      89.5625
    1751.5     319.1711       3.2262     -27.0803      63.1054    1749.0819      63.1054      85.8711
    1752.0     319.1403       3.2259     -27.0986      63.1269    1749.5811      63.1269      87.2683
    1752.5     319.1256       3.2263     -27.1169      63.1485    1750.0803      63.1485      89.0465
    1753.0     319.1219       3.2246     -27.1352      63.1700    1750.5795      63.1700      92.7221
    1753.5     319.1180       3.2259     -27.1535      63.1915    1751.0787      63.1915      95.7228
    1754.0     319.0776       3.2266     -27.1718      63.2131    1751.5779      63.2131     100.0414
    1754.5     319.1120       3.2237     -27.1901      63.2347    1752.0771      63.2347      97.7948
    1755.0     319.1520       3.2259     -27.2084      63.2563    1752.5763      63.2563      93.7779
    1755.5     319.1782       3.2269     -27.2267      63.2779    1753.0754      63.2779      90.2929
    1756.0     319.1876       3.2258     -27.2450      63.2995    1753.5747      63.2995      87.5858
    1756.5     319.2459       3.2282     -27.2633      63.3211    1754.0739      63.3211      85.8870
    1757.0     319.2646       3.2268     -27.2817      63.3427    1754.5731      63.3427      84.6724
    1757.5     319.2523       3.2237     -27.3000      63.3643    1755.0723      63.3643      85.3075
    1758.0     319.2834       3.2274     -27.3184      63.3859    1755.5714      63.3859      88.8798
    1758.5     319.3128       3.2273     -27.3367      63.4075    1756.0707      63.4075      87.1016
    1759.0     319.3276       3.2282     -27.3551      63.4291    1756.5698      63.4291      91.4360
    1759.5     319.3953       3.2275     -27.3734      63.4507    1757.0691      63.4507      90.8327
    1760.0     319.4128       3.2297     -27.3918      63.4722    1757.5682      63.4722      92.1029
    1760.5     319.4278       3.2290     -27.4102      63.4938    1758.0675      63.4938      93.0555
    1761.0     319.4608       3.2313     -27.4286      63.5153    1758.5667      63.5153      93.1825
    1761.5     319.4911       3.2309     -27.4470      63.5369    1759.0658      63.5369      91.6900
    1762.0     319.5298       3.2333     -27.4655      63.5584    1759.5651      63.5584      85.8949
    1762.5     319.5323       3.2335     -27.4840      63.5799    1760.0642      63.5799      82.2114
    1763.0     319.5884       3.2355     -27.5025      63.6014    1760.5635      63.6014      85.3075
    1763.5     319.5923       3.2368     -27.5210      63.6229    1761.0626      63.6229      88.3559
    1764.0     319.6244       3.2369     -27.5395      63.6444    1761.5618      63.6444      89.1815
    1764.5     319.6349       3.2395     -27.5580      63.6658    1762.0610      63.6658      87.8319
    1765.0     319.6675       3.2396     -27.5766      63.6873    1762.5602      63.6873      85.2201
    1765.5     319.6934       3.2400     -27.5951      63.7088    1763.0594      63.7088      86.2998
    1766.0     319.7328       3.2428     -27.6137      63.7302    1763.5586      63.7302      89.3164
    1766.5     319.7073       3.2441     -27.6323      63.7517    1764.0577      63.7517      90.0229
    1767.0     319.7186       3.2459     -27.6508      63.7732    1764.5570      63.7732      91.2058
    1767.5     319.7038       3.2465     -27.6694      63.7946    1765.0562      63.7946      88.5702
    1768.0     319.6855       3.2487     -27.6881      63.8161    1765.5554      63.8161      86.2839
    1768.5     319.6961       3.2491     -27.7067      63.8375    1766.0546      63.8375      82.4734
    1769.0     319.6919       3.2502     -27.7253      63.8589    1766.5537      63.8589      79.0439
    1769.5     319.6546       3.2508     -27.7440      63.8804    1767.0530      63.8804      82.6004
    1770.0     319.6637       3.2507     -27.7626      63.9018    1767.5521      63.9018      88.7925
    1770.5     319.5709       3.2501     -27.7812      63.9232    1768.0514      63.9232      89.4276
    1771.0     319.6989       3.2461     -27.7999      63.9446    1768.5505      63.9446      87.5699
    1771.5     319.6033       3.2472     -27.8185      63.9660    1769.0497      63.9660      85.9028
    1772.0     319.5556       3.2491     -27.8371      63.9874    1769.5490      63.9874      88.9512
    1772.5     319.4586       3.2497     -27.8558      64.0088    1770.0481      64.0088      92.5871
    1773.0     319.4724       3.2480     -27.8744      64.0302    1770.5472      64.0302      90.0864
    1773.5     319.4211       3.2500     -27.8931      64.0516    1771.0465      64.0516      89.3243
    1774.0     319.3476       3.2515     -27.9118      64.0730    1771.5457      64.0730      86.0219
    1774.5     319.2802       3.2515     -27.9304      64.0944    1772.0449      64.0944      89.3561
    1775.0     319.2582       3.2501     -27.9491      64.1158    1772.5441      64.1158      91.1343
    1775.5     319.2547       3.2537     -27.9678      64.1372    1773.0432      64.1372      94.9687
    1776.0     319.2306       3.2530     -27.9865      64.1586    1773.5425      64.1586      89.5704
    1776.5     319.2035       3.2530     -28.0051      64.1800    1774.0416      64.1800      91.1740
    1777.0     319.1615       3.2513     -28.0238      64.2015    1774.5409      64.2015      88.1018
    1777.5     319.1534       3.2534     -28.0425      64.2229    1775.0400      64.2229      92.0711
    1778.0     319.1448       3.2529     -28.0612      64.2444    1775.5392      64.2444      86.9110
    1778.5     319.1174       3.2560     -28.0799      64.2658    1776.0385      64.2658      88.3161
    1779.0     319.1323       3.2511     -28.0986      64.2873    1776.5376      64.2873      89.5546
    1779.5     319.0025       3.2581     -28.1173      64.3088    1777.0367      64.3088      88.6416
    1780.0     319.0146       3.2571     -28.1359      64.3303    1777.5360      64.3303      89.2688
    1780.5     319.0192       3.2557     -28.1546      64.3519    1778.0352      64.3519      87.7446
    1781.0     319.0322       3.2559     -28.1733      64.3734    1778.5343      64.3734      90.6024
    1781.5     318.9780       3.2560     -28.1920      64.3950    1779.0336      64.3950      89.4593
    1782.0     318.9766       3.2559     -28.2107      64.4165    1779.5327      64.4165      90.5786
    1782.5     318.9719       3.2549     -28.2294      64.4381    1780.0319      64.4381      86.7284
    1783.0     318.9627       3.2543     -28.2482      64.4596    1780.5311      64.4596      86.0933
    1783.5     318.9622       3.2557     -28.2669      64.4812    1781.0303      64.4812      85.2598
    1784.0     318.9295       3.2522     -28.2856      64.5028    1781.5294      64.5028      89.8324
    1784.5     318.9182       3.2545     -28.3043      64.5243    1782.0287      64.5243      93.6032
    1785.0     318.8986       3.2541     -28.3231      64.5459    1782.5278      64.5459      95.9848
    1785.5     318.9028       3.2549     -28.3418      64.5675    1783.0270      64.5675      94.2065
    1786.0     318.8972       3.2542     -28.3606      64.5891    1783.5261      64.5891      92.8490
    1786.5     318.9128       3.2547     -28.3794      64.6107    1784.0254      64.6107      91.5392
    1787.0     318.8736       3.2534     -28.3981      64.6323    1784.5245      64.6323      93.8255
    1787.5     318.8872       3.2610     -28.4169      64.6539    1785.0237      64.6539      93.3174
    1788.0     318.9011       3.2573     -28.4357      64.6755    1785.5229      64.6755      92.4839
