~VERSION INFORMATION
VERS.           2.0   :CWLS Log ASCII Standard - VERSION 2.0
WRAP.           NO    :One Line per depth step
PROD.  Schlumberger   :LAS Producer
PROG.  DLIS to ASCII 10C0-306                          :LAS Program name and version
CREA.        2002/04/05 15:33                          :LAS Creation date {YYYY/MM/DD hh:mm}
SOURCE.     FMI_033PUP.DLIS                            :DLIS File Name
FILE-ID.     FMI_033PUP                                :File Identification Number
#--------------------------------------------------
~WELL INFORMATION
#MNEM.UNIT      DATA             DESCRIPTION
#---- ------ --------------   -----------------------------
STRT .F      722.0           :START DEPTH     
STOP .F      5952.0          :STOP DEPTH     
STEP .F       0.5            :STEP     
NULL .          -999.25      :NULL VALUE
COMP .        DEPARTMENT OF ENERGY                     :COMPANY
WELL .        NPR-3 25-1-X-14                          :WELL
FLD  .        NPR-3                                    :FIELD
LOC  .        2301' FSL & 782' FWL                     :LOCATION
CNTY .        NATRONA                                  :COUNTY
STAT .        WYOMING                                  :STATE
CTRY .                                                 :COUNTRY
API  .        4902523047                               :API NUMBER
UWI  .                                                 :UNIQUE WELL ID
DATE .        05-Apr-2002                              :LOG DATE {DD-MMM-YYYY}
SRVC .        Schlumberger                             :SERVICE COMPANY
LATI .DEG                                              :LATITUDE
LONG .DEG                                              :LONGITUDE
GDAT .                                                 :GeoDetic Datum
#-----------------------------------------------------------------------------
~PARAMETER INFORMATION
#MNEM.UNIT    VALUE                      DESCRIPTION
#---- -----   --------------------       ------------------------
RUN  .          1                        :RUN NUMBER
PDAT .        GROUND LEVEL               :Permanent Datum
EPD  .F         5214.799805              :Elevation of Permanent Datum above Mean Sea Level
LMF  .          KELLY BUSHING            :Logging Measured From (Name of Logging Elevation Reference)
APD  .F          10.000000               :Elevation of Depth Reference (LMF) above Permanent Datum
#-----------------------------------------------------------------------------
~CURVE INFORMATION
#MNEM.UNIT   API CODE                                  DESCRIPTION
#---- -----  --------                                  -----------------------
DEPT .F                                                :DEPTH (BOREHOLE) {F10.1}
HAZI .DEG                                              :Hole Azimuth {F13.4}
SDEV .DEG                                              :Sonde Deviation {F13.4}
ED   .F                                                :East Departure {F13.4}
ND   .F                                                :North Departure {F13.4}
TVDE .F                                                :True Vertical Depth {F13.4}
VSEC .F                                                :Vertical Section {F13.4}
GR   .GAPI                                             :Gamma Ray {F13.4}
#-----------------------------------------------------------------------------
# 
#     DEPT        HAZI         SDEV         ED           ND           TVDE         VSEC         GR
#
~A  
# ...
    1077.5     341.5278       4.2400      -6.6567      26.8849    1076.3967      26.8849      84.4658
    1078.0     341.4869       4.2392      -6.6689      26.9196    1076.8954      26.9196      85.7360
    1078.5     341.4731       4.2418      -6.6811      26.9544    1077.3940      26.9544      87.8953
    1079.0     341.4444       4.2417      -6.6933      26.9891    1077.8926      26.9891      86.7522
    1079.5     341.4280       4.2423      -6.7055      27.0238    1078.3912      27.0238      86.2441
    1080.0     341.3884       4.2408      -6.7177      27.0585    1078.8899      27.0585      89.5465
    1080.5     341.3689       4.2390      -6.7299      27.0932    1079.3885      27.0932      89.2925
    1081.0     341.3337       4.2393      -6.7421      27.1279    1079.8872      27.1279      89.4195
    1081.5     341.2994       4.2393      -6.7543      27.1626    1080.3859      27.1626      87.7683
    1082.0     341.2396       4.2389      -6.7665      27.1972    1080.8845      27.1972      90.0546
    1082.5     341.2198       4.2383      -6.7787      27.2319    1081.3832      27.2319      90.8167
    1083.0     341.1576       4.2393      -6.7910      27.2666    1081.8818      27.2666      86.7522
    1083.5     341.0946       4.2345      -6.8032      27.3012    1082.3805      27.3012      89.1655
    1084.0     341.0453       4.2326      -6.8155      27.3358    1082.8792      27.3358      88.5304
    1084.5     340.9752       4.2352      -6.8277      27.3705    1083.3777      27.3705      93.8651
    1085.0     340.8636       4.2320      -6.8400      27.4052    1083.8763      27.4052      93.6111
    1085.5     340.7947       4.2303      -6.8523      27.4398    1084.3750      27.4398      97.2946
    1086.0     340.7553       4.2311      -6.8646      27.4744    1084.8737      27.4744      94.3732
    1086.5     340.7890       4.2326      -6.8769      27.5091    1085.3723      27.5091      95.6434
    1087.0     340.7318       4.2329      -6.8892      27.5437    1085.8710      27.5437      93.8651
    1087.5     340.6977       4.2298      -6.9015      27.5783    1086.3696      27.5783      93.8651
    1088.0     340.6911       4.2272      -6.9138      27.6129    1086.8683      27.6129      89.0385
    1088.5     340.6646       4.2265      -6.9262      27.6475    1087.3669      27.6475      87.0062
    1089.0     340.6560       4.2288      -6.9385      27.6821    1087.8656      27.6821      88.7844
    1089.5     340.6779       4.2287      -6.9508      27.7166    1088.3643      27.7166      90.5627
    1090.0     340.6505       4.2226      -6.9632      27.7512    1088.8629      27.7512      92.4679
    1090.5     340.6695       4.2244      -6.9755      27.7857    1089.3616      27.7857      87.5143
    1091.0     340.6355       4.2221      -6.9878      27.8202    1089.8602      27.8202      85.6090
    1091.5     340.6398       4.2187      -7.0002      27.8546    1090.3589      27.8546      87.5143
    1092.0     340.6293       4.2178      -7.0125      27.8890    1090.8575      27.8890      95.2623
    1092.5     340.6345       4.2163      -7.0249      27.9235    1091.3562      27.9235      97.1676
    1093.0     340.6047       4.2157      -7.0372      27.9578    1091.8549      27.9578      95.0083
    1093.5     340.6046       4.2147      -7.0496      27.9922    1092.3535      27.9922      93.9921
    1094.0     340.5933       4.2161      -7.0620      28.0266    1092.8522      28.0266      93.4841
    1094.5     340.5771       4.2161      -7.0743      28.0609    1093.3508      28.0609      92.5949
    1095.0     340.5329       4.2169      -7.0867      28.0953    1093.8495      28.0953      90.0546
    1095.5     340.5294       4.2126      -7.0991      28.1296    1094.3481      28.1296      90.7056
    1096.0     340.5236       4.2172      -7.1116      28.1639    1094.8468      28.1639      92.6834
    1096.5     340.4932       4.2167      -7.1240      28.1982    1095.3455      28.1982      89.8017
    1097.0     340.5007       4.2188      -7.1364      28.2325    1095.8441      28.2325      86.6376
    1097.5     340.4796       4.2149      -7.1489      28.2669    1096.3428      28.2669      84.5328
    1098.0     340.4207       4.2129      -7.1613      28.3012    1096.8414      28.3012      86.0173
    1098.5     340.4335       4.2164      -7.1738      28.3355    1097.3402      28.3355      86.2441
    1099.0     340.3985       4.2116      -7.1862      28.3697    1097.8389      28.3697      85.8631
    1099.5     340.3965       4.2106      -7.1987      28.4040    1098.3375      28.4040      86.4981
    1100.0     340.3861       4.2126      -7.2112      28.4383    1098.8362      28.4383      86.4981
    1100.5     340.3929       4.2129      -7.2237      28.4726    1099.3348      28.4726      87.2603
    1101.0     340.3642       4.2118      -7.2363      28.5068    1099.8335      28.5068      84.2118
    1101.5     340.3615       4.2078      -7.2488      28.5411    1100.3322      28.5411      87.3873
    1102.0     340.3423       4.2063      -7.2613      28.5754    1100.8308      28.5754      88.1494
    1102.5     340.3251       4.2006      -7.2739      28.6096    1101.3295      28.6096      89.0385
    1103.0     340.3035       4.1976      -7.2865      28.6438    1101.8281      28.6438      84.7199
    1103.5     340.2825       4.1957      -7.2991      28.6781    1102.3268      28.6781      81.5445
    1104.0     340.2581       4.1966      -7.3117      28.7123    1102.8254      28.7123      85.6090
    1104.5     340.2320       4.1905      -7.3243      28.7465    1103.3242      28.7465      88.4034
    1105.0     340.2430       4.1912      -7.3369      28.7807    1103.8229      28.7807      93.2300
    1105.5     340.2175       4.1862      -7.3496      28.8149    1104.3215      28.8149      91.3248
    1106.0     340.1888       4.1878      -7.3622      28.8490    1104.8202      28.8490      90.0546
    1106.5     340.1681       4.1898      -7.3748      28.8832    1105.3188      28.8832      87.7683
    1107.0     340.1372       4.1852      -7.3875      28.9173    1105.8175      28.9173      87.2603
    1107.5     340.1359       4.1875      -7.4002      28.9514    1106.3162      28.9514      89.5466
    1108.0     340.1110       4.1874      -7.4128      28.9855    1106.8148      28.9855      88.8638
    1108.5     340.0853       4.1853      -7.4255      29.0197    1107.3136      29.0197      87.0312
    1109.0     340.0640       4.1854      -7.4381      29.0538    1107.8123      29.0538      86.2691
    1109.5     340.0502       4.1868      -7.4508      29.0879    1108.3109      29.0879      85.1736
    1110.0     340.0483       4.1855      -7.4635      29.1219    1108.8096      29.1219      86.1171
    1110.5     340.0295       4.1827      -7.4762      29.1560    1109.3082      29.1560      86.6252
    1111.0     339.9863       4.1863      -7.4889      29.1900    1109.8069      29.1900      86.4982
    1111.5     339.9817       4.1856      -7.5016      29.2241    1110.3057      29.2241      86.8792
    1112.0     339.9536       4.1849      -7.5143      29.2581    1110.8043      29.2581      85.6090
    1112.5     339.9508       4.1824      -7.5269      29.2921    1111.3030      29.2921      84.9740
    1113.0     339.9198       4.1838      -7.5396      29.3261    1111.8016      29.3261      84.2119
    1113.5     339.8776       4.1830      -7.5523      29.3601    1112.3003      29.3601      85.1010
    1114.0     339.8714       4.1868      -7.5650      29.3941    1112.7991      29.3941      85.4820
    1114.5     339.8480       4.1839      -7.5777      29.4281    1113.2977      29.4281      88.9115
    1115.0     339.8389       4.1814      -7.5904      29.4621    1113.7964      29.4621      89.1655
    1115.5     339.8060       4.1838      -7.6032      29.4961    1114.2950      29.4961      90.6897
    1116.0     339.7663       4.1806      -7.6159      29.5301    1114.7937      29.5301      87.1332
    1116.5     339.7359       4.1815      -7.6287      29.5641    1115.2924      29.5641      85.3550
