~VERSION INFORMATION
VERS.           2.0   :CWLS Log ASCII Standard - VERSION 2.0
WRAP.           NO    :One Line per depth step
PROD.  Schlumberger   :LAS Producer
PROG.  DLIS to ASCII 10C0-306                          :LAS Program name and version
CREA.        2002/04/05 15:33                          :LAS Creation date {YYYY/MM/DD hh:mm}
SOURCE.     FMI_033PUP.DLIS                            :DLIS File Name
FILE-ID.     FMI_033PUP                                :File Identification Number
#--------------------------------------------------
~WELL INFORMATION
#MNEM.UNIT      DATA             DESCRIPTION
#---- ------ --------------   -----------------------------
STRT .F      722.0           :START DEPTH     
STOP .F      5952.0          :STOP DEPTH     
STEP .F       0.5            :STEP     
NULL .          -999.25      :NULL VALUE
COMP .        DEPARTMENT OF ENERGY                     :COMPANY
WELL .        NPR-3 25-1-X-14                          :WELL
FLD  .        NPR-3                                    :FIELD
LOC  .        2301' FSL & 782' FWL                     :LOCATION
CNTY .        NATRONA                                  :COUNTY
STAT .        WYOMING                                  :STATE
CTRY .                                                 :COUNTRY
API  .        4902523047                               :API NUMBER
UWI  .                                                 :UNIQUE WELL ID
DATE .        05-Apr-2002                              :LOG DATE {DD-MMM-YYYY}
SRVC .        Schlumberger                             :SERVICE COMPANY
LATI .DEG                                              :LATITUDE
LONG .DEG                                              :LONGITUDE
GDAT .                                                 :GeoDetic Datum
#-----------------------------------------------------------------------------
~PARAMETER INFORMATION
#MNEM.UNIT    VALUE                      DESCRIPTION
#---- -----   --------------------       ------------------------
RUN  .          1                        :RUN NUMBER
PDAT .        GROUND LEVEL               :Permanent Datum
EPD  .F         5214.799805              :Elevation of Permanent Datum above Mean Sea Level
LMF  .          KELLY BUSHING            :Logging Measured From (Name of Logging Elevation Reference)
APD  .F          10.000000               :Elevation of Depth Reference (LMF) above Permanent Datum
#-----------------------------------------------------------------------------
~CURVE INFORMATION
#MNEM.UNIT   API CODE                                  DESCRIPTION
#---- -----  --------                                  -----------------------
DEPT .F                                                :DEPTH (BOREHOLE) {F10.1}
HAZI .DEG                                              :Hole Azimuth {F13.4}
SDEV .DEG                                              :Sonde Deviation {F13.4}
ED   .F                                                :East Departure {F13.4}
ND   .F                                                :North Departure {F13.4}
TVDE .F                                                :True Vertical Depth {F13.4}
VSEC .F                                                :Vertical Section {F13.4}
GR   .GAPI                                             :Gamma Ray {F13.4}
#-----------------------------------------------------------------------------
# 
#     DEPT        HAZI         SDEV         ED           ND           TVDE         VSEC         GR
#
~A  
# ...
    2104.5     312.8014       2.7225     -40.5372      77.8607    2101.5142      77.8607     122.9521
    2105.0     312.7655       2.7183     -40.5547      77.8769    2102.0137      77.8769     124.5160
    2105.5     312.7259       2.7181     -40.5722      77.8931    2102.5132      77.8931     123.7380
    2106.0     312.7152       2.7162     -40.5897      77.9093    2103.0125      77.9093     126.4927
    2106.5     312.6830       2.7133     -40.6072      77.9255    2103.5120      77.9255     127.7866
    2107.0     312.6757       2.7104     -40.6247      77.9417    2104.0115      77.9417     126.0243
    2107.5     312.6646       2.7095     -40.6422      77.9579    2104.5107      77.9579     124.4604
    2108.0     312.7034       2.7095     -40.6597      77.9740    2105.0103      77.9740     123.6745
    2108.5     312.6914       2.7103     -40.6772      77.9902    2105.5098      77.9902     119.8402
    2109.0     312.7038       2.7130     -40.6947      78.0063    2106.0093      78.0063     118.2286
    2109.5     312.7440       2.7132     -40.7122      78.0225    2106.5085      78.0225     114.7277
    2110.0     312.7384       2.7153     -40.7296      78.0386    2107.0081      78.0386     119.8322
    2110.5     312.7710       2.7173     -40.7471      78.0546    2107.5076      78.0546     119.3003
    2111.0     312.8307       2.7191     -40.7645      78.0706    2108.0068      78.0706     120.6102
    2111.5     312.8362       2.7214     -40.7819      78.0866    2108.5063      78.0866     122.6425
    2112.0     312.8745       2.7226     -40.7993      78.1026    2109.0059      78.1026     120.8563
    2112.5     312.8777       2.7239     -40.8167      78.1186    2109.5051      78.1186     121.3961
    2113.0     312.9043       2.7256     -40.8341      78.1345    2110.0046      78.1345     124.7382
    2113.5     312.9044       2.7289     -40.8514      78.1504    2110.5042      78.1504     126.8022
    2114.0     312.9128       2.7318     -40.8688      78.1662    2111.0037      78.1662     126.1433
    2114.5     312.8615       2.7317     -40.8861      78.1820    2111.5029      78.1820     121.7851
    2115.0     312.8403       2.7340     -40.9034      78.1977    2112.0024      78.1977     123.8888
    2115.5     312.8325       2.7348     -40.9207      78.2134    2112.5020      78.2134     125.3098
    2116.0     312.7896       2.7359     -40.9379      78.2291    2113.0015      78.2291     123.1188
    2116.5     312.7775       2.7347     -40.9552      78.2447    2113.5007      78.2447     122.2852
    2117.0     312.7833       2.7353     -40.9724      78.2602    2114.0002      78.2602     119.5544
    2117.5     312.7703       2.7340     -40.9895      78.2758    2114.4998      78.2758     117.2998
    2118.0     312.7589       2.7342     -41.0067      78.2913    2114.9993      78.2913     118.3715
    2118.5     312.7633       2.7328     -41.0239      78.3067    2115.4988      78.3067     119.1971
    2119.0     312.7517       2.7306     -41.0410      78.3222    2115.9980      78.3222     123.9523
    2119.5     312.7402       2.7316     -41.0582      78.3377    2116.4976      78.3377     117.2919
    2120.0     312.7423       2.7283     -41.0753      78.3532    2116.9971      78.3532     116.2281
    2120.5     312.7147       2.7283     -41.0924      78.3687    2117.4966      78.3687     113.7592
    2121.0     312.7058       2.7278     -41.1095      78.3843    2117.9961      78.3843     109.1072
    2121.5     312.6819       2.7252     -41.1266      78.3998    2118.4956      78.3998     105.0903
    2122.0     312.6660       2.7210     -41.1437      78.4154    2118.9949      78.4154     103.6296
    2122.5     312.5924       2.7127     -41.1608      78.4310    2119.4944      78.4310     114.2514
    2123.0     312.6112       2.7144     -41.1779      78.4466    2119.9939      78.4466     118.1492
    2123.5     312.5899       2.7102     -41.1949      78.4622    2120.4934      78.4622     123.2934
    2124.0     312.5574       2.7074     -41.2120      78.4778    2120.9929      78.4778     120.5308
    2124.5     312.5391       2.7034     -41.2289      78.4933    2121.4922      78.4933     123.9999
    2125.0     312.4626       2.7007     -41.2459      78.5087    2121.9917      78.5087     124.3334
    2125.5     312.4245       2.6927     -41.2628      78.5241    2122.4912      78.5241     122.0709
    2126.0     312.3423       2.6876     -41.2798      78.5395    2122.9907      78.5395     123.5951
    2126.5     312.3008       2.6853     -41.2966      78.5547    2123.4902      78.5547     120.0227
    2127.0     312.2571       2.6773     -41.3135      78.5699    2123.9897      78.5699     119.9671
    2127.5     312.2477       2.6732     -41.3303      78.5851    2124.4893      78.5851     113.5449
    2128.0     312.1551       2.6670     -41.3470      78.6002    2124.9888      78.6002     115.2596
    2128.5     312.1453       2.6633     -41.3637      78.6151    2125.4883      78.6151     110.9410
    2129.0     312.1381       2.6567     -41.3804      78.6300    2125.9875      78.6300     110.2265
    2129.5     312.0895       2.6510     -41.3970      78.6448    2126.4871      78.6448     111.6078
    2130.0     312.0606       2.6493     -41.4136      78.6595    2126.9866      78.6595     112.3699
    2130.5     312.0568       2.6480     -41.4302      78.6741    2127.4861      78.6741     115.1087
    2131.0     312.0585       2.6499     -41.4467      78.6886    2127.9856      78.6886     107.6306
    2131.5     312.1033       2.6485     -41.4631      78.7031    2128.4851      78.7031     113.3861
    2132.0     312.1561       2.6481     -41.4796      78.7175    2128.9849      78.7175     113.8465
    2132.5     312.2156       2.6507     -41.4960      78.7318    2129.4844      78.7318     113.9418
    2133.0     312.2555       2.6503     -41.5124      78.7461    2129.9839      78.7461     107.1702
    2133.5     312.3372       2.6491     -41.5288      78.7604    2130.4834      78.7604     100.0573
    2134.0     312.3442       2.6533     -41.5452      78.7747    2130.9829      78.7747     101.1290
    2134.5     312.4556       2.6517     -41.5615      78.7889    2131.4824      78.7889     106.3367
    2135.0     312.4621       2.6505     -41.5778      78.8031    2131.9819      78.8031     112.2747
    2135.5     312.4585       2.6460     -41.5942      78.8173    2132.4814      78.8173     113.6481
    2136.0     312.3917       2.6408     -41.6105      78.8314    2132.9810      78.8314     110.9251
    2136.5     312.3983       2.6331     -41.6268      78.8456    2133.4805      78.8456     108.9246
    2137.0     312.2829       2.6271     -41.6431      78.8596    2133.9800      78.8596     109.0993
    2137.5     312.2166       2.6206     -41.6594      78.8737    2134.4795      78.8737     110.5282
    2138.0     312.1805       2.6139     -41.6757      78.8876    2134.9792      78.8876     112.1794
    2138.5     312.1543       2.6052     -41.6920      78.9016    2135.4788      78.9016     113.9656
    2139.0     312.0748       2.5963     -41.7082      78.9156    2135.9783      78.9156     116.6568
    2139.5     312.0159       2.5886     -41.7245      78.9295    2136.4778      78.9295     113.9100
    2140.0     311.9204       2.5744     -41.7408      78.9434    2136.9773      78.9434     115.5057
    2140.5     311.7957       2.5675     -41.7571      78.9573    2137.4768      78.9573     118.8081
    2141.0     311.6845       2.5553     -41.7734      78.9712    2137.9763      78.9712     123.0949
    2141.5     311.5777       2.5458     -41.7897      78.9850    2138.4758      78.9850     121.3802
    2142.0     311.4924       2.5371     -41.8060      78.9988    2138.9753      78.9988     112.2350
    2142.5     311.4227       2.5250     -41.8223      79.0126    2139.4751      79.0126     116.4027
    2143.0     311.2959       2.5163     -41.8386      79.0264    2139.9746      79.0264     115.1961
    2143.5     311.2152       2.5070     -41.8549      79.0402    2140.4741      79.0402     121.5628
