~VERSION INFORMATION
VERS.           2.0   :CWLS Log ASCII Standard - VERSION 2.0
WRAP.           NO    :One Line per depth step
PROD.  Schlumberger   :LAS Producer
PROG.  DLIS to ASCII 10C0-306                          :LAS Program name and version
CREA.        2002/04/05 15:33                          :LAS Creation date {YYYY/MM/DD hh:mm}
SOURCE.     FMI_033PUP.DLIS                            :DLIS File Name
FILE-ID.     FMI_033PUP                                :File Identification Number
#--------------------------------------------------
~WELL INFORMATION
#MNEM.UNIT      DATA             DESCRIPTION
#---- ------ --------------   -----------------------------
STRT .F      722.0           :START DEPTH     
STOP .F      5952.0          :STOP DEPTH     
STEP .F       0.5            :STEP     
NULL .          -999.25      :NULL VALUE
COMP .        DEPARTMENT OF ENERGY                     :COMPANY
WELL .        NPR-3 25-1-X-14                          :WELL
FLD  .        NPR-3                                    :FIELD
LOC  .        2301' FSL & 782' FWL                     :LOCATION
CNTY .        NATRONA                                  :COUNTY
STAT .        WYOMING                                  :STATE
CTRY .                                                 :COUNTRY
API  .        4902523047                               :API NUMBER
UWI  .                                                 :UNIQUE WELL ID
DATE .        05-Apr-2002                              :LOG DATE {DD-MMM-YYYY}
SRVC .        Schlumberger                             :SERVICE COMPANY
LATI .DEG                                              :LATITUDE
LONG .DEG                                              :LONGITUDE
GDAT .                                                 :GeoDetic Datum
#-----------------------------------------------------------------------------
~PARAMETER INFORMATION
#MNEM.UNIT    VALUE                      DESCRIPTION
#---- -----   --------------------       ------------------------
RUN  .          1                        :RUN NUMBER
PDAT .        GROUND LEVEL               :Permanent Datum
EPD  .F         5214.799805              :Elevation of Permanent Datum above Mean Sea Level
LMF  .          KELLY BUSHING            :Logging Measured From (Name of Logging Elevation Reference)
APD  .F          10.000000               :Elevation of Depth Reference (LMF) above Permanent Datum
#-----------------------------------------------------------------------------
~CURVE INFORMATION
#MNEM.UNIT   API CODE                                  DESCRIPTION
#---- -----  --------                                  -----------------------
DEPT .F                                                :DEPTH (BOREHOLE) {F10.1}
HAZI .DEG                                              :Hole Azimuth {F13.4}
SDEV .DEG                                              :Sonde Deviation {F13.4}
ED   .F                                                :East Departure {F13.4}
ND   .F                                                :North Departure {F13.4}
TVDE .F                                                :True Vertical Depth {F13.4}
VSEC .F                                                :Vertical Section {F13.4}
GR   .GAPI                                             :Gamma Ray {F13.4}
#-----------------------------------------------------------------------------
# 
#     DEPT        HAZI         SDEV         ED           ND           TVDE         VSEC         GR
#
~A  
# ...
    1393.5     331.2844       3.6544     -15.4436      46.6073    1391.6548      46.6073      88.1256
    1394.0     331.2701       3.6520     -15.4589      46.6349    1392.1537      46.6349      86.8554
    1394.5     331.2347       3.6520     -15.4743      46.6626    1392.6527      46.6626      87.0936
    1395.0     331.2197       3.6523     -15.4896      46.6901    1393.1517      46.6901      84.4262
    1395.5     331.2021       3.6507     -15.5049      46.7177    1393.6508      46.7177      83.3942
    1396.0     331.1835       3.6499     -15.5203      46.7453    1394.1498      46.7453      82.2907
    1396.5     331.1426       3.6484     -15.5356      46.7728    1394.6488      46.7728      84.0372
    1397.0     331.1077       3.6450     -15.5509      46.8003    1395.1477      46.8003      85.3233
    1397.5     331.0882       3.6457     -15.5662      46.8278    1395.6467      46.8278      85.8313
    1398.0     331.0585       3.6444     -15.5816      46.8553    1396.1458      46.8553      90.3087
    1398.5     331.0389       3.6420     -15.5969      46.8828    1396.6448      46.8828      92.1187
    1399.0     331.0379       3.6418     -15.6122      46.9103    1397.1438      46.9103      92.8808
    1399.5     331.0234       3.6411     -15.6275      46.9378    1397.6428      46.9378      90.6659
    1400.0     330.9861       3.6392     -15.6429      46.9652    1398.1418      46.9652      89.9991
    1400.5     330.9609       3.6368     -15.6582      46.9927    1398.6409      46.9927      90.1261
    1401.0     330.9493       3.6362     -15.6735      47.0202    1399.1399      47.0202      88.4590
    1401.5     330.9598       3.6344     -15.6888      47.0476    1399.6388      47.0476      87.8239
    1402.0     330.9668       3.6338     -15.7041      47.0751    1400.1378      47.0751      86.9348
    1402.5     330.9615       3.6336     -15.7194      47.1026    1400.6368      47.1026      85.5059
    1403.0     330.9828       3.6325     -15.7348      47.1300    1401.1359      47.1300      87.6652
    1403.5     330.9448       3.6293     -15.7501      47.1575    1401.6349      47.1575      88.3003
    1404.0     330.9563       3.6277     -15.7655      47.1849    1402.1339      47.1849      91.9917
    1404.5     330.9412       3.6271     -15.7808      47.2123    1402.6329      47.2123      91.9917
    1405.0     330.9660       3.6266     -15.7962      47.2397    1403.1320      47.2397      93.2618
    1405.5     330.9883       3.6256     -15.8115      47.2671    1403.6310      47.2671      91.9520
    1406.0     330.9647       3.6214     -15.8269      47.2945    1404.1300      47.2945      90.8088
    1406.5     330.9437       3.6203     -15.8423      47.3218    1404.6289      47.3218      95.5085
    1407.0     330.9372       3.6187     -15.8577      47.3492    1405.1279      47.3492      96.9374
    1407.5     330.8893       3.6168     -15.8731      47.3765    1405.6270      47.3765      98.8427
    1408.0     330.8864       3.6128     -15.8885      47.4038    1406.1260      47.4038      95.9292
    1408.5     330.8887       3.6110     -15.9040      47.4311    1406.6250      47.4311      95.9054
    1409.0     330.8842       3.6131     -15.9194      47.4583    1407.1240      47.4583      93.6905
    1409.5     330.8885       3.6102     -15.9349      47.4856    1407.6230      47.4856      93.4286
    1410.0     330.8616       3.6084     -15.9504      47.5128    1408.1221      47.5128      92.9205
    1410.5     330.8633       3.6082     -15.9659      47.5401    1408.6211      47.5401      93.1031
    1411.0     330.8545       3.6071     -15.9814      47.5673    1409.1201      47.5673      90.2690
    1411.5     330.8326       3.6079     -15.9969      47.5945    1409.6191      47.5945      86.8396
    1412.0     330.8661       3.6073     -16.0124      47.6216    1410.1182      47.6216      85.6964
    1412.5     330.8517       3.6064     -16.0280      47.6488    1410.6172      47.6488      86.0537
    1413.0     330.8966       3.6056     -16.0435      47.6759    1411.1162      47.6759      89.4831
    1413.5     330.8573       3.6063     -16.0590      47.7030    1411.6152      47.7030      90.6818
    1414.0     330.8144       3.6042     -16.0745      47.7301    1412.1143      47.7301      91.2534
    1414.5     330.8086       3.6071     -16.0900      47.7572    1412.6133      47.7572      89.9832
    1415.0     330.7822       3.6079     -16.1055      47.7843    1413.1123      47.7843      88.6734
    1415.5     330.8197       3.6041     -16.1210      47.8113    1413.6113      47.8113      87.9113
    1416.0     330.7746       3.6031     -16.1365      47.8384    1414.1104      47.8384      86.1330
    1416.5     330.7545       3.6027     -16.1521      47.8653    1414.6094      47.8653      86.7284
    1417.0     330.7271       3.6026     -16.1676      47.8923    1415.1084      47.8923      90.1579
    1417.5     330.6911       3.5997     -16.1831      47.9193    1415.6074      47.9193      93.3809
    1418.0     330.6458       3.5990     -16.1986      47.9462    1416.1064      47.9462      96.0721
    1418.5     330.6426       3.5994     -16.2141      47.9731    1416.6055      47.9731      97.1200
    1419.0     330.5660       3.5977     -16.2296      47.9999    1417.1045      47.9999      92.2457
    1419.5     330.5430       3.5954     -16.2451      48.0267    1417.6036      48.0267      93.3651
    1420.0     330.5059       3.5945     -16.2606      48.0535    1418.1027      48.0535      90.0309
    1420.5     330.4689       3.5952     -16.2761      48.0802    1418.6017      48.0802      93.9684
    1421.0     330.4306       3.5946     -16.2916      48.1070    1419.1007      48.1070      91.3487
    1421.5     330.3539       3.5950     -16.3070      48.1337    1419.5997      48.1337      88.6813
    1422.0     330.3601       3.5910     -16.3225      48.1604    1420.0988      48.1604      87.0301
    1422.5     330.3400       3.5930     -16.3380      48.1871    1420.5979      48.1871      85.3551
    1423.0     330.3242       3.5901     -16.3534      48.2138    1421.0969      48.2138      85.9981
    1423.5     330.3076       3.5874     -16.3689      48.2405    1421.5959      48.2405      82.8227
    1424.0     330.2490       3.5872     -16.3843      48.2671    1422.0950      48.2671      81.4017
    1424.5     330.2654       3.5850     -16.3998      48.2938    1422.5940      48.2938      87.3635
    1425.0     330.2273       3.5830     -16.4152      48.3204    1423.0931      48.3204      89.1973
    1425.5     330.2109       3.5824     -16.4305      48.3470    1423.5922      48.3470      90.6183
    1426.0     330.2042       3.5815     -16.4459      48.3736    1424.0912      48.3736      85.7917
    1426.5     330.2057       3.5781     -16.4612      48.4001    1424.5903      48.4001      88.2765
    1427.0     330.1611       3.5750     -16.4765      48.4266    1425.0894      48.4266      87.5699
    1427.5     330.1609       3.5725     -16.4918      48.4531    1425.5884      48.4531      85.6647
    1428.0     330.1351       3.5715     -16.5071      48.4796    1426.0875      48.4796      84.0135
    1428.5     330.1046       3.5673     -16.5224      48.5061    1426.5865      48.5061      88.3003
    1429.0     330.0856       3.5649     -16.5376      48.5326    1427.0856      48.5326      91.4757
    1429.5     330.0627       3.5655     -16.5529      48.5590    1427.5847      48.5590      91.2375
    1430.0     330.0456       3.5601     -16.5681      48.5854    1428.0837      48.5854      95.1512
    1430.5     330.0244       3.5576     -16.5833      48.6117    1428.5828      48.6117      95.7863
    1431.0     329.9798       3.5517     -16.5985      48.6380    1429.0819      48.6380      97.5725
    1431.5     329.9611       3.5469     -16.6137      48.6643    1429.5809      48.6643      92.4918
    1432.0     329.9433       3.5456     -16.6288      48.6906    1430.0801      48.6906      91.8329
    1432.5     329.8975       3.5448     -16.6440      48.7169    1430.5791      48.7169      91.6821
