~VERSION INFORMATION
VERS.           2.0   :CWLS Log ASCII Standard - VERSION 2.0
WRAP.           YES   :Multiple lines per depth step
PROD.  Schlumberger   :LAS Producer
PROG.  DLIS to ASCII 11C0-305                          :LAS Program name and version
CREA.        2004/04/13 17:44                          :LAS Creation date {YYYY/MM/DD hh:mm}
SOURCE.     AIT_TLD_MCFL_CNL_040PUP.DLIS               :DLIS File Name
FILE-ID.     AIT_TLD_MCFL_CNL_040PUP                   :File Identification Number
#--------------------------------------------------
~WELL INFORMATION
#MNEM.UNIT      DATA             DESCRIPTION
#---- ------ --------------   -----------------------------
STRT .F         4332.0       :START DEPTH     
STOP .F          453.0       :STOP DEPTH     
STEP .F           -1.0       :STEP     
NULL .          -999.25      :NULL VALUE
COMP .        DEPARTMENT OF ENERGY                     :COMPANY
WELL .        48X-28                                   :WELL
FLD  .        NAVAL PETROLEUM RESERVE #3               :FIELD
LOC  .        490' FSL, 2449' FWL                      :LOCATION
CNTY .        NATRONA                                  :COUNTY
STAT .        WYOMING                                  :STATE
CTRY .                                                 :COUNTRY
API  .        49-025-23195                             :API NUMBER
UWI  .                                                 :UNIQUE WELL ID
DATE .        15-Mar-2004                              :LOG DATE {DD-MMM-YYYY}
SRVC .        Schlumberger                             :SERVICE COMPANY
LATI .DEG                                              :LATITUDE
LONG .DEG                                              :LONGITUDE
GDAT .                                                 :GeoDetic Datum
SECT .        28                                       :Section
RANG .        78W                                      :Range
TOWN .        39N                                      :Township
#-----------------------------------------------------------------------------
~PARAMETER INFORMATION
#MNEM.UNIT    VALUE                      DESCRIPTION
#---- -----   --------------------       ------------------------
RUN  .          1                        :RUN NUMBER
PDAT .        GROUND LEVEL               :Permanent Datum
EPD  .F         5105.000000              :Elevation of Permanent Datum above Mean Sea Level
EPD  .F         5105.000000              :Elevation of tool zero above Mean Sea Level
LMF  .          KELLY BUSHING            :Logging Measured From (Name of Logging Elevation Reference)
APD  .                                   :Elevation of Depth Reference (LMF) above Permanent Datum
#-----------------------------------------------------------------------------
~CURVE INFORMATION
#MNEM.UNIT   API CODE                                  DESCRIPTION
#---- -----  --------                                  -----------------------
DEPT .F                                                :DEPTH (BOREHOLE) {F10.1}
BS   .IN                                               :Bit Size {F13.4}
TENS .LBF                                              :Cable Tension {F13.4}
IHV  .F3                                               :Integrated Hole Volume {F13.4}
ICV  .F3                                               :Integrated Cement Volume {F13.4}
RWA_HILT.OHMM                                          :HILT Apparent water resistivity {F13.4}
RT   .OHMM                                             :True Resistivity {F13.4}
SP   .MV                                               :Spontaneous Potential {F13.4}
GR   .GAPI                                             :Gamma-Ray {F13.4}
NPHI .CFCF                                             :Thermal Neutron Porosity (Ratio Method) {F13.4}
TNPH .CFCF                                             :Thermal Neutron Porosity {F13.4}
NPOR .CFCF                                             :Enhanced Thermal Neutron Porosity {F13.4}
GDEV .DEG                                              :HGNS Deviation {F13.4}
HCAL .IN                                               :HRCC Cal. Caliper {F13.4}
HDRA .G/C3                                             :HRDD Density Correction {F13.4}
RHOZ .G/C3                                             :HRDD Standard Resolution Formation Density {F13.4}
HMIN .OHMM                                             :MCFL Micro Inverse Resistivity {F13.4}
HMNO .OHMM                                             :MCFL Micro Normal Resistivity {F13.4}
RXOZ .OHMM                                             :MCFL Standard Resolution Invaded Zone Resistivity {F13.4}
AHOCO60.MM/M                                           :Array Induction One Foot Conductivity A60 {F13.4}
AHOCO90.MM/M                                           :Array Induction One Foot Conductivity A90 {F13.4}
AHTCO60.MM/M                                           :Array Induction Two Foot Conductivity A60 {F13.4}
AHTCO90.MM/M                                           :Array Induction Two Foot Conductivity A90 {F13.4}
AHFCO60.MM/M                                           :Array Induction Four Foot Conductivity A60 {F13.4}
AHFCO90.MM/M                                           :Array Induction Four Foot Conductivity A90 {F13.4}
AHO10.OHMM                                             :Array Induction One Foot Resistivity A10 {F13.4}
AHO20.OHMM                                             :Array Induction One Foot Resistivity A20 {F13.4}
AHO30.OHMM                                             :Array Induction One Foot Resistivity A30 {F13.4}
AHO60.OHMM                                             :Array Induction One Foot Resistivity A60 {F13.4}
AHO90.OHMM                                             :Array Induction One Foot Resistivity A90 {F13.4}
AHT10.OHMM                                             :Array Induction Two Foot Resistivity A10 {F13.4}
AHT20.OHMM                                             :Array Induction Two Foot Resistivity A20 {F13.4}
AHT30.OHMM                                             :Array Induction Two Foot Resistivity A30 {F13.4}
AHT60.OHMM                                             :Array Induction Two Foot Resistivity A60 {F13.4}
AHT90.OHMM                                             :Array Induction Two Foot Resistivity A90 {F13.4}
AHF10.OHMM                                             :Array Induction Four Foot Resistivity A10 {F13.4}
AHF20.OHMM                                             :Array Induction Four Foot Resistivity A20 {F13.4}
AHF30.OHMM                                             :Array Induction Four Foot Resistivity A30 {F13.4}
AHF60.OHMM                                             :Array Induction Four Foot Resistivity A60 {F13.4}
AHF90.OHMM                                             :Array Induction Four Foot Resistivity A90 {F13.4}
RLA5_UNCORR.OHMM                                       :HRLT Shallow Uncorrected Resistivity 5 {F13.4}
RLA4_UNCORR.OHMM                                       :HRLT Shallow Uncorrected Resistivity 4 {F13.4}
RLA3_UNCORR.OHMM                                       :HRLT Shallow Uncorrected Resistivity 3 {F13.4}
RLA2_UNCORR.OHMM                                       :HRLT Shallow Uncorrected Resistivity 2 {F13.4}
RLA1_UNCORR.OHMM                                       :HRLT Shallow Uncorrected Resistivity 1 {F13.4}
RLA0_UNCORR.OHMM                                       :HRLT Shallow Uncorrected Resistivity 0 {F13.4}
RLA5 .OHMM                                             :HRLT Borehole Corrected Resistivity 5 {F13.4}
RLA4 .OHMM                                             :HRLT Borehole Corrected Resistivity 4 {F13.4}
RLA3 .OHMM                                             :HRLT Borehole Corrected Resistivity 3 {F13.4}
RLA2 .OHMM                                             :HRLT Borehole Corrected Resistivity 2 {F13.4}
RLA1 .OHMM                                             :HRLT Borehole Corrected Resistivity 1 {F13.4}
RLA0 .OHMM                                             :HRLT Borehole Corrected Resistivity 0 {F13.4}
RXO_HRLT.OHMM                                          :HRLT Computed Invaded Zone Resistivity {F13.4}
RT_HRLT.OHMM                                           :HRLT Computed True Resistivity {F13.4}
DT   .US/F                                             :Delta-T {F13.4}
TT4  .US                                               :Transit Time 4 {F13.4}
TT3  .US                                               :Transit Time 3 {F13.4}
TT2  .US                                               :Transit Time 2 {F13.4}
TT1  .US                                               :Transit Time 1 {F13.4}
SPHI .CFCF                                             :Sonic Porosity {F13.4}
#-----------------------------------------------------------------------------
# DEPT       
#     BS           TENS         IHV          ICV          RWA_HILT     RT           
#     SP           GR           NPHI         TNPH         NPOR         GDEV         
#     HCAL         HDRA         RHOZ         HMIN         HMNO         RXOZ         
#     AHOCO60      AHOCO90      AHTCO60      AHTCO90      AHFCO60      AHFCO90      
#     AHO10        AHO20        AHO30        AHO60        AHO90        AHT10        
#     AHT20        AHT30        AHT60        AHT90        AHF10        AHF20        
#     AHF30        AHF60        AHF90        RLA5_UNCORR  RLA4_UNCORR  RLA3_UNCORR  
#     RLA2_UNCORR  RLA1_UNCORR  RLA0_UNCORR  RLA5         RLA4         RLA3         
#     RLA2         RLA1         RLA0         RXO_HRLT     RT_HRLT      DT           
#     TT4          TT3          TT2          TT1          SPHI         
~A  
4332.0
      8.5000    1173.0000       0.0000       0.0000  345862.5000       3.8699
   -180.9375     172.2228       0.1311       0.0889       0.0889    -999.2500
      3.3791    -999.2500    -999.2500       1.6542       1.9042       3.7339
    247.9874     259.4576     245.9776     258.2674     245.9043     259.6305
      4.0930       4.8182       4.3864       4.0325       3.8542       4.0938
      4.8255       4.4315       4.0654       3.8720       4.0950       4.8508
      4.4309       4.0666       3.8516       3.9495       4.0289       4.2167
      4.3562       4.6148       0.5079       3.5761       3.5673       3.6776
      3.7455       3.8391       0.5079       4.0926       3.5678      81.8672
    413.5942     576.2709     393.0561     557.7691       0.1987
4331.0
      8.5000    1189.0000       0.0000       0.0000  345474.7188       3.8656
   -180.9375     172.2228       0.1311       0.0889       0.0889    -999.2500
      3.3791    -999.2500    -999.2500       1.6463       1.8840       3.6858
    248.1761     259.7402     245.9644     258.5472     245.8899     259.8910
      4.0926       4.8183       4.3848       4.0294       3.8500       4.0935
      4.8256       4.4302       4.0656       3.8678       4.0948       4.8510
      4.4297       4.0669       3.8478       3.9495       4.0289       4.2167
      4.3562       4.6148       0.5079       3.5761       3.5673       3.6776
      3.7455       3.8391       0.5079       4.4710       3.4864      81.8672
    417.0952     579.6971     395.8349     560.6270       0.1987
4330.0
      8.5000    1195.0000       0.0000       0.0000  345125.9688       3.8617
   -180.6250     172.2228       0.1311       0.0889       0.0889    -999.2500
      3.3791    -999.2500    -999.2500       1.6472       1.8846       3.6832
    248.3818     260.0459     245.9290     258.8154     245.8573     260.1698
      4.0923       4.8188       4.3830       4.0261       3.8455       4.0933
      4.8263       4.4290       4.0662       3.8638       4.0945       4.8515
      4.4284       4.0674       3.8436       3.9495       4.0289       4.2167
      4.3562       4.6148       0.5079       3.5761       3.5673       3.6776
      3.7455       3.8391       0.5079       4.4710       3.4864      82.7237
    417.0952     579.6971     395.8349     560.6270       0.2051
4329.0
      8.5000    1212.0000       0.0000       0.0000  344780.6250       3.8578
   -179.6875     172.2228       0.1311       0.0889       0.0889    -999.2500
      3.3791    -999.2500    -999.2500       1.6479       1.8850       3.6828
    248.5938     260.3607     245.8583     259.0851     245.8046     260.4716
      4.0922       4.8202       4.3817       4.0226       3.8408       4.0931
      4.8274       4.4278       4.0674       3.8597       4.0943       4.8524
      4.4270       4.0683       3.8392       3.9495       4.0289       4.2167
      4.3562       4.6148       0.5079       3.5761       3.5673       3.6776
      3.7455       3.8391       0.5079       4.4710       3.4864      81.8485
    417.0952     579.6971     395.8349     560.6270       0.1986
4328.0
      8.5000    1229.0000       0.0000       0.0000  344366.3125       3.8532
   -179.6875     172.2228       0.1311       0.0889       0.0889    -999.2500
      3.3791    -999.2500    -999.2500       1.6487       1.8856       3.6824
    248.7343     260.6028     245.8659     259.3632     245.8281     260.8119
      4.0915       4.8217       4.3806       4.0204       3.8373       4.0927
      4.8285       4.4263       4.0673       3.8556       4.0941       4.8533
      4.4256       4.0679       3.8342       3.9495       4.0289       4.2167
      4.3562       4.6148       0.5079       3.5761       3.5673       3.6776
      3.7455       3.8391       0.5079       4.4710       3.4864      81.8485
    416.9801     579.6971     395.8349     560.6270       0.1986
4327.0
      8.5000    1248.0000       0.0000       0.0000  343738.9063       3.8462
   -179.8125     172.2228       0.1311       0.0889       0.0889    -999.2500
      3.3791       2.4096       2.4658       1.6487       1.8855       3.6822
    248.6496     260.6319     246.0708     259.7210     246.0083     261.2231
      4.0913       4.8234       4.3794       4.0217       3.8368       4.0928
      4.8298       4.4245       4.0639       3.8503       4.0938       4.8535
      4.4231       4.0649       3.8281       3.9495       4.0289       4.2167
      4.3562       4.6148       0.5079       3.5761       3.5673       3.6776
      3.7455       3.8391       0.5079       4.4710       3.4864      81.8485
    416.9922     579.1961     395.8349     560.6270       0.1986
4326.0
      8.5000    1259.0000       0.0311      -0.1025       0.0437       3.8340
   -179.5625     172.2228       0.1311       0.0889       0.0889    -999.2500
      3.3791       1.1870       2.4638       1.6494       1.8860       3.6820
    248.9887     261.1158     246.5882     260.3040     246.3613     261.8256
      4.0896       4.8238       4.3745       4.0162       3.8297       4.0916
      4.8296       4.4213       4.0553       3.8417       4.0928       4.8531
      4.4196       4.0591       3.8193       3.9495       4.0289       4.2167
      4.3562       4.6148       0.5079       3.5761       3.5673       3.6776
      3.7455       3.8391       0.5079       4.4710       3.4864      81.8485
    417.0912     579.0163     395.8349     560.6270       0.1986
4325.0
      8.5000    1568.0000       0.0934      -0.3075       0.0431       3.8195
   -181.0000     172.2228       0.1311       0.0889       0.0889    -999.2500
      3.3791       0.4556       2.4647       1.6494       1.8860       3.6819
    249.7364     262.0205     247.1030     261.4234     246.7667     262.6875
      4.0808       4.8121       4.3662       4.0042       3.8165       4.0872
      4.8231       4.4131       4.0469       3.8252       4.0917       4.8536
      4.4167       4.0524       3.8068       3.9495       4.0289       4.2167
      4.3562       4.6148       0.5079       3.5761       3.5673       3.6776
      3.7455       3.8391       0.5079       4.4710       3.4864      81.7269
    416.9283     578.9619     395.8349     560.6270       0.1977
4324.0
      8.5000    1845.0000       0.1557      -0.5124       0.0428       3.7987
   -179.5000     172.2228       0.1311       0.0889       0.0889    -999.2500
      3.3791       0.4556       2.4648       1.6488       1.8856       3.6851
    248.6112     261.0400     247.1968     262.4383     247.1852     263.7424
      4.1073       4.8480       4.3932       4.0223       3.8308       4.0931
      4.8406       4.4137       4.0454       3.8104       4.0909       4.8558
      4.4128       4.0456       3.7916       3.9495       4.0289       4.2167
      4.3562       4.6148       0.5079       3.5761       3.5673       3.6776
      3.7455       3.8391       0.5079       4.4710       3.4864      81.6899
    417.0693     578.7576     395.8349     559.8840       0.1974
4323.0
      8.5000    2141.0000       0.2180      -0.7174       0.0425       3.7686
   -179.6875     172.2228       0.1311       0.0889       0.0889    -999.2500
      3.3791       0.4556       2.4648       1.5818       1.8399       3.7092
    251.3150     263.9002     247.9043     264.2771     247.7037     265.0292
      4.0915       4.8470       4.3525       3.9791       3.7893       4.0909
      4.8488       4.4075       4.0338       3.7839       4.0898       4.8603
      4.4075       4.0371       3.7732       3.9495       4.0289       4.2167
      4.3562       4.6148       0.5079       3.5761       3.5673       3.6776
      3.7455       3.8391       0.5079       4.4710       3.4864      81.6608
    417.0035     578.7817     395.1371     559.8303       0.1972
4322.0
      8.5000    2402.0000       0.2802      -0.9224       0.0421       3.7339
   -180.2500     172.2228       0.1311       0.0889       0.0889    -999.2500
      3.3791       0.4556       2.4647       1.5827       1.8422       3.7817
    254.4315     267.2441     248.4615     266.1208     248.5421     266.6738
      4.1084       4.8220       4.3313       3.9303       3.7419       4.0896
      4.8317       4.4072       4.0248       3.7577       4.0859       4.8594
      4.3958       4.0235       3.7499       3.9495       4.0289       4.2167
      4.3562       4.6148       0.5079       3.5761       3.5673       3.6776
      3.7455       3.8391       0.5079       4.4710       3.4864      81.6495
    417.0082     578.6575     395.0508     559.7531       0.1971
