~VERSION INFORMATION
VERS.           2.0   :CWLS Log ASCII Standard - VERSION 2.0
WRAP.           YES   :Multiple lines per depth step
PROD.  Schlumberger   :LAS Producer
PROG.  DLIS to ASCII 11C0-305                          :LAS Program name and version
CREA.        2004/04/13 17:44                          :LAS Creation date {YYYY/MM/DD hh:mm}
SOURCE.     AIT_TLD_MCFL_CNL_040PUP.DLIS               :DLIS File Name
FILE-ID.     AIT_TLD_MCFL_CNL_040PUP                   :File Identification Number
#--------------------------------------------------
~WELL INFORMATION
#MNEM.UNIT      DATA             DESCRIPTION
#---- ------ --------------   -----------------------------
STRT .F         4332.0       :START DEPTH     
STOP .F          453.0       :STOP DEPTH     
STEP .F           -1.0       :STEP     
NULL .          -999.25      :NULL VALUE
COMP .        DEPARTMENT OF ENERGY                     :COMPANY
WELL .        48X-28                                   :WELL
FLD  .        NAVAL PETROLEUM RESERVE #3               :FIELD
LOC  .        490' FSL, 2449' FWL                      :LOCATION
CNTY .        NATRONA                                  :COUNTY
STAT .        WYOMING                                  :STATE
CTRY .                                                 :COUNTRY
API  .        49-025-23195                             :API NUMBER
UWI  .                                                 :UNIQUE WELL ID
DATE .        15-Mar-2004                              :LOG DATE {DD-MMM-YYYY}
SRVC .        Schlumberger                             :SERVICE COMPANY
LATI .DEG                                              :LATITUDE
LONG .DEG                                              :LONGITUDE
GDAT .                                                 :GeoDetic Datum
SECT .        28                                       :Section
RANG .        78W                                      :Range
TOWN .        39N                                      :Township
#-----------------------------------------------------------------------------
~PARAMETER INFORMATION
#MNEM.UNIT    VALUE                      DESCRIPTION
#---- -----   --------------------       ------------------------
RUN  .          1                        :RUN NUMBER
PDAT .        GROUND LEVEL               :Permanent Datum
EPD  .F         5105.000000              :Elevation of Permanent Datum above Mean Sea Level
EPD  .F         5105.000000              :Elevation of tool zero above Mean Sea Level
LMF  .          KELLY BUSHING            :Logging Measured From (Name of Logging Elevation Reference)
APD  .                                   :Elevation of Depth Reference (LMF) above Permanent Datum
#-----------------------------------------------------------------------------
~CURVE INFORMATION
#MNEM.UNIT   API CODE                                  DESCRIPTION
#---- -----  --------                                  -----------------------
DEPT .F                                                :DEPTH (BOREHOLE) {F10.1}
BS   .IN                                               :Bit Size {F13.4}
TENS .LBF                                              :Cable Tension {F13.4}
IHV  .F3                                               :Integrated Hole Volume {F13.4}
ICV  .F3                                               :Integrated Cement Volume {F13.4}
RWA_HILT.OHMM                                          :HILT Apparent water resistivity {F13.4}
RT   .OHMM                                             :True Resistivity {F13.4}
SP   .MV                                               :Spontaneous Potential {F13.4}
GR   .GAPI                                             :Gamma-Ray {F13.4}
NPHI .CFCF                                             :Thermal Neutron Porosity (Ratio Method) {F13.4}
TNPH .CFCF                                             :Thermal Neutron Porosity {F13.4}
NPOR .CFCF                                             :Enhanced Thermal Neutron Porosity {F13.4}
GDEV .DEG                                              :HGNS Deviation {F13.4}
HCAL .IN                                               :HRCC Cal. Caliper {F13.4}
HDRA .G/C3                                             :HRDD Density Correction {F13.4}
RHOZ .G/C3                                             :HRDD Standard Resolution Formation Density {F13.4}
HMIN .OHMM                                             :MCFL Micro Inverse Resistivity {F13.4}
HMNO .OHMM                                             :MCFL Micro Normal Resistivity {F13.4}
RXOZ .OHMM                                             :MCFL Standard Resolution Invaded Zone Resistivity {F13.4}
AHOCO60.MM/M                                           :Array Induction One Foot Conductivity A60 {F13.4}
AHOCO90.MM/M                                           :Array Induction One Foot Conductivity A90 {F13.4}
AHTCO60.MM/M                                           :Array Induction Two Foot Conductivity A60 {F13.4}
AHTCO90.MM/M                                           :Array Induction Two Foot Conductivity A90 {F13.4}
AHFCO60.MM/M                                           :Array Induction Four Foot Conductivity A60 {F13.4}
AHFCO90.MM/M                                           :Array Induction Four Foot Conductivity A90 {F13.4}
AHO10.OHMM                                             :Array Induction One Foot Resistivity A10 {F13.4}
AHO20.OHMM                                             :Array Induction One Foot Resistivity A20 {F13.4}
AHO30.OHMM                                             :Array Induction One Foot Resistivity A30 {F13.4}
AHO60.OHMM                                             :Array Induction One Foot Resistivity A60 {F13.4}
AHO90.OHMM                                             :Array Induction One Foot Resistivity A90 {F13.4}
AHT10.OHMM                                             :Array Induction Two Foot Resistivity A10 {F13.4}
AHT20.OHMM                                             :Array Induction Two Foot Resistivity A20 {F13.4}
AHT30.OHMM                                             :Array Induction Two Foot Resistivity A30 {F13.4}
AHT60.OHMM                                             :Array Induction Two Foot Resistivity A60 {F13.4}
AHT90.OHMM                                             :Array Induction Two Foot Resistivity A90 {F13.4}
AHF10.OHMM                                             :Array Induction Four Foot Resistivity A10 {F13.4}
AHF20.OHMM                                             :Array Induction Four Foot Resistivity A20 {F13.4}
AHF30.OHMM                                             :Array Induction Four Foot Resistivity A30 {F13.4}
AHF60.OHMM                                             :Array Induction Four Foot Resistivity A60 {F13.4}
AHF90.OHMM                                             :Array Induction Four Foot Resistivity A90 {F13.4}
RLA5_UNCORR.OHMM                                       :HRLT Shallow Uncorrected Resistivity 5 {F13.4}
RLA4_UNCORR.OHMM                                       :HRLT Shallow Uncorrected Resistivity 4 {F13.4}
RLA3_UNCORR.OHMM                                       :HRLT Shallow Uncorrected Resistivity 3 {F13.4}
RLA2_UNCORR.OHMM                                       :HRLT Shallow Uncorrected Resistivity 2 {F13.4}
RLA1_UNCORR.OHMM                                       :HRLT Shallow Uncorrected Resistivity 1 {F13.4}
RLA0_UNCORR.OHMM                                       :HRLT Shallow Uncorrected Resistivity 0 {F13.4}
RLA5 .OHMM                                             :HRLT Borehole Corrected Resistivity 5 {F13.4}
RLA4 .OHMM                                             :HRLT Borehole Corrected Resistivity 4 {F13.4}
RLA3 .OHMM                                             :HRLT Borehole Corrected Resistivity 3 {F13.4}
RLA2 .OHMM                                             :HRLT Borehole Corrected Resistivity 2 {F13.4}
RLA1 .OHMM                                             :HRLT Borehole Corrected Resistivity 1 {F13.4}
RLA0 .OHMM                                             :HRLT Borehole Corrected Resistivity 0 {F13.4}
RXO_HRLT.OHMM                                          :HRLT Computed Invaded Zone Resistivity {F13.4}
RT_HRLT.OHMM                                           :HRLT Computed True Resistivity {F13.4}
DT   .US/F                                             :Delta-T {F13.4}
TT4  .US                                               :Transit Time 4 {F13.4}
TT3  .US                                               :Transit Time 3 {F13.4}
TT2  .US                                               :Transit Time 2 {F13.4}
TT1  .US                                               :Transit Time 1 {F13.4}
SPHI .CFCF                                             :Sonic Porosity {F13.4}
#-----------------------------------------------------------------------------
# DEPT       
#     BS           TENS         IHV          ICV          RWA_HILT     RT           
#     SP           GR           NPHI         TNPH         NPOR         GDEV         
#     HCAL         HDRA         RHOZ         HMIN         HMNO         RXOZ         
#     AHOCO60      AHOCO90      AHTCO60      AHTCO90      AHFCO60      AHFCO90      
#     AHO10        AHO20        AHO30        AHO60        AHO90        AHT10        
#     AHT20        AHT30        AHT60        AHT90        AHF10        AHF20        
#     AHF30        AHF60        AHF90        RLA5_UNCORR  RLA4_UNCORR  RLA3_UNCORR  
#     RLA2_UNCORR  RLA1_UNCORR  RLA0_UNCORR  RLA5         RLA4         RLA3         
#     RLA2         RLA1         RLA0         RXO_HRLT     RT_HRLT      DT           
#     TT4          TT3          TT2          TT1          SPHI         
~A  
# ...
2011.0
      8.5000    1379.0000    1006.5241     387.7209       0.3884       8.6165
   -191.0000     104.9302       0.3172       0.3112       0.3021       3.3832
      8.8127      -0.0041       2.5062       9.3200       8.2444      10.7439
    131.5734     133.3596     125.1815     125.0326     117.5051     117.9976
      6.9187       7.2575       7.3438       7.6003       7.4985       7.4633
      7.8214       7.8883       7.9884       7.9979       7.7814       8.2243
      8.3233       8.5103       8.4747      10.2029      10.2339      10.4977
     10.4900      10.8128       0.7649      10.1999      10.2449      10.5077
     10.5455      11.0767       0.7649      13.0346       9.8124      89.1375
    440.3248     618.7173     437.1216     617.9139       0.2531
2010.0
      8.5000    1408.0000    1006.9471     387.8767       0.3157       8.3862
   -190.9375     103.0121       0.2914       0.2767       0.2678       3.4074
      8.8012      -0.0118       2.5075       8.9705       7.9344      11.2125
    110.7006     112.5580     114.4969     113.9843     123.4290     124.0361
      8.2362       8.6664       8.6850       9.0334       8.8843       7.9816
      8.5878       8.5886       8.7339       8.7731       7.4738       7.8910
      7.9447       8.1018       8.0622       9.4723       9.4963       9.7753
      9.8080      10.0341       0.7521       9.4583       9.4933       9.7685
      9.8433      10.2509       0.7521      12.0857       9.1298      89.3165
    441.0979     623.0450     438.5158     623.2005       0.2544
2009.0
      8.5000    1372.0000    1007.3707     388.0330       0.2710       6.3414
   -190.1875      96.8823       0.2988       0.3009       0.3081       3.3790
      8.8127      -0.0112       2.5083       7.8757       6.9635       8.3816
    125.7290     127.6639     135.3475     135.2210     135.0019     135.5838
      7.7622       7.9471       7.7341       7.9536       7.8331       6.9151
      7.2135       7.2727       7.3884       7.3953       6.9238       7.2359
      7.2738       7.4073       7.3755       9.7212       9.7647      10.0705
     10.2286      10.3387       0.7515       9.7151       9.7730      10.0789
     10.2862      10.5967       0.7515      12.8463       9.2914      89.2897
    445.3979     623.5548     444.1058     622.5293       0.2542
2008.0
      8.5000    1394.0000    1007.7987     388.1938       0.2841       6.8794
   -190.2500      98.4970       0.3084       0.2962       0.3105       3.5262
      8.8588      -0.0112       2.5137       6.6291       5.8581       7.8873
    179.7862     181.7856     162.9964     163.4912     143.4944     144.0898
      5.2081       5.4216       5.4377       5.5622       5.5010       5.8104
      6.0178       6.0426       6.1351       6.1165       6.4900       6.8085
      6.8563       6.9689       6.9401       8.3788       8.3877       8.6705
      8.7604       8.9899       0.7284       8.3574       8.3741       8.6505
      8.7786       9.1661       0.7284      11.1285       7.9219      91.5877
    445.7664     622.6210     443.5357     621.4590       0.2714
2007.0
      8.5000    1390.0000    1008.2256     388.3534       0.3247       7.8431
   -190.6250      94.7144       0.2823       0.3066       0.3122       3.4175
      8.8357      -0.0094       2.5368       8.0174       7.0891      10.0797
    130.6381     132.7277     133.1950     133.1766     137.3592     138.0781
      7.1257       7.2036       7.4721       7.6547       7.5342       6.9713
      7.3437       7.4016       7.5078       7.5088       6.7847       7.1021
      7.1798       7.2802       7.2423       7.1303       7.1564       7.3810
      7.4383       7.6291       0.6960       7.0947       7.1247       7.3378
      7.4241       7.7329       0.6960       9.2380       6.8173      91.4834
    445.7040     623.2283     443.6095     622.1282       0.2706
2006.0
      8.5000    1381.0000    1008.6525     388.5131       0.3155       7.9253
   -190.6250      89.4491       0.3077       0.3038       0.2922       3.4172
      8.8357      -0.0065       2.5489       7.9994       7.0732      10.1668
    125.5943     127.7617     127.5858     127.4338     129.7933     130.6473
      7.2584       7.4859       7.6217       7.9621       7.8271       7.2699
      7.5521       7.7013       7.8379       7.8472       7.1741       7.4627
      7.5561       7.7046       7.6542       8.8734       8.9462       9.1534
      9.2219       9.3923       0.7311       8.8649       8.9495       9.1523
      9.2620       9.6022       0.7311      11.3467       8.5770      89.2973
    446.3240     623.7126     439.8216     623.0804       0.2543
2005.0
      8.5000    1406.0000    1009.0771     388.6705       0.3126       7.9503
   -190.8750      91.8263       0.3009       0.2914       0.2974       3.6095
      8.8127      -0.0085       2.5258       8.1032       7.1652      10.2023
    121.7242     123.9771     125.3237     125.3614     127.4011     128.4479
      7.4958       7.7995       7.9146       8.2153       8.0660       7.4643
      7.7233       7.8225       7.9793       7.9769       7.3103       7.6083
      7.6900       7.8492       7.7853       8.8104       8.8999       9.1094
      9.0664       9.1045       0.7270       8.7976       8.8977       9.1018
      9.0956       9.2875       0.7270      10.2912       8.7839      89.3017
    441.6579     624.3998     439.0409     621.7922       0.2543
2004.0
      8.5000    1389.0000    1009.5007     388.8268       0.3108       7.5988
   -190.9375     104.3141       0.2824       0.2944       0.2853       3.4663
      8.8127      -0.0070       2.5141       7.9080       6.9921      10.0337
    124.7319     127.0602     127.6615     127.5930     130.8466     132.2822
      7.2838       7.6480       7.6958       8.0172       7.8703       7.3100
      7.6084       7.6813       7.8332       7.8374       7.1151       7.4058
      7.4618       7.6425       7.5596       9.1112       9.1881       9.4094
      9.2761       9.4269       0.7333       9.1002       9.1881       9.4049
      9.3071       9.6213       0.7333      10.6025       9.0618      89.4569
    441.7713     621.7713     439.0753     620.6923       0.2555
2003.0
      8.5000    1380.0000    1009.9227     388.9815       0.2904       6.5719
   -191.1875     101.5955       0.3009       0.3087       0.2931       3.4229
      8.7897      -0.0083       2.5102       6.6009       5.8332       8.8307
    141.9287     144.3061     142.1794     142.3322     137.7928     139.1556
      6.7700       6.8333       6.7950       7.0458       6.9297       6.7113
      6.8910       6.8854       7.0334       7.0258       6.7821       7.0733
      7.1134       7.2573       7.1862       8.7471       8.8310       8.9903
      9.0159       9.1681       0.7301       8.7316       8.8251       8.9777
      9.0403       9.3483       0.7301      10.6908       8.5751      89.5637
    443.6909     622.9803     441.0168     622.1924       0.2563
2002.0
      8.5000    1401.0000    1010.3452     389.1367       0.3134       7.2415
   -191.3750      95.5845       0.3188       0.3057       0.3211       3.5508
      8.7897      -0.0069       2.5137       7.3758       6.5200       9.1003
    141.1095     143.4763     144.5121     144.5892     139.7147     141.1888
      6.4809       6.9688       6.9033       7.0867       6.9698       6.4065
      6.7312       6.8084       6.9198       6.9161       6.6759       6.9712
      7.0258       7.1574       7.0827       7.5281       7.5810       7.7809
      7.8307       8.0540       0.7109       7.4970       7.5541       7.7431
      7.8231       8.1693       0.7109       9.7595       7.1975      90.4651
    444.7405     624.5630     442.4335     623.9369       0.2630
2001.0
      8.5000    1418.0000    1010.7676     389.2919       0.3612       7.7902
   -190.7500     102.6398       0.3035       0.3208       0.3249       3.5205
      8.7897      -0.0085       2.5132       7.8586       6.9483       9.8571
    133.3765     135.7014     132.4556     132.6221     132.2891     133.7261
      6.9832       7.2345       7.3140       7.4976       7.3691       6.9865
      7.2894       7.4159       7.5497       7.5402       7.0336       7.3401
      7.4279       7.5592       7.4780       8.1667       8.1805       8.4266
      8.4949       8.6960       0.7231       8.1403       8.1595       8.3974
      8.5004       8.8432       0.7231      10.5319       7.8242      91.2759
    446.3655     624.7926     444.6425     623.9816       0.2691
