~VERSION INFORMATION
VERS.           2.0   :CWLS Log ASCII Standard - VERSION 2.0
WRAP.           YES   :Multiple lines per depth step
PROD.  Schlumberger   :LAS Producer
PROG.  DLIS to ASCII 11C0-305                          :LAS Program name and version
CREA.        2004/04/13 17:44                          :LAS Creation date {YYYY/MM/DD hh:mm}
SOURCE.     AIT_TLD_MCFL_CNL_040PUP.DLIS               :DLIS File Name
FILE-ID.     AIT_TLD_MCFL_CNL_040PUP                   :File Identification Number
#--------------------------------------------------
~WELL INFORMATION
#MNEM.UNIT      DATA             DESCRIPTION
#---- ------ --------------   -----------------------------
STRT .F         4332.0       :START DEPTH     
STOP .F          453.0       :STOP DEPTH     
STEP .F           -1.0       :STEP     
NULL .          -999.25      :NULL VALUE
COMP .        DEPARTMENT OF ENERGY                     :COMPANY
WELL .        48X-28                                   :WELL
FLD  .        NAVAL PETROLEUM RESERVE #3               :FIELD
LOC  .        490' FSL, 2449' FWL                      :LOCATION
CNTY .        NATRONA                                  :COUNTY
STAT .        WYOMING                                  :STATE
CTRY .                                                 :COUNTRY
API  .        49-025-23195                             :API NUMBER
UWI  .                                                 :UNIQUE WELL ID
DATE .        15-Mar-2004                              :LOG DATE {DD-MMM-YYYY}
SRVC .        Schlumberger                             :SERVICE COMPANY
LATI .DEG                                              :LATITUDE
LONG .DEG                                              :LONGITUDE
GDAT .                                                 :GeoDetic Datum
SECT .        28                                       :Section
RANG .        78W                                      :Range
TOWN .        39N                                      :Township
#-----------------------------------------------------------------------------
~PARAMETER INFORMATION
#MNEM.UNIT    VALUE                      DESCRIPTION
#---- -----   --------------------       ------------------------
RUN  .          1                        :RUN NUMBER
PDAT .        GROUND LEVEL               :Permanent Datum
EPD  .F         5105.000000              :Elevation of Permanent Datum above Mean Sea Level
EPD  .F         5105.000000              :Elevation of tool zero above Mean Sea Level
LMF  .          KELLY BUSHING            :Logging Measured From (Name of Logging Elevation Reference)
APD  .                                   :Elevation of Depth Reference (LMF) above Permanent Datum
#-----------------------------------------------------------------------------
~CURVE INFORMATION
#MNEM.UNIT   API CODE                                  DESCRIPTION
#---- -----  --------                                  -----------------------
DEPT .F                                                :DEPTH (BOREHOLE) {F10.1}
BS   .IN                                               :Bit Size {F13.4}
TENS .LBF                                              :Cable Tension {F13.4}
IHV  .F3                                               :Integrated Hole Volume {F13.4}
ICV  .F3                                               :Integrated Cement Volume {F13.4}
RWA_HILT.OHMM                                          :HILT Apparent water resistivity {F13.4}
RT   .OHMM                                             :True Resistivity {F13.4}
SP   .MV                                               :Spontaneous Potential {F13.4}
GR   .GAPI                                             :Gamma-Ray {F13.4}
NPHI .CFCF                                             :Thermal Neutron Porosity (Ratio Method) {F13.4}
TNPH .CFCF                                             :Thermal Neutron Porosity {F13.4}
NPOR .CFCF                                             :Enhanced Thermal Neutron Porosity {F13.4}
GDEV .DEG                                              :HGNS Deviation {F13.4}
HCAL .IN                                               :HRCC Cal. Caliper {F13.4}
HDRA .G/C3                                             :HRDD Density Correction {F13.4}
RHOZ .G/C3                                             :HRDD Standard Resolution Formation Density {F13.4}
HMIN .OHMM                                             :MCFL Micro Inverse Resistivity {F13.4}
HMNO .OHMM                                             :MCFL Micro Normal Resistivity {F13.4}
RXOZ .OHMM                                             :MCFL Standard Resolution Invaded Zone Resistivity {F13.4}
AHOCO60.MM/M                                           :Array Induction One Foot Conductivity A60 {F13.4}
AHOCO90.MM/M                                           :Array Induction One Foot Conductivity A90 {F13.4}
AHTCO60.MM/M                                           :Array Induction Two Foot Conductivity A60 {F13.4}
AHTCO90.MM/M                                           :Array Induction Two Foot Conductivity A90 {F13.4}
AHFCO60.MM/M                                           :Array Induction Four Foot Conductivity A60 {F13.4}
AHFCO90.MM/M                                           :Array Induction Four Foot Conductivity A90 {F13.4}
AHO10.OHMM                                             :Array Induction One Foot Resistivity A10 {F13.4}
AHO20.OHMM                                             :Array Induction One Foot Resistivity A20 {F13.4}
AHO30.OHMM                                             :Array Induction One Foot Resistivity A30 {F13.4}
AHO60.OHMM                                             :Array Induction One Foot Resistivity A60 {F13.4}
AHO90.OHMM                                             :Array Induction One Foot Resistivity A90 {F13.4}
AHT10.OHMM                                             :Array Induction Two Foot Resistivity A10 {F13.4}
AHT20.OHMM                                             :Array Induction Two Foot Resistivity A20 {F13.4}
AHT30.OHMM                                             :Array Induction Two Foot Resistivity A30 {F13.4}
AHT60.OHMM                                             :Array Induction Two Foot Resistivity A60 {F13.4}
AHT90.OHMM                                             :Array Induction Two Foot Resistivity A90 {F13.4}
AHF10.OHMM                                             :Array Induction Four Foot Resistivity A10 {F13.4}
AHF20.OHMM                                             :Array Induction Four Foot Resistivity A20 {F13.4}
AHF30.OHMM                                             :Array Induction Four Foot Resistivity A30 {F13.4}
AHF60.OHMM                                             :Array Induction Four Foot Resistivity A60 {F13.4}
AHF90.OHMM                                             :Array Induction Four Foot Resistivity A90 {F13.4}
RLA5_UNCORR.OHMM                                       :HRLT Shallow Uncorrected Resistivity 5 {F13.4}
RLA4_UNCORR.OHMM                                       :HRLT Shallow Uncorrected Resistivity 4 {F13.4}
RLA3_UNCORR.OHMM                                       :HRLT Shallow Uncorrected Resistivity 3 {F13.4}
RLA2_UNCORR.OHMM                                       :HRLT Shallow Uncorrected Resistivity 2 {F13.4}
RLA1_UNCORR.OHMM                                       :HRLT Shallow Uncorrected Resistivity 1 {F13.4}
RLA0_UNCORR.OHMM                                       :HRLT Shallow Uncorrected Resistivity 0 {F13.4}
RLA5 .OHMM                                             :HRLT Borehole Corrected Resistivity 5 {F13.4}
RLA4 .OHMM                                             :HRLT Borehole Corrected Resistivity 4 {F13.4}
RLA3 .OHMM                                             :HRLT Borehole Corrected Resistivity 3 {F13.4}
RLA2 .OHMM                                             :HRLT Borehole Corrected Resistivity 2 {F13.4}
RLA1 .OHMM                                             :HRLT Borehole Corrected Resistivity 1 {F13.4}
RLA0 .OHMM                                             :HRLT Borehole Corrected Resistivity 0 {F13.4}
RXO_HRLT.OHMM                                          :HRLT Computed Invaded Zone Resistivity {F13.4}
RT_HRLT.OHMM                                           :HRLT Computed True Resistivity {F13.4}
DT   .US/F                                             :Delta-T {F13.4}
TT4  .US                                               :Transit Time 4 {F13.4}
TT3  .US                                               :Transit Time 3 {F13.4}
TT2  .US                                               :Transit Time 2 {F13.4}
TT1  .US                                               :Transit Time 1 {F13.4}
SPHI .CFCF                                             :Sonic Porosity {F13.4}
#-----------------------------------------------------------------------------
# DEPT       
#     BS           TENS         IHV          ICV          RWA_HILT     RT           
#     SP           GR           NPHI         TNPH         NPOR         GDEV         
#     HCAL         HDRA         RHOZ         HMIN         HMNO         RXOZ         
#     AHOCO60      AHOCO90      AHTCO60      AHTCO90      AHFCO60      AHFCO90      
#     AHO10        AHO20        AHO30        AHO60        AHO90        AHT10        
#     AHT20        AHT30        AHT60        AHT90        AHF10        AHF20        
#     AHF30        AHF60        AHF90        RLA5_UNCORR  RLA4_UNCORR  RLA3_UNCORR  
#     RLA2_UNCORR  RLA1_UNCORR  RLA0_UNCORR  RLA5         RLA4         RLA3         
#     RLA2         RLA1         RLA0         RXO_HRLT     RT_HRLT      DT           
#     TT4          TT3          TT2          TT1          SPHI         
~A  
# ...
4079.0
      8.5000    2158.0000     102.8056      36.6630       0.0864       5.6759
   -187.5625      95.8932       0.1820       0.1876       0.1918       3.5850
      8.8818      -0.0039       2.6146       7.4634       6.6021       9.2423
    183.8941     187.4381     186.1268     189.2786     195.8729     202.8205
      6.0303       5.7827       5.6079       5.4379       5.3351       5.6953
      5.6637       5.4881       5.3727       5.2832       5.3995       5.4130
      5.2088       5.1054       4.9305       5.6033       5.4402       5.5687
      5.6603       5.8600       0.5259       5.5852       5.4240       5.5449
      5.6618       5.9651       0.5259       6.7868       5.3790      78.7243
    407.3420     562.8850     399.9526     560.5010       0.1752
4078.0
      8.5000    2155.0000     103.2370      36.8271       0.0881       5.5979
   -188.1250      93.2109       0.1721       0.1867       0.1655       3.6298
      8.8818      -0.0095       2.5935       9.6407       8.5351       8.5722
    168.3734     172.1001     167.5082     172.2415     184.9645     192.8464
      6.2320       6.2802       6.1148       5.9392       5.8106       6.2401
      6.3327       6.0696       5.9699       5.8058       5.7388       5.7764
      5.5199       5.4064       5.1855       7.3684       6.9876       7.1749
      7.2274       7.4572       0.5560       7.3724       6.9984       7.1854
      7.2740       7.6617       0.5560       8.0055       7.1938      74.3770
    399.0843     560.1929     394.8825     557.4047       0.1427
4077.0
      8.5000    2181.0000     103.6700      36.9929       0.0824       4.4189
   -187.7500     105.3113       0.2036       0.2016       0.2119       3.8204
      8.9163      -0.0084       2.5829       6.5767       5.8157       7.1494
    187.7554     192.2435     194.3099     198.8551     201.5204     210.1310
      6.0858       5.8255       5.4182       5.3261       5.2017       5.4079
      5.4422       5.2186       5.1464       5.0288       5.2327       5.2941
      5.0382       4.9623       4.7589       7.9625       7.5358       7.6988
      7.7378       7.9266       0.5638       7.9718       7.5539       7.7183
      7.7969       8.1621       0.5638       8.1383       7.8112      76.0350
    400.2306     560.0965     396.1729     557.6156       0.1551
4076.0
      8.5000    2158.0000     104.1036      37.1592       0.0879       3.8651
   -187.7500     111.0901       0.2163       0.2287       0.2180       3.5556
      8.9278      -0.0045       2.5983       5.2019       4.5968       6.7453
    248.7436     254.0468     241.1502     249.0460     235.3329     244.4410
      4.1846       4.2373       4.0373       4.0202       3.9363       4.4174
      4.4362       4.2039       4.1468       4.0153       4.5148       4.5735
      4.3329       4.2493       4.0910       5.7372       5.4684       5.6016
      5.6413       5.8892       0.5277       5.7197       5.4520       5.5775
      5.6423       5.9976       0.5277       6.4243       5.5527      80.4540
    407.8515     568.5643     400.9792     568.7921       0.1881
4075.0
      8.5000    2169.0000     104.5383      37.3267       0.1012       3.3711
   -188.0625     118.3265       0.2591       0.2660       0.2745       3.7611
      8.9278      -0.0083       2.5867       4.8857       4.3170       6.1905
    255.9817     261.6494     265.2322     274.4114     270.1230     279.5818
      4.2481       4.2109       3.9524       3.9065       3.8219       4.0411
      4.0725       3.8470       3.7703       3.6442       3.9459       3.9844
      3.7800       3.7020       3.5768       5.0523       4.9055       5.0422
      5.1225       5.3471       0.5101       5.0265       4.8807       5.0085
      5.1112       5.4276       0.5101       6.3216       4.7856      83.2130
    421.0206     582.9452     417.7735     582.3232       0.2088
4074.0
      8.5000    2138.0000     104.9741      37.4953       0.1007       2.9576
   -187.3750     149.9893       0.2880       0.2819       0.2703       3.3224
      8.9508      -0.0104       2.5700       4.1790       3.6916       5.3212
    312.2503     318.2432     307.5444     317.5959     305.2366     315.0025
      3.4020       3.4758       3.2738       3.2026       3.1423       3.4291
      3.4791       3.3230       3.2516       3.1487       3.5092       3.5106
      3.3494       3.2761       3.1746       4.2465       4.2038       4.3351
      4.4104       4.5928       0.4945       4.2096       4.1674       4.2878
      4.3810       4.6324       0.4945       5.5911       3.9645      85.9233
    430.3935     600.1616     426.4628     601.7672       0.2290
4073.0
      8.5000    2183.0000     105.4100      37.6639       0.1001       2.8411
   -187.4375     155.4331       0.2803       0.2867       0.3045       3.7921
      8.9508      -0.0095       2.5659       3.9431       3.4828       4.8912
    343.8770     350.2571     342.1624     353.4210     334.0594     343.8170
      3.1666       3.1044       2.9688       2.9080       2.8550       3.1867
      3.1101       2.9828       2.9226       2.8295       3.2475       3.2032
      3.0639       2.9935       2.9085       3.8844       3.9104       4.0195
      4.0733       4.2408       0.4848       3.8407       3.8675       3.9643
      4.0325       4.2589       0.4848       5.1623       3.6183      89.0775
    440.9924     610.1002     437.4798     610.6693       0.2526
4072.0
      8.5000    2153.0000     105.8458      37.8325       0.0977       2.7132
   -188.2500     157.2182       0.2893       0.2966       0.2986       3.6302
      8.9508      -0.0069       2.5789       4.0132       3.5449       4.9345
    341.5066     348.8401     349.7885     362.6895     350.3584     359.2096
      3.0877       3.0833       2.9742       2.9282       2.8666       3.1138
      3.0697       2.9401       2.8589       2.7572       3.1344       3.0626
      2.9286       2.8542       2.7839       3.5304       3.6502       3.7321
      3.7452       3.8820       0.4737       3.4805       3.6021       3.6702
      3.6948       3.8805       0.4737       4.6931       3.3179      90.5131
    443.3564     622.7419     440.2786     622.9816       0.2634
4071.0
      8.5000    2177.0000     106.2816      38.0011       0.0838       2.6182
   -187.8750     154.1012       0.2830       0.2727       0.2656       3.5342
      8.9508      -0.0099       2.5752       3.6291       3.2052       4.7986
    361.9363     370.3623     363.5982     376.7841     360.2657     369.8917
      3.0528       2.9646       2.8121       2.7629       2.7001       3.0939
      2.9576       2.8275       2.7503       2.6540       3.0787       2.9725
      2.8427       2.7757       2.7035       3.6265       3.7912       3.9031
      3.8996       4.0223       0.4780       3.5792       3.7469       3.8467
      3.8551       4.0288       0.4780       4.9304       3.3958      91.2053
    449.3826     627.9495     445.0426     629.1321       0.2686
4070.0
      8.5000    2147.0000     106.7163      38.1685       0.0860       2.6691
   -188.2500     142.4498       0.2733       0.2723       0.2734       3.7594
      8.9278      -0.0079       2.5710       3.8579       3.4074       4.7473
    376.6650     386.0583     366.7231     379.3789     359.7438     369.1754
      2.9647       2.9545       2.7635       2.6549       2.5903       2.9962
      2.9409       2.8025       2.7269       2.6359       3.0375       2.9666
      2.8459       2.7798       2.7087       3.3469       3.4742       3.6331
      3.6658       3.7468       0.4688       3.2949       3.4234       3.5702
      3.6140       3.7373       0.4688       4.6697       3.0670      91.5341
    448.6100     635.1017     446.6654     635.0356       0.2710
4069.0
      8.5000    2155.0000     107.1499      38.3349       0.0991       2.7953
   -187.7500     148.9063       0.2789       0.2860       0.2941       3.5562
      8.9278      -0.0022       2.5615       3.6902       3.2592       4.4982
    368.8700     378.5904     356.9929     367.1702     342.7310     351.7394
      3.0285       2.9886       2.8260       2.7110       2.6414       3.0301
      2.9968       2.8736       2.8012       2.7235       3.1385       3.0860
      2.9824       2.9177       2.8430       3.4766       3.5405       3.6927
      3.8210       3.9295       0.4701       3.4271       3.4915       3.6314
      3.7739       3.9304       0.4701       4.9424       3.0700      92.2095
    454.0781     624.5100     453.3035     620.3754       0.2761
