~VERSION INFORMATION
VERS.           2.0   :CWLS Log ASCII Standard - VERSION 2.0
WRAP.           YES   :Multiple lines per depth step
PROD.  Schlumberger   :LAS Producer
PROG.  DLIS to ASCII 11C0-305                          :LAS Program name and version
CREA.        2004/04/13 17:44                          :LAS Creation date {YYYY/MM/DD hh:mm}
SOURCE.     AIT_TLD_MCFL_CNL_040PUP.DLIS               :DLIS File Name
FILE-ID.     AIT_TLD_MCFL_CNL_040PUP                   :File Identification Number
#--------------------------------------------------
~WELL INFORMATION
#MNEM.UNIT      DATA             DESCRIPTION
#---- ------ --------------   -----------------------------
STRT .F         4332.0       :START DEPTH     
STOP .F          453.0       :STOP DEPTH     
STEP .F           -1.0       :STEP     
NULL .          -999.25      :NULL VALUE
COMP .        DEPARTMENT OF ENERGY                     :COMPANY
WELL .        48X-28                                   :WELL
FLD  .        NAVAL PETROLEUM RESERVE #3               :FIELD
LOC  .        490' FSL, 2449' FWL                      :LOCATION
CNTY .        NATRONA                                  :COUNTY
STAT .        WYOMING                                  :STATE
CTRY .                                                 :COUNTRY
API  .        49-025-23195                             :API NUMBER
UWI  .                                                 :UNIQUE WELL ID
DATE .        15-Mar-2004                              :LOG DATE {DD-MMM-YYYY}
SRVC .        Schlumberger                             :SERVICE COMPANY
LATI .DEG                                              :LATITUDE
LONG .DEG                                              :LONGITUDE
GDAT .                                                 :GeoDetic Datum
SECT .        28                                       :Section
RANG .        78W                                      :Range
TOWN .        39N                                      :Township
#-----------------------------------------------------------------------------
~PARAMETER INFORMATION
#MNEM.UNIT    VALUE                      DESCRIPTION
#---- -----   --------------------       ------------------------
RUN  .          1                        :RUN NUMBER
PDAT .        GROUND LEVEL               :Permanent Datum
EPD  .F         5105.000000              :Elevation of Permanent Datum above Mean Sea Level
EPD  .F         5105.000000              :Elevation of tool zero above Mean Sea Level
LMF  .          KELLY BUSHING            :Logging Measured From (Name of Logging Elevation Reference)
APD  .                                   :Elevation of Depth Reference (LMF) above Permanent Datum
#-----------------------------------------------------------------------------
~CURVE INFORMATION
#MNEM.UNIT   API CODE                                  DESCRIPTION
#---- -----  --------                                  -----------------------
DEPT .F                                                :DEPTH (BOREHOLE) {F10.1}
BS   .IN                                               :Bit Size {F13.4}
TENS .LBF                                              :Cable Tension {F13.4}
IHV  .F3                                               :Integrated Hole Volume {F13.4}
ICV  .F3                                               :Integrated Cement Volume {F13.4}
RWA_HILT.OHMM                                          :HILT Apparent water resistivity {F13.4}
RT   .OHMM                                             :True Resistivity {F13.4}
SP   .MV                                               :Spontaneous Potential {F13.4}
GR   .GAPI                                             :Gamma-Ray {F13.4}
NPHI .CFCF                                             :Thermal Neutron Porosity (Ratio Method) {F13.4}
TNPH .CFCF                                             :Thermal Neutron Porosity {F13.4}
NPOR .CFCF                                             :Enhanced Thermal Neutron Porosity {F13.4}
GDEV .DEG                                              :HGNS Deviation {F13.4}
HCAL .IN                                               :HRCC Cal. Caliper {F13.4}
HDRA .G/C3                                             :HRDD Density Correction {F13.4}
RHOZ .G/C3                                             :HRDD Standard Resolution Formation Density {F13.4}
HMIN .OHMM                                             :MCFL Micro Inverse Resistivity {F13.4}
HMNO .OHMM                                             :MCFL Micro Normal Resistivity {F13.4}
RXOZ .OHMM                                             :MCFL Standard Resolution Invaded Zone Resistivity {F13.4}
AHOCO60.MM/M                                           :Array Induction One Foot Conductivity A60 {F13.4}
AHOCO90.MM/M                                           :Array Induction One Foot Conductivity A90 {F13.4}
AHTCO60.MM/M                                           :Array Induction Two Foot Conductivity A60 {F13.4}
AHTCO90.MM/M                                           :Array Induction Two Foot Conductivity A90 {F13.4}
AHFCO60.MM/M                                           :Array Induction Four Foot Conductivity A60 {F13.4}
AHFCO90.MM/M                                           :Array Induction Four Foot Conductivity A90 {F13.4}
AHO10.OHMM                                             :Array Induction One Foot Resistivity A10 {F13.4}
AHO20.OHMM                                             :Array Induction One Foot Resistivity A20 {F13.4}
AHO30.OHMM                                             :Array Induction One Foot Resistivity A30 {F13.4}
AHO60.OHMM                                             :Array Induction One Foot Resistivity A60 {F13.4}
AHO90.OHMM                                             :Array Induction One Foot Resistivity A90 {F13.4}
AHT10.OHMM                                             :Array Induction Two Foot Resistivity A10 {F13.4}
AHT20.OHMM                                             :Array Induction Two Foot Resistivity A20 {F13.4}
AHT30.OHMM                                             :Array Induction Two Foot Resistivity A30 {F13.4}
AHT60.OHMM                                             :Array Induction Two Foot Resistivity A60 {F13.4}
AHT90.OHMM                                             :Array Induction Two Foot Resistivity A90 {F13.4}
AHF10.OHMM                                             :Array Induction Four Foot Resistivity A10 {F13.4}
AHF20.OHMM                                             :Array Induction Four Foot Resistivity A20 {F13.4}
AHF30.OHMM                                             :Array Induction Four Foot Resistivity A30 {F13.4}
AHF60.OHMM                                             :Array Induction Four Foot Resistivity A60 {F13.4}
AHF90.OHMM                                             :Array Induction Four Foot Resistivity A90 {F13.4}
RLA5_UNCORR.OHMM                                       :HRLT Shallow Uncorrected Resistivity 5 {F13.4}
RLA4_UNCORR.OHMM                                       :HRLT Shallow Uncorrected Resistivity 4 {F13.4}
RLA3_UNCORR.OHMM                                       :HRLT Shallow Uncorrected Resistivity 3 {F13.4}
RLA2_UNCORR.OHMM                                       :HRLT Shallow Uncorrected Resistivity 2 {F13.4}
RLA1_UNCORR.OHMM                                       :HRLT Shallow Uncorrected Resistivity 1 {F13.4}
RLA0_UNCORR.OHMM                                       :HRLT Shallow Uncorrected Resistivity 0 {F13.4}
RLA5 .OHMM                                             :HRLT Borehole Corrected Resistivity 5 {F13.4}
RLA4 .OHMM                                             :HRLT Borehole Corrected Resistivity 4 {F13.4}
RLA3 .OHMM                                             :HRLT Borehole Corrected Resistivity 3 {F13.4}
RLA2 .OHMM                                             :HRLT Borehole Corrected Resistivity 2 {F13.4}
RLA1 .OHMM                                             :HRLT Borehole Corrected Resistivity 1 {F13.4}
RLA0 .OHMM                                             :HRLT Borehole Corrected Resistivity 0 {F13.4}
RXO_HRLT.OHMM                                          :HRLT Computed Invaded Zone Resistivity {F13.4}
RT_HRLT.OHMM                                           :HRLT Computed True Resistivity {F13.4}
DT   .US/F                                             :Delta-T {F13.4}
TT4  .US                                               :Transit Time 4 {F13.4}
TT3  .US                                               :Transit Time 3 {F13.4}
TT2  .US                                               :Transit Time 2 {F13.4}
TT1  .US                                               :Transit Time 1 {F13.4}
SPHI .CFCF                                             :Sonic Porosity {F13.4}
#-----------------------------------------------------------------------------
# DEPT       
#     BS           TENS         IHV          ICV          RWA_HILT     RT           
#     SP           GR           NPHI         TNPH         NPOR         GDEV         
#     HCAL         HDRA         RHOZ         HMIN         HMNO         RXOZ         
#     AHOCO60      AHOCO90      AHTCO60      AHTCO90      AHFCO60      AHFCO90      
#     AHO10        AHO20        AHO30        AHO60        AHO90        AHT10        
#     AHT20        AHT30        AHT60        AHT90        AHF10        AHF20        
#     AHF30        AHF60        AHF90        RLA5_UNCORR  RLA4_UNCORR  RLA3_UNCORR  
#     RLA2_UNCORR  RLA1_UNCORR  RLA0_UNCORR  RLA5         RLA4         RLA3         
#     RLA2         RLA1         RLA0         RXO_HRLT     RT_HRLT      DT           
#     TT4          TT3          TT2          TT1          SPHI         
~A  
# ...
3562.0
      8.5000    1917.0000     337.4816     133.1740       0.3117       6.3450
   -191.1875     178.5128       0.3043       0.3223       0.3205       3.5227
      8.5249      -0.0046       2.4880       8.0090       7.0846       9.7759
    164.2151     164.3283     164.3555     163.3888     167.3565     165.0221
      5.9944       6.1839       6.1111       6.0896       6.0854       5.8442
      6.0856       6.0444       6.0844       6.1204       5.8571       6.0255
      5.9384       5.9753       6.0598       6.2992       6.4916       6.7676
      6.8840       7.3352       0.6410       6.2467       6.4330       6.6939
      6.8269       7.3521       0.6410       9.1093       5.3829      94.4546
    448.1389     633.2971     446.0031     637.6893       0.2929
3561.0
      8.5000    1922.0000     337.8763     133.3015       0.3114       6.3479
   -190.8750     191.8061       0.3174       0.3222       0.2942       3.8935
      8.5019      -0.0012       2.4887       8.6646       7.6660      10.7524
    143.6863     143.0788     144.6239     150.3103     160.8545     161.5736
      7.2207       7.3270       7.1794       6.9596       6.9892       6.4279
      6.6416       6.7435       6.9145       6.6529       5.9330       6.1591
      6.1467       6.2168       6.1891       7.9444       7.9604       8.2911
      8.5159       8.8748       0.6669       7.9064       7.9168       8.2365
      8.4863       8.9475       0.6669      11.2294       7.1093      91.9547
    446.0696     637.2129     449.8476     635.6866       0.2742
3560.0
      8.5000    1966.0000     338.2711     133.4290       0.3436       6.0914
   -191.3125     205.7910       0.3377       0.3355       0.3620       3.2736
      8.5019       0.0005       2.4460       4.0551       3.8007       7.4166
    230.6802     229.5804     176.6557     171.6767     164.6635     161.9444
      4.2539       4.3491       4.4468       4.3350       4.3558       5.2976
      5.5746       5.4963       5.6607       5.8249       5.7425       6.0280
      6.0083       6.0730       6.1750       9.0988       9.1896       9.3532
      9.6894      10.2277       0.6846       9.0692       9.1578       9.3115
      9.6786      10.3500       0.6846      12.7726       8.0631      94.8818
    449.2325     636.4409     445.4646     632.8825       0.2960
3559.0
      8.5000    1878.0000     338.6642     133.5549       0.2927       6.5678
   -191.1875     216.5673       0.2953       0.2890       0.2901       3.9820
      8.4904      -0.0039       2.4546       6.4534       5.7048       9.0876
    174.4336     173.2025     166.6349     157.8051     167.6692     162.3292
      6.2045       6.4984       6.0385       5.7328       5.7736       5.4507
      6.0283       5.9784       6.0011       6.3369       5.4853       5.9977
      5.9055       5.9641       6.1603       5.6917       5.8108       5.9214
      5.9341       6.4115       0.6218       5.6344       5.7458       5.8379
      5.8611       6.3960       0.6218       7.7149       5.1567      94.4297
    450.6671     625.1077     445.7984     622.8265       0.2927
3558.0
      8.5000    1895.0000     339.0595     133.6830       0.2955       8.8392
   -191.3750     196.0192       0.2532       0.2499       0.2498       3.6666
      8.5134      -0.0023       2.4795       9.4756       8.3861      11.8219
    160.4926     159.4686     135.5009     124.3100     192.3426     183.8126
      6.0807       7.8999       6.8315       6.2308       6.2708       6.2636
      7.7073       7.5430       7.3800       8.0444       4.7366       5.2842
      5.1743       5.1991       5.4403       7.4182       7.5839       7.8952
      7.7077       8.1356       0.6542       7.3715       7.5335       7.8327
      7.6630       8.1830       0.6542       9.8738       6.9935      88.3426
    449.7638     659.6862     444.8760     671.7255       0.2471
3557.0
      8.5000    1915.0000     339.4601     133.8164       0.1394       2.2636
   -192.0625     213.2398       0.3490       0.3264       0.3287       2.3826
      8.6285       0.0140       2.3766       2.6628       2.3896       2.8021
    230.3778     230.0667     235.7116     215.1423     306.9853     296.1694
      4.4330       5.2050       4.0634       4.3407       4.3466       3.8955
      4.4839       4.2052       4.2425       4.6481       3.0127       3.2954
      3.2327       3.2575       3.3764       9.6718       9.9940      10.3800
     10.7061      10.0941       0.6860       9.6479       9.9769      10.3622
     10.7271      10.2466       0.6860      12.6547       9.6948      82.2827
    479.7914     677.8124     483.4338     670.5739       0.2018
3556.0
      8.5000    1905.0000     339.8608     133.9498       0.1834       1.8138
   -192.8125     240.6792       0.5028       0.4079       0.5127       4.9860
      8.6055       0.0336       2.2615       0.9944       0.8822       1.3175
    703.4389     702.5026     651.7402     635.4926     421.0780     407.3412
      1.1355       1.3464       1.3774       1.4216       1.4235       1.4647
      1.5336       1.5355       1.5344       1.5736       2.2206       2.3754
      2.3623       2.3749       2.4549       4.5801       4.6872       4.9201
      5.0987       5.3786       0.5345       4.5315       4.6336       4.8522
      5.0413       5.3738       0.5345       6.7272       3.8066     107.7811
    487.9441     646.4149     481.7429     650.6796       0.3925
3555.0
      8.5000    1937.0000     340.2631     134.0849       0.2922       4.8885
   -192.1250     203.6862       0.3121       0.3132       0.2658       3.3171
      8.5019       0.0243       2.3571       5.3701       4.7451       3.8689
    277.4323     277.0251     329.8134     321.7906     368.1497     363.0027
      2.9316       3.3290       3.4428       3.6045       3.6098       2.7601
      2.9851       3.0655       3.0320       3.1076       2.5112       2.6725
      2.6848       2.7163       2.7548       1.8994       1.9706       2.0518
      2.1138       2.2629       0.3736       1.8194       1.8856       1.9488
      2.0089       2.1583       0.3736       2.6731       1.5582     111.0651
    478.0391     648.8728     489.0599     646.6550       0.4171
3554.0
      8.5000    1955.0000     340.6600     134.2146       0.2615       4.6218
   -191.4375     209.8516       0.3176       0.3259       0.3720       2.9816
      8.5940       0.0577       2.4229       2.0183       2.0113       5.0078
    232.6688     231.5126     229.9189     227.6043     266.1135     264.8429
      3.7294       3.5827       4.2502       4.2980       4.3194       3.8766
      4.0770       4.2964       4.3494       4.3936       3.4533       3.6707
      3.7181       3.7578       3.7758       9.8440      10.3128      10.6911
     10.9956      10.7225       0.6468       9.8311      10.3069      10.6853
     11.0283      10.8995       0.6468      14.1299       9.3824      86.0394
    493.7666     658.1042     479.7839     661.1947       0.2299
3553.0
      8.5000    1975.0000     341.0521     134.3394       0.2266       4.5627
   -191.9375     218.3028       0.3077       0.3007       0.2693       4.2392
      8.4673       0.0434       2.4287       5.4110       4.9718       8.2466
    172.7162     172.6194     205.3812     211.5951     219.1602     223.7251
      5.3309       5.9990       5.9551       5.7898       5.7931       4.1756
      4.7012       4.7825       4.8690       4.7260       4.1787       4.4490
      4.5254       4.5629       4.4698       3.6239       3.7814       3.9484
      4.0061       4.0502       0.5404       3.5572       3.7075       3.8566
      3.9171       3.9769       0.5404       4.9960       3.3830      89.9959
    441.5015     674.7053     435.7343     666.3365       0.2595
3552.0
      8.5000    1938.0000     341.4432     134.4632       0.2008       4.8423
   -191.6250     222.5059       0.2862       0.2776       0.2719       3.1101
      8.4673       0.0072       2.4587       5.8487       5.1686       7.5148
    209.7784     210.3332     206.0815     210.1895     212.5035     220.2660
      4.9137       5.0526       4.5574       4.7669       4.7544       4.6672
      4.7720       4.7227       4.8524       4.7576       4.4463       4.6752
      4.7363       4.7058       4.5400       6.8667       7.0965       7.4036
      7.1673       7.6405       0.6453       6.8200       7.0440       7.3382
      7.1142       7.6641       0.6453       9.2934       6.4107      91.5596
    462.3245     629.3338     463.0377     626.4615       0.2712
