~VERSION INFORMATION
VERS.           2.0   :CWLS Log ASCII Standard - VERSION 2.0
WRAP.           YES   :Multiple lines per depth step
PROD.  Schlumberger   :LAS Producer
PROG.  DLIS to ASCII 11C0-305                          :LAS Program name and version
CREA.        2004/04/13 17:44                          :LAS Creation date {YYYY/MM/DD hh:mm}
SOURCE.     AIT_TLD_MCFL_CNL_040PUP.DLIS               :DLIS File Name
FILE-ID.     AIT_TLD_MCFL_CNL_040PUP                   :File Identification Number
#--------------------------------------------------
~WELL INFORMATION
#MNEM.UNIT      DATA             DESCRIPTION
#---- ------ --------------   -----------------------------
STRT .F         4332.0       :START DEPTH     
STOP .F          453.0       :STOP DEPTH     
STEP .F           -1.0       :STEP     
NULL .          -999.25      :NULL VALUE
COMP .        DEPARTMENT OF ENERGY                     :COMPANY
WELL .        48X-28                                   :WELL
FLD  .        NAVAL PETROLEUM RESERVE #3               :FIELD
LOC  .        490' FSL, 2449' FWL                      :LOCATION
CNTY .        NATRONA                                  :COUNTY
STAT .        WYOMING                                  :STATE
CTRY .                                                 :COUNTRY
API  .        49-025-23195                             :API NUMBER
UWI  .                                                 :UNIQUE WELL ID
DATE .        15-Mar-2004                              :LOG DATE {DD-MMM-YYYY}
SRVC .        Schlumberger                             :SERVICE COMPANY
LATI .DEG                                              :LATITUDE
LONG .DEG                                              :LONGITUDE
GDAT .                                                 :GeoDetic Datum
SECT .        28                                       :Section
RANG .        78W                                      :Range
TOWN .        39N                                      :Township
#-----------------------------------------------------------------------------
~PARAMETER INFORMATION
#MNEM.UNIT    VALUE                      DESCRIPTION
#---- -----   --------------------       ------------------------
RUN  .          1                        :RUN NUMBER
PDAT .        GROUND LEVEL               :Permanent Datum
EPD  .F         5105.000000              :Elevation of Permanent Datum above Mean Sea Level
EPD  .F         5105.000000              :Elevation of tool zero above Mean Sea Level
LMF  .          KELLY BUSHING            :Logging Measured From (Name of Logging Elevation Reference)
APD  .                                   :Elevation of Depth Reference (LMF) above Permanent Datum
#-----------------------------------------------------------------------------
~CURVE INFORMATION
#MNEM.UNIT   API CODE                                  DESCRIPTION
#---- -----  --------                                  -----------------------
DEPT .F                                                :DEPTH (BOREHOLE) {F10.1}
BS   .IN                                               :Bit Size {F13.4}
TENS .LBF                                              :Cable Tension {F13.4}
IHV  .F3                                               :Integrated Hole Volume {F13.4}
ICV  .F3                                               :Integrated Cement Volume {F13.4}
RWA_HILT.OHMM                                          :HILT Apparent water resistivity {F13.4}
RT   .OHMM                                             :True Resistivity {F13.4}
SP   .MV                                               :Spontaneous Potential {F13.4}
GR   .GAPI                                             :Gamma-Ray {F13.4}
NPHI .CFCF                                             :Thermal Neutron Porosity (Ratio Method) {F13.4}
TNPH .CFCF                                             :Thermal Neutron Porosity {F13.4}
NPOR .CFCF                                             :Enhanced Thermal Neutron Porosity {F13.4}
GDEV .DEG                                              :HGNS Deviation {F13.4}
HCAL .IN                                               :HRCC Cal. Caliper {F13.4}
HDRA .G/C3                                             :HRDD Density Correction {F13.4}
RHOZ .G/C3                                             :HRDD Standard Resolution Formation Density {F13.4}
HMIN .OHMM                                             :MCFL Micro Inverse Resistivity {F13.4}
HMNO .OHMM                                             :MCFL Micro Normal Resistivity {F13.4}
RXOZ .OHMM                                             :MCFL Standard Resolution Invaded Zone Resistivity {F13.4}
AHOCO60.MM/M                                           :Array Induction One Foot Conductivity A60 {F13.4}
AHOCO90.MM/M                                           :Array Induction One Foot Conductivity A90 {F13.4}
AHTCO60.MM/M                                           :Array Induction Two Foot Conductivity A60 {F13.4}
AHTCO90.MM/M                                           :Array Induction Two Foot Conductivity A90 {F13.4}
AHFCO60.MM/M                                           :Array Induction Four Foot Conductivity A60 {F13.4}
AHFCO90.MM/M                                           :Array Induction Four Foot Conductivity A90 {F13.4}
AHO10.OHMM                                             :Array Induction One Foot Resistivity A10 {F13.4}
AHO20.OHMM                                             :Array Induction One Foot Resistivity A20 {F13.4}
AHO30.OHMM                                             :Array Induction One Foot Resistivity A30 {F13.4}
AHO60.OHMM                                             :Array Induction One Foot Resistivity A60 {F13.4}
AHO90.OHMM                                             :Array Induction One Foot Resistivity A90 {F13.4}
AHT10.OHMM                                             :Array Induction Two Foot Resistivity A10 {F13.4}
AHT20.OHMM                                             :Array Induction Two Foot Resistivity A20 {F13.4}
AHT30.OHMM                                             :Array Induction Two Foot Resistivity A30 {F13.4}
AHT60.OHMM                                             :Array Induction Two Foot Resistivity A60 {F13.4}
AHT90.OHMM                                             :Array Induction Two Foot Resistivity A90 {F13.4}
AHF10.OHMM                                             :Array Induction Four Foot Resistivity A10 {F13.4}
AHF20.OHMM                                             :Array Induction Four Foot Resistivity A20 {F13.4}
AHF30.OHMM                                             :Array Induction Four Foot Resistivity A30 {F13.4}
AHF60.OHMM                                             :Array Induction Four Foot Resistivity A60 {F13.4}
AHF90.OHMM                                             :Array Induction Four Foot Resistivity A90 {F13.4}
RLA5_UNCORR.OHMM                                       :HRLT Shallow Uncorrected Resistivity 5 {F13.4}
RLA4_UNCORR.OHMM                                       :HRLT Shallow Uncorrected Resistivity 4 {F13.4}
RLA3_UNCORR.OHMM                                       :HRLT Shallow Uncorrected Resistivity 3 {F13.4}
RLA2_UNCORR.OHMM                                       :HRLT Shallow Uncorrected Resistivity 2 {F13.4}
RLA1_UNCORR.OHMM                                       :HRLT Shallow Uncorrected Resistivity 1 {F13.4}
RLA0_UNCORR.OHMM                                       :HRLT Shallow Uncorrected Resistivity 0 {F13.4}
RLA5 .OHMM                                             :HRLT Borehole Corrected Resistivity 5 {F13.4}
RLA4 .OHMM                                             :HRLT Borehole Corrected Resistivity 4 {F13.4}
RLA3 .OHMM                                             :HRLT Borehole Corrected Resistivity 3 {F13.4}
RLA2 .OHMM                                             :HRLT Borehole Corrected Resistivity 2 {F13.4}
RLA1 .OHMM                                             :HRLT Borehole Corrected Resistivity 1 {F13.4}
RLA0 .OHMM                                             :HRLT Borehole Corrected Resistivity 0 {F13.4}
RXO_HRLT.OHMM                                          :HRLT Computed Invaded Zone Resistivity {F13.4}
RT_HRLT.OHMM                                           :HRLT Computed True Resistivity {F13.4}
DT   .US/F                                             :Delta-T {F13.4}
TT4  .US                                               :Transit Time 4 {F13.4}
TT3  .US                                               :Transit Time 3 {F13.4}
TT2  .US                                               :Transit Time 2 {F13.4}
TT1  .US                                               :Transit Time 1 {F13.4}
SPHI .CFCF                                             :Sonic Porosity {F13.4}
#-----------------------------------------------------------------------------
# DEPT       
#     BS           TENS         IHV          ICV          RWA_HILT     RT           
#     SP           GR           NPHI         TNPH         NPOR         GDEV         
#     HCAL         HDRA         RHOZ         HMIN         HMNO         RXOZ         
#     AHOCO60      AHOCO90      AHTCO60      AHTCO90      AHFCO60      AHFCO90      
#     AHO10        AHO20        AHO30        AHO60        AHO90        AHT10        
#     AHT20        AHT30        AHT60        AHT90        AHF10        AHF20        
#     AHF30        AHF60        AHF90        RLA5_UNCORR  RLA4_UNCORR  RLA3_UNCORR  
#     RLA2_UNCORR  RLA1_UNCORR  RLA0_UNCORR  RLA5         RLA4         RLA3         
#     RLA2         RLA1         RLA0         RXO_HRLT     RT_HRLT      DT           
#     TT4          TT3          TT2          TT1          SPHI         
~A  
# ...
713.0
      8.5000    1052.0000    1611.1193     645.4289       0.3440       9.1184
   -188.0625      98.0234       0.2885       0.2899       0.3198       3.5298
     10.0215      -0.0059       2.5420       6.6703       5.8937       8.4623
    110.5306     109.4095     111.6168     108.5988     110.8512     108.7223
      6.8997       7.4899       7.9142       9.0473       9.1400       6.9180
      7.5613       8.0331       8.9592       9.2082       6.9626       7.6165
      8.0957       9.0211       9.1977       8.8354       8.5007       8.5093
      8.2798       8.0139       0.7111       8.9145       8.6311       8.6558
      8.5123       8.5985       0.7111       8.3150       8.7369      93.8533
    466.4695     652.9351     468.1025     653.8875       0.2884
712.0
      8.5000    1009.0000    1611.6656     645.7081       0.3404       9.5859
   -188.2500      95.0120       0.2731       0.2807       0.2636       3.5248
     10.0099      -0.0050       2.5476       6.8600       6.0615       8.5788
    106.9306     105.8230     109.9728     107.1827     109.7139     107.4966
      7.0879       7.7679       8.2717       9.3519       9.4497       7.0297
      7.6684       8.1731       9.0932       9.3299       7.0297       7.6858
      8.1759       9.1146       9.3026       8.7789       8.4210       8.4372
      8.1953       7.9420       0.7100       8.8546       8.5467       8.5786
      8.4206       8.5142       0.7100       8.1757       8.6704      93.7591
    465.1516     651.4258     466.1877     653.0220       0.2877
711.0
      8.5000    1007.0000    1612.2108     645.9860       0.3886       9.4702
   -188.5000      94.8358       0.2829       0.2971       0.3112       3.5322
     10.0099      -0.0104       2.5192       6.8170       6.0235       8.5682
    107.5386     106.4490     108.3268     105.2274     108.8023     106.4703
      7.0824       7.6691       8.1459       9.2990       9.3942       7.1665
      7.7802       8.2943       9.2313       9.5032       7.0970       7.7496
      8.2464       9.1910       9.3923       9.0904       8.7315       8.7583
      8.5162       8.1910       0.7134       9.1741       8.8687       8.9135
      8.7605       8.8003       0.7134       8.4906       9.0036      93.0403
    463.9449     651.6667     465.3654     653.0067       0.2823
710.0
      8.5000     990.0000    1612.7572     646.2652       0.4008       9.4400
   -188.9375     102.5645       0.2928       0.3012       0.3042       3.5744
     10.0099      -0.0094       2.5122       6.8008       6.0092       8.5860
    109.0752     108.0028     109.9769     106.7309     108.6098     106.2381
      6.9260       7.5287       8.0175       9.1680       9.2590       7.0612
      7.6998       8.1980       9.0928       9.3694       7.1136       7.7678
      8.2679       9.2073       9.4128       9.0539       8.6592       8.7045
      8.4418       8.1675       0.7147       9.1397       8.7972       8.8606
      8.6851       8.7757       0.7147       8.4122       8.9466      92.9445
    463.8865     650.3678     465.0524     652.0054       0.2816
709.0
      8.5000    1015.0000    1613.3024     646.5432       0.3602       9.5997
   -189.1250      94.8376       0.2957       0.2788       0.2779       3.6147
      9.9869      -0.0095       2.5153       6.9712       6.1599       8.6940
    107.1357     106.0809     108.3775     105.0860     108.5487     106.0740
      7.1449       7.8549       8.2828       9.3340       9.4268       7.1429
      7.7990       8.3064       9.2270       9.5160       7.1242       7.7904
      8.2810       9.2125       9.4274       8.8719       8.5296       8.5292
      8.2687       7.9843       0.7142       8.9505       8.6593       8.6743
      8.4973       8.5597       0.7142       8.1820       8.7855      93.2066
    463.8526     649.7752     465.4986     651.3143       0.2835
708.0
      8.5000    1002.0000    1613.8463     646.8199       0.3334       9.4232
   -189.1875      96.0303       0.2619       0.2666       0.2734       3.5463
      9.9869      -0.0076       2.5088       6.7675       5.9797       8.5713
    107.0094     105.9742     108.7767     105.2821     108.6904     106.5978
      7.1484       7.8126       8.2355       9.3450       9.4363       7.1540
      7.8149       8.3009       9.1931       9.4983       7.1272       7.7916
      8.2768       9.2004       9.3811       9.1356       8.7877       8.7900
      8.5406       8.2527       0.7135       9.2193       8.9251       8.9445
      8.7827       8.8616       0.7135       8.5215       9.0406      93.0457
    464.2948     650.0281     465.8981     651.5837       0.2823
707.0
      8.5000    1037.0000    1614.3903     647.0966       0.3635       9.3876
   -188.9375      98.9154       0.2704       0.2894       0.2903       3.5472
      9.9869      -0.0064       2.5281       6.8858       6.0844       8.6586
    107.6433     106.6200     109.2699     106.1874     109.1851     107.0099
      7.0589       7.7444       8.1728       9.2899       9.3791       7.0928
      7.7529       8.2440       9.1517       9.4173       7.0975       7.7506
      8.2313       9.1588       9.3449       8.9379       8.5883       8.6176
      8.3723       8.0479       0.7154       9.0165       8.7181       8.7640
      8.6037       8.6280       0.7154       8.3178       8.8563      92.9962
    463.3178     650.2842     464.9962     651.8970       0.2819
706.0
      8.5000     994.0000    1614.9342     647.3734       0.3476       9.1822
   -189.1875     100.9471       0.2749       0.2839       0.2765       3.5769
      9.9869      -0.0089       2.5249       6.7626       5.9754       8.5630
    108.6832     107.6638     110.2202     107.5882     109.8746     107.8007
      7.0334       7.6111       8.0508       9.2011       9.2882       7.0496
      7.6584       8.1509       9.0727       9.2947       7.0600       7.6897
      8.1724       9.1013       9.2764       8.9462       8.6140       8.6215
      8.3977       8.1051       0.7143       9.0256       8.7455       8.7697
      8.6321       8.6950       0.7143       8.4253       8.8535      93.0646
    463.5729     649.6359     465.6227     651.4159       0.2825
705.0
      8.5000    1038.0000    1615.4781     647.6501       0.3358       9.3356
   -188.8750      91.8664       0.2637       0.2710       0.2610       3.5966
      9.9869      -0.0103       2.5140       6.7269       5.9438       8.4860
    111.1045     110.0841     112.3363     109.1490     109.7172     107.5080
      6.8990       7.4490       7.9425       9.0005       9.0840       6.9754
      7.5526       8.0457       8.9018       9.1618       7.0714       7.7111
      8.1990       9.1143       9.3016       8.8520       8.5256       8.5381
      8.3215       8.0449       0.7132       8.9299       8.6542       8.6821
      8.5502       8.6197       0.7132       8.3713       8.7580      93.2379
    463.6522     649.1786     465.5740     650.8016       0.2838
704.0
      8.5000    1004.0000    1616.0209     647.9255       0.3546       9.7323
   -188.9375      94.0319       0.2782       0.2796       0.2886       3.5783
      9.9639      -0.0068       2.5322       7.0381       6.2192       8.9294
    105.3067     104.2756     107.2569     104.1922     107.9483     105.6430
      7.2414       7.9738       8.4653       9.4961       9.5900       7.1759
      7.8903       8.4154       9.3234       9.5976       7.1733       7.8337
      8.3426       9.2637       9.4658       8.7706       8.4424       8.4662
      8.2331       7.9669       0.7120       8.8445       8.5657       8.6045
      8.4533       8.5269       0.7120       8.2634       8.6744      93.0866
    463.1670     647.9462     464.6632     649.5464       0.2826
703.0
      8.5000    1044.0000    1616.5624     648.1997       0.3332       9.6395
   -188.5625      91.8521       0.2928       0.2772       0.2667       3.5278
      9.9639      -0.0036       2.5511       7.1779       6.3429       9.0788
    104.3058     103.2994     106.2294     102.9469     106.4524     104.1696
      7.3857       7.9828       8.4657       9.5872       9.6806       7.3108
      7.9835       8.5321       9.4136       9.7137       7.2719       7.9343
      8.4647       9.3939       9.5997       9.1375       8.7942       8.8182
      8.5670       8.2363       0.7190       9.2191       8.9286       8.9699
      8.8051       8.8317       0.7190       8.5313       9.0580      92.5454
    461.9345     647.9418     463.1720     649.3210       0.2786
