~VERSION INFORMATION
VERS.           2.0   :CWLS Log ASCII Standard - VERSION 2.0
WRAP.           YES   :Multiple lines per depth step
PROD.  Schlumberger   :LAS Producer
PROG.  DLIS to ASCII 11C0-305                          :LAS Program name and version
CREA.        2004/04/13 17:44                          :LAS Creation date {YYYY/MM/DD hh:mm}
SOURCE.     AIT_TLD_MCFL_CNL_040PUP.DLIS               :DLIS File Name
FILE-ID.     AIT_TLD_MCFL_CNL_040PUP                   :File Identification Number
#--------------------------------------------------
~WELL INFORMATION
#MNEM.UNIT      DATA             DESCRIPTION
#---- ------ --------------   -----------------------------
STRT .F         4332.0       :START DEPTH     
STOP .F          453.0       :STOP DEPTH     
STEP .F           -1.0       :STEP     
NULL .          -999.25      :NULL VALUE
COMP .        DEPARTMENT OF ENERGY                     :COMPANY
WELL .        48X-28                                   :WELL
FLD  .        NAVAL PETROLEUM RESERVE #3               :FIELD
LOC  .        490' FSL, 2449' FWL                      :LOCATION
CNTY .        NATRONA                                  :COUNTY
STAT .        WYOMING                                  :STATE
CTRY .                                                 :COUNTRY
API  .        49-025-23195                             :API NUMBER
UWI  .                                                 :UNIQUE WELL ID
DATE .        15-Mar-2004                              :LOG DATE {DD-MMM-YYYY}
SRVC .        Schlumberger                             :SERVICE COMPANY
LATI .DEG                                              :LATITUDE
LONG .DEG                                              :LONGITUDE
GDAT .                                                 :GeoDetic Datum
SECT .        28                                       :Section
RANG .        78W                                      :Range
TOWN .        39N                                      :Township
#-----------------------------------------------------------------------------
~PARAMETER INFORMATION
#MNEM.UNIT    VALUE                      DESCRIPTION
#---- -----   --------------------       ------------------------
RUN  .          1                        :RUN NUMBER
PDAT .        GROUND LEVEL               :Permanent Datum
EPD  .F         5105.000000              :Elevation of Permanent Datum above Mean Sea Level
EPD  .F         5105.000000              :Elevation of tool zero above Mean Sea Level
LMF  .          KELLY BUSHING            :Logging Measured From (Name of Logging Elevation Reference)
APD  .                                   :Elevation of Depth Reference (LMF) above Permanent Datum
#-----------------------------------------------------------------------------
~CURVE INFORMATION
#MNEM.UNIT   API CODE                                  DESCRIPTION
#---- -----  --------                                  -----------------------
DEPT .F                                                :DEPTH (BOREHOLE) {F10.1}
BS   .IN                                               :Bit Size {F13.4}
TENS .LBF                                              :Cable Tension {F13.4}
IHV  .F3                                               :Integrated Hole Volume {F13.4}
ICV  .F3                                               :Integrated Cement Volume {F13.4}
RWA_HILT.OHMM                                          :HILT Apparent water resistivity {F13.4}
RT   .OHMM                                             :True Resistivity {F13.4}
SP   .MV                                               :Spontaneous Potential {F13.4}
GR   .GAPI                                             :Gamma-Ray {F13.4}
NPHI .CFCF                                             :Thermal Neutron Porosity (Ratio Method) {F13.4}
TNPH .CFCF                                             :Thermal Neutron Porosity {F13.4}
NPOR .CFCF                                             :Enhanced Thermal Neutron Porosity {F13.4}
GDEV .DEG                                              :HGNS Deviation {F13.4}
HCAL .IN                                               :HRCC Cal. Caliper {F13.4}
HDRA .G/C3                                             :HRDD Density Correction {F13.4}
RHOZ .G/C3                                             :HRDD Standard Resolution Formation Density {F13.4}
HMIN .OHMM                                             :MCFL Micro Inverse Resistivity {F13.4}
HMNO .OHMM                                             :MCFL Micro Normal Resistivity {F13.4}
RXOZ .OHMM                                             :MCFL Standard Resolution Invaded Zone Resistivity {F13.4}
AHOCO60.MM/M                                           :Array Induction One Foot Conductivity A60 {F13.4}
AHOCO90.MM/M                                           :Array Induction One Foot Conductivity A90 {F13.4}
AHTCO60.MM/M                                           :Array Induction Two Foot Conductivity A60 {F13.4}
AHTCO90.MM/M                                           :Array Induction Two Foot Conductivity A90 {F13.4}
AHFCO60.MM/M                                           :Array Induction Four Foot Conductivity A60 {F13.4}
AHFCO90.MM/M                                           :Array Induction Four Foot Conductivity A90 {F13.4}
AHO10.OHMM                                             :Array Induction One Foot Resistivity A10 {F13.4}
AHO20.OHMM                                             :Array Induction One Foot Resistivity A20 {F13.4}
AHO30.OHMM                                             :Array Induction One Foot Resistivity A30 {F13.4}
AHO60.OHMM                                             :Array Induction One Foot Resistivity A60 {F13.4}
AHO90.OHMM                                             :Array Induction One Foot Resistivity A90 {F13.4}
AHT10.OHMM                                             :Array Induction Two Foot Resistivity A10 {F13.4}
AHT20.OHMM                                             :Array Induction Two Foot Resistivity A20 {F13.4}
AHT30.OHMM                                             :Array Induction Two Foot Resistivity A30 {F13.4}
AHT60.OHMM                                             :Array Induction Two Foot Resistivity A60 {F13.4}
AHT90.OHMM                                             :Array Induction Two Foot Resistivity A90 {F13.4}
AHF10.OHMM                                             :Array Induction Four Foot Resistivity A10 {F13.4}
AHF20.OHMM                                             :Array Induction Four Foot Resistivity A20 {F13.4}
AHF30.OHMM                                             :Array Induction Four Foot Resistivity A30 {F13.4}
AHF60.OHMM                                             :Array Induction Four Foot Resistivity A60 {F13.4}
AHF90.OHMM                                             :Array Induction Four Foot Resistivity A90 {F13.4}
RLA5_UNCORR.OHMM                                       :HRLT Shallow Uncorrected Resistivity 5 {F13.4}
RLA4_UNCORR.OHMM                                       :HRLT Shallow Uncorrected Resistivity 4 {F13.4}
RLA3_UNCORR.OHMM                                       :HRLT Shallow Uncorrected Resistivity 3 {F13.4}
RLA2_UNCORR.OHMM                                       :HRLT Shallow Uncorrected Resistivity 2 {F13.4}
RLA1_UNCORR.OHMM                                       :HRLT Shallow Uncorrected Resistivity 1 {F13.4}
RLA0_UNCORR.OHMM                                       :HRLT Shallow Uncorrected Resistivity 0 {F13.4}
RLA5 .OHMM                                             :HRLT Borehole Corrected Resistivity 5 {F13.4}
RLA4 .OHMM                                             :HRLT Borehole Corrected Resistivity 4 {F13.4}
RLA3 .OHMM                                             :HRLT Borehole Corrected Resistivity 3 {F13.4}
RLA2 .OHMM                                             :HRLT Borehole Corrected Resistivity 2 {F13.4}
RLA1 .OHMM                                             :HRLT Borehole Corrected Resistivity 1 {F13.4}
RLA0 .OHMM                                             :HRLT Borehole Corrected Resistivity 0 {F13.4}
RXO_HRLT.OHMM                                          :HRLT Computed Invaded Zone Resistivity {F13.4}
RT_HRLT.OHMM                                           :HRLT Computed True Resistivity {F13.4}
DT   .US/F                                             :Delta-T {F13.4}
TT4  .US                                               :Transit Time 4 {F13.4}
TT3  .US                                               :Transit Time 3 {F13.4}
TT2  .US                                               :Transit Time 2 {F13.4}
TT1  .US                                               :Transit Time 1 {F13.4}
SPHI .CFCF                                             :Sonic Porosity {F13.4}
#-----------------------------------------------------------------------------
# DEPT       
#     BS           TENS         IHV          ICV          RWA_HILT     RT           
#     SP           GR           NPHI         TNPH         NPOR         GDEV         
#     HCAL         HDRA         RHOZ         HMIN         HMNO         RXOZ         
#     AHOCO60      AHOCO90      AHTCO60      AHTCO90      AHFCO60      AHFCO90      
#     AHO10        AHO20        AHO30        AHO60        AHO90        AHT10        
#     AHT20        AHT30        AHT60        AHT90        AHF10        AHF20        
#     AHF30        AHF60        AHF90        RLA5_UNCORR  RLA4_UNCORR  RLA3_UNCORR  
#     RLA2_UNCORR  RLA1_UNCORR  RLA0_UNCORR  RLA5         RLA4         RLA3         
#     RLA2         RLA1         RLA0         RXO_HRLT     RT_HRLT      DT           
#     TT4          TT3          TT2          TT1          SPHI         
~A  
# ...
2781.0
      8.5000    1683.0000     661.3728     248.3466       0.1521       4.6854
   -191.8750     128.1358       0.2655       0.2621       0.2720       3.6902
      8.9624       0.0014       2.5382       5.1993       4.5936       6.6502
    212.4718     217.8276     205.3743     209.1938     201.2805     207.1011
      4.5958       4.8228       4.7528       4.7065       4.5908       4.7724
      4.9148       4.8800       4.8692       4.7803       4.9175       5.0510
      4.9925       4.9682       4.8286       5.6263       5.6990       5.7952
      5.8620       6.0172       0.5994       5.5913       5.6698       5.7541
      5.8462       6.1011       0.5994       7.2500       5.3903      84.8495
    428.1878     596.5466     422.8352     594.0359       0.2210
2780.0
      8.5000    1669.0000     661.8120     248.5186       0.1514       4.8459
   -191.7500     119.1367       0.2652       0.2667       0.2765       3.2782
      8.9739      -0.0007       2.5702       5.4102       4.7801       6.8033
    214.7865     219.7255     209.8177     212.2779     203.3467     208.7103
      4.7285       4.9347       4.7884       4.6558       4.5511       4.7067
      4.9107       4.7956       4.7660       4.7108       4.8387       5.0467
      4.9585       4.9177       4.7913       5.1143       5.0984       5.2420
      5.3284       5.4961       0.5894       5.0713       5.0580       5.1889
      5.2978       5.5519       0.5894       6.6638       4.8307      86.1306
    431.0194     595.3256     425.7811     592.3052       0.2306
2779.0
      8.5000    1671.0000     662.2523     248.6917       0.1490       5.3740
   -191.6250     122.3508       0.2488       0.2507       0.2419       3.7856
      8.9969      -0.0053       2.5790       5.9079       5.2206       7.2870
    197.7727     202.1098     197.6733     197.0665     195.8389     200.3638
      4.9442       5.1989       5.0690       5.0563       4.9478       4.9939
      5.2165       5.1064       5.0589       5.0744       5.0659       5.2656
      5.1615       5.1062       4.9909       5.3353       5.2839       5.4603
      5.5625       5.7561       0.5919       5.2981       5.2494       5.4149
      5.5417       5.8296       0.5919       7.0664       4.9919      85.1281
    429.7011     592.9245     422.7651     589.9686       0.2231
2778.0
      8.5000    1684.0000     662.6915     248.8636       0.1816       5.9771
   -191.6875     107.9206       0.2353       0.2595       0.2616       3.4682
      8.9739      -0.0066       2.5627       6.3379       5.6013       7.8570
    175.4321     179.3170     177.4467     173.9833     185.7505     189.5976
      5.5073       5.7675       5.6535       5.7002       5.5767       5.4723
      5.7234       5.6820       5.6355       5.7477       5.3294       5.5138
      5.4431       5.3836       5.2743       5.7228       5.6579       5.8773
      5.9632       6.0959       0.5966       5.6911       5.6300       5.8408
      5.9540       6.1910       0.5966       7.4336       5.4431      82.7628
    423.2924     590.5612     417.5433     587.4009       0.2054
2777.0
      8.5000    1667.0000     663.1318     249.0367       0.1461       5.0623
   -192.0000     119.2532       0.2421       0.2494       0.2379       3.6181
      8.9969      -0.0087       2.5560       6.1137       5.4027       7.7988
    158.9275     162.5877     179.7483     178.3835     188.0389     194.0990
      5.6895       5.6006       5.7588       6.2922       6.1505       5.6634
      5.5489       5.6591       5.5633       5.6059       5.4567       5.4105
      5.3941       5.3180       5.1520       6.3145       6.1524       6.4377
      6.5282       6.6405       0.6078       6.2931       6.1354       6.4153
      6.5375       6.7701       0.6078       8.0003       6.0521      81.2791
    419.7059     587.4419     414.1492     584.9713       0.1943
2776.0
      8.5000    1681.0000     663.5710     249.2087       0.1248       4.2282
   -191.8750     116.0092       0.2528       0.2506       0.2518       3.5051
      8.9739      -0.0113       2.5485       5.7140       5.0490       7.3669
    180.1732     184.0813     207.1371     216.8064     209.3948     218.4967
      5.1458       4.6389       4.9928       5.5502       5.4324       5.1959
      4.8812       4.8894       4.8277       4.6124       5.2210       4.9079
      4.8827       4.7757       4.5767       5.9428       5.8929       5.9725
      6.1380       6.3036       0.6052       5.9154       5.8703       5.9385
      6.1342       6.4095       0.6052       7.5675       5.6634      81.9859
    420.0876     585.2872     415.2763     583.4288       0.1996
2775.0
      8.5000    1680.0000     664.0081     249.3784       0.0975       3.5594
   -192.3750     117.8308       0.2485       0.2431       0.2499       3.7189
      8.9508      -0.0077       2.5601       5.9324       5.2422       7.4104
    215.8467     220.4584     235.8038     258.9286     238.1472     251.2570
      4.9544       4.4655       4.5214       4.6329       4.5360       4.7304
      4.5132       4.3503       4.2408       3.8621       4.8063       4.4631
      4.3547       4.1991       3.9800       5.4521       5.4702       5.5563
      5.5291       5.8723       0.5983       5.4139       5.4362       5.5090
      5.5032       5.9471       0.5983       6.9605       5.1532      82.7003
    422.9788     574.5410     418.8943     570.1331       0.2049
2774.0
      8.5000    1681.0000     664.4467     249.5498       0.0589       3.3426
   -191.9375      98.8668       0.1946       0.2000       0.1850       3.1897
      8.9854      -0.0020       2.6039       7.8544       7.2338      11.5490
    278.2912     283.6960     260.4196     293.3635     274.1523     291.9987
      3.9975       3.9960       3.8611       3.5934       3.5249       4.3491
      4.3648       4.0733       3.8400       3.4087       4.1992       4.0629
      3.8524       3.6476       3.4247       5.2550       5.3225       5.4755
      5.4448       5.6008       0.6022       5.2029       5.2753       5.4158
      5.4062       5.6539       0.6022       6.6361       5.0662      80.5157
    416.0961     591.2527     407.1924     594.9288       0.1886
2773.0
      8.5000    1666.0000     664.8979     249.7338       0.0870       2.3223
   -191.8750     102.7471       0.2734       0.2732       0.2631       3.7982
      9.2386       0.0441       2.4996       2.3728       2.9638       6.6830
    295.4053     301.6584     311.5730     339.5878     328.3023     340.2245
      4.8100       4.9108       3.8512       3.3852       3.3150       3.5721
      3.6023       3.4818       3.2095       2.9447       3.4570       3.4385
      3.2231       3.0460       2.9392       6.3618       6.5120       6.7869
      6.9424       7.0384       0.6295       6.3472       6.5108       6.7833
      6.9769       7.2156       0.6295       9.1101       5.7886      72.4438
    424.8238     601.5436     426.6240     596.5018       0.1282
2772.0
      8.5000    1691.0000     665.3394     249.9080       0.1961       2.4784
   -191.6875     153.5378       0.4502       0.3568       0.5029       3.2715
      9.0199       0.0455       2.3041       1.7814       1.6997       3.0184
    525.0546     532.0720     470.0960     486.4003     366.2914     374.6588
      1.8952       2.0860       2.0094       1.9046       1.8794       2.3629
      2.3493       2.2263       2.1272       2.0559       3.0360       3.0262
      2.8622       2.7301       2.6691       3.9784       4.0668       4.2458
      4.3587       4.7246       0.5488       3.9204       4.0108       4.1758
      4.3081       4.7447       0.5488       6.2378       3.3040      87.7458
    438.4969     601.2590     432.1541     597.3224       0.2427
2771.0
      8.5000    1663.0000     665.7786     250.0800       0.1865       3.7098
   -191.3750     133.3126       0.2836       0.3205       0.2954       3.6530
      8.9739       0.0135       2.4725       4.8307       4.2674       5.8545
    289.5865     297.1399     311.4804     314.8918     326.4510     327.8897
      4.1382       3.9276       3.6232       3.4532       3.3654       3.6645
      3.6030       3.3857       3.2105       3.1757       3.4356       3.3854
      3.2111       3.0632       3.0498       2.3716       2.4217       2.5164
      2.5845       2.7484       0.4521       2.2898       2.3373       2.4137
      2.4848       2.6652       0.4521       3.2935       2.0106      98.4488
    449.9153     605.2689     447.3970     603.2922       0.3227
