~VERSION INFORMATION
VERS.           2.0   :CWLS Log ASCII Standard - VERSION 2.0
WRAP.           YES   :Multiple lines per depth step
PROD.  Schlumberger   :LAS Producer
PROG.  DLIS to ASCII 11C0-305                          :LAS Program name and version
CREA.        2004/04/13 17:44                          :LAS Creation date {YYYY/MM/DD hh:mm}
SOURCE.     AIT_TLD_MCFL_CNL_040PUP.DLIS               :DLIS File Name
FILE-ID.     AIT_TLD_MCFL_CNL_040PUP                   :File Identification Number
#--------------------------------------------------
~WELL INFORMATION
#MNEM.UNIT      DATA             DESCRIPTION
#---- ------ --------------   -----------------------------
STRT .F         4332.0       :START DEPTH     
STOP .F          453.0       :STOP DEPTH     
STEP .F           -1.0       :STEP     
NULL .          -999.25      :NULL VALUE
COMP .        DEPARTMENT OF ENERGY                     :COMPANY
WELL .        48X-28                                   :WELL
FLD  .        NAVAL PETROLEUM RESERVE #3               :FIELD
LOC  .        490' FSL, 2449' FWL                      :LOCATION
CNTY .        NATRONA                                  :COUNTY
STAT .        WYOMING                                  :STATE
CTRY .                                                 :COUNTRY
API  .        49-025-23195                             :API NUMBER
UWI  .                                                 :UNIQUE WELL ID
DATE .        15-Mar-2004                              :LOG DATE {DD-MMM-YYYY}
SRVC .        Schlumberger                             :SERVICE COMPANY
LATI .DEG                                              :LATITUDE
LONG .DEG                                              :LONGITUDE
GDAT .                                                 :GeoDetic Datum
SECT .        28                                       :Section
RANG .        78W                                      :Range
TOWN .        39N                                      :Township
#-----------------------------------------------------------------------------
~PARAMETER INFORMATION
#MNEM.UNIT    VALUE                      DESCRIPTION
#---- -----   --------------------       ------------------------
RUN  .          1                        :RUN NUMBER
PDAT .        GROUND LEVEL               :Permanent Datum
EPD  .F         5105.000000              :Elevation of Permanent Datum above Mean Sea Level
EPD  .F         5105.000000              :Elevation of tool zero above Mean Sea Level
LMF  .          KELLY BUSHING            :Logging Measured From (Name of Logging Elevation Reference)
APD  .                                   :Elevation of Depth Reference (LMF) above Permanent Datum
#-----------------------------------------------------------------------------
~CURVE INFORMATION
#MNEM.UNIT   API CODE                                  DESCRIPTION
#---- -----  --------                                  -----------------------
DEPT .F                                                :DEPTH (BOREHOLE) {F10.1}
BS   .IN                                               :Bit Size {F13.4}
TENS .LBF                                              :Cable Tension {F13.4}
IHV  .F3                                               :Integrated Hole Volume {F13.4}
ICV  .F3                                               :Integrated Cement Volume {F13.4}
RWA_HILT.OHMM                                          :HILT Apparent water resistivity {F13.4}
RT   .OHMM                                             :True Resistivity {F13.4}
SP   .MV                                               :Spontaneous Potential {F13.4}
GR   .GAPI                                             :Gamma-Ray {F13.4}
NPHI .CFCF                                             :Thermal Neutron Porosity (Ratio Method) {F13.4}
TNPH .CFCF                                             :Thermal Neutron Porosity {F13.4}
NPOR .CFCF                                             :Enhanced Thermal Neutron Porosity {F13.4}
GDEV .DEG                                              :HGNS Deviation {F13.4}
HCAL .IN                                               :HRCC Cal. Caliper {F13.4}
HDRA .G/C3                                             :HRDD Density Correction {F13.4}
RHOZ .G/C3                                             :HRDD Standard Resolution Formation Density {F13.4}
HMIN .OHMM                                             :MCFL Micro Inverse Resistivity {F13.4}
HMNO .OHMM                                             :MCFL Micro Normal Resistivity {F13.4}
RXOZ .OHMM                                             :MCFL Standard Resolution Invaded Zone Resistivity {F13.4}
AHOCO60.MM/M                                           :Array Induction One Foot Conductivity A60 {F13.4}
AHOCO90.MM/M                                           :Array Induction One Foot Conductivity A90 {F13.4}
AHTCO60.MM/M                                           :Array Induction Two Foot Conductivity A60 {F13.4}
AHTCO90.MM/M                                           :Array Induction Two Foot Conductivity A90 {F13.4}
AHFCO60.MM/M                                           :Array Induction Four Foot Conductivity A60 {F13.4}
AHFCO90.MM/M                                           :Array Induction Four Foot Conductivity A90 {F13.4}
AHO10.OHMM                                             :Array Induction One Foot Resistivity A10 {F13.4}
AHO20.OHMM                                             :Array Induction One Foot Resistivity A20 {F13.4}
AHO30.OHMM                                             :Array Induction One Foot Resistivity A30 {F13.4}
AHO60.OHMM                                             :Array Induction One Foot Resistivity A60 {F13.4}
AHO90.OHMM                                             :Array Induction One Foot Resistivity A90 {F13.4}
AHT10.OHMM                                             :Array Induction Two Foot Resistivity A10 {F13.4}
AHT20.OHMM                                             :Array Induction Two Foot Resistivity A20 {F13.4}
AHT30.OHMM                                             :Array Induction Two Foot Resistivity A30 {F13.4}
AHT60.OHMM                                             :Array Induction Two Foot Resistivity A60 {F13.4}
AHT90.OHMM                                             :Array Induction Two Foot Resistivity A90 {F13.4}
AHF10.OHMM                                             :Array Induction Four Foot Resistivity A10 {F13.4}
AHF20.OHMM                                             :Array Induction Four Foot Resistivity A20 {F13.4}
AHF30.OHMM                                             :Array Induction Four Foot Resistivity A30 {F13.4}
AHF60.OHMM                                             :Array Induction Four Foot Resistivity A60 {F13.4}
AHF90.OHMM                                             :Array Induction Four Foot Resistivity A90 {F13.4}
RLA5_UNCORR.OHMM                                       :HRLT Shallow Uncorrected Resistivity 5 {F13.4}
RLA4_UNCORR.OHMM                                       :HRLT Shallow Uncorrected Resistivity 4 {F13.4}
RLA3_UNCORR.OHMM                                       :HRLT Shallow Uncorrected Resistivity 3 {F13.4}
RLA2_UNCORR.OHMM                                       :HRLT Shallow Uncorrected Resistivity 2 {F13.4}
RLA1_UNCORR.OHMM                                       :HRLT Shallow Uncorrected Resistivity 1 {F13.4}
RLA0_UNCORR.OHMM                                       :HRLT Shallow Uncorrected Resistivity 0 {F13.4}
RLA5 .OHMM                                             :HRLT Borehole Corrected Resistivity 5 {F13.4}
RLA4 .OHMM                                             :HRLT Borehole Corrected Resistivity 4 {F13.4}
RLA3 .OHMM                                             :HRLT Borehole Corrected Resistivity 3 {F13.4}
RLA2 .OHMM                                             :HRLT Borehole Corrected Resistivity 2 {F13.4}
RLA1 .OHMM                                             :HRLT Borehole Corrected Resistivity 1 {F13.4}
RLA0 .OHMM                                             :HRLT Borehole Corrected Resistivity 0 {F13.4}
RXO_HRLT.OHMM                                          :HRLT Computed Invaded Zone Resistivity {F13.4}
RT_HRLT.OHMM                                           :HRLT Computed True Resistivity {F13.4}
DT   .US/F                                             :Delta-T {F13.4}
TT4  .US                                               :Transit Time 4 {F13.4}
TT3  .US                                               :Transit Time 3 {F13.4}
TT2  .US                                               :Transit Time 2 {F13.4}
TT1  .US                                               :Transit Time 1 {F13.4}
SPHI .CFCF                                             :Sonic Porosity {F13.4}
#-----------------------------------------------------------------------------
# DEPT       
#     BS           TENS         IHV          ICV          RWA_HILT     RT           
#     SP           GR           NPHI         TNPH         NPOR         GDEV         
#     HCAL         HDRA         RHOZ         HMIN         HMNO         RXOZ         
#     AHOCO60      AHOCO90      AHTCO60      AHTCO90      AHFCO60      AHFCO90      
#     AHO10        AHO20        AHO30        AHO60        AHO90        AHT10        
#     AHT20        AHT30        AHT60        AHT90        AHF10        AHF20        
#     AHF30        AHF60        AHF90        RLA5_UNCORR  RLA4_UNCORR  RLA3_UNCORR  
#     RLA2_UNCORR  RLA1_UNCORR  RLA0_UNCORR  RLA5         RLA4         RLA3         
#     RLA2         RLA1         RLA0         RXO_HRLT     RT_HRLT      DT           
#     TT4          TT3          TT2          TT1          SPHI         
~A  
# ...
1230.0
      8.5000    1164.0000    1355.6709     528.1512       0.2684       6.3332
   -186.5625     111.0012       0.3388       0.3334       0.3169       3.3738
      9.2271      -0.0031       2.5776       5.3556       4.7305       6.8628
    156.0977     156.2760     156.5451     154.5142     154.5849     153.6678
      5.3286       5.7294       5.8768       6.4062       6.3989       5.3570
      5.7544       5.9439       6.3879       6.4719       5.3891       5.8096
      6.0049       6.4689       6.5075       7.2141       7.1136       7.2395
      7.1868       7.1584       0.7086       7.1987       7.1128       7.2311
      7.2173       7.3405       0.7086       7.3561       7.2135      96.4262
    468.8624     661.0777     466.2195     659.9713       0.3076
1229.0
      8.5000    1171.0000    1356.1353     528.3484       0.2533       6.1598
   -186.8125     109.9732       0.3267       0.3134       0.3222       3.3896
      9.2271      -0.0099       2.5543       5.9304       5.2392       7.0121
    159.7614     159.8579     162.4725     159.5404     160.0773     158.8416
      5.2966       5.6853       5.7851       6.2593       6.2556       5.1803
      5.5712       5.7513       6.1549       6.2680       5.2335       5.6286
      5.8136       6.2470       6.2956       6.7896       6.7029       6.8395
      6.7839       6.8108       0.7013       6.7668       6.6927       6.8202
      6.7996       6.9664       0.7013       7.1118       6.7846      97.3253
    470.6989     664.0892     468.5343     662.8230       0.3143
1228.0
      8.5000    1142.0000    1356.5996     528.5455       0.2873       6.4493
   -186.8125     111.1852       0.3052       0.3195       0.3333       3.3491
      9.2271      -0.0064       2.5295       5.1441       4.5434       6.7833
    164.3681     164.5045     163.6825     159.6427     160.8217     159.3639
      5.0055       5.4129       5.6094       6.0839       6.0789       5.1664
      5.5295       5.7110       6.1094       6.2640       5.2213       5.5973
      5.7889       6.2181       6.2749       6.6205       6.5384       6.6670
      6.6261       6.6498       0.6986       6.5939       6.5234       6.6420
      6.6354       6.7920       0.6986       6.9418       6.6123      98.1835
    472.9872     666.3628     469.9379     665.8438       0.3207
1227.0
      8.5000    1151.0000    1357.0634     528.7421       0.2742       6.4711
   -187.0625     102.8096       0.3144       0.3222       0.3279       3.2313
      9.2271      -0.0045       2.5578       5.3347       4.7120       6.8763
    151.8889     152.0795     156.8059     153.7739     158.0212     156.4810
      5.3811       5.7578       5.9830       6.5838       6.5755       5.3381
      5.7097       5.9331       6.3773       6.5031       5.2854       5.6561
      5.8687       6.3283       6.3906       6.5368       6.4918       6.6136
      6.5685       6.5778       0.6956       6.5103       6.4772       6.5894
      6.5780       6.7183       0.6956       6.9330       6.5461      98.0677
    472.6876     668.1768     470.7102     667.1763       0.3199
1226.0
      8.5000    1149.0000    1357.5277     528.9392       0.2927       6.5608
   -187.6250     101.7583       0.3412       0.3288       0.3338       3.0298
      9.2271      -0.0081       2.5468       5.4536       4.8172       6.8456
    154.6253     154.6364     156.0801     153.7122     155.4851     154.0740
      5.3386       5.6777       5.8890       6.4672       6.4668       5.3373
      5.6836       5.9342       6.4070       6.5057       5.3608       5.7191
      5.9491       6.4315       6.4904       6.7665       6.7135       6.8455
      6.8032       6.7933       0.6979       6.7424       6.7031       6.8265
      6.8207       6.9523       0.6979       7.1735       6.7799      97.6653
    472.8295     667.0441     470.5280     666.5547       0.3169
1225.0
      8.5000    1182.0000    1357.9944     529.1387       0.3020       6.6584
   -187.6250      99.9943       0.3357       0.3278       0.3021       3.0908
      9.2732      -0.0071       2.5374       5.6351       4.9778       6.9169
    152.9532     153.0636     152.8867     150.7522     152.8519     151.7055
      5.4079       5.7543       5.9874       6.5379       6.5332       5.4184
      5.7842       6.0441       6.5408       6.6334       5.4387       5.8151
      6.0554       6.5423       6.5917       6.8688       6.8139       6.9420
      6.8787       6.8973       0.7014       6.8470       6.8070       6.9269
      6.9005       7.0667       0.7014       7.2780       6.8788      97.8165
    472.0456     664.9462     470.3633     663.2990       0.3180
1224.0
      8.5000    1161.0000    1358.4622     529.3393       0.2836       6.8674
   -187.9375     102.2559       0.3307       0.3095       0.3177       3.2997
      9.2732      -0.0065       2.5440       5.9337       5.2420       7.2879
    147.8819     147.9760     149.3676     148.0450     149.3599     148.6313
      5.5391       5.9483       6.1862       6.7622       6.7579       5.5410
      5.9483       6.2072       6.6949       6.7547       5.5455       5.9462
      6.1967       6.6952       6.7281       6.9646       6.9092       7.0381
      6.9590       6.9721       0.7026       6.9465       6.9071       7.0286
      6.9876       7.1542       0.7026       7.3054       6.9787      97.0170
    469.7244     663.1078     466.2049     662.6762       0.3120
1223.0
      8.5000    1208.0000    1358.9318     529.5416       0.2522       6.9220
   -187.6250     102.4243       0.2773       0.2927       0.3027       3.3814
      9.2732      -0.0027       2.5649       5.6697       5.0084       7.3485
    143.5593     143.6165     144.8507     144.1573     146.4444     145.9435
      5.7324       6.1272       6.3603       6.9658       6.9630       5.7043
      6.1267       6.3892       6.9037       6.9369       5.6491       6.0623
      6.3172       6.8285       6.8520       7.1347       7.0735       7.1810
      7.1323       7.0843       0.7033       7.1217       7.0781       7.1795
      7.1722       7.2856       0.7033       7.3383       7.1555      96.6397
    468.7536     661.6365     466.0801     660.1821       0.3092
1222.0
      8.5000    1193.0000    1359.4054     529.7480       0.2801       6.8258
   -187.8125     100.8167       0.2915       0.3212       0.3043       3.3410
      9.3192      -0.0028       2.5702       5.8493       5.1673       7.3142
    144.7124     144.7178     146.1671     144.7642     145.0272     144.0887
      5.7576       6.1248       6.3080       6.9103       6.9100       5.6830
      6.0970       6.3453       6.8415       6.9078       5.7170       6.1401
      6.3906       6.8953       6.9402       7.2486       7.1820       7.2898
      7.2416       7.2597       0.7016       7.2411       7.1933       7.2960
      7.2907       7.4809       0.7016       7.7121       7.2615      96.4503
    468.3789     658.8567     464.8371     657.8888       0.3078
1221.0
      8.5000    1151.0000    1359.8768     529.9521       0.2939       7.3401
   -187.7500     100.9862       0.3060       0.3175       0.3137       3.2761
      9.2962      -0.0030       2.5741       6.1804       5.4603       7.6974
    140.8178     140.6339     142.6594     140.9829     142.6899     141.6607
      5.7675       6.2406       6.4954       7.1014       7.1107       5.7744
      6.2278       6.4986       7.0097       7.0931       5.7958       6.2456
      6.5024       7.0082       7.0591       7.1975       7.1105       7.2246
      7.1510       7.1765       0.7019       7.1879       7.1192       7.2279
      7.1962       7.3921       0.7019       7.5039       7.2011      96.6210
    467.5052     655.7370     463.7109     654.5153       0.3091
1220.0
      8.5000    1137.0000    1360.3505     530.1586       0.2366       7.2733
   -187.4375     103.2478       0.2985       0.2935       0.2969       3.4017
      9.3192      -0.0002       2.6157       7.1211       6.2928       8.1842
    129.7246     129.5655     135.6045     133.4068     140.3442     138.9603
      6.2052       6.6390       6.9557       7.7086       7.7181       6.0420
      6.5060       6.8035       7.3744       7.4959       5.8765       6.3318
      6.5949       7.1253       7.1963       7.6107       7.5175       7.6224
      7.5837       7.5881       0.7093       7.6092       7.5368       7.6387
      7.6472       7.8417       0.7093       8.0148       7.6218      95.5548
    464.8389     656.9453     460.4825     655.3311       0.3011
