~VERSION INFORMATION
VERS.           2.0   :CWLS Log ASCII Standard - VERSION 2.0
WRAP.           YES   :Multiple lines per depth step
PROD.  Schlumberger   :LAS Producer
PROG.  DLIS to ASCII 11C0-305                          :LAS Program name and version
CREA.        2004/04/13 17:44                          :LAS Creation date {YYYY/MM/DD hh:mm}
SOURCE.     AIT_TLD_MCFL_CNL_040PUP.DLIS               :DLIS File Name
FILE-ID.     AIT_TLD_MCFL_CNL_040PUP                   :File Identification Number
#--------------------------------------------------
~WELL INFORMATION
#MNEM.UNIT      DATA             DESCRIPTION
#---- ------ --------------   -----------------------------
STRT .F         4332.0       :START DEPTH     
STOP .F          453.0       :STOP DEPTH     
STEP .F           -1.0       :STEP     
NULL .          -999.25      :NULL VALUE
COMP .        DEPARTMENT OF ENERGY                     :COMPANY
WELL .        48X-28                                   :WELL
FLD  .        NAVAL PETROLEUM RESERVE #3               :FIELD
LOC  .        490' FSL, 2449' FWL                      :LOCATION
CNTY .        NATRONA                                  :COUNTY
STAT .        WYOMING                                  :STATE
CTRY .                                                 :COUNTRY
API  .        49-025-23195                             :API NUMBER
UWI  .                                                 :UNIQUE WELL ID
DATE .        15-Mar-2004                              :LOG DATE {DD-MMM-YYYY}
SRVC .        Schlumberger                             :SERVICE COMPANY
LATI .DEG                                              :LATITUDE
LONG .DEG                                              :LONGITUDE
GDAT .                                                 :GeoDetic Datum
SECT .        28                                       :Section
RANG .        78W                                      :Range
TOWN .        39N                                      :Township
#-----------------------------------------------------------------------------
~PARAMETER INFORMATION
#MNEM.UNIT    VALUE                      DESCRIPTION
#---- -----   --------------------       ------------------------
RUN  .          1                        :RUN NUMBER
PDAT .        GROUND LEVEL               :Permanent Datum
EPD  .F         5105.000000              :Elevation of Permanent Datum above Mean Sea Level
EPD  .F         5105.000000              :Elevation of tool zero above Mean Sea Level
LMF  .          KELLY BUSHING            :Logging Measured From (Name of Logging Elevation Reference)
APD  .                                   :Elevation of Depth Reference (LMF) above Permanent Datum
#-----------------------------------------------------------------------------
~CURVE INFORMATION
#MNEM.UNIT   API CODE                                  DESCRIPTION
#---- -----  --------                                  -----------------------
DEPT .F                                                :DEPTH (BOREHOLE) {F10.1}
BS   .IN                                               :Bit Size {F13.4}
TENS .LBF                                              :Cable Tension {F13.4}
IHV  .F3                                               :Integrated Hole Volume {F13.4}
ICV  .F3                                               :Integrated Cement Volume {F13.4}
RWA_HILT.OHMM                                          :HILT Apparent water resistivity {F13.4}
RT   .OHMM                                             :True Resistivity {F13.4}
SP   .MV                                               :Spontaneous Potential {F13.4}
GR   .GAPI                                             :Gamma-Ray {F13.4}
NPHI .CFCF                                             :Thermal Neutron Porosity (Ratio Method) {F13.4}
TNPH .CFCF                                             :Thermal Neutron Porosity {F13.4}
NPOR .CFCF                                             :Enhanced Thermal Neutron Porosity {F13.4}
GDEV .DEG                                              :HGNS Deviation {F13.4}
HCAL .IN                                               :HRCC Cal. Caliper {F13.4}
HDRA .G/C3                                             :HRDD Density Correction {F13.4}
RHOZ .G/C3                                             :HRDD Standard Resolution Formation Density {F13.4}
HMIN .OHMM                                             :MCFL Micro Inverse Resistivity {F13.4}
HMNO .OHMM                                             :MCFL Micro Normal Resistivity {F13.4}
RXOZ .OHMM                                             :MCFL Standard Resolution Invaded Zone Resistivity {F13.4}
AHOCO60.MM/M                                           :Array Induction One Foot Conductivity A60 {F13.4}
AHOCO90.MM/M                                           :Array Induction One Foot Conductivity A90 {F13.4}
AHTCO60.MM/M                                           :Array Induction Two Foot Conductivity A60 {F13.4}
AHTCO90.MM/M                                           :Array Induction Two Foot Conductivity A90 {F13.4}
AHFCO60.MM/M                                           :Array Induction Four Foot Conductivity A60 {F13.4}
AHFCO90.MM/M                                           :Array Induction Four Foot Conductivity A90 {F13.4}
AHO10.OHMM                                             :Array Induction One Foot Resistivity A10 {F13.4}
AHO20.OHMM                                             :Array Induction One Foot Resistivity A20 {F13.4}
AHO30.OHMM                                             :Array Induction One Foot Resistivity A30 {F13.4}
AHO60.OHMM                                             :Array Induction One Foot Resistivity A60 {F13.4}
AHO90.OHMM                                             :Array Induction One Foot Resistivity A90 {F13.4}
AHT10.OHMM                                             :Array Induction Two Foot Resistivity A10 {F13.4}
AHT20.OHMM                                             :Array Induction Two Foot Resistivity A20 {F13.4}
AHT30.OHMM                                             :Array Induction Two Foot Resistivity A30 {F13.4}
AHT60.OHMM                                             :Array Induction Two Foot Resistivity A60 {F13.4}
AHT90.OHMM                                             :Array Induction Two Foot Resistivity A90 {F13.4}
AHF10.OHMM                                             :Array Induction Four Foot Resistivity A10 {F13.4}
AHF20.OHMM                                             :Array Induction Four Foot Resistivity A20 {F13.4}
AHF30.OHMM                                             :Array Induction Four Foot Resistivity A30 {F13.4}
AHF60.OHMM                                             :Array Induction Four Foot Resistivity A60 {F13.4}
AHF90.OHMM                                             :Array Induction Four Foot Resistivity A90 {F13.4}
RLA5_UNCORR.OHMM                                       :HRLT Shallow Uncorrected Resistivity 5 {F13.4}
RLA4_UNCORR.OHMM                                       :HRLT Shallow Uncorrected Resistivity 4 {F13.4}
RLA3_UNCORR.OHMM                                       :HRLT Shallow Uncorrected Resistivity 3 {F13.4}
RLA2_UNCORR.OHMM                                       :HRLT Shallow Uncorrected Resistivity 2 {F13.4}
RLA1_UNCORR.OHMM                                       :HRLT Shallow Uncorrected Resistivity 1 {F13.4}
RLA0_UNCORR.OHMM                                       :HRLT Shallow Uncorrected Resistivity 0 {F13.4}
RLA5 .OHMM                                             :HRLT Borehole Corrected Resistivity 5 {F13.4}
RLA4 .OHMM                                             :HRLT Borehole Corrected Resistivity 4 {F13.4}
RLA3 .OHMM                                             :HRLT Borehole Corrected Resistivity 3 {F13.4}
RLA2 .OHMM                                             :HRLT Borehole Corrected Resistivity 2 {F13.4}
RLA1 .OHMM                                             :HRLT Borehole Corrected Resistivity 1 {F13.4}
RLA0 .OHMM                                             :HRLT Borehole Corrected Resistivity 0 {F13.4}
RXO_HRLT.OHMM                                          :HRLT Computed Invaded Zone Resistivity {F13.4}
RT_HRLT.OHMM                                           :HRLT Computed True Resistivity {F13.4}
DT   .US/F                                             :Delta-T {F13.4}
TT4  .US                                               :Transit Time 4 {F13.4}
TT3  .US                                               :Transit Time 3 {F13.4}
TT2  .US                                               :Transit Time 2 {F13.4}
TT1  .US                                               :Transit Time 1 {F13.4}
SPHI .CFCF                                             :Sonic Porosity {F13.4}
#-----------------------------------------------------------------------------
# DEPT       
#     BS           TENS         IHV          ICV          RWA_HILT     RT           
#     SP           GR           NPHI         TNPH         NPOR         GDEV         
#     HCAL         HDRA         RHOZ         HMIN         HMNO         RXOZ         
#     AHOCO60      AHOCO90      AHTCO60      AHTCO90      AHFCO60      AHFCO90      
#     AHO10        AHO20        AHO30        AHO60        AHO90        AHT10        
#     AHT20        AHT30        AHT60        AHT90        AHF10        AHF20        
#     AHF30        AHF60        AHF90        RLA5_UNCORR  RLA4_UNCORR  RLA3_UNCORR  
#     RLA2_UNCORR  RLA1_UNCORR  RLA0_UNCORR  RLA5         RLA4         RLA3         
#     RLA2         RLA1         RLA0         RXO_HRLT     RT_HRLT      DT           
#     TT4          TT3          TT2          TT1          SPHI         
~A  
# ...
3815.0
      8.5000    2015.0000     216.7291      80.0343       0.1259       2.2950
   -191.2500     138.8096       0.4017       0.3932       0.3860       3.7050
      9.5149       0.0190       2.5517       3.2201       2.8439       3.9564
    437.7950     452.1067     427.3358     451.0091     429.7159     445.6439
      2.5387       2.4711       2.3525       2.2842       2.2119       2.5534
      2.4912       2.4031       2.3401       2.2173       2.5662       2.5038
      2.4060       2.3271       2.2439       2.9692       3.0963       3.1846
      3.2328       3.3701       0.4432       2.9234       3.0595       3.1381
      3.2031       3.4072       0.4432       4.1839       2.6094     101.0783
    490.7047     687.8945     477.9179     680.3610       0.3424
3814.0
      8.5000    2051.0000     217.2133      80.2513       0.1394       2.5771
   -191.0000     135.2143       0.3609       0.3971       0.3832       3.6323
      9.4343       0.0057       2.5623       3.5442       3.1302       4.4826
    418.6942     434.3406     396.5033     416.2573     392.5083     408.4444
      2.6759       2.6252       2.4968       2.3884       2.3023       2.7362
      2.6963       2.6008       2.5220       2.4024       2.8048       2.7457
      2.6332       2.5477       2.4483       3.2266       3.3828       3.4541
      3.5049       3.6372       0.4492       3.1864       3.3535       3.4151
      3.4855       3.6946       0.4492       4.5249       2.8817      98.9850
    483.8752     675.9570     475.0862     672.2564       0.3267
3813.0
      8.5000    2018.0000     217.6964      80.4671       0.1455       2.9523
   -191.0625     140.0052       0.3871       0.3826       0.3869       3.4782
      9.3883       0.0007       2.5844       4.2484       3.7527       5.3111
    352.4164     368.8164     342.3471     359.4403     351.1032     367.3345
      3.2734       3.1718       3.0125       2.8376       2.7114       3.2399
      3.1782       3.0265       2.9210       2.7821       3.1356       3.0825
      2.9456       2.8482       2.7223       3.4965       3.6591       3.7440
      3.8076       3.9545       0.4672       3.4615       3.6360       3.7124
      3.7982       4.0322       0.4672       4.9537       3.1008      96.2509
    475.5116     667.1001     468.6772     662.5438       0.3063
3812.0
      8.5000    2063.0000     218.1771      80.6806       0.1337       3.1563
   -190.6875     134.7279       0.3381       0.3425       0.3283       3.9645
      9.3653      -0.0005       2.5927       4.3540       3.8462       5.5041
    319.8958     336.2546     311.3314     326.6504     317.5683     332.7314
      3.5612       3.4975       3.3110       3.1260       2.9739       3.5450
      3.4759       3.3254       3.2120       3.0614       3.4656       3.4127
      3.2536       3.1489       3.0054       4.0397       4.1862       4.3082
      4.3701       4.5327       0.4963       4.0133       4.1730       4.2887
      4.3773       4.6448       0.4963       5.7192       3.6101      92.6071
    467.9344     656.1655     462.0331     653.2152       0.2790
3811.0
      8.5000    2037.0000     218.6502      80.8864       0.1486       3.4267
   -191.1875     134.3066       0.3300       0.3447       0.3437       3.4912
      9.2962      -0.0048       2.5861       4.1535       3.6687       5.3417
    316.4388     332.1482     298.4845     309.6915     292.5398     305.9117
      3.6260       3.4681       3.3213       3.1602       3.0107       3.7513
      3.6830       3.4954       3.3503       3.2290       3.7426       3.6991
      3.5221       3.4183       3.2689       4.1641       4.2969       4.4330
      4.5087       4.6984       0.4982       4.1369       4.2818       4.4114
      4.5141       4.8108       0.4982       5.9288       3.6778      91.5097
    457.8406     645.0437     454.1071     640.9941       0.2708
3810.0
      8.5000    2051.0000     219.1186      81.0876       0.1724       3.7822
   -190.7500     133.8189       0.3494       0.3572       0.3746       4.0596
      9.2502      -0.0033       2.5836       5.2207       4.6131       5.6701
    270.5756     285.0269     265.5592     274.7083     267.6424     277.5192
      4.0546       4.1867       3.9573       3.6958       3.5084       4.0465
      4.0847       3.9039       3.7656       3.6402       4.0480       4.0327
      3.8486       3.7363       3.6034       4.4970       4.6160       4.7902
      4.8929       5.1595       0.5097       4.4739       4.6051       4.7741
      4.9070       5.2945       0.5097       6.5026       3.8338      90.6853
    454.4637     629.4439     448.3962     626.5599       0.2647
3809.0
      8.5000    2034.0000     219.5818      81.2836       0.1578       4.3494
   -191.0000     138.7428       0.3069       0.3077       0.3062       3.6019
      9.2041       0.0011       2.5980       5.4690       4.8329       6.9323
    264.6548     277.5649     245.7893     251.6289     236.6555     244.7413
      4.0906       4.1670       4.0125       3.7785       3.6028       4.3551
      4.3358       4.1860       4.0685       3.9741       4.5204       4.5284
      4.3441       4.2256       4.0859       4.5741       4.6776       4.8824
      5.0298       5.3013       0.5169       4.5512       4.6652       4.8652
      5.0435       5.4341       0.5169       6.6774       3.8090      89.3046
    447.0742     623.6870     441.6421     617.6299       0.2543
3808.0
      8.5000    2067.0000     220.0375      81.4720       0.2171       5.6557
   -191.2500     129.6948       0.2819       0.3140       0.3031       3.7242
      9.1235      -0.0051       2.5859       6.8670       6.0723       8.5120
    204.8421     215.9886     198.3845     202.3737     198.1452     204.4276
      5.6285       5.4302       5.2236       4.8818       4.6299       5.4548
      5.4362       5.2287       5.0407       4.9414       5.3471       5.3839
      5.1928       5.0468       4.8917       5.3056       5.4225       5.6519
      5.8629       6.1078       0.5387       5.2952       5.4250       5.6528
      5.9015       6.2908       0.5387       7.8205       4.4502      86.4995
    439.5042     609.2850     434.8632     605.5977       0.2334
3807.0
      8.5000    2047.0000     220.4875      81.6548       0.2152       6.8396
   -191.3125     127.8272       0.3070       0.2874       0.2764       3.9301
      9.0545       0.0461       2.6170       4.4453       4.7354       7.3325
    158.5745     167.9568     156.0765     157.2297     160.1351     165.0871
      6.7339       7.1565       6.9204       6.3062       5.9539       6.5494
      6.8880       6.7099       6.4071       6.3601       6.5539       6.6366
      6.4151       6.2447       6.0574       6.2030       6.3691       6.6313
      6.8146       7.1481       0.5594       6.2043       6.3871       6.6512
      6.8773       7.3871       0.5594       9.1228       5.2110      83.0337
    427.8473     592.0082     421.1283     587.5596       0.2074
3806.0
      8.5000    2057.0000     220.9312      81.8312       0.2350      10.0334
   -191.6875     121.8520       0.2444       0.2415       0.2561       3.8858
      8.9969       0.0703       2.6263       8.6268       7.7946       9.2396
    140.5473     148.4240     126.4040     128.4992     126.0993     130.1111
      7.8316       7.6283       7.6215       7.1150       6.7375       8.3020
      8.2686       8.1350       7.9111       7.7821       8.2193       8.4196
      8.1442       7.9303       7.6857       8.4721       8.7246       9.0273
      9.1474       9.4863       0.5865       8.5021       8.7835       9.0990
      9.2760       9.8777       0.5865      12.2224       7.5006      79.6973
    414.8259     577.1661     408.9937     572.4176       0.1825
3805.0
      8.5000    2056.0000     221.3693      82.0021       0.2320      10.5592
   -191.4375     112.0713       0.2253       0.2282       0.2101       3.6099
      8.9508       0.0071       2.6120      14.7641      13.0878      17.2344
     77.8868      84.3522      86.6293      87.0329     103.9933     107.3472
     13.5193      15.2856      13.7347      12.8391      11.8551      11.7423
     13.0522      12.1365      11.5434      11.4899       9.7143      10.1682
      9.8164       9.6160       9.3156      11.2113      11.5269      11.9441
     12.0431      12.1996       0.6109      11.2692      11.6310      12.0775
     12.2533      12.7834       0.6109      15.8736      10.3809      75.8648
    405.3664     566.2620     401.4080     563.9970       0.1538
