~VERSION INFORMATION
VERS.           2.0   :CWLS Log ASCII Standard - VERSION 2.0
WRAP.           YES   :Multiple lines per depth step
PROD.  Schlumberger   :LAS Producer
PROG.  DLIS to ASCII 11C0-305                          :LAS Program name and version
CREA.        2004/04/13 17:44                          :LAS Creation date {YYYY/MM/DD hh:mm}
SOURCE.     AIT_TLD_MCFL_CNL_040PUP.DLIS               :DLIS File Name
FILE-ID.     AIT_TLD_MCFL_CNL_040PUP                   :File Identification Number
#--------------------------------------------------
~WELL INFORMATION
#MNEM.UNIT      DATA             DESCRIPTION
#---- ------ --------------   -----------------------------
STRT .F         4332.0       :START DEPTH     
STOP .F          453.0       :STOP DEPTH     
STEP .F           -1.0       :STEP     
NULL .          -999.25      :NULL VALUE
COMP .        DEPARTMENT OF ENERGY                     :COMPANY
WELL .        48X-28                                   :WELL
FLD  .        NAVAL PETROLEUM RESERVE #3               :FIELD
LOC  .        490' FSL, 2449' FWL                      :LOCATION
CNTY .        NATRONA                                  :COUNTY
STAT .        WYOMING                                  :STATE
CTRY .                                                 :COUNTRY
API  .        49-025-23195                             :API NUMBER
UWI  .                                                 :UNIQUE WELL ID
DATE .        15-Mar-2004                              :LOG DATE {DD-MMM-YYYY}
SRVC .        Schlumberger                             :SERVICE COMPANY
LATI .DEG                                              :LATITUDE
LONG .DEG                                              :LONGITUDE
GDAT .                                                 :GeoDetic Datum
SECT .        28                                       :Section
RANG .        78W                                      :Range
TOWN .        39N                                      :Township
#-----------------------------------------------------------------------------
~PARAMETER INFORMATION
#MNEM.UNIT    VALUE                      DESCRIPTION
#---- -----   --------------------       ------------------------
RUN  .          1                        :RUN NUMBER
PDAT .        GROUND LEVEL               :Permanent Datum
EPD  .F         5105.000000              :Elevation of Permanent Datum above Mean Sea Level
EPD  .F         5105.000000              :Elevation of tool zero above Mean Sea Level
LMF  .          KELLY BUSHING            :Logging Measured From (Name of Logging Elevation Reference)
APD  .                                   :Elevation of Depth Reference (LMF) above Permanent Datum
#-----------------------------------------------------------------------------
~CURVE INFORMATION
#MNEM.UNIT   API CODE                                  DESCRIPTION
#---- -----  --------                                  -----------------------
DEPT .F                                                :DEPTH (BOREHOLE) {F10.1}
BS   .IN                                               :Bit Size {F13.4}
TENS .LBF                                              :Cable Tension {F13.4}
IHV  .F3                                               :Integrated Hole Volume {F13.4}
ICV  .F3                                               :Integrated Cement Volume {F13.4}
RWA_HILT.OHMM                                          :HILT Apparent water resistivity {F13.4}
RT   .OHMM                                             :True Resistivity {F13.4}
SP   .MV                                               :Spontaneous Potential {F13.4}
GR   .GAPI                                             :Gamma-Ray {F13.4}
NPHI .CFCF                                             :Thermal Neutron Porosity (Ratio Method) {F13.4}
TNPH .CFCF                                             :Thermal Neutron Porosity {F13.4}
NPOR .CFCF                                             :Enhanced Thermal Neutron Porosity {F13.4}
GDEV .DEG                                              :HGNS Deviation {F13.4}
HCAL .IN                                               :HRCC Cal. Caliper {F13.4}
HDRA .G/C3                                             :HRDD Density Correction {F13.4}
RHOZ .G/C3                                             :HRDD Standard Resolution Formation Density {F13.4}
HMIN .OHMM                                             :MCFL Micro Inverse Resistivity {F13.4}
HMNO .OHMM                                             :MCFL Micro Normal Resistivity {F13.4}
RXOZ .OHMM                                             :MCFL Standard Resolution Invaded Zone Resistivity {F13.4}
AHOCO60.MM/M                                           :Array Induction One Foot Conductivity A60 {F13.4}
AHOCO90.MM/M                                           :Array Induction One Foot Conductivity A90 {F13.4}
AHTCO60.MM/M                                           :Array Induction Two Foot Conductivity A60 {F13.4}
AHTCO90.MM/M                                           :Array Induction Two Foot Conductivity A90 {F13.4}
AHFCO60.MM/M                                           :Array Induction Four Foot Conductivity A60 {F13.4}
AHFCO90.MM/M                                           :Array Induction Four Foot Conductivity A90 {F13.4}
AHO10.OHMM                                             :Array Induction One Foot Resistivity A10 {F13.4}
AHO20.OHMM                                             :Array Induction One Foot Resistivity A20 {F13.4}
AHO30.OHMM                                             :Array Induction One Foot Resistivity A30 {F13.4}
AHO60.OHMM                                             :Array Induction One Foot Resistivity A60 {F13.4}
AHO90.OHMM                                             :Array Induction One Foot Resistivity A90 {F13.4}
AHT10.OHMM                                             :Array Induction Two Foot Resistivity A10 {F13.4}
AHT20.OHMM                                             :Array Induction Two Foot Resistivity A20 {F13.4}
AHT30.OHMM                                             :Array Induction Two Foot Resistivity A30 {F13.4}
AHT60.OHMM                                             :Array Induction Two Foot Resistivity A60 {F13.4}
AHT90.OHMM                                             :Array Induction Two Foot Resistivity A90 {F13.4}
AHF10.OHMM                                             :Array Induction Four Foot Resistivity A10 {F13.4}
AHF20.OHMM                                             :Array Induction Four Foot Resistivity A20 {F13.4}
AHF30.OHMM                                             :Array Induction Four Foot Resistivity A30 {F13.4}
AHF60.OHMM                                             :Array Induction Four Foot Resistivity A60 {F13.4}
AHF90.OHMM                                             :Array Induction Four Foot Resistivity A90 {F13.4}
RLA5_UNCORR.OHMM                                       :HRLT Shallow Uncorrected Resistivity 5 {F13.4}
RLA4_UNCORR.OHMM                                       :HRLT Shallow Uncorrected Resistivity 4 {F13.4}
RLA3_UNCORR.OHMM                                       :HRLT Shallow Uncorrected Resistivity 3 {F13.4}
RLA2_UNCORR.OHMM                                       :HRLT Shallow Uncorrected Resistivity 2 {F13.4}
RLA1_UNCORR.OHMM                                       :HRLT Shallow Uncorrected Resistivity 1 {F13.4}
RLA0_UNCORR.OHMM                                       :HRLT Shallow Uncorrected Resistivity 0 {F13.4}
RLA5 .OHMM                                             :HRLT Borehole Corrected Resistivity 5 {F13.4}
RLA4 .OHMM                                             :HRLT Borehole Corrected Resistivity 4 {F13.4}
RLA3 .OHMM                                             :HRLT Borehole Corrected Resistivity 3 {F13.4}
RLA2 .OHMM                                             :HRLT Borehole Corrected Resistivity 2 {F13.4}
RLA1 .OHMM                                             :HRLT Borehole Corrected Resistivity 1 {F13.4}
RLA0 .OHMM                                             :HRLT Borehole Corrected Resistivity 0 {F13.4}
RXO_HRLT.OHMM                                          :HRLT Computed Invaded Zone Resistivity {F13.4}
RT_HRLT.OHMM                                           :HRLT Computed True Resistivity {F13.4}
DT   .US/F                                             :Delta-T {F13.4}
TT4  .US                                               :Transit Time 4 {F13.4}
TT3  .US                                               :Transit Time 3 {F13.4}
TT2  .US                                               :Transit Time 2 {F13.4}
TT1  .US                                               :Transit Time 1 {F13.4}
SPHI .CFCF                                             :Sonic Porosity {F13.4}
#-----------------------------------------------------------------------------
# DEPT       
#     BS           TENS         IHV          ICV          RWA_HILT     RT           
#     SP           GR           NPHI         TNPH         NPOR         GDEV         
#     HCAL         HDRA         RHOZ         HMIN         HMNO         RXOZ         
#     AHOCO60      AHOCO90      AHTCO60      AHTCO90      AHFCO60      AHFCO90      
#     AHO10        AHO20        AHO30        AHO60        AHO90        AHT10        
#     AHT20        AHT30        AHT60        AHT90        AHF10        AHF20        
#     AHF30        AHF60        AHF90        RLA5_UNCORR  RLA4_UNCORR  RLA3_UNCORR  
#     RLA2_UNCORR  RLA1_UNCORR  RLA0_UNCORR  RLA5         RLA4         RLA3         
#     RLA2         RLA1         RLA0         RXO_HRLT     RT_HRLT      DT           
#     TT4          TT3          TT2          TT1          SPHI         
~A  
# ...
977.0
      8.5000    1115.0000    1477.3481     582.2162       0.3501       8.0634
   -188.7500     119.6772       0.2990       0.3159       0.3166       3.3197
      9.2271      -0.0080       2.5341       6.2549       5.5260       7.9042
    127.6734     127.1387     129.0803     126.3061     128.6213     126.8429
      6.2037       6.6542       6.9959       7.8325       7.8654       6.2225
      6.7142       7.0825       7.7471       7.9173       6.2499       6.7405
      7.1037       7.7748       7.8838       7.8291       7.6971       7.7934
      7.6893       7.6774       0.7569       7.8164       7.6999       7.7880
      7.7247       7.8762       0.7569       7.7475       7.7608      99.2224
    472.2511     667.7289     469.7605     666.5914       0.3285
976.0
      8.5000    1101.0000    1477.8125     582.4134       0.3565       8.4828
   -188.2500     122.2622       0.2937       0.3037       0.2847       3.2242
      9.2271      -0.0112       2.5231       6.7169       5.9349       8.3933
    119.6010     119.0683     122.7388     120.6288     123.2302     121.5839
      6.5038       7.0475       7.4351       8.3611       8.3985       6.4819
      7.0307       7.4452       8.1474       8.2899       6.4839       7.0101
      7.3979       8.1149       8.2248       8.0768       7.8933       7.9969
      7.8525       7.8337       0.7611       8.0684       7.9014       7.9977
      7.8947       8.0457       0.7611       7.9584       7.9683      97.9306
    467.8567     662.8072     465.1192     662.5119       0.3189
975.0
      8.5000    1122.0000    1478.2769     582.6105       0.3628       8.6782
   -188.4375     108.8283       0.3021       0.3083       0.3296       3.3440
      9.2271      -0.0086       2.5359       6.9030       6.0995       8.5198
    114.6766     114.1434     117.3148     115.4150     118.9560     117.3315
      6.7781       7.3110       7.7175       8.7202       8.7609       6.7617
      7.3266       7.7616       8.5241       8.6644       6.6884       7.2465
      7.6544       8.4065       8.5229       8.4644       8.2800       8.3724
      8.2488       8.1613       0.7624       8.4641       8.2984       8.3856
      8.3072       8.4020       0.7624       8.3381       8.3685      96.1340
    463.9240     657.9761     461.6184     657.6530       0.3054
974.0
      8.5000    1080.0000    1478.7412     582.8077       0.3550       8.7383
   -187.6250     105.8121       0.2942       0.3054       0.2990       3.3191
      9.2271      -0.0061       2.5429       6.6743       5.8972       8.3433
    116.3891     115.8253     116.8996     115.4197     116.6490     115.0525
      6.7088       7.2831       7.6679       8.5919       8.6337       6.7822
      7.3436       7.7829       8.5543       8.6640       6.8089       7.3879
      7.8025       8.5727       8.6917       8.9238       8.7165       8.8203
      8.6456       8.5275       0.7705       8.9313       8.7454       8.8465
      8.7207       8.8018       0.7705       8.7460       8.8192      95.6836
    461.7542     653.1464     459.6617     651.9188       0.3020
973.0
      8.5000    1082.0000    1479.2067     583.0060       0.3869       8.9731
   -187.4375     102.8680       0.3161       0.3148       0.3044       3.3324
      9.2502      -0.0065       2.5353       6.9760       6.1642       8.6739
    113.6683     113.0843     115.0151     112.9624     114.7096     113.1731
      6.8342       7.4508       7.8575       8.7975       8.8430       6.9026
      7.5048       7.9378       8.6945       8.8525       6.9208       7.5217
      7.9390       8.7177       8.8360       8.6789       8.4669       8.5723
      8.4007       8.2870       0.7627       8.6848       8.4925       8.5939
      8.4688       8.5442       0.7627       8.4847       8.5703      95.5370
    460.3800     649.2712     457.7690     648.1754       0.3009
972.0
      8.5000    1118.0000    1479.6710     583.2031       0.3539       9.1213
   -187.6250     104.9595       0.2877       0.2915       0.2971       3.3935
      9.2271      -0.0069       2.5326       6.9294       6.1230       8.8672
    110.4315     109.8301     112.5579     110.4794     112.5001     111.0575
      6.9705       7.5593       8.0316       9.0554       9.1050       7.0649
      7.6521       8.0986       8.8843       9.0515       7.0451       7.6567
      8.0817       8.8889       9.0043       8.8500       8.6429       8.7103
      8.5731       8.4834       0.7664       8.8602       8.6737       8.7371
      8.6478       8.7553       0.7664       8.6748       8.7379      94.6180
    458.9249     646.5323     455.6916     645.1859       0.2941
971.0
      8.5000    1067.0000    1480.1335     583.3985       0.3436       9.2633
   -187.6250     102.4974       0.2771       0.2846       0.3089       3.3957
      9.2041      -0.0095       2.5368       7.1198       6.2915       8.9857
    108.3821     107.7707     110.8429     108.9914     110.8409     109.4688
      7.0346       7.7047       8.1544       9.2266       9.2790       7.1327
      7.7455       8.2104       9.0218       9.1750       7.1524       7.7706
      8.1977       9.0219       9.1350       9.0929       8.8436       8.9287
      8.7810       8.6745       0.7719       9.1053       8.8766       8.9589
      8.8600       8.9555       0.7719       8.8593       8.9619      94.1946
    456.5353     644.2364     453.2160     642.8795       0.2909
970.0
      8.5000    1072.0000    1480.5955     583.5933       0.3386       9.3136
   -187.8125     103.1417       0.2868       0.2866       0.2765       3.2384
      9.2041      -0.0068       2.5512       7.2638       6.4189       9.1560
    105.8179     105.2269     108.7000     106.5124     110.2692     108.8327
      7.3285       7.9444       8.3972       9.4502       9.5033       7.3029
      7.9413       8.3744       9.1996       9.3886       7.1984       7.8253
      8.2416       9.0687       9.1884       9.1463       8.9052       9.0098
      8.8463       8.7252       0.7710       9.1570       8.9366       9.0386
      8.9241       9.0046       0.7710       8.9283       9.0246      93.2925
    455.1768     642.0538     451.5782     640.7490       0.2842
969.0
      8.5000    1083.0000    1481.0558     583.7864       0.3307       9.0347
   -188.3125     102.1526       0.2931       0.2952       0.3138       3.2146
      9.1926      -0.0047       2.5682       7.1637       6.3303       9.2133
    111.4446     110.8694     112.4666     109.7590     111.0075     109.4698
      7.0434       7.6961       8.0508       8.9731       9.0196       7.1277
      7.7297       8.1249       8.8915       9.1109       7.1693       7.7977
      8.2018       9.0084       9.1349       9.3698       9.1200       9.2482
      9.0931       8.9612       0.7769       9.3851       9.1570       9.2840
      9.1799       9.2590       0.7769       9.1941       9.2581      93.4025
    454.3842     641.1976     450.9676     639.3726       0.2850
968.0
      8.5000    1055.0000    1481.5166     583.9800       0.3198       9.2192
   -188.3125     103.2564       0.2842       0.2820       0.2852       3.2512
      9.1811      -0.0069       2.5617       7.0246       6.2072       9.7040
    111.2944     110.7026     112.0371     109.4713     111.1149     109.5377
      7.0953       7.7893       8.1031       8.9852       9.0332       7.1141
      7.7471       8.1501       8.9256       9.1348       7.1539       7.7939
      8.2031       8.9997       9.1293       8.9294       8.7041       8.8146
      8.6911       8.6288       0.7671       8.9379       8.7312       8.8382
      8.7622       8.8939       0.7671       8.8054       8.8210      93.9282
    453.7521     639.8437     449.7299     638.4208       0.2889
967.0
      8.5000    1076.0000    1481.9752     584.1714       0.3308       9.3426
   -188.4375     108.8272       0.2675       0.2784       0.2704       3.3136
      9.1581      -0.0042       2.5429       7.1273       6.2981       9.4660
    107.7839     107.1653     110.5935     107.3962     110.1695     108.5408
      7.2457       7.8505       8.2572       9.2778       9.3314       7.2348
      7.8618       8.3067       9.0421       9.3113       7.2212       7.8482
      8.2730       9.0769       9.2131       9.0775       8.8531       8.9570
      8.8185       8.6869       0.7783       9.0864       8.8813       8.9817
      8.8909       8.9534       0.7783       8.9019       8.9681      93.4028
    454.0308     638.4942     450.5717     637.1555       0.2850
