~VERSION INFORMATION
VERS.           2.0   :CWLS Log ASCII Standard - VERSION 2.0
WRAP.           YES   :Multiple lines per depth step
PROD.  Schlumberger   :LAS Producer
PROG.  DLIS to ASCII 11C0-305                          :LAS Program name and version
CREA.        2004/04/13 17:44                          :LAS Creation date {YYYY/MM/DD hh:mm}
SOURCE.     AIT_TLD_MCFL_CNL_040PUP.DLIS               :DLIS File Name
FILE-ID.     AIT_TLD_MCFL_CNL_040PUP                   :File Identification Number
#--------------------------------------------------
~WELL INFORMATION
#MNEM.UNIT      DATA             DESCRIPTION
#---- ------ --------------   -----------------------------
STRT .F         4332.0       :START DEPTH     
STOP .F          453.0       :STOP DEPTH     
STEP .F           -1.0       :STEP     
NULL .          -999.25      :NULL VALUE
COMP .        DEPARTMENT OF ENERGY                     :COMPANY
WELL .        48X-28                                   :WELL
FLD  .        NAVAL PETROLEUM RESERVE #3               :FIELD
LOC  .        490' FSL, 2449' FWL                      :LOCATION
CNTY .        NATRONA                                  :COUNTY
STAT .        WYOMING                                  :STATE
CTRY .                                                 :COUNTRY
API  .        49-025-23195                             :API NUMBER
UWI  .                                                 :UNIQUE WELL ID
DATE .        15-Mar-2004                              :LOG DATE {DD-MMM-YYYY}
SRVC .        Schlumberger                             :SERVICE COMPANY
LATI .DEG                                              :LATITUDE
LONG .DEG                                              :LONGITUDE
GDAT .                                                 :GeoDetic Datum
SECT .        28                                       :Section
RANG .        78W                                      :Range
TOWN .        39N                                      :Township
#-----------------------------------------------------------------------------
~PARAMETER INFORMATION
#MNEM.UNIT    VALUE                      DESCRIPTION
#---- -----   --------------------       ------------------------
RUN  .          1                        :RUN NUMBER
PDAT .        GROUND LEVEL               :Permanent Datum
EPD  .F         5105.000000              :Elevation of Permanent Datum above Mean Sea Level
EPD  .F         5105.000000              :Elevation of tool zero above Mean Sea Level
LMF  .          KELLY BUSHING            :Logging Measured From (Name of Logging Elevation Reference)
APD  .                                   :Elevation of Depth Reference (LMF) above Permanent Datum
#-----------------------------------------------------------------------------
~CURVE INFORMATION
#MNEM.UNIT   API CODE                                  DESCRIPTION
#---- -----  --------                                  -----------------------
DEPT .F                                                :DEPTH (BOREHOLE) {F10.1}
BS   .IN                                               :Bit Size {F13.4}
TENS .LBF                                              :Cable Tension {F13.4}
IHV  .F3                                               :Integrated Hole Volume {F13.4}
ICV  .F3                                               :Integrated Cement Volume {F13.4}
RWA_HILT.OHMM                                          :HILT Apparent water resistivity {F13.4}
RT   .OHMM                                             :True Resistivity {F13.4}
SP   .MV                                               :Spontaneous Potential {F13.4}
GR   .GAPI                                             :Gamma-Ray {F13.4}
NPHI .CFCF                                             :Thermal Neutron Porosity (Ratio Method) {F13.4}
TNPH .CFCF                                             :Thermal Neutron Porosity {F13.4}
NPOR .CFCF                                             :Enhanced Thermal Neutron Porosity {F13.4}
GDEV .DEG                                              :HGNS Deviation {F13.4}
HCAL .IN                                               :HRCC Cal. Caliper {F13.4}
HDRA .G/C3                                             :HRDD Density Correction {F13.4}
RHOZ .G/C3                                             :HRDD Standard Resolution Formation Density {F13.4}
HMIN .OHMM                                             :MCFL Micro Inverse Resistivity {F13.4}
HMNO .OHMM                                             :MCFL Micro Normal Resistivity {F13.4}
RXOZ .OHMM                                             :MCFL Standard Resolution Invaded Zone Resistivity {F13.4}
AHOCO60.MM/M                                           :Array Induction One Foot Conductivity A60 {F13.4}
AHOCO90.MM/M                                           :Array Induction One Foot Conductivity A90 {F13.4}
AHTCO60.MM/M                                           :Array Induction Two Foot Conductivity A60 {F13.4}
AHTCO90.MM/M                                           :Array Induction Two Foot Conductivity A90 {F13.4}
AHFCO60.MM/M                                           :Array Induction Four Foot Conductivity A60 {F13.4}
AHFCO90.MM/M                                           :Array Induction Four Foot Conductivity A90 {F13.4}
AHO10.OHMM                                             :Array Induction One Foot Resistivity A10 {F13.4}
AHO20.OHMM                                             :Array Induction One Foot Resistivity A20 {F13.4}
AHO30.OHMM                                             :Array Induction One Foot Resistivity A30 {F13.4}
AHO60.OHMM                                             :Array Induction One Foot Resistivity A60 {F13.4}
AHO90.OHMM                                             :Array Induction One Foot Resistivity A90 {F13.4}
AHT10.OHMM                                             :Array Induction Two Foot Resistivity A10 {F13.4}
AHT20.OHMM                                             :Array Induction Two Foot Resistivity A20 {F13.4}
AHT30.OHMM                                             :Array Induction Two Foot Resistivity A30 {F13.4}
AHT60.OHMM                                             :Array Induction Two Foot Resistivity A60 {F13.4}
AHT90.OHMM                                             :Array Induction Two Foot Resistivity A90 {F13.4}
AHF10.OHMM                                             :Array Induction Four Foot Resistivity A10 {F13.4}
AHF20.OHMM                                             :Array Induction Four Foot Resistivity A20 {F13.4}
AHF30.OHMM                                             :Array Induction Four Foot Resistivity A30 {F13.4}
AHF60.OHMM                                             :Array Induction Four Foot Resistivity A60 {F13.4}
AHF90.OHMM                                             :Array Induction Four Foot Resistivity A90 {F13.4}
RLA5_UNCORR.OHMM                                       :HRLT Shallow Uncorrected Resistivity 5 {F13.4}
RLA4_UNCORR.OHMM                                       :HRLT Shallow Uncorrected Resistivity 4 {F13.4}
RLA3_UNCORR.OHMM                                       :HRLT Shallow Uncorrected Resistivity 3 {F13.4}
RLA2_UNCORR.OHMM                                       :HRLT Shallow Uncorrected Resistivity 2 {F13.4}
RLA1_UNCORR.OHMM                                       :HRLT Shallow Uncorrected Resistivity 1 {F13.4}
RLA0_UNCORR.OHMM                                       :HRLT Shallow Uncorrected Resistivity 0 {F13.4}
RLA5 .OHMM                                             :HRLT Borehole Corrected Resistivity 5 {F13.4}
RLA4 .OHMM                                             :HRLT Borehole Corrected Resistivity 4 {F13.4}
RLA3 .OHMM                                             :HRLT Borehole Corrected Resistivity 3 {F13.4}
RLA2 .OHMM                                             :HRLT Borehole Corrected Resistivity 2 {F13.4}
RLA1 .OHMM                                             :HRLT Borehole Corrected Resistivity 1 {F13.4}
RLA0 .OHMM                                             :HRLT Borehole Corrected Resistivity 0 {F13.4}
RXO_HRLT.OHMM                                          :HRLT Computed Invaded Zone Resistivity {F13.4}
RT_HRLT.OHMM                                           :HRLT Computed True Resistivity {F13.4}
DT   .US/F                                             :Delta-T {F13.4}
TT4  .US                                               :Transit Time 4 {F13.4}
TT3  .US                                               :Transit Time 3 {F13.4}
TT2  .US                                               :Transit Time 2 {F13.4}
TT1  .US                                               :Transit Time 1 {F13.4}
SPHI .CFCF                                             :Sonic Porosity {F13.4}
#-----------------------------------------------------------------------------
# DEPT       
#     BS           TENS         IHV          ICV          RWA_HILT     RT           
#     SP           GR           NPHI         TNPH         NPOR         GDEV         
#     HCAL         HDRA         RHOZ         HMIN         HMNO         RXOZ         
#     AHOCO60      AHOCO90      AHTCO60      AHTCO90      AHFCO60      AHFCO90      
#     AHO10        AHO20        AHO30        AHO60        AHO90        AHT10        
#     AHT20        AHT30        AHT60        AHT90        AHF10        AHF20        
#     AHF30        AHF60        AHF90        RLA5_UNCORR  RLA4_UNCORR  RLA3_UNCORR  
#     RLA2_UNCORR  RLA1_UNCORR  RLA0_UNCORR  RLA5         RLA4         RLA3         
#     RLA2         RLA1         RLA0         RXO_HRLT     RT_HRLT      DT           
#     TT4          TT3          TT2          TT1          SPHI         
~A  
# ...
3045.0
      8.5000    1756.0000     549.4537     206.9817       0.1263       4.7074
   -188.9375      98.6248       0.2399       0.2320       0.2341       3.5500
      8.8127      -0.0092       2.5285       5.3162       4.6971       6.6236
    207.4185     210.2874     211.1457     211.3255     204.4862     206.0559
      4.7384       4.8886       4.8070       4.8212       4.7554       4.7620
      4.8569       4.7748       4.7361       4.7320       4.9140       5.0221
      4.9410       4.8903       4.8531       5.4094       5.4853       5.6601
      5.7919       5.9825       0.5930       5.3651       5.4423       5.6044
      5.7575       6.0311       0.5930       7.5080       4.9511      83.3427
    418.5142     577.7587     415.6859     577.2097       0.2097
3044.0
      8.5000    1729.0000     549.8795     207.1402       0.1369       4.9295
   -189.2500     107.3525       0.2257       0.2339       0.2309       3.6501
      8.8357      -0.0087       2.5177       6.0998       5.3907       6.9050
    198.2633     201.0383     207.2895     206.7723     205.5388     206.2456
      4.9768       5.0589       5.0579       5.0438       4.9742       4.8786
      4.9465       4.9067       4.8242       4.8362       4.9262       4.9872
      4.9301       4.8653       4.8486       5.0317       5.1215       5.3061
      5.4035       5.6078       0.5779       4.9854       5.0761       5.2478
      5.3641       5.6436       0.5779       7.0153       4.5730      83.3266
    419.6195     580.2901     416.8659     579.9407       0.2096
3043.0
      8.5000    1773.0000     550.3052     207.2987       0.1282       4.9262
   -188.6250     109.0178       0.2281       0.2266       0.2223       3.6938
      8.8357      -0.0072       2.5218       6.1329       5.4200       7.3468
    193.5785     196.4384     201.4638     201.8701     204.2561     205.5497
      5.0937       5.0277       5.0866       5.1659       5.0907       5.0910
      5.0511       5.0307       4.9637       4.9537       5.0164       5.0074
      4.9567       4.8958       4.8650       5.5286       5.6457       5.8563
      5.9218       6.0904       0.5893       5.4893       5.6087       5.8077
      5.8948       6.1469       0.5893       7.6365       5.1326      82.4648
    418.0587     582.2474     414.2775     581.4329       0.2032
3042.0
      8.5000    1744.0000     550.7277     207.4540       0.1307       4.8581
   -188.5000     106.0811       0.2180       0.2284       0.2223       3.4808
      8.7897      -0.0088       2.5112       5.4149       4.7845       7.0773
    200.4652     203.4745     203.9698     205.3116     207.9852     209.2043
      4.9159       4.8687       4.8759       4.9884       4.9146       5.0664
      5.0046       4.9669       4.9027       4.8706       4.9668       4.9435
      4.8791       4.8080       4.7800       5.5933       5.7141       5.9237
      5.9785       6.1025       0.5907       5.5518       5.6747       5.8726
      5.9483       6.1557       0.5907       7.6009       5.2708      81.9913
    417.4101     584.1992     413.3671     583.5043       0.1996
3041.0
      8.5000    1776.0000     551.1502     207.6092       0.1414       4.2047
   -188.8750     113.8615       0.2465       0.2590       0.2600       3.6423
      8.8127      -0.0076       2.5101       6.2632       5.5355       7.0352
    204.4561     207.7090     216.7296     218.5797     219.0249     220.0484
      5.0477       5.0527       4.8951       4.8910       4.8144       4.7442
      4.7742       4.6972       4.6140       4.5750       4.7391       4.7228
      4.6489       4.5657       4.5445       5.2978       5.4286       5.6085
      5.6917       5.8390       0.5863       5.2539       5.3862       5.5535
      5.6563       5.8812       0.5863       7.3020       4.9268      82.6105
    419.5450     584.2503     416.9549     582.5168       0.2043
3040.0
      8.5000    1754.0000     551.5738     207.7655       0.1414       4.2420
   -188.7500     118.5033       0.2564       0.2556       0.2571       3.3597
      8.8127      -0.0026       2.5029       5.1564       4.5557       6.2287
    245.2159     248.6828     237.9465     237.8517     227.8093     228.3706
      4.2527       4.3711       4.1738       4.0780       4.0212       4.2386
      4.3540       4.2979       4.2026       4.2043       4.5021       4.5542
      4.4820       4.3896       4.3788       4.8759       4.9884       5.1499
      5.2251       5.4496       0.5781       4.8265       4.9394       5.0866
      5.1788       5.4718       0.5781       6.7665       4.4349      83.5571
    421.5143     580.6396     417.0128     579.4829       0.2113
3039.0
      8.5000    1765.0000     551.9963     207.9208       0.1348       4.6714
   -188.5625     111.1734       0.2325       0.2389       0.2474       3.7568
      8.7897      -0.0071       2.5175       6.0301       5.3289       6.8419
    231.9767     235.4963     226.7915     224.8405     223.5092     223.6173
      4.3727       4.4422       4.3508       4.3108       4.2464       4.5737
      4.6203       4.5399       4.4093       4.4476       4.6208       4.6433
      4.5759       4.4741       4.4719       4.8151       4.9283       5.0875
      5.1726       5.3714       0.5716       4.7598       4.8725       5.0161
      5.1172       5.3794       0.5716       6.6588       4.3985      82.8194
    418.5810     580.9792     414.9598     580.1346       0.2058
3038.0
      8.5000    1733.0000     552.4177     208.0749       0.1316       4.8770
   -188.9375     110.3633       0.2233       0.2305       0.2181       3.4787
      8.7897      -0.0001       2.5190       5.5832       4.9334       6.8831
    202.3800     205.9591     208.8415     207.5997     212.9846     212.9902
      5.0985       4.9079       4.9174       4.9412       4.8553       4.9735
      4.9497       4.9085       4.7883       4.8170       4.8763       4.8545
      4.7999       4.6952       4.6951       5.3685       5.4914       5.6594
      5.7366       5.8670       0.5888       5.3223       5.4459       5.5998
      5.6957       5.8988       0.5888       7.2507       5.0605      81.1122
    414.6178     580.5881     410.3990     580.9957       0.1931
3037.0
      8.5000    1776.0000     552.8369     208.2268       0.1340       5.0222
   -188.8125     113.8654       0.2344       0.2320       0.2254       3.7869
      8.7667      -0.0062       2.5315       6.1303       5.4177       7.4025
    196.0730     199.7900     203.4176     202.7316     205.6122     205.8441
      5.0886       4.9879       4.9644       5.1001       5.0053       5.0997
      5.0080       4.9975       4.9160       4.9326       5.0492       4.9998
      4.9562       4.8635       4.8580       5.3646       5.4843       5.6512
      5.6806       5.8147       0.5825       5.3191       5.4394       5.5926
      5.6402       5.8461       0.5825       7.0859       5.1186      80.9106
    412.2507     576.4290     408.8031     575.0272       0.1916
3036.0
      8.5000    1765.0000     553.2571     208.3798       0.1229       4.9408
   -189.1250     104.9636       0.2195       0.2218       0.2168       3.4811
      8.7897      -0.0080       2.5252       5.1001       4.5059       7.3276
    208.5518     212.3120     200.2770     200.2456     202.3551     202.8822
      4.7767       4.7892       4.7827       4.7950       4.7100       5.0981
      5.0726       5.0310       4.9931       4.9939       5.0864       5.0691
      5.0279       4.9418       4.9290       5.5347       5.6608       5.8160
      5.8360       5.9242       0.5877       5.4915       5.6188       5.7610
      5.7994       5.9623       0.5877       7.0806       5.3709      81.7438
    414.4629     575.1626     410.9226     573.8474       0.1978
3035.0
      8.5000    1744.0000     553.6780     208.5334       0.1173       4.8846
   -189.1875      97.5248       0.2172       0.2155       0.2181       3.5407
      8.7897      -0.0053       2.5133       5.1647       4.5631       6.4738
    192.6384     196.3794     203.0711     202.0372     202.5211     203.0574
      5.4755       5.3962       5.2462       5.1911       5.0922       5.0741
      5.0719       5.0397       4.9244       4.9496       5.0574       5.0819
      5.0284       4.9378       4.9247       5.1642       5.2912       5.4164
      5.4481       5.5708       0.5778       5.1190       5.2467       5.3578
      5.4067       5.5971       0.5778       6.6961       4.9689      80.8794
    416.2195     576.7252     413.6528     575.9196       0.1913
