~VERSION INFORMATION
VERS.           2.0   :CWLS Log ASCII Standard - VERSION 2.0
WRAP.           YES   :Multiple lines per depth step
PROD.  Schlumberger   :LAS Producer
PROG.  DLIS to ASCII 11C0-305                          :LAS Program name and version
CREA.        2004/04/13 17:44                          :LAS Creation date {YYYY/MM/DD hh:mm}
SOURCE.     AIT_TLD_MCFL_CNL_040PUP.DLIS               :DLIS File Name
FILE-ID.     AIT_TLD_MCFL_CNL_040PUP                   :File Identification Number
#--------------------------------------------------
~WELL INFORMATION
#MNEM.UNIT      DATA             DESCRIPTION
#---- ------ --------------   -----------------------------
STRT .F         4332.0       :START DEPTH     
STOP .F          453.0       :STOP DEPTH     
STEP .F           -1.0       :STEP     
NULL .          -999.25      :NULL VALUE
COMP .        DEPARTMENT OF ENERGY                     :COMPANY
WELL .        48X-28                                   :WELL
FLD  .        NAVAL PETROLEUM RESERVE #3               :FIELD
LOC  .        490' FSL, 2449' FWL                      :LOCATION
CNTY .        NATRONA                                  :COUNTY
STAT .        WYOMING                                  :STATE
CTRY .                                                 :COUNTRY
API  .        49-025-23195                             :API NUMBER
UWI  .                                                 :UNIQUE WELL ID
DATE .        15-Mar-2004                              :LOG DATE {DD-MMM-YYYY}
SRVC .        Schlumberger                             :SERVICE COMPANY
LATI .DEG                                              :LATITUDE
LONG .DEG                                              :LONGITUDE
GDAT .                                                 :GeoDetic Datum
SECT .        28                                       :Section
RANG .        78W                                      :Range
TOWN .        39N                                      :Township
#-----------------------------------------------------------------------------
~PARAMETER INFORMATION
#MNEM.UNIT    VALUE                      DESCRIPTION
#---- -----   --------------------       ------------------------
RUN  .          1                        :RUN NUMBER
PDAT .        GROUND LEVEL               :Permanent Datum
EPD  .F         5105.000000              :Elevation of Permanent Datum above Mean Sea Level
EPD  .F         5105.000000              :Elevation of tool zero above Mean Sea Level
LMF  .          KELLY BUSHING            :Logging Measured From (Name of Logging Elevation Reference)
APD  .                                   :Elevation of Depth Reference (LMF) above Permanent Datum
#-----------------------------------------------------------------------------
~CURVE INFORMATION
#MNEM.UNIT   API CODE                                  DESCRIPTION
#---- -----  --------                                  -----------------------
DEPT .F                                                :DEPTH (BOREHOLE) {F10.1}
BS   .IN                                               :Bit Size {F13.4}
TENS .LBF                                              :Cable Tension {F13.4}
IHV  .F3                                               :Integrated Hole Volume {F13.4}
ICV  .F3                                               :Integrated Cement Volume {F13.4}
RWA_HILT.OHMM                                          :HILT Apparent water resistivity {F13.4}
RT   .OHMM                                             :True Resistivity {F13.4}
SP   .MV                                               :Spontaneous Potential {F13.4}
GR   .GAPI                                             :Gamma-Ray {F13.4}
NPHI .CFCF                                             :Thermal Neutron Porosity (Ratio Method) {F13.4}
TNPH .CFCF                                             :Thermal Neutron Porosity {F13.4}
NPOR .CFCF                                             :Enhanced Thermal Neutron Porosity {F13.4}
GDEV .DEG                                              :HGNS Deviation {F13.4}
HCAL .IN                                               :HRCC Cal. Caliper {F13.4}
HDRA .G/C3                                             :HRDD Density Correction {F13.4}
RHOZ .G/C3                                             :HRDD Standard Resolution Formation Density {F13.4}
HMIN .OHMM                                             :MCFL Micro Inverse Resistivity {F13.4}
HMNO .OHMM                                             :MCFL Micro Normal Resistivity {F13.4}
RXOZ .OHMM                                             :MCFL Standard Resolution Invaded Zone Resistivity {F13.4}
AHOCO60.MM/M                                           :Array Induction One Foot Conductivity A60 {F13.4}
AHOCO90.MM/M                                           :Array Induction One Foot Conductivity A90 {F13.4}
AHTCO60.MM/M                                           :Array Induction Two Foot Conductivity A60 {F13.4}
AHTCO90.MM/M                                           :Array Induction Two Foot Conductivity A90 {F13.4}
AHFCO60.MM/M                                           :Array Induction Four Foot Conductivity A60 {F13.4}
AHFCO90.MM/M                                           :Array Induction Four Foot Conductivity A90 {F13.4}
AHO10.OHMM                                             :Array Induction One Foot Resistivity A10 {F13.4}
AHO20.OHMM                                             :Array Induction One Foot Resistivity A20 {F13.4}
AHO30.OHMM                                             :Array Induction One Foot Resistivity A30 {F13.4}
AHO60.OHMM                                             :Array Induction One Foot Resistivity A60 {F13.4}
AHO90.OHMM                                             :Array Induction One Foot Resistivity A90 {F13.4}
AHT10.OHMM                                             :Array Induction Two Foot Resistivity A10 {F13.4}
AHT20.OHMM                                             :Array Induction Two Foot Resistivity A20 {F13.4}
AHT30.OHMM                                             :Array Induction Two Foot Resistivity A30 {F13.4}
AHT60.OHMM                                             :Array Induction Two Foot Resistivity A60 {F13.4}
AHT90.OHMM                                             :Array Induction Two Foot Resistivity A90 {F13.4}
AHF10.OHMM                                             :Array Induction Four Foot Resistivity A10 {F13.4}
AHF20.OHMM                                             :Array Induction Four Foot Resistivity A20 {F13.4}
AHF30.OHMM                                             :Array Induction Four Foot Resistivity A30 {F13.4}
AHF60.OHMM                                             :Array Induction Four Foot Resistivity A60 {F13.4}
AHF90.OHMM                                             :Array Induction Four Foot Resistivity A90 {F13.4}
RLA5_UNCORR.OHMM                                       :HRLT Shallow Uncorrected Resistivity 5 {F13.4}
RLA4_UNCORR.OHMM                                       :HRLT Shallow Uncorrected Resistivity 4 {F13.4}
RLA3_UNCORR.OHMM                                       :HRLT Shallow Uncorrected Resistivity 3 {F13.4}
RLA2_UNCORR.OHMM                                       :HRLT Shallow Uncorrected Resistivity 2 {F13.4}
RLA1_UNCORR.OHMM                                       :HRLT Shallow Uncorrected Resistivity 1 {F13.4}
RLA0_UNCORR.OHMM                                       :HRLT Shallow Uncorrected Resistivity 0 {F13.4}
RLA5 .OHMM                                             :HRLT Borehole Corrected Resistivity 5 {F13.4}
RLA4 .OHMM                                             :HRLT Borehole Corrected Resistivity 4 {F13.4}
RLA3 .OHMM                                             :HRLT Borehole Corrected Resistivity 3 {F13.4}
RLA2 .OHMM                                             :HRLT Borehole Corrected Resistivity 2 {F13.4}
RLA1 .OHMM                                             :HRLT Borehole Corrected Resistivity 1 {F13.4}
RLA0 .OHMM                                             :HRLT Borehole Corrected Resistivity 0 {F13.4}
RXO_HRLT.OHMM                                          :HRLT Computed Invaded Zone Resistivity {F13.4}
RT_HRLT.OHMM                                           :HRLT Computed True Resistivity {F13.4}
DT   .US/F                                             :Delta-T {F13.4}
TT4  .US                                               :Transit Time 4 {F13.4}
TT3  .US                                               :Transit Time 3 {F13.4}
TT2  .US                                               :Transit Time 2 {F13.4}
TT1  .US                                               :Transit Time 1 {F13.4}
SPHI .CFCF                                             :Sonic Porosity {F13.4}
#-----------------------------------------------------------------------------
# DEPT       
#     BS           TENS         IHV          ICV          RWA_HILT     RT           
#     SP           GR           NPHI         TNPH         NPOR         GDEV         
#     HCAL         HDRA         RHOZ         HMIN         HMNO         RXOZ         
#     AHOCO60      AHOCO90      AHTCO60      AHTCO90      AHFCO60      AHFCO90      
#     AHO10        AHO20        AHO30        AHO60        AHO90        AHT10        
#     AHT20        AHT30        AHT60        AHT90        AHF10        AHF20        
#     AHF30        AHF60        AHF90        RLA5_UNCORR  RLA4_UNCORR  RLA3_UNCORR  
#     RLA2_UNCORR  RLA1_UNCORR  RLA0_UNCORR  RLA5         RLA4         RLA3         
#     RLA2         RLA1         RLA0         RXO_HRLT     RT_HRLT      DT           
#     TT4          TT3          TT2          TT1          SPHI         
~A  
# ...
2528.0
      8.5000    1594.0000     774.0922     293.4531       0.2043      10.9719
   -193.6250     102.1189       0.1837       0.1912       0.1823       3.4317
      9.0890      -0.0051       2.5229      15.0964      13.3780      15.1512
     62.5937      64.1361      77.3283      79.9061      87.7633      90.3544
     14.1754      15.6863      15.7446      15.9760      15.5918      11.5421
     12.3833      12.6269      12.9319      12.5147      10.3807      11.2253
     11.2812      11.3943      11.0675      12.3226      12.2433      12.6329
     12.6634      12.8027       0.7036      12.3902      12.3652      12.7889
     12.9135      13.5176       0.7036      16.0548      11.8515      73.8182
    398.4043     553.9966     395.1047     551.3681       0.1385
2527.0
      8.5000    1588.0000     774.5484     293.6422       0.2158       9.1191
   -193.1250     102.9162       0.2030       0.2125       0.2332       3.3769
      9.1581      -0.0062       2.5059       8.4041       7.4333      11.4226
    109.7437     111.9275     105.0962     106.7669      97.0558      99.3011
      8.5244       8.8662       8.9834       9.1121       8.9344       9.1059
      9.5939       9.5188       9.5151       9.3662       9.5374      10.2354
     10.2481      10.3034      10.0704      14.3526      14.1876      14.6161
     14.5692      14.4278       0.7169      14.4452      14.3505      14.8251
     14.8907      15.3038       0.7169      16.9679      14.3009      76.2142
    402.6599     552.8221     399.3623     550.6200       0.1564
2526.0
      8.5000    1588.0000     775.0070     293.8335       0.2138       9.5524
   -192.4375     100.8807       0.2051       0.2108       0.2130       3.3383
      9.1811      -0.0062       2.5299       9.8864       8.7484      12.1489
    104.4327     106.6053     107.3564     108.8346     103.6845     105.5604
      8.9262       9.6491       9.5010       9.5755       9.3804       8.6894
      9.2686       9.3187       9.3148       9.1883       9.0239       9.6318
      9.6251       9.6446       9.4732       9.2514       9.2985       9.5468
      9.6391       9.8125       0.6557       9.2918       9.3741       9.6372
      9.7988      10.2787       0.6557      12.4932       8.7389      77.8996
    405.2964     553.8505     401.3754     553.5018       0.1690
2525.0
      8.5000    1614.0000     775.4644     294.0237       0.1887      10.0284
   -192.8125     103.4082       0.1930       0.1980       0.1955       3.3047
      9.1581      -0.0012       2.5597      10.5171       9.3086      12.8834
    100.7617     102.9633     102.0781     103.4344     103.7055     105.6525
      8.9798       9.5527       9.6792       9.9244       9.7122       9.0628
      9.7896       9.8129       9.7964       9.6680       9.0364       9.6447
      9.6296       9.6427       9.4650      10.2999      10.4406      10.7126
     10.7166      10.7425       0.6612      10.3545      10.5399      10.8339
     10.9153      11.2909       0.6612      13.4451      10.0120      77.0623
    407.4763     557.0544     402.3498     554.3718       0.1628
2524.0
      8.5000    1582.0000     775.9218     294.2139       0.2093       9.1408
   -193.1250     111.1171       0.2008       0.2172       0.2136       3.4797
      9.1581      -0.0025       2.5487       9.5456       8.4457      12.5270
    106.2312     108.4713     103.3576     104.8870     105.1039     106.8113
      8.9702       9.4428       9.2056       9.4134       9.2190       9.2620
      9.7361       9.7105       9.6752       9.5341       8.9738       9.5256
      9.5245       9.5144       9.3623      11.4955      11.5993      12.0017
     11.8967      11.3685       0.6727      11.5613      11.7188      12.1523
     12.1328      11.9727       0.6727      12.6889      11.7862      76.8385
    407.3379     562.9130     400.6591     559.1978       0.1611
2523.0
      8.5000    1628.0000     776.3803     294.4052       0.1897       8.4267
   -192.7500     116.4459       0.2124       0.2161       0.2208       3.3814
      9.1811      -0.0033       2.5533       8.3973       7.4273      10.8842
    110.8640     113.1423     111.0388     112.9023     109.0474     111.1048
      8.9066       9.1228       8.8814       9.0201       8.8384       8.6532
      9.0069       9.0042       9.0059       8.8572       8.7181       9.1629
      9.1619       9.1703       9.0005      10.0288      10.1408      10.4787
     10.3428      10.3056       0.6602      10.0807      10.2362      10.5972
     10.5322      10.8268       0.6602      12.4497       9.9465      77.4081
    408.8335     561.9103     401.7400     557.4232       0.1654
2522.0
      8.5000    1573.0000     776.8400     294.5977       0.2015       8.9915
   -193.0625     105.7827       0.2050       0.2162       0.2156       3.2848
      9.1811      -0.0056       2.5558       9.7532       8.6300      11.2550
    114.0489     116.3616     114.5531     116.6009     109.9673     112.1644
      8.2527       8.7719       8.7421       8.7682       8.5939       8.2783
      8.6691       8.6903       8.7296       8.5763       8.6013       9.0633
      9.0761       9.0936       8.9155       8.9426       9.0253       9.2318
      9.2842       9.4578       0.6487       8.9803       9.0978       9.3170
      9.4352       9.9024       0.6487      11.9393       8.5082      77.9135
    410.2343     560.3461     402.9963     555.1424       0.1691
2521.0
      8.5000    1637.0000     777.2997     294.7902       0.1795       9.8206
   -193.0625      93.6756       0.1970       0.1903       0.1853       3.4844
      9.1811      -0.0095       2.5294      10.6713       9.4454      12.7582
    103.3290     105.6688     103.5003     105.3232     103.9060     106.3020
      9.5240       9.7490       9.6719       9.6778       9.4635       9.0109
      9.5385       9.6308       9.6618       9.4946       9.0425       9.5449
      9.5886       9.6241       9.4072      10.1737      10.2192      10.4007
     10.4567      10.5648       0.6610      10.2264      10.3133      10.5122
     10.6447      11.0950       0.6610      12.9853       9.8808      77.1647
    408.9431     559.2093     401.1557     553.4011       0.1635
2520.0
      8.5000    1608.0000     777.7571     294.9804       0.1612      11.0854
   -193.3750      95.7645       0.1764       0.1713       0.1781       3.2937
      9.1581      -0.0086       2.5321      10.3146       9.1286      13.6594
    102.1532     104.6313      96.2706      97.4564      96.1781      98.4416
      9.2000       9.5821       9.6499       9.7892       9.5574       9.7083
     10.2738      10.3472      10.3874      10.2610       9.7311      10.2825
     10.3523      10.3974      10.1583      11.0057      10.9085      11.0966
     11.0489      10.9699       0.6667      11.0685      11.0168      11.2272
     11.2596      11.5460       0.6667      12.1966      11.0572      76.3602
    404.1584     557.3861     395.1422     552.8948       0.1575
2519.0
      8.5000    1601.0000     778.2169     295.1729       0.1585      11.0898
   -193.6875      98.0365       0.1607       0.1703       0.1570       3.3205
      9.1811      -0.0069       2.5353      11.7567      10.4094      14.6913
     77.5772      79.8307      85.2719      87.1853      90.6900      92.9167
     12.3178      12.8142      12.6501      12.8904      12.5265      10.8291
     11.5129      11.7256      11.7272      11.4698      10.2916      10.9089
     10.9691      11.0266      10.7623      11.1521      11.0717      11.2770
     11.1961      11.3490       0.6612      11.2221      11.1912      11.4222
     11.4232      11.9796       0.6612      13.3319      10.9983      74.6230
    402.7964     553.8777     394.5073     549.7269       0.1445
2518.0
      8.5000    1601.0000     778.6766     295.3654       0.2067      10.8120
   -194.1875      92.0448       0.1844       0.1907       0.1855       3.4730
      9.1811      -0.0092       2.5014      10.7886       9.5496      13.6183
     89.8646      92.2811      89.9431      91.7333      90.8961      93.1993
     10.0034      10.9864      10.9323      11.1278      10.8365      10.3645
     10.9953      11.0653      11.1181      10.9012      10.1979      10.8823
     10.9241      11.0016      10.7297      12.3923      12.1633      12.3807
     12.1768      12.1321       0.6727      12.4780      12.3067      12.5568
     12.4415      12.8389       0.6727      12.9460      12.4641      74.1902
    402.5797     554.5336     395.2895     549.6097       0.1413
