~VERSION INFORMATION
VERS.           2.0   :CWLS Log ASCII Standard - VERSION 2.0
WRAP.           YES   :Multiple lines per depth step
PROD.  Schlumberger   :LAS Producer
PROG.  DLIS to ASCII 11C0-305                          :LAS Program name and version
CREA.        2004/04/13 17:44                          :LAS Creation date {YYYY/MM/DD hh:mm}
SOURCE.     AIT_TLD_MCFL_CNL_040PUP.DLIS               :DLIS File Name
FILE-ID.     AIT_TLD_MCFL_CNL_040PUP                   :File Identification Number
#--------------------------------------------------
~WELL INFORMATION
#MNEM.UNIT      DATA             DESCRIPTION
#---- ------ --------------   -----------------------------
STRT .F         4332.0       :START DEPTH     
STOP .F          453.0       :STOP DEPTH     
STEP .F           -1.0       :STEP     
NULL .          -999.25      :NULL VALUE
COMP .        DEPARTMENT OF ENERGY                     :COMPANY
WELL .        48X-28                                   :WELL
FLD  .        NAVAL PETROLEUM RESERVE #3               :FIELD
LOC  .        490' FSL, 2449' FWL                      :LOCATION
CNTY .        NATRONA                                  :COUNTY
STAT .        WYOMING                                  :STATE
CTRY .                                                 :COUNTRY
API  .        49-025-23195                             :API NUMBER
UWI  .                                                 :UNIQUE WELL ID
DATE .        15-Mar-2004                              :LOG DATE {DD-MMM-YYYY}
SRVC .        Schlumberger                             :SERVICE COMPANY
LATI .DEG                                              :LATITUDE
LONG .DEG                                              :LONGITUDE
GDAT .                                                 :GeoDetic Datum
SECT .        28                                       :Section
RANG .        78W                                      :Range
TOWN .        39N                                      :Township
#-----------------------------------------------------------------------------
~PARAMETER INFORMATION
#MNEM.UNIT    VALUE                      DESCRIPTION
#---- -----   --------------------       ------------------------
RUN  .          1                        :RUN NUMBER
PDAT .        GROUND LEVEL               :Permanent Datum
EPD  .F         5105.000000              :Elevation of Permanent Datum above Mean Sea Level
EPD  .F         5105.000000              :Elevation of tool zero above Mean Sea Level
LMF  .          KELLY BUSHING            :Logging Measured From (Name of Logging Elevation Reference)
APD  .                                   :Elevation of Depth Reference (LMF) above Permanent Datum
#-----------------------------------------------------------------------------
~CURVE INFORMATION
#MNEM.UNIT   API CODE                                  DESCRIPTION
#---- -----  --------                                  -----------------------
DEPT .F                                                :DEPTH (BOREHOLE) {F10.1}
BS   .IN                                               :Bit Size {F13.4}
TENS .LBF                                              :Cable Tension {F13.4}
IHV  .F3                                               :Integrated Hole Volume {F13.4}
ICV  .F3                                               :Integrated Cement Volume {F13.4}
RWA_HILT.OHMM                                          :HILT Apparent water resistivity {F13.4}
RT   .OHMM                                             :True Resistivity {F13.4}
SP   .MV                                               :Spontaneous Potential {F13.4}
GR   .GAPI                                             :Gamma-Ray {F13.4}
NPHI .CFCF                                             :Thermal Neutron Porosity (Ratio Method) {F13.4}
TNPH .CFCF                                             :Thermal Neutron Porosity {F13.4}
NPOR .CFCF                                             :Enhanced Thermal Neutron Porosity {F13.4}
GDEV .DEG                                              :HGNS Deviation {F13.4}
HCAL .IN                                               :HRCC Cal. Caliper {F13.4}
HDRA .G/C3                                             :HRDD Density Correction {F13.4}
RHOZ .G/C3                                             :HRDD Standard Resolution Formation Density {F13.4}
HMIN .OHMM                                             :MCFL Micro Inverse Resistivity {F13.4}
HMNO .OHMM                                             :MCFL Micro Normal Resistivity {F13.4}
RXOZ .OHMM                                             :MCFL Standard Resolution Invaded Zone Resistivity {F13.4}
AHOCO60.MM/M                                           :Array Induction One Foot Conductivity A60 {F13.4}
AHOCO90.MM/M                                           :Array Induction One Foot Conductivity A90 {F13.4}
AHTCO60.MM/M                                           :Array Induction Two Foot Conductivity A60 {F13.4}
AHTCO90.MM/M                                           :Array Induction Two Foot Conductivity A90 {F13.4}
AHFCO60.MM/M                                           :Array Induction Four Foot Conductivity A60 {F13.4}
AHFCO90.MM/M                                           :Array Induction Four Foot Conductivity A90 {F13.4}
AHO10.OHMM                                             :Array Induction One Foot Resistivity A10 {F13.4}
AHO20.OHMM                                             :Array Induction One Foot Resistivity A20 {F13.4}
AHO30.OHMM                                             :Array Induction One Foot Resistivity A30 {F13.4}
AHO60.OHMM                                             :Array Induction One Foot Resistivity A60 {F13.4}
AHO90.OHMM                                             :Array Induction One Foot Resistivity A90 {F13.4}
AHT10.OHMM                                             :Array Induction Two Foot Resistivity A10 {F13.4}
AHT20.OHMM                                             :Array Induction Two Foot Resistivity A20 {F13.4}
AHT30.OHMM                                             :Array Induction Two Foot Resistivity A30 {F13.4}
AHT60.OHMM                                             :Array Induction Two Foot Resistivity A60 {F13.4}
AHT90.OHMM                                             :Array Induction Two Foot Resistivity A90 {F13.4}
AHF10.OHMM                                             :Array Induction Four Foot Resistivity A10 {F13.4}
AHF20.OHMM                                             :Array Induction Four Foot Resistivity A20 {F13.4}
AHF30.OHMM                                             :Array Induction Four Foot Resistivity A30 {F13.4}
AHF60.OHMM                                             :Array Induction Four Foot Resistivity A60 {F13.4}
AHF90.OHMM                                             :Array Induction Four Foot Resistivity A90 {F13.4}
RLA5_UNCORR.OHMM                                       :HRLT Shallow Uncorrected Resistivity 5 {F13.4}
RLA4_UNCORR.OHMM                                       :HRLT Shallow Uncorrected Resistivity 4 {F13.4}
RLA3_UNCORR.OHMM                                       :HRLT Shallow Uncorrected Resistivity 3 {F13.4}
RLA2_UNCORR.OHMM                                       :HRLT Shallow Uncorrected Resistivity 2 {F13.4}
RLA1_UNCORR.OHMM                                       :HRLT Shallow Uncorrected Resistivity 1 {F13.4}
RLA0_UNCORR.OHMM                                       :HRLT Shallow Uncorrected Resistivity 0 {F13.4}
RLA5 .OHMM                                             :HRLT Borehole Corrected Resistivity 5 {F13.4}
RLA4 .OHMM                                             :HRLT Borehole Corrected Resistivity 4 {F13.4}
RLA3 .OHMM                                             :HRLT Borehole Corrected Resistivity 3 {F13.4}
RLA2 .OHMM                                             :HRLT Borehole Corrected Resistivity 2 {F13.4}
RLA1 .OHMM                                             :HRLT Borehole Corrected Resistivity 1 {F13.4}
RLA0 .OHMM                                             :HRLT Borehole Corrected Resistivity 0 {F13.4}
RXO_HRLT.OHMM                                          :HRLT Computed Invaded Zone Resistivity {F13.4}
RT_HRLT.OHMM                                           :HRLT Computed True Resistivity {F13.4}
DT   .US/F                                             :Delta-T {F13.4}
TT4  .US                                               :Transit Time 4 {F13.4}
TT3  .US                                               :Transit Time 3 {F13.4}
TT2  .US                                               :Transit Time 2 {F13.4}
TT1  .US                                               :Transit Time 1 {F13.4}
SPHI .CFCF                                             :Sonic Porosity {F13.4}
#-----------------------------------------------------------------------------
# DEPT       
#     BS           TENS         IHV          ICV          RWA_HILT     RT           
#     SP           GR           NPHI         TNPH         NPOR         GDEV         
#     HCAL         HDRA         RHOZ         HMIN         HMNO         RXOZ         
#     AHOCO60      AHOCO90      AHTCO60      AHTCO90      AHFCO60      AHFCO90      
#     AHO10        AHO20        AHO30        AHO60        AHO90        AHT10        
#     AHT20        AHT30        AHT60        AHT90        AHF10        AHF20        
#     AHF30        AHF60        AHF90        RLA5_UNCORR  RLA4_UNCORR  RLA3_UNCORR  
#     RLA2_UNCORR  RLA1_UNCORR  RLA0_UNCORR  RLA5         RLA4         RLA3         
#     RLA2         RLA1         RLA0         RXO_HRLT     RT_HRLT      DT           
#     TT4          TT3          TT2          TT1          SPHI         
~A  
# ...
3298.0
      8.5000    1844.0000     445.3930     170.5340       0.1624       3.6343
   -190.8750     166.9101       0.3053       0.3041       0.3241       3.2262
      8.5594      -0.0035       2.4940       4.4844       3.9612       5.6331
    238.3800     244.8214     260.1871     266.5171     271.2588     277.6349
      4.4148       4.1916       4.1566       4.1950       4.0846       4.2031
      4.0568       4.0082       3.8434       3.7521       4.0289       3.9042
      3.8237       3.6865       3.6019       4.1715       4.2787       4.4570
      4.5711       4.8050       0.5680       4.0994       4.1995       4.3584
      4.4803       4.7460       0.5680       5.9033       3.6350      89.7695
    449.6905     631.7949     448.1639     631.1755       0.2578
3297.0
      8.5000    1832.0000     445.7915     170.6653       0.1408       3.3269
   -191.4375     167.2316       0.3061       0.2959       0.3017       3.3448
      8.5364      -0.0059       2.5006       4.5293       4.0010       5.6866
    265.6366     271.9898     277.2998     286.8393     267.8719     277.0233
      4.0262       3.7709       3.7360       3.7645       3.6766       4.0627
      3.8230       3.7658       3.6062       3.4863       4.1263       3.9725
      3.8819       3.7331       3.6098       4.4214       4.5127       4.6686
      4.8178       5.0863       0.5730       4.3529       4.4368       4.5731
      4.7314       5.0362       0.5730       6.2485       3.8428      89.9416
    447.2514     619.4553     446.3911     600.1789       0.2591
3296.0
      8.5000    1863.0000     446.1900     170.7966       0.1171       4.0869
   -191.0000     136.5272       0.2992       0.2864       0.2876       3.1892
      8.5364       0.0090       2.6527       4.1771       3.6893       6.2469
    306.3004     312.4362     277.4673     289.1178     253.6398     263.2713
      3.4003       3.5007       3.4629       3.2648       3.2007       3.9781
      3.8689       3.7630       3.6040       3.4588       4.3674       4.2655
      4.1393       3.9426       3.7984       4.3231       4.4062       4.5677
      4.6549       4.9659       0.5763       4.2515       4.3263       4.4674
      4.5613       4.9044       0.5763       6.0281       3.7817      89.9595
    439.0947     586.1906     430.4658     590.4531       0.2592
3295.0
      8.5000    1864.0000     446.5821     170.9214       0.0703       4.5030
   -191.3125     105.1139       0.2770       0.2906       0.2736       3.1950
      8.4673       0.0356       2.8563      37.0835      32.9705      11.8492
    164.8493     171.7734     189.2986     199.3588     236.6286     245.9125
      8.3360       7.7759       6.7903       6.0661       5.8216       6.0433
      5.9822       5.7030       5.2827       5.0161       4.7380       4.6781
      4.4755       4.2260       4.0665       4.3555       4.4684       4.6216
      4.7218       4.9279       0.5785       4.2807       4.3851       4.5183
      4.6254       4.8614       0.5785       6.0275       3.9264      72.9003
    407.6428     592.0383     412.6822     596.1560       0.1316
3294.0
      8.5000    1806.0000     446.9806     171.0527       0.1408       3.5019
   -191.3125     138.7415       0.3170       0.3323       0.3374       3.4979
      8.5825       0.0124       2.5983       4.3394       3.8329       5.6612
    268.5445     275.5898     257.4286     267.2221     253.0656     260.5227
      4.0792       3.9825       3.8350       3.7238       3.6286       4.4949
      4.3203       4.0961       3.8846       3.7422       4.4622       4.3761
      4.1817       3.9515       3.8384       8.9001       9.1298       9.4535
      9.6385       9.9819       0.6691       8.8658       9.0958       9.4116
      9.6276      10.1045       0.6691      12.6308       8.0144      74.5767
    409.8869     593.3055     413.8653     597.1730       0.1442
3293.0
      8.5000    1824.0000     447.3823     171.1872       0.1746       3.4306
   -190.9375     162.5881       0.3392       0.3309       0.3285       3.1580
      8.5825      -0.0044       2.4885       4.5283       4.0000       5.6500
    280.5555     285.3187     288.2460     291.1682     275.9573     281.8173
      3.8836       3.7732       3.6005       3.5644       3.5049       3.8857
      3.7847       3.6296       3.4693       3.4344       4.0376       3.9532
      3.7843       3.6237       3.5484       4.1806       4.2852       4.4377
      4.5107       4.7093       0.5719       4.1052       4.2030       4.3353
      4.4155       4.6451       0.5719       5.7417       3.7906      92.1553
    422.6546     596.2897     435.0308     599.5741       0.2757
3292.0
      8.5000    1805.0000     447.7841     171.3217       0.1558       3.3991
   -190.9375     156.7177       0.3184       0.3077       0.3030       3.1718
      8.5825      -0.0052       2.4899       4.3263       3.8213       5.4222
    285.4795     286.4403     291.5044     289.4587     290.1934     294.3677
      3.8347       3.7645       3.6389       3.5029       3.4911       3.7842
      3.7124       3.5767       3.4305       3.4547       3.7712       3.7108
      3.5664       3.4460       3.3971       4.2379       4.3518       4.5041
      4.6025       4.9317       0.5769       4.1665       4.2740       4.4068
      4.5131       4.8802       0.5769       5.9924       3.6296      93.7363
    452.4643     611.0090     446.7393     623.6336       0.2875
3291.0
      8.5000    1837.0000     448.1858     171.4561       0.1545       3.3378
   -190.5625     167.4391       0.2833       0.3089       0.3010       3.0939
      8.5825      -0.0059       2.4876       4.2200       3.7272       5.3030
    304.0891     310.3077     297.4598     295.2531     295.7956     299.8646
      3.5089       3.4752       3.3846       3.2885       3.2226       3.6167
      3.5608       3.4479       3.3618       3.3869       3.6321       3.5833
      3.4668       3.3807       3.3348       4.0456       4.1742       4.3315
      4.4890       4.7096       0.5674       3.9718       4.0940       4.2316
      4.3973       4.6507       0.5674       5.8051       3.4570      94.8739
    453.3931     641.4497     447.0934     637.3385       0.2960
3290.0
      8.5000    1836.0000     448.5875     171.5906       0.1614       3.3050
   -190.5625     169.2855       0.3115       0.3172       0.3239       3.3846
      8.5825      -0.0102       2.4798       4.0963       3.6179       5.2359
    306.0298     313.8802     300.6699     301.3027     297.5236     303.1943
      3.5470       3.4759       3.3724       3.2677       3.1859       3.5250
      3.4652       3.3838       3.3259       3.3189       3.5575       3.5098
      3.4164       3.3611       3.2982       3.9027       4.0302       4.2211
      4.3241       4.5266       0.5617       3.8281       3.9494       4.1211
      4.2311       4.4629       0.5617       5.5781       3.3710      95.2347
    454.6236     642.2018     447.7818     638.5616       0.2987
3289.0
      8.5000    1823.0000     448.9893     171.7251       0.1644       3.3958
   -190.6250     166.8168       0.3073       0.3173       0.3135       3.1686
      8.5825      -0.0087       2.4845       4.2157       3.7234       5.3527
    298.1990     304.5115     295.1004     297.6779     294.8724     300.7943
      3.5741       3.5325       3.4428       3.3535       3.2839       3.5478
      3.4990       3.4218       3.3887       3.3593       3.5653       3.5158
      3.4329       3.3913       3.3245       3.8525       3.9946       4.1805
      4.2693       4.4835       0.5575       3.7775       3.9133       4.0798
      4.1750       4.4170       0.5575       5.5063       3.3214      94.8123
    454.7691     642.7023     447.6549     639.0455       0.2955
3288.0
      8.5000    1836.0000     449.3889     171.8575       0.1780       3.4416
   -190.5000     164.7614       0.3413       0.3301       0.3443       2.6039
      8.5594      -0.0050       2.4788       4.2296       3.7357       5.3552
    291.9919     297.6482     290.5448     293.0674     289.7646     294.4238
      3.6199       3.5385       3.4720       3.4248       3.3597       3.6077
      3.5447       3.4777       3.4418       3.4122       3.6190       3.5676
      3.4919       3.4511       3.3965       3.9811       4.1302       4.3009
      4.3797       4.5838       0.5604       3.9068       4.0495       4.2007
      4.2863       4.5196       0.5604       5.6168       3.5039      94.6968
    453.8960     640.8669     447.5698     638.9326       0.2947
