~VERSION INFORMATION
VERS.           2.0   :CWLS Log ASCII Standard - VERSION 2.0
WRAP.           YES   :Multiple lines per depth step
PROD.  Schlumberger   :LAS Producer
PROG.  DLIS to ASCII 11C0-305                          :LAS Program name and version
CREA.        2004/04/13 17:44                          :LAS Creation date {YYYY/MM/DD hh:mm}
SOURCE.     AIT_TLD_MCFL_CNL_040PUP.DLIS               :DLIS File Name
FILE-ID.     AIT_TLD_MCFL_CNL_040PUP                   :File Identification Number
#--------------------------------------------------
~WELL INFORMATION
#MNEM.UNIT      DATA             DESCRIPTION
#---- ------ --------------   -----------------------------
STRT .F         4332.0       :START DEPTH     
STOP .F          453.0       :STOP DEPTH     
STEP .F           -1.0       :STEP     
NULL .          -999.25      :NULL VALUE
COMP .        DEPARTMENT OF ENERGY                     :COMPANY
WELL .        48X-28                                   :WELL
FLD  .        NAVAL PETROLEUM RESERVE #3               :FIELD
LOC  .        490' FSL, 2449' FWL                      :LOCATION
CNTY .        NATRONA                                  :COUNTY
STAT .        WYOMING                                  :STATE
CTRY .                                                 :COUNTRY
API  .        49-025-23195                             :API NUMBER
UWI  .                                                 :UNIQUE WELL ID
DATE .        15-Mar-2004                              :LOG DATE {DD-MMM-YYYY}
SRVC .        Schlumberger                             :SERVICE COMPANY
LATI .DEG                                              :LATITUDE
LONG .DEG                                              :LONGITUDE
GDAT .                                                 :GeoDetic Datum
SECT .        28                                       :Section
RANG .        78W                                      :Range
TOWN .        39N                                      :Township
#-----------------------------------------------------------------------------
~PARAMETER INFORMATION
#MNEM.UNIT    VALUE                      DESCRIPTION
#---- -----   --------------------       ------------------------
RUN  .          1                        :RUN NUMBER
PDAT .        GROUND LEVEL               :Permanent Datum
EPD  .F         5105.000000              :Elevation of Permanent Datum above Mean Sea Level
EPD  .F         5105.000000              :Elevation of tool zero above Mean Sea Level
LMF  .          KELLY BUSHING            :Logging Measured From (Name of Logging Elevation Reference)
APD  .                                   :Elevation of Depth Reference (LMF) above Permanent Datum
#-----------------------------------------------------------------------------
~CURVE INFORMATION
#MNEM.UNIT   API CODE                                  DESCRIPTION
#---- -----  --------                                  -----------------------
DEPT .F                                                :DEPTH (BOREHOLE) {F10.1}
BS   .IN                                               :Bit Size {F13.4}
TENS .LBF                                              :Cable Tension {F13.4}
IHV  .F3                                               :Integrated Hole Volume {F13.4}
ICV  .F3                                               :Integrated Cement Volume {F13.4}
RWA_HILT.OHMM                                          :HILT Apparent water resistivity {F13.4}
RT   .OHMM                                             :True Resistivity {F13.4}
SP   .MV                                               :Spontaneous Potential {F13.4}
GR   .GAPI                                             :Gamma-Ray {F13.4}
NPHI .CFCF                                             :Thermal Neutron Porosity (Ratio Method) {F13.4}
TNPH .CFCF                                             :Thermal Neutron Porosity {F13.4}
NPOR .CFCF                                             :Enhanced Thermal Neutron Porosity {F13.4}
GDEV .DEG                                              :HGNS Deviation {F13.4}
HCAL .IN                                               :HRCC Cal. Caliper {F13.4}
HDRA .G/C3                                             :HRDD Density Correction {F13.4}
RHOZ .G/C3                                             :HRDD Standard Resolution Formation Density {F13.4}
HMIN .OHMM                                             :MCFL Micro Inverse Resistivity {F13.4}
HMNO .OHMM                                             :MCFL Micro Normal Resistivity {F13.4}
RXOZ .OHMM                                             :MCFL Standard Resolution Invaded Zone Resistivity {F13.4}
AHOCO60.MM/M                                           :Array Induction One Foot Conductivity A60 {F13.4}
AHOCO90.MM/M                                           :Array Induction One Foot Conductivity A90 {F13.4}
AHTCO60.MM/M                                           :Array Induction Two Foot Conductivity A60 {F13.4}
AHTCO90.MM/M                                           :Array Induction Two Foot Conductivity A90 {F13.4}
AHFCO60.MM/M                                           :Array Induction Four Foot Conductivity A60 {F13.4}
AHFCO90.MM/M                                           :Array Induction Four Foot Conductivity A90 {F13.4}
AHO10.OHMM                                             :Array Induction One Foot Resistivity A10 {F13.4}
AHO20.OHMM                                             :Array Induction One Foot Resistivity A20 {F13.4}
AHO30.OHMM                                             :Array Induction One Foot Resistivity A30 {F13.4}
AHO60.OHMM                                             :Array Induction One Foot Resistivity A60 {F13.4}
AHO90.OHMM                                             :Array Induction One Foot Resistivity A90 {F13.4}
AHT10.OHMM                                             :Array Induction Two Foot Resistivity A10 {F13.4}
AHT20.OHMM                                             :Array Induction Two Foot Resistivity A20 {F13.4}
AHT30.OHMM                                             :Array Induction Two Foot Resistivity A30 {F13.4}
AHT60.OHMM                                             :Array Induction Two Foot Resistivity A60 {F13.4}
AHT90.OHMM                                             :Array Induction Two Foot Resistivity A90 {F13.4}
AHF10.OHMM                                             :Array Induction Four Foot Resistivity A10 {F13.4}
AHF20.OHMM                                             :Array Induction Four Foot Resistivity A20 {F13.4}
AHF30.OHMM                                             :Array Induction Four Foot Resistivity A30 {F13.4}
AHF60.OHMM                                             :Array Induction Four Foot Resistivity A60 {F13.4}
AHF90.OHMM                                             :Array Induction Four Foot Resistivity A90 {F13.4}
RLA5_UNCORR.OHMM                                       :HRLT Shallow Uncorrected Resistivity 5 {F13.4}
RLA4_UNCORR.OHMM                                       :HRLT Shallow Uncorrected Resistivity 4 {F13.4}
RLA3_UNCORR.OHMM                                       :HRLT Shallow Uncorrected Resistivity 3 {F13.4}
RLA2_UNCORR.OHMM                                       :HRLT Shallow Uncorrected Resistivity 2 {F13.4}
RLA1_UNCORR.OHMM                                       :HRLT Shallow Uncorrected Resistivity 1 {F13.4}
RLA0_UNCORR.OHMM                                       :HRLT Shallow Uncorrected Resistivity 0 {F13.4}
RLA5 .OHMM                                             :HRLT Borehole Corrected Resistivity 5 {F13.4}
RLA4 .OHMM                                             :HRLT Borehole Corrected Resistivity 4 {F13.4}
RLA3 .OHMM                                             :HRLT Borehole Corrected Resistivity 3 {F13.4}
RLA2 .OHMM                                             :HRLT Borehole Corrected Resistivity 2 {F13.4}
RLA1 .OHMM                                             :HRLT Borehole Corrected Resistivity 1 {F13.4}
RLA0 .OHMM                                             :HRLT Borehole Corrected Resistivity 0 {F13.4}
RXO_HRLT.OHMM                                          :HRLT Computed Invaded Zone Resistivity {F13.4}
RT_HRLT.OHMM                                           :HRLT Computed True Resistivity {F13.4}
DT   .US/F                                             :Delta-T {F13.4}
TT4  .US                                               :Transit Time 4 {F13.4}
TT3  .US                                               :Transit Time 3 {F13.4}
TT2  .US                                               :Transit Time 2 {F13.4}
TT1  .US                                               :Transit Time 1 {F13.4}
SPHI .CFCF                                             :Sonic Porosity {F13.4}
#-----------------------------------------------------------------------------
# DEPT       
#     BS           TENS         IHV          ICV          RWA_HILT     RT           
#     SP           GR           NPHI         TNPH         NPOR         GDEV         
#     HCAL         HDRA         RHOZ         HMIN         HMNO         RXOZ         
#     AHOCO60      AHOCO90      AHTCO60      AHTCO90      AHFCO60      AHFCO90      
#     AHO10        AHO20        AHO30        AHO60        AHO90        AHT10        
#     AHT20        AHT30        AHT60        AHT90        AHF10        AHF20        
#     AHF30        AHF60        AHF90        RLA5_UNCORR  RLA4_UNCORR  RLA3_UNCORR  
#     RLA2_UNCORR  RLA1_UNCORR  RLA0_UNCORR  RLA5         RLA4         RLA3         
#     RLA2         RLA1         RLA0         RXO_HRLT     RT_HRLT      DT           
#     TT4          TT3          TT2          TT1          SPHI         
~A  
# ...
2264.0
      8.5000    1489.0000     896.6794     345.4894       0.1219       2.7449
   -188.8750     123.0842       0.3153       0.3125       0.3197       3.4958
      9.1350      -0.0013       2.5165       2.6464       2.3382       3.5271
    364.6715     367.9297     359.0230     362.9868     347.6292     353.5793
      2.6429       2.6868       2.6760       2.7422       2.7179       2.7270
      2.7942       2.7483       2.7853       2.7549       2.8079       2.8810
      2.8459       2.8766       2.8282       3.5578       3.5518       3.6344
      3.6440       3.7352       0.5291       3.4943       3.4885       3.5548
      3.5753       3.7106       0.5291       4.1087       3.4468      94.4578
    465.8268     642.8069     461.2270     645.2858       0.2929
2263.0
      8.5000    1479.0000     897.1339     345.6767       0.1011       2.4794
   -189.1250     135.9322       0.3032       0.2935       0.2852       3.3416
      9.1235      -0.0035       2.5130       3.3142       2.9269       3.6916
    313.9514     317.5448     354.4869     357.4154     378.6874     384.5696
      3.2590       3.2150       3.0835       3.1852       3.1492       2.7678
      2.7883       2.7817       2.8210       2.7979       2.6133       2.6484
      2.6222       2.6407       2.6003       2.9360       2.9425       3.0043
      3.0724       3.0999       0.4978       2.8628       2.8682       2.9119
      2.9875       3.0387       0.4978       3.4288       2.8242      94.7848
    466.6047     656.1880     464.0226     654.4709       0.2953
2262.0
      8.5000    1481.0000     897.5845     345.8600       0.1017       2.2997
   -188.6250     132.0443       0.2970       0.3124       0.3253       3.3966
      9.0660      -0.0047       2.5180       2.0879       1.8459       3.0495
    483.1297     487.3456     449.3047     458.9278     396.6601     402.9784
      1.9520       1.9681       2.0263       2.0698       2.0519       2.2384
      2.2429       2.2123       2.2257       2.1790       2.5028       2.5324
      2.5035       2.5211       2.4815       3.4066       3.4199       3.5132
      3.4947       3.6080       0.5247       3.3425       3.3558       3.4323
      3.4223       3.5729       0.5247       4.0089       3.2898      97.4569
    471.6397     634.8552     465.9652     625.0509       0.3153
2261.0
      8.5000    1504.0000     898.0259     346.0342       0.0911       2.8995
   -188.9375     110.6756       0.2637       0.2764       0.2632       3.4595
      8.9739       0.0051       2.5924       4.7322       4.1797       6.7112
    353.8594     359.0229     364.3508     371.1971     390.8301     397.8840
      2.5272       2.9056       2.8153       2.8260       2.7853       2.5832
      2.7743       2.7412       2.7446       2.6940       2.5348       2.5662
      2.5416       2.5587       2.5133       2.3897       2.4025       2.4850
      2.4861       2.5243       0.4645       2.3031       2.3126       2.3756
      2.3769       2.4219       0.4645       2.6570       2.3043      98.0477
    450.2619     637.6926     434.5894     635.7100       0.3197
2260.0
      8.5000    1486.0000     898.4646     346.2056       0.1014       2.2574
   -189.1875     115.5825       0.2837       0.3198       0.2799       3.2103
      8.9739      -0.0077       2.5263       3.2030       2.9823       4.7694
    380.2528     386.1354     386.2686     391.0142     385.6253     392.4180
      2.6883       2.7341       2.6655       2.6298       2.5898       2.5614
      2.6024       2.6079       2.5889       2.5575       2.5763       2.5993
      2.5792       2.5932       2.5483       3.5315       3.5672       3.6763
      3.7020       3.7428       0.5516       3.4640       3.4994       3.5918
      3.6279       3.7051       0.5516       4.2251       3.4257      80.2411
    448.7765     661.3998     442.1564     637.8439       0.1865
2259.0
      8.5000    1494.0000     898.9140     346.3878       0.1543       2.6738
   -188.8125     130.1095       0.3843       0.3619       0.3935       3.5034
      9.0890      -0.0078       2.4839       2.8841       2.5478       3.1667
    420.0748     426.4413     419.5265     426.8992     375.9780     383.3361
      2.3338       2.3715       2.3523       2.3805       2.3450       2.3534
      2.3653       2.3661       2.3836       2.3425       2.6283       2.6570
      2.6432       2.6597       2.6087       3.0439       3.0613       3.1309
      3.1762       3.2598       0.5286       2.9609       2.9766       3.0263
      3.0773       3.1846       0.5286       3.6921       2.8821      89.6273
    443.8366     660.5100     435.5889     661.0468       0.2567
2258.0
      8.5000    1487.0000     899.3657     346.5722       0.1795       3.6549
   -189.5000     113.7883       0.3305       0.3413       0.3506       3.3616
      9.1120      -0.0107       2.5252       3.8864       3.4324       4.5843
    322.8432     330.2339     318.5521     327.3068     327.5109     335.4606
      3.0515       3.0047       3.0541       3.0975       3.0282       3.0067
      3.0616       3.0831       3.1392       3.0552       2.9643       3.0245
      3.0166       3.0533       2.9810       3.0336       3.0212       3.0811
      3.0470       3.1595       0.5038       2.9514       2.9374       2.9774
      2.9476       3.0834       0.5038       3.2262       2.9361     104.0823
    464.0412     629.4725     456.4470     618.7978       0.3649
2257.0
      8.5000    1479.0000     899.8151     346.7544       0.1500       3.7671
   -189.5625     114.1588       0.3129       0.3032       0.2921       3.3531
      9.0660      -0.0045       2.5473       4.5745       4.0403       5.5965
    221.3189     228.6703     231.9697     241.3371     289.9290     298.2218
      4.2789       4.5089       4.4783       4.5184       4.3731       4.0467
      4.1182       4.1674       4.3109       4.1436       3.3456       3.4025
      3.3910       3.4491       3.3532       3.7477       3.7595       3.8068
      3.8314       3.8808       0.5407       3.6837       3.6963       3.7262
      3.7628       3.8569       0.5407       4.1207       3.6808      98.6211
    459.6331     652.3191     456.3616     652.6777       0.3240
2256.0
      8.5000    1502.0000     900.2657     346.9377       0.1254       2.8693
   -189.6250     117.8007       0.2971       0.3222       0.3473       3.3066
      9.1120      -0.0021       2.5438       2.8028       2.4761       4.0375
    350.7510     358.0877     319.8724     328.3151     300.4427     309.3266
      2.8671       2.7941       2.8052       2.8510       2.7926       3.0783
      3.0674       3.0415       3.1262       3.0459       3.1892       3.2771
      3.2530       3.3284       3.2328       4.5672       4.5498       4.6527
      4.6766       4.7354       0.5766       4.5209       4.5066       4.5957
      4.6374       4.7645       0.5766       5.2328       4.4985      92.7404
    460.0603     649.6021     457.0904     648.4907       0.2800
2255.0
      8.5000    1481.0000     900.7139     347.1187       0.1538       3.0745
   -189.6250     118.4154       0.3104       0.3365       0.3147       3.3293
      9.0660      -0.0042       2.5077       3.4315       3.0305       4.0255
    310.7751     318.0815     320.0205     326.4287     322.0857     330.8770
      3.0218       3.3056       3.1626       3.2178       3.1438       2.9240
      3.0999       3.0590       3.1248       3.0635       2.9761       3.0811
      3.0460       3.1048       3.0223       2.9743       2.9442       3.0329
      3.0372       3.1584       0.5086       2.8998       2.8676       2.9383
      2.9479       3.0944       0.5086       3.4836       2.8256      94.4092
    460.7200     651.6194     459.7841     651.9418       0.2925
2254.0
      8.5000    1487.0000     901.1656     347.3032       0.1363       2.7700
   -189.3125     126.2168       0.3426       0.3302       0.3294       3.3463
      9.0890      -0.0018       2.5035       3.1130       2.7496       3.4160
    338.5545     345.5195     336.5836     343.3031     334.3441     343.4381
      2.8729       2.9365       2.9154       2.9537       2.8942       2.8639
      2.9617       2.9094       2.9710       2.9129       2.8603       2.9688
      2.9362       2.9909       2.9117       3.6641       3.6278       3.7119
      3.7487       3.8784       0.5332       3.6017       3.5656       3.6334
      3.6828       3.8615       0.5332       4.3748       3.5037      93.8712
    472.6127     652.6487     471.8204     652.9084       0.2885
