~VERSION INFORMATION
VERS.           2.0   :CWLS Log ASCII Standard - VERSION 2.0
WRAP.           YES   :Multiple lines per depth step
PROD.  Schlumberger   :LAS Producer
PROG.  DLIS to ASCII 11C0-305                          :LAS Program name and version
CREA.        2004/04/13 17:44                          :LAS Creation date {YYYY/MM/DD hh:mm}
SOURCE.     AIT_TLD_MCFL_CNL_040PUP.DLIS               :DLIS File Name
FILE-ID.     AIT_TLD_MCFL_CNL_040PUP                   :File Identification Number
#--------------------------------------------------
~WELL INFORMATION
#MNEM.UNIT      DATA             DESCRIPTION
#---- ------ --------------   -----------------------------
STRT .F         4332.0       :START DEPTH     
STOP .F          453.0       :STOP DEPTH     
STEP .F           -1.0       :STEP     
NULL .          -999.25      :NULL VALUE
COMP .        DEPARTMENT OF ENERGY                     :COMPANY
WELL .        48X-28                                   :WELL
FLD  .        NAVAL PETROLEUM RESERVE #3               :FIELD
LOC  .        490' FSL, 2449' FWL                      :LOCATION
CNTY .        NATRONA                                  :COUNTY
STAT .        WYOMING                                  :STATE
CTRY .                                                 :COUNTRY
API  .        49-025-23195                             :API NUMBER
UWI  .                                                 :UNIQUE WELL ID
DATE .        15-Mar-2004                              :LOG DATE {DD-MMM-YYYY}
SRVC .        Schlumberger                             :SERVICE COMPANY
LATI .DEG                                              :LATITUDE
LONG .DEG                                              :LONGITUDE
GDAT .                                                 :GeoDetic Datum
SECT .        28                                       :Section
RANG .        78W                                      :Range
TOWN .        39N                                      :Township
#-----------------------------------------------------------------------------
~PARAMETER INFORMATION
#MNEM.UNIT    VALUE                      DESCRIPTION
#---- -----   --------------------       ------------------------
RUN  .          1                        :RUN NUMBER
PDAT .        GROUND LEVEL               :Permanent Datum
EPD  .F         5105.000000              :Elevation of Permanent Datum above Mean Sea Level
EPD  .F         5105.000000              :Elevation of tool zero above Mean Sea Level
LMF  .          KELLY BUSHING            :Logging Measured From (Name of Logging Elevation Reference)
APD  .                                   :Elevation of Depth Reference (LMF) above Permanent Datum
#-----------------------------------------------------------------------------
~CURVE INFORMATION
#MNEM.UNIT   API CODE                                  DESCRIPTION
#---- -----  --------                                  -----------------------
DEPT .F                                                :DEPTH (BOREHOLE) {F10.1}
BS   .IN                                               :Bit Size {F13.4}
TENS .LBF                                              :Cable Tension {F13.4}
IHV  .F3                                               :Integrated Hole Volume {F13.4}
ICV  .F3                                               :Integrated Cement Volume {F13.4}
RWA_HILT.OHMM                                          :HILT Apparent water resistivity {F13.4}
RT   .OHMM                                             :True Resistivity {F13.4}
SP   .MV                                               :Spontaneous Potential {F13.4}
GR   .GAPI                                             :Gamma-Ray {F13.4}
NPHI .CFCF                                             :Thermal Neutron Porosity (Ratio Method) {F13.4}
TNPH .CFCF                                             :Thermal Neutron Porosity {F13.4}
NPOR .CFCF                                             :Enhanced Thermal Neutron Porosity {F13.4}
GDEV .DEG                                              :HGNS Deviation {F13.4}
HCAL .IN                                               :HRCC Cal. Caliper {F13.4}
HDRA .G/C3                                             :HRDD Density Correction {F13.4}
RHOZ .G/C3                                             :HRDD Standard Resolution Formation Density {F13.4}
HMIN .OHMM                                             :MCFL Micro Inverse Resistivity {F13.4}
HMNO .OHMM                                             :MCFL Micro Normal Resistivity {F13.4}
RXOZ .OHMM                                             :MCFL Standard Resolution Invaded Zone Resistivity {F13.4}
AHOCO60.MM/M                                           :Array Induction One Foot Conductivity A60 {F13.4}
AHOCO90.MM/M                                           :Array Induction One Foot Conductivity A90 {F13.4}
AHTCO60.MM/M                                           :Array Induction Two Foot Conductivity A60 {F13.4}
AHTCO90.MM/M                                           :Array Induction Two Foot Conductivity A90 {F13.4}
AHFCO60.MM/M                                           :Array Induction Four Foot Conductivity A60 {F13.4}
AHFCO90.MM/M                                           :Array Induction Four Foot Conductivity A90 {F13.4}
AHO10.OHMM                                             :Array Induction One Foot Resistivity A10 {F13.4}
AHO20.OHMM                                             :Array Induction One Foot Resistivity A20 {F13.4}
AHO30.OHMM                                             :Array Induction One Foot Resistivity A30 {F13.4}
AHO60.OHMM                                             :Array Induction One Foot Resistivity A60 {F13.4}
AHO90.OHMM                                             :Array Induction One Foot Resistivity A90 {F13.4}
AHT10.OHMM                                             :Array Induction Two Foot Resistivity A10 {F13.4}
AHT20.OHMM                                             :Array Induction Two Foot Resistivity A20 {F13.4}
AHT30.OHMM                                             :Array Induction Two Foot Resistivity A30 {F13.4}
AHT60.OHMM                                             :Array Induction Two Foot Resistivity A60 {F13.4}
AHT90.OHMM                                             :Array Induction Two Foot Resistivity A90 {F13.4}
AHF10.OHMM                                             :Array Induction Four Foot Resistivity A10 {F13.4}
AHF20.OHMM                                             :Array Induction Four Foot Resistivity A20 {F13.4}
AHF30.OHMM                                             :Array Induction Four Foot Resistivity A30 {F13.4}
AHF60.OHMM                                             :Array Induction Four Foot Resistivity A60 {F13.4}
AHF90.OHMM                                             :Array Induction Four Foot Resistivity A90 {F13.4}
RLA5_UNCORR.OHMM                                       :HRLT Shallow Uncorrected Resistivity 5 {F13.4}
RLA4_UNCORR.OHMM                                       :HRLT Shallow Uncorrected Resistivity 4 {F13.4}
RLA3_UNCORR.OHMM                                       :HRLT Shallow Uncorrected Resistivity 3 {F13.4}
RLA2_UNCORR.OHMM                                       :HRLT Shallow Uncorrected Resistivity 2 {F13.4}
RLA1_UNCORR.OHMM                                       :HRLT Shallow Uncorrected Resistivity 1 {F13.4}
RLA0_UNCORR.OHMM                                       :HRLT Shallow Uncorrected Resistivity 0 {F13.4}
RLA5 .OHMM                                             :HRLT Borehole Corrected Resistivity 5 {F13.4}
RLA4 .OHMM                                             :HRLT Borehole Corrected Resistivity 4 {F13.4}
RLA3 .OHMM                                             :HRLT Borehole Corrected Resistivity 3 {F13.4}
RLA2 .OHMM                                             :HRLT Borehole Corrected Resistivity 2 {F13.4}
RLA1 .OHMM                                             :HRLT Borehole Corrected Resistivity 1 {F13.4}
RLA0 .OHMM                                             :HRLT Borehole Corrected Resistivity 0 {F13.4}
RXO_HRLT.OHMM                                          :HRLT Computed Invaded Zone Resistivity {F13.4}
RT_HRLT.OHMM                                           :HRLT Computed True Resistivity {F13.4}
DT   .US/F                                             :Delta-T {F13.4}
TT4  .US                                               :Transit Time 4 {F13.4}
TT3  .US                                               :Transit Time 3 {F13.4}
TT2  .US                                               :Transit Time 2 {F13.4}
TT1  .US                                               :Transit Time 1 {F13.4}
SPHI .CFCF                                             :Sonic Porosity {F13.4}
#-----------------------------------------------------------------------------
# DEPT       
#     BS           TENS         IHV          ICV          RWA_HILT     RT           
#     SP           GR           NPHI         TNPH         NPOR         GDEV         
#     HCAL         HDRA         RHOZ         HMIN         HMNO         RXOZ         
#     AHOCO60      AHOCO90      AHTCO60      AHTCO90      AHFCO60      AHFCO90      
#     AHO10        AHO20        AHO30        AHO60        AHO90        AHT10        
#     AHT20        AHT30        AHT60        AHT90        AHF10        AHF20        
#     AHF30        AHF60        AHF90        RLA5_UNCORR  RLA4_UNCORR  RLA3_UNCORR  
#     RLA2_UNCORR  RLA1_UNCORR  RLA0_UNCORR  RLA5         RLA4         RLA3         
#     RLA2         RLA1         RLA0         RXO_HRLT     RT_HRLT      DT           
#     TT4          TT3          TT2          TT1          SPHI         
~A  
# ...
1747.0
      8.5000    1320.0000    1120.0460     430.6883       0.2780       5.5005
   -189.8750     136.6658       0.3626       0.3499       0.3588       3.3026
      8.7667      -0.0035       2.5267       5.7612       5.0899       6.4762
    199.9388     202.3242     192.9934     195.6482     188.1053     192.1054
      4.4417       4.7194       4.8204       5.0015       4.9426       4.6759
      4.8948       4.9578       5.1815       5.1112       4.7773       5.0197
      5.0881       5.3162       5.2055       6.2935       6.2209       6.3855
      6.4424       6.5573       0.6926       6.2352       6.1587       6.3052
      6.3808       6.5715       0.6926       7.2716       6.1689      99.7413
    471.6402     665.7427     470.0244     664.9494       0.3324
1746.0
      8.5000    1294.0000    1120.4657     430.8408       0.2478       5.5988
   -189.1875     125.4931       0.3611       0.3274       0.3197       3.3606
      8.7667      -0.0027       2.5480       5.4987       4.8576       6.9824
    176.2500     178.7064     175.4260     178.1234     179.9471     184.4043
      5.2150       5.3616       5.4294       5.6738       5.5958       5.0900
      5.3696       5.4395       5.7004       5.6141       4.9426       5.2248
      5.2928       5.5572       5.4229       6.0951       6.0670       6.2102
      6.2738       6.3958       0.6728       6.0362       6.0048       6.1295
      6.2120       6.4063       0.6728       7.1987       5.9560      98.3681
    469.1969     665.0975     467.3139     664.4566       0.3221
1745.0
      8.5000    1319.0000    1120.8849     430.9927       0.2450       5.6739
   -189.0000     134.3340       0.3318       0.3102       0.3148       3.2977
      8.7667      -0.0086       2.5246       5.4741       4.8358       7.0447
    179.4836     181.7811     174.3811     178.4116     174.1295     179.0084
      4.9164       5.2272       5.3208       5.5715       5.5011       5.0094
      5.3052       5.4182       5.7346       5.6050       5.0617       5.3591
      5.4416       5.7429       5.5863       6.3113       6.2890       6.4660
      6.5369       6.6868       0.6800       6.2607       6.2364       6.3971
      6.4886       6.7205       0.6800       7.8117       6.1027      97.0235
    468.3568     661.9860     464.3375     661.2635       0.3121
1744.0
      8.5000    1315.0000    1121.3063     431.1468       0.2693       5.6698
   -189.4375     128.0652       0.3137       0.3350       0.3303       3.3644
      8.7897      -0.0082       2.5293       5.7894       5.1149       7.1427
    169.6348     171.8078     169.0458     174.3291     173.2937     178.3440
      5.3931       5.5725       5.6219       5.8950       5.8205       5.1551
      5.4619       5.5669       5.9156       5.7363       5.0831       5.3879
      5.4570       5.7705       5.6071       6.2681       6.2374       6.3989
      6.4225       6.5733       0.6758       6.2169       6.1840       6.3291
      6.3726       6.6032       0.6758       7.4230       6.1272      96.9692
    465.9363     661.1649     463.6957     658.5409       0.3117
1743.0
      8.5000    1276.0000    1121.7266     431.2998       0.2417       5.5264
   -189.1875     127.8431       0.3328       0.3165       0.3026       3.0916
      8.7897      -0.0075       2.5320       5.4186       4.7867       6.9359
    173.9352     176.0348     173.9411     178.4064     177.6938     182.3846
      5.0775       5.3608       5.4796       5.7493       5.6807       5.0629
      5.3665       5.4226       5.7491       5.6052       4.9650       5.2734
      5.3200       5.6277       5.4829       6.5821       6.5445       6.6755
      6.6997       6.8423       0.6836       6.5334       6.4948       6.6097
      6.6555       6.8859       0.6836       7.5717       6.4715      96.7610
    465.8901     662.4241     463.0619     661.5536       0.3101
1742.0
      8.5000    1299.0000    1122.1490     431.4550       0.2265       4.9513
   -189.1250     124.6847       0.3263       0.3199       0.3272       3.4688
      8.8127      -0.0094       2.5178       4.5693       4.0356       6.2387
    191.3775     193.4116     189.5916     192.2745     189.1994     193.2641
      4.7104       5.0281       5.0272       5.2253       5.1703       4.7322
      4.9677       5.0059       5.2745       5.2009       4.6712       4.9757
      5.0157       5.2854       5.1743       6.3962       6.3134       6.4818
      6.4556       6.6133       0.6798       6.3470       6.2626       6.4151
      6.4090       6.6520       0.6798       7.1854       6.3024      96.5378
    469.2086     661.0750     466.1515     660.2008       0.3084
1741.0
      8.5000    1313.0000    1122.5737     431.6125       0.2140       4.7423
   -189.5000     110.8049       0.3181       0.3006       0.2905       3.5465
      8.8357      -0.0076       2.4800       5.2387       4.6275       6.5763
    177.4047     179.3463     194.3073     193.4181     207.0221     210.2131
      4.6902       5.3838       5.4200       5.6368       5.5758       4.4905
      4.8037       4.8613       5.1465       5.1701       4.2997       4.5746
      4.5857       4.8304       4.7571       5.7121       5.6613       5.7627
      5.8128       5.9056       0.6666       5.6502       5.5975       5.6806
      5.7493       5.9113       0.6666       6.4029       5.6223      97.2194
    468.3868     672.2181     465.4160     668.9960       0.3135
1740.0
      8.5000    1310.0000    1123.0023     431.7738       0.2156       3.9432
   -189.5000     115.5358       0.3298       0.3378       0.3716       3.3694
      8.9163       0.0156       2.4668       3.1276       2.7627       4.8911
    270.1328     272.1656     255.6511     256.8322     224.7327     226.4811
      3.5643       3.4197       3.3790       3.7019       3.6742       3.6648
      3.7882       3.7587       3.9116       3.8936       3.9751       4.2312
      4.2302       4.4497       4.4154       6.0111       5.9694       6.1389
      6.1346       6.3154       0.6675       5.9627       5.9210       6.0756
      6.0917       6.3599       0.6675       7.1846       5.8512     101.4591
    480.8240     668.6756     476.7618     667.8051       0.3452
1739.0
      8.5000    1288.0000    1123.4336     431.9379       0.2990       5.1785
   -189.8125     123.5543       0.3583       0.3551       0.3432       3.3074
      8.8818       0.0025       2.4721       5.2103       4.6023       6.7658
    179.1132     181.0473     204.8196     204.6492     234.1300     236.9024
      4.3734       5.4150       5.2695       5.5831       5.5234       4.0689
      4.5782       4.5829       4.8823       4.8864       3.7858       4.0288
      4.0493       4.2711       4.2211       4.1388       4.1316       4.2542
      4.2877       4.4608       0.6050       4.0642       4.0534       4.1565
      4.2002       4.4120       0.6050       5.1746       3.9101     100.4699
    476.4016     683.5462     473.7244     683.7635       0.3378
1738.0
      8.5000    1274.0000    1123.8649     432.1021       0.1957       3.0299
   -189.4375     122.4522       0.3792       0.3724       0.3739       3.3016
      8.9048      -0.0105       2.4457       2.9428       2.6067       4.0097
    232.4786     234.4824     256.6291     256.3716     250.6856     253.6665
      3.8801       4.2544       4.0674       4.3015       4.2647       3.5537
      3.6994       3.7092       3.8967       3.9006       3.5616       3.7576
      3.7939       3.9891       3.9422       5.9793       5.9833       6.1540
      6.2276       6.3703       0.6689       5.9325       5.9379       6.0938
      6.1902       6.4196       0.6689       7.5717       5.7487      98.0626
    493.9698     679.9062     493.9642     679.1143       0.3198
1737.0
      8.5000    1319.0000    1124.2946     432.2645       0.3290       4.4886
   -189.3125     117.5328       0.4202       0.4222       0.4491       3.5925
      8.8818      -0.0085       2.4533       5.0216       4.4354       4.4696
    286.5283     288.6919     286.5564     288.6481     251.4136     253.3899
      3.1735       3.3458       3.3236       3.4901       3.4639       3.2269
      3.3415       3.3686       3.4897       3.4644       3.5513       3.7441
      3.7939       3.9775       3.9465       4.5276       4.4972       4.6313
      4.6352       4.7702       0.6279       4.4457       4.4114       4.5237
      4.5380       4.7174       0.6279       5.2833       4.3765     102.4605
    479.8788     684.9561     477.8635     689.4121       0.3527
