~VERSION INFORMATION
VERS.           2.0   :CWLS Log ASCII Standard - VERSION 2.0
WRAP.           YES   :Multiple lines per depth step
PROD.  Schlumberger   :LAS Producer
PROG.  DLIS to ASCII 11C0-305                          :LAS Program name and version
CREA.        2004/04/13 17:44                          :LAS Creation date {YYYY/MM/DD hh:mm}
SOURCE.     AIT_TLD_MCFL_CNL_040PUP.DLIS               :DLIS File Name
FILE-ID.     AIT_TLD_MCFL_CNL_040PUP                   :File Identification Number
#--------------------------------------------------
~WELL INFORMATION
#MNEM.UNIT      DATA             DESCRIPTION
#---- ------ --------------   -----------------------------
STRT .F         4332.0       :START DEPTH     
STOP .F          453.0       :STOP DEPTH     
STEP .F           -1.0       :STEP     
NULL .          -999.25      :NULL VALUE
COMP .        DEPARTMENT OF ENERGY                     :COMPANY
WELL .        48X-28                                   :WELL
FLD  .        NAVAL PETROLEUM RESERVE #3               :FIELD
LOC  .        490' FSL, 2449' FWL                      :LOCATION
CNTY .        NATRONA                                  :COUNTY
STAT .        WYOMING                                  :STATE
CTRY .                                                 :COUNTRY
API  .        49-025-23195                             :API NUMBER
UWI  .                                                 :UNIQUE WELL ID
DATE .        15-Mar-2004                              :LOG DATE {DD-MMM-YYYY}
SRVC .        Schlumberger                             :SERVICE COMPANY
LATI .DEG                                              :LATITUDE
LONG .DEG                                              :LONGITUDE
GDAT .                                                 :GeoDetic Datum
SECT .        28                                       :Section
RANG .        78W                                      :Range
TOWN .        39N                                      :Township
#-----------------------------------------------------------------------------
~PARAMETER INFORMATION
#MNEM.UNIT    VALUE                      DESCRIPTION
#---- -----   --------------------       ------------------------
RUN  .          1                        :RUN NUMBER
PDAT .        GROUND LEVEL               :Permanent Datum
EPD  .F         5105.000000              :Elevation of Permanent Datum above Mean Sea Level
EPD  .F         5105.000000              :Elevation of tool zero above Mean Sea Level
LMF  .          KELLY BUSHING            :Logging Measured From (Name of Logging Elevation Reference)
APD  .                                   :Elevation of Depth Reference (LMF) above Permanent Datum
#-----------------------------------------------------------------------------
~CURVE INFORMATION
#MNEM.UNIT   API CODE                                  DESCRIPTION
#---- -----  --------                                  -----------------------
DEPT .F                                                :DEPTH (BOREHOLE) {F10.1}
BS   .IN                                               :Bit Size {F13.4}
TENS .LBF                                              :Cable Tension {F13.4}
IHV  .F3                                               :Integrated Hole Volume {F13.4}
ICV  .F3                                               :Integrated Cement Volume {F13.4}
RWA_HILT.OHMM                                          :HILT Apparent water resistivity {F13.4}
RT   .OHMM                                             :True Resistivity {F13.4}
SP   .MV                                               :Spontaneous Potential {F13.4}
GR   .GAPI                                             :Gamma-Ray {F13.4}
NPHI .CFCF                                             :Thermal Neutron Porosity (Ratio Method) {F13.4}
TNPH .CFCF                                             :Thermal Neutron Porosity {F13.4}
NPOR .CFCF                                             :Enhanced Thermal Neutron Porosity {F13.4}
GDEV .DEG                                              :HGNS Deviation {F13.4}
HCAL .IN                                               :HRCC Cal. Caliper {F13.4}
HDRA .G/C3                                             :HRDD Density Correction {F13.4}
RHOZ .G/C3                                             :HRDD Standard Resolution Formation Density {F13.4}
HMIN .OHMM                                             :MCFL Micro Inverse Resistivity {F13.4}
HMNO .OHMM                                             :MCFL Micro Normal Resistivity {F13.4}
RXOZ .OHMM                                             :MCFL Standard Resolution Invaded Zone Resistivity {F13.4}
AHOCO60.MM/M                                           :Array Induction One Foot Conductivity A60 {F13.4}
AHOCO90.MM/M                                           :Array Induction One Foot Conductivity A90 {F13.4}
AHTCO60.MM/M                                           :Array Induction Two Foot Conductivity A60 {F13.4}
AHTCO90.MM/M                                           :Array Induction Two Foot Conductivity A90 {F13.4}
AHFCO60.MM/M                                           :Array Induction Four Foot Conductivity A60 {F13.4}
AHFCO90.MM/M                                           :Array Induction Four Foot Conductivity A90 {F13.4}
AHO10.OHMM                                             :Array Induction One Foot Resistivity A10 {F13.4}
AHO20.OHMM                                             :Array Induction One Foot Resistivity A20 {F13.4}
AHO30.OHMM                                             :Array Induction One Foot Resistivity A30 {F13.4}
AHO60.OHMM                                             :Array Induction One Foot Resistivity A60 {F13.4}
AHO90.OHMM                                             :Array Induction One Foot Resistivity A90 {F13.4}
AHT10.OHMM                                             :Array Induction Two Foot Resistivity A10 {F13.4}
AHT20.OHMM                                             :Array Induction Two Foot Resistivity A20 {F13.4}
AHT30.OHMM                                             :Array Induction Two Foot Resistivity A30 {F13.4}
AHT60.OHMM                                             :Array Induction Two Foot Resistivity A60 {F13.4}
AHT90.OHMM                                             :Array Induction Two Foot Resistivity A90 {F13.4}
AHF10.OHMM                                             :Array Induction Four Foot Resistivity A10 {F13.4}
AHF20.OHMM                                             :Array Induction Four Foot Resistivity A20 {F13.4}
AHF30.OHMM                                             :Array Induction Four Foot Resistivity A30 {F13.4}
AHF60.OHMM                                             :Array Induction Four Foot Resistivity A60 {F13.4}
AHF90.OHMM                                             :Array Induction Four Foot Resistivity A90 {F13.4}
RLA5_UNCORR.OHMM                                       :HRLT Shallow Uncorrected Resistivity 5 {F13.4}
RLA4_UNCORR.OHMM                                       :HRLT Shallow Uncorrected Resistivity 4 {F13.4}
RLA3_UNCORR.OHMM                                       :HRLT Shallow Uncorrected Resistivity 3 {F13.4}
RLA2_UNCORR.OHMM                                       :HRLT Shallow Uncorrected Resistivity 2 {F13.4}
RLA1_UNCORR.OHMM                                       :HRLT Shallow Uncorrected Resistivity 1 {F13.4}
RLA0_UNCORR.OHMM                                       :HRLT Shallow Uncorrected Resistivity 0 {F13.4}
RLA5 .OHMM                                             :HRLT Borehole Corrected Resistivity 5 {F13.4}
RLA4 .OHMM                                             :HRLT Borehole Corrected Resistivity 4 {F13.4}
RLA3 .OHMM                                             :HRLT Borehole Corrected Resistivity 3 {F13.4}
RLA2 .OHMM                                             :HRLT Borehole Corrected Resistivity 2 {F13.4}
RLA1 .OHMM                                             :HRLT Borehole Corrected Resistivity 1 {F13.4}
RLA0 .OHMM                                             :HRLT Borehole Corrected Resistivity 0 {F13.4}
RXO_HRLT.OHMM                                          :HRLT Computed Invaded Zone Resistivity {F13.4}
RT_HRLT.OHMM                                           :HRLT Computed True Resistivity {F13.4}
DT   .US/F                                             :Delta-T {F13.4}
TT4  .US                                               :Transit Time 4 {F13.4}
TT3  .US                                               :Transit Time 3 {F13.4}
TT2  .US                                               :Transit Time 2 {F13.4}
TT1  .US                                               :Transit Time 1 {F13.4}
SPHI .CFCF                                             :Sonic Porosity {F13.4}
#-----------------------------------------------------------------------------
# DEPT       
#     BS           TENS         IHV          ICV          RWA_HILT     RT           
#     SP           GR           NPHI         TNPH         NPOR         GDEV         
#     HCAL         HDRA         RHOZ         HMIN         HMNO         RXOZ         
#     AHOCO60      AHOCO90      AHTCO60      AHTCO90      AHFCO60      AHFCO90      
#     AHO10        AHO20        AHO30        AHO60        AHO90        AHT10        
#     AHT20        AHT30        AHT60        AHT90        AHF10        AHF20        
#     AHF30        AHF60        AHF90        RLA5_UNCORR  RLA4_UNCORR  RLA3_UNCORR  
#     RLA2_UNCORR  RLA1_UNCORR  RLA0_UNCORR  RLA5         RLA4         RLA3         
#     RLA2         RLA1         RLA0         RXO_HRLT     RT_HRLT      DT           
#     TT4          TT3          TT2          TT1          SPHI         
~A  
# ...
1494.0
      8.5000    1270.0000    1234.6816     477.7130       0.2579       7.1876
   -187.6250     104.3471       0.2851       0.2864       0.2934       3.3671
      9.1120      -0.0082       2.5571       6.4774       5.7235       7.9856
    141.4935     142.4038     141.1200     140.0576     136.9180     137.1402
      6.0165       6.4369       6.5442       7.0675       7.0223       6.1340
      6.5345       6.7074       7.0862       7.1399       6.2600       6.6971
      6.8973       7.3036       7.2918       8.0531       7.8819       8.0151
      7.9491       7.9530       0.7111       8.0491       7.8924       8.0209
      7.9964       8.1707       0.7111       7.9795       7.9919      90.5527
    449.6670     629.3592     448.1617     628.8956       0.2637
1493.0
      8.5000    1245.0000    1235.1345     477.8987       0.2577       7.2152
   -188.0625     101.1108       0.2852       0.2983       0.2868       3.2413
      9.1120      -0.0005       2.5858       6.5792       5.8135       8.0851
    134.9452     135.8666     139.3845     137.6430     137.5985     137.4945
      6.5144       6.8699       6.9554       7.4104       7.3602       6.1732
      6.5883       6.7967       7.1744       7.2652       6.2501       6.6786
      6.8771       7.2675       7.2730       7.6317       7.4804       7.6135
      7.5897       7.6378       0.7051       7.6200       7.4818       7.6083
      7.6247       7.8341       0.7051       7.9449       7.6039      91.1130
    452.4948     629.4670     450.1417     628.4797       0.2679
1492.0
      8.5000    1248.0000    1235.5902     478.0871       0.3099       8.0273
   -188.1250     103.1374       0.2936       0.3117       0.3089       3.1761
      9.1465      -0.0025       2.5790       6.9600       6.1506       8.6415
    133.6451     134.5513     134.7078     133.3369     133.0757     132.9166
      6.2463       6.7437       6.9888       7.4825       7.4321       6.3647
      6.7860       7.0077       7.4235       7.4998       6.4236       6.8749
      7.0915       7.5145       7.5235       7.8591       7.7210       7.8637
      7.8329       7.8884       0.7096       7.8518       7.7287       7.8666
      7.8786       8.1092       0.7096       8.3569       7.8380      90.7817
    451.4335     629.8079     448.5184     628.4481       0.2654
1491.0
      8.5000    1255.0000    1236.0465     478.2761       0.2765       7.9061
   -188.6250     111.1788       0.2913       0.2929       0.2908       3.2533
      9.1581      -0.0033       2.5835       7.3347       6.4825       9.0449
    115.7119     116.6148     123.0367     121.8257     128.7379     128.5454
      7.3277       7.7547       7.8948       8.6422       8.5752       6.9072
      7.4153       7.6708       8.1277       8.2085       6.6125       7.0824
      7.3154       7.7677       7.7794       8.1294       7.9776       8.1575
      8.0976       8.1008       0.7129       8.1296       7.9946       8.1722
      8.1578       8.3444       0.7129       8.4439       8.1318      89.1558
    448.2400     628.7318     445.9128     627.6622       0.2532
1490.0
      8.5000    1254.0000    1236.5040     478.4663       0.2448       7.6874
   -188.2500     110.1298       0.2752       0.2767       0.2903       3.1476
      9.1581      -0.0036       2.5873       6.7695       5.9819       8.6851
    128.6707     129.5959     129.7495     129.0572     129.2671     129.3460
      6.5131       7.0424       7.1746       7.7718       7.7163       6.5316
      6.9945       7.2468       7.7072       7.7485       6.5789       7.0399
      7.2693       7.7359       7.7312       8.6764       8.5289       8.7072
      8.6590       8.6593       0.7222       8.6877       8.5605       8.7395
      8.7411       8.9475       0.7222       9.1753       8.6899      88.8318
    447.5610     628.0770     444.4534     627.6309       0.2508
1489.0
      8.5000    1249.0000    1236.9591     478.6542       0.2341       7.3755
   -188.1250      98.1977       0.2570       0.2678       0.2584       3.2857
      9.1350      -0.0083       2.5657       7.0670       6.2452       8.6272
    129.6672     130.6163     131.8394     132.3709     130.5238     130.6968
      6.5520       6.9806       7.1328       7.7121       7.6560       6.4530
      6.8675       7.0856       7.5850       7.5545       6.5138       6.9792
      7.1974       7.6614       7.6513       7.9430       7.8340       7.9801
      7.9501       8.0120       0.7013       7.9424       7.8500       7.9926
      8.0068       8.2492       0.7013       8.6560       7.9252      89.9568
    448.2446     624.9399     448.0200     623.1533       0.2592
1488.0
      8.5000    1242.0000    1237.4142     478.8420       0.2657       8.2294
   -187.7500      98.6442       0.2732       0.2737       0.2755       3.1640
      9.1350       0.0001       2.5738       7.1951       6.3586       8.7268
    129.9390     130.8569     130.1829     129.4908     128.3562     128.5021
      6.3618       6.9493       7.1997       7.6959       7.6419       6.5412
      6.9852       7.2255       7.6815       7.7226       6.6128       7.0966
      7.3252       7.7908       7.7820       7.8726       7.7723       7.9081
      7.8871       7.9373       0.7066       7.8717       7.7869       7.9183
      7.9399       8.1620       0.7066       8.5348       7.8639      89.7195
    448.1365     622.2805     445.9451     622.5536       0.2574
1487.0
      8.5000    1280.0000    1237.8658     479.0265       0.2286       8.0230
   -187.3750     107.0740       0.2629       0.2572       0.2551       3.0831
      9.0890       0.0047       2.5856       7.7561       6.8561       9.1518
    116.5974     117.5442     120.7759     119.4680     125.6491     125.7638
      7.1442       7.7211       8.0528       8.5765       8.5074       6.9563
      7.5127       7.7970       8.2798       8.3704       6.7463       7.2554
      7.4920       7.9587       7.9514       8.2996       8.1973       8.3514
      8.3369       8.2967       0.7120       8.3011       8.2155       8.3666
      8.3973       8.5364       0.7120       8.7283       8.3279      88.2495
    445.8923     622.9631     444.0820     622.5259       0.2464
1486.0
      8.5000    1229.0000    1238.3147     479.2081       0.2517       8.0518
   -187.5000      98.4629       0.2691       0.2702       0.2769       3.1456
      9.0775      -0.0118       2.5793       6.8174       6.0243       8.6835
    129.1158     130.0158     127.6439     126.6395     126.3302     126.3293
      6.5066       6.9691       7.1840       7.7450       7.6914       6.7046
      7.1761       7.4048       7.8343       7.8964       6.7207       7.2276
      7.4586       7.9158       7.9158       8.7691       8.6410       8.8259
      8.7509       8.7072       0.7262       8.7738       8.6637       8.8480
      8.8196       8.9676       0.7262       9.0321       8.7928      87.7515
    442.9432     624.1502     440.6456     623.6080       0.2427
1485.0
      8.5000    1250.0000    1238.7640     479.3903       0.2404       7.5567
   -187.3750      97.2921       0.2681       0.2675       0.2634       3.0302
      9.0890      -0.0114       2.5640       6.7957       6.0051       8.5010
    127.1461     127.9663     128.7516     127.6790     128.6208     128.4908
      6.7202       7.1003       7.2763       7.8650       7.8146       6.6695
      7.1098       7.3224       7.7669       7.8321       6.6109       7.0960
      7.3179       7.7748       7.7827       8.2496       8.1402       8.2879
      8.2434       8.2463       0.7130       8.2463       8.1524       8.2964
      8.2949       8.4727       0.7130       8.5916       8.2614      88.6943
    445.3215     622.0856     444.3559     621.4825       0.2498
1484.0
      8.5000    1259.0000    1239.2134     479.5724       0.2828       7.7134
   -187.7500     110.4828       0.2863       0.2911       0.2882       3.2604
      9.0890      -0.0089       2.5581       6.9237       6.1184       8.4296
    131.3060     132.0349     132.0194     130.9572     130.1548     129.8297
      6.3980       6.9280       7.1004       7.6158       7.5738       6.3892
      6.8792       7.1295       7.5746       7.6361       6.5203       7.0042
      7.2292       7.6832       7.7024       7.9691       7.8656       7.9940
      7.9610       8.0035       0.7099       7.9634       7.8741       7.9972
      8.0052       8.2156       0.7099       8.4624       7.9661      89.0635
    447.1658     623.0825     445.3194     623.3961       0.2525
