~VERSION INFORMATION
VERS.           2.0   :CWLS Log ASCII Standard - VERSION 2.0
WRAP.           YES   :Multiple lines per depth step
PROD.  Schlumberger   :LAS Producer
PROG.  DLIS to ASCII 11C0-305                          :LAS Program name and version
CREA.        2004/04/13 17:44                          :LAS Creation date {YYYY/MM/DD hh:mm}
SOURCE.     AIT_TLD_MCFL_CNL_040PUP.DLIS               :DLIS File Name
FILE-ID.     AIT_TLD_MCFL_CNL_040PUP                   :File Identification Number
#--------------------------------------------------
~WELL INFORMATION
#MNEM.UNIT      DATA             DESCRIPTION
#---- ------ --------------   -----------------------------
STRT .F         4332.0       :START DEPTH     
STOP .F          453.0       :STOP DEPTH     
STEP .F           -1.0       :STEP     
NULL .          -999.25      :NULL VALUE
COMP .        DEPARTMENT OF ENERGY                     :COMPANY
WELL .        48X-28                                   :WELL
FLD  .        NAVAL PETROLEUM RESERVE #3               :FIELD
LOC  .        490' FSL, 2449' FWL                      :LOCATION
CNTY .        NATRONA                                  :COUNTY
STAT .        WYOMING                                  :STATE
CTRY .                                                 :COUNTRY
API  .        49-025-23195                             :API NUMBER
UWI  .                                                 :UNIQUE WELL ID
DATE .        15-Mar-2004                              :LOG DATE {DD-MMM-YYYY}
SRVC .        Schlumberger                             :SERVICE COMPANY
LATI .DEG                                              :LATITUDE
LONG .DEG                                              :LONGITUDE
GDAT .                                                 :GeoDetic Datum
SECT .        28                                       :Section
RANG .        78W                                      :Range
TOWN .        39N                                      :Township
#-----------------------------------------------------------------------------
~PARAMETER INFORMATION
#MNEM.UNIT    VALUE                      DESCRIPTION
#---- -----   --------------------       ------------------------
RUN  .          1                        :RUN NUMBER
PDAT .        GROUND LEVEL               :Permanent Datum
EPD  .F         5105.000000              :Elevation of Permanent Datum above Mean Sea Level
EPD  .F         5105.000000              :Elevation of tool zero above Mean Sea Level
LMF  .          KELLY BUSHING            :Logging Measured From (Name of Logging Elevation Reference)
APD  .                                   :Elevation of Depth Reference (LMF) above Permanent Datum
#-----------------------------------------------------------------------------
~CURVE INFORMATION
#MNEM.UNIT   API CODE                                  DESCRIPTION
#---- -----  --------                                  -----------------------
DEPT .F                                                :DEPTH (BOREHOLE) {F10.1}
BS   .IN                                               :Bit Size {F13.4}
TENS .LBF                                              :Cable Tension {F13.4}
IHV  .F3                                               :Integrated Hole Volume {F13.4}
ICV  .F3                                               :Integrated Cement Volume {F13.4}
RWA_HILT.OHMM                                          :HILT Apparent water resistivity {F13.4}
RT   .OHMM                                             :True Resistivity {F13.4}
SP   .MV                                               :Spontaneous Potential {F13.4}
GR   .GAPI                                             :Gamma-Ray {F13.4}
NPHI .CFCF                                             :Thermal Neutron Porosity (Ratio Method) {F13.4}
TNPH .CFCF                                             :Thermal Neutron Porosity {F13.4}
NPOR .CFCF                                             :Enhanced Thermal Neutron Porosity {F13.4}
GDEV .DEG                                              :HGNS Deviation {F13.4}
HCAL .IN                                               :HRCC Cal. Caliper {F13.4}
HDRA .G/C3                                             :HRDD Density Correction {F13.4}
RHOZ .G/C3                                             :HRDD Standard Resolution Formation Density {F13.4}
HMIN .OHMM                                             :MCFL Micro Inverse Resistivity {F13.4}
HMNO .OHMM                                             :MCFL Micro Normal Resistivity {F13.4}
RXOZ .OHMM                                             :MCFL Standard Resolution Invaded Zone Resistivity {F13.4}
AHOCO60.MM/M                                           :Array Induction One Foot Conductivity A60 {F13.4}
AHOCO90.MM/M                                           :Array Induction One Foot Conductivity A90 {F13.4}
AHTCO60.MM/M                                           :Array Induction Two Foot Conductivity A60 {F13.4}
AHTCO90.MM/M                                           :Array Induction Two Foot Conductivity A90 {F13.4}
AHFCO60.MM/M                                           :Array Induction Four Foot Conductivity A60 {F13.4}
AHFCO90.MM/M                                           :Array Induction Four Foot Conductivity A90 {F13.4}
AHO10.OHMM                                             :Array Induction One Foot Resistivity A10 {F13.4}
AHO20.OHMM                                             :Array Induction One Foot Resistivity A20 {F13.4}
AHO30.OHMM                                             :Array Induction One Foot Resistivity A30 {F13.4}
AHO60.OHMM                                             :Array Induction One Foot Resistivity A60 {F13.4}
AHO90.OHMM                                             :Array Induction One Foot Resistivity A90 {F13.4}
AHT10.OHMM                                             :Array Induction Two Foot Resistivity A10 {F13.4}
AHT20.OHMM                                             :Array Induction Two Foot Resistivity A20 {F13.4}
AHT30.OHMM                                             :Array Induction Two Foot Resistivity A30 {F13.4}
AHT60.OHMM                                             :Array Induction Two Foot Resistivity A60 {F13.4}
AHT90.OHMM                                             :Array Induction Two Foot Resistivity A90 {F13.4}
AHF10.OHMM                                             :Array Induction Four Foot Resistivity A10 {F13.4}
AHF20.OHMM                                             :Array Induction Four Foot Resistivity A20 {F13.4}
AHF30.OHMM                                             :Array Induction Four Foot Resistivity A30 {F13.4}
AHF60.OHMM                                             :Array Induction Four Foot Resistivity A60 {F13.4}
AHF90.OHMM                                             :Array Induction Four Foot Resistivity A90 {F13.4}
RLA5_UNCORR.OHMM                                       :HRLT Shallow Uncorrected Resistivity 5 {F13.4}
RLA4_UNCORR.OHMM                                       :HRLT Shallow Uncorrected Resistivity 4 {F13.4}
RLA3_UNCORR.OHMM                                       :HRLT Shallow Uncorrected Resistivity 3 {F13.4}
RLA2_UNCORR.OHMM                                       :HRLT Shallow Uncorrected Resistivity 2 {F13.4}
RLA1_UNCORR.OHMM                                       :HRLT Shallow Uncorrected Resistivity 1 {F13.4}
RLA0_UNCORR.OHMM                                       :HRLT Shallow Uncorrected Resistivity 0 {F13.4}
RLA5 .OHMM                                             :HRLT Borehole Corrected Resistivity 5 {F13.4}
RLA4 .OHMM                                             :HRLT Borehole Corrected Resistivity 4 {F13.4}
RLA3 .OHMM                                             :HRLT Borehole Corrected Resistivity 3 {F13.4}
RLA2 .OHMM                                             :HRLT Borehole Corrected Resistivity 2 {F13.4}
RLA1 .OHMM                                             :HRLT Borehole Corrected Resistivity 1 {F13.4}
RLA0 .OHMM                                             :HRLT Borehole Corrected Resistivity 0 {F13.4}
RXO_HRLT.OHMM                                          :HRLT Computed Invaded Zone Resistivity {F13.4}
RT_HRLT.OHMM                                           :HRLT Computed True Resistivity {F13.4}
DT   .US/F                                             :Delta-T {F13.4}
TT4  .US                                               :Transit Time 4 {F13.4}
TT3  .US                                               :Transit Time 3 {F13.4}
TT2  .US                                               :Transit Time 2 {F13.4}
TT1  .US                                               :Transit Time 1 {F13.4}
SPHI .CFCF                                             :Sonic Porosity {F13.4}
#-----------------------------------------------------------------------------
# DEPT       
#     BS           TENS         IHV          ICV          RWA_HILT     RT           
#     SP           GR           NPHI         TNPH         NPOR         GDEV         
#     HCAL         HDRA         RHOZ         HMIN         HMNO         RXOZ         
#     AHOCO60      AHOCO90      AHTCO60      AHTCO90      AHFCO60      AHFCO90      
#     AHO10        AHO20        AHO30        AHO60        AHO90        AHT10        
#     AHT20        AHT30        AHT60        AHT90        AHF10        AHF20        
#     AHF30        AHF60        AHF90        RLA5_UNCORR  RLA4_UNCORR  RLA3_UNCORR  
#     RLA2_UNCORR  RLA1_UNCORR  RLA0_UNCORR  RLA5         RLA4         RLA3         
#     RLA2         RLA1         RLA0         RXO_HRLT     RT_HRLT      DT           
#     TT4          TT3          TT2          TT1          SPHI         
~A  
# ...
460.0
      8.5000     858.0000    1741.7544     708.4489       0.0009       9.0461
   -219.9375      50.4108       0.4546       0.4355       0.4409       3.3404
      7.7076       0.1775       2.8213       0.2931       0.2383       0.2849
    116.4442     111.1478     114.3224     110.5447     114.2521     110.5374
      7.1887       8.0316       8.2833       8.5878       8.9970       7.1886
      8.0326       8.3806       8.7472       9.0461       7.1911       8.0314
      8.3796       8.7526       9.0467       0.1119       0.1306       0.1423
      0.1573       0.1865       0.1864       0.1172       0.1172       0.1172
      0.1172       0.1173       0.1864       0.1164       0.1164     103.7415
    169.3872     471.4448     313.2761     471.9216       0.3623
459.0
      8.5000     858.0000    1742.0784     708.5057       0.0009       9.0461
   -219.9375      53.1063       0.4701       0.4235       0.4382       3.1992
      7.7076       0.1775       2.8213       0.2931       0.2383       0.2849
    116.4442     111.1478     114.3224     110.5447     114.2521     110.5374
      7.1887       8.0316       8.2833       8.5878       8.9970       7.1886
      8.0326       8.3806       8.7472       9.0461       7.1911       8.0314
      8.3796       8.7526       9.0467       0.1127       0.1315       0.1433
      0.1584       0.1866       0.1868       0.1164       0.1164       0.1163
      0.1162       0.1159       0.1868       0.1119       0.1122     111.6866
    169.3872     470.6885     316.4342     470.5297       0.4217
458.0
      8.5000     858.0000    1742.4023     708.5624       0.0009       9.0461
   -219.9375      56.1896       0.4673       0.4463       0.4412       3.2463
      7.7076       0.1775       2.8213       0.2931       0.2383       0.2849
    116.4442     111.1478     114.3224     110.5447     114.2521     110.5374
      7.1887       8.0316       8.2833       8.5878       8.9970       7.1886
      8.0326       8.3806       8.7472       9.0461       7.1911       8.0314
      8.3796       8.7526       9.0467       0.1134       0.1324       0.1442
      0.1596       0.1897       0.1880       0.1160       0.1160       0.1160
      0.1160       0.1165       0.1880       0.1129       0.1129     120.4899
    247.5000     470.0638     316.8957     469.1096       0.4876
457.0
      8.5000     858.0000    1742.7263     708.6192       0.0009       9.0461
   -219.9375      54.1734       0.5120       0.4659       0.4659       3.1136
      7.7076       0.1775       2.8213       0.2931       0.2383       0.2849
    116.4442     111.1478     114.3224     110.5447     114.2521     110.5374
      7.1887       8.0316       8.2833       8.5878       8.9970       7.1886
      8.0326       8.3806       8.7472       9.0461       7.1911       8.0314
      8.3796       8.7526       9.0467       0.1134       0.1325       0.1443
      0.1595       0.1883       0.1855       0.1172       0.1173       0.1174
      0.1172       0.1176       0.1855       0.1147       0.1149     114.0660
    238.8333     470.1768     316.8957     469.9055       0.4395
456.0
      8.5000     858.0000    1743.0503     708.6760       0.0009       9.0461
   -219.9375      48.6806       0.5120       0.4659       0.4659       3.0976
      7.7076       0.1775       2.8213       0.2931       0.2383       0.2849
    116.4442     111.1478     114.3224     110.5447     114.2521     110.5374
      7.1887       8.0316       8.2833       8.5878       8.9970       7.1886
      8.0326       8.3806       8.7472       9.0461       7.1911       8.0314
      8.3796       8.7526       9.0467       0.1112       0.1298       0.1415
      0.1562       0.1850       0.1859       0.1148       0.1148       0.1148
      0.1147       0.1146       0.1859       0.1123       0.1122     114.0660
    238.8333     471.6373     314.4090     472.2750       0.4395
455.0
      8.5000     858.0000    1743.3743     708.7327       0.0009       9.0461
   -219.9375      47.3623       0.5120       0.4659       0.4659       2.9717
      7.7076       0.1775       2.8213       0.2931       0.2383       0.2849
    116.4442     111.1478     114.3224     110.5447     114.2521     110.5374
      7.1887       8.0316       8.2833       8.5878       8.9970       7.1886
      8.0326       8.3806       8.7472       9.0461       7.1911       8.0314
      8.3796       8.7526       9.0467       0.1119       0.1306       0.1422
      0.1571       0.1871       0.1853       0.1154       0.1154       0.1154
      0.1154       0.1158       0.1853       0.1129       0.1130     114.0660
    208.7583     473.0319     325.0000     473.5785       0.4395
454.0
      8.5000     858.0000    1743.6982     708.7895       0.0009       9.0461
   -219.9375      46.3111       0.5120       0.4659       0.4659       2.9486
      7.7076       0.1775       2.8213       0.2931       0.2383       0.2849
    116.4442     111.1478     114.3224     110.5447     114.2521     110.5374
      7.1887       8.0316       8.2833       8.5878       8.9970       7.1886
      8.0326       8.3806       8.7472       9.0461       7.1911       8.0314
      8.3796       8.7526       9.0467       0.1115       0.1302       0.1419
      0.1571       0.1855       0.1851       0.1183       0.1183       0.1184
      0.1184       0.1188       0.1855       0.1151       0.1154     114.0660
    199.5436     473.3479     362.5825     474.0681       0.4395
453.0
      8.5000     858.0000    1744.0222     708.8463       0.0009       9.0461
   -219.9375      52.4122       0.5120       0.4659       0.4659       2.8998
      7.7076       0.1775       2.8213       0.2931       0.2383       0.2849
    116.4442     111.1478     114.3224     110.5447     114.2521     110.5374
      7.1887       8.0316       8.2833       8.5878       8.9970       7.1886
      8.0326       8.3806       8.7472       9.0461       7.1911       8.0314
      8.3796       8.7526       9.0467       0.1124       0.1313       0.1431
      0.1581       0.1880       0.1852       0.1183       0.1183       0.1184
      0.1184       0.1188       0.1855       0.1151       0.1154     114.0660
    199.6564     474.3465     362.1173     474.9716       0.4395
