~VERSION INFORMATION
VERS.           2.0   :CWLS Log ASCII Standard - VERSION 2.0
WRAP.           NO    :One Line per depth step
PROD.  Schlumberger   :LAS Producer
PROG.  DLIS to ASCII 11C0-305                          :LAS Program name and version
CREA.        2004/05/20 06:33                          :LAS Creation date {YYYY/MM/DD hh:mm}
SOURCE.     AIT_TLD_MCFL_CNL_053PUP.DLIS               :DLIS File Name
FILE-ID.     AIT_TLD_MCFL_CNL_053PUP                   :File Identification Number
#--------------------------------------------------
~WELL INFORMATION
#MNEM.UNIT      DATA             DESCRIPTION
#---- ------ --------------   -----------------------------
STRT .F         5760.0       :START DEPTH     
STOP .F         4243.0       :STOP DEPTH     
STEP .F           -0.5       :STEP     
NULL .          -999.25      :NULL VALUE
COMP .        DEPARTMENT OF ENERGY                     :COMPANY
WELL .        48X - 28                                 :WELL
FLD  .        NAVAL PETROLEUM RESERVE # 3              :FIELD
LOC  .        490' FSL, 2449' FWL                      :LOCATION
CNTY .        NATRONA                                  :COUNTY
STAT .        WYOMING                                  :STATE
CTRY .                                                 :COUNTRY
API  .        49-025-23195                             :API NUMBER
UWI  .                                                 :UNIQUE WELL ID
DATE .        19-May-2004                              :LOG DATE {DD-MMM-YYYY}
SRVC .        Schlumberger                             :SERVICE COMPANY
LATI .DEG                                              :LATITUDE
LONG .DEG                                              :LONGITUDE
GDAT .                                                 :GeoDetic Datum
SECT .        28                                       :Section
RANG .        78W                                      :Range
TOWN .        39N                                      :Township
#-----------------------------------------------------------------------------
~PARAMETER INFORMATION
#MNEM.UNIT    VALUE                      DESCRIPTION
#---- -----   --------------------       ------------------------
RUN  .          1                        :RUN NUMBER
PDAT .        GROUND LEVEL               :Permanent Datum
EPD  .C3                                 :Elevation of Permanent Datum above Mean Sea Level
EPD  .C3                                 :Elevation of tool zero above Mean Sea Level
LMF  .          KELLY BUSHING            :Logging Measured From (Name of Logging Elevation Reference)
APD  .                                   :Elevation of Depth Reference (LMF) above Permanent Datum
#-----------------------------------------------------------------------------
~CURVE INFORMATION
#MNEM.UNIT   API CODE                                  DESCRIPTION
#---- -----  --------                                  -----------------------
DEPT .F                                                :DEPTH (BOREHOLE) {F10.1}
AHF20.OHMM                                             :Array Induction Four Foot Resistivity A20 {F13.4}
AHF60.OHMM                                             :Array Induction Four Foot Resistivity A60 {F13.4}
AHFCO60.MM/M                                           :Array Induction Four Foot Conductivity A60 {F13.4}
AHT10.OHMM                                             :Array Induction Two Foot Resistivity A10 {F13.4}
AHT20.OHMM                                             :Array Induction Two Foot Resistivity A20 {F13.4}
AHT30.OHMM                                             :Array Induction Two Foot Resistivity A30 {F13.4}
AHT60.OHMM                                             :Array Induction Two Foot Resistivity A60 {F13.4}
AHT90.OHMM                                             :Array Induction Two Foot Resistivity A90 {F13.4}
GR   .GAPI                                             :Gamma-Ray {F13.4}
SP   .MV                                               :Spontaneous Potential {F13.4}
#-----------------------------------------------------------------------------
# 
#     DEPT       AHF20        AHF60       AHFCO60       AHT10        AHT20        AHT30        AHT60        AHT90         GR           SP
#
~A  
# ...
    5361.0      21.7556      36.3288      27.5263    1950.0000      18.8730      28.3719      33.2125      36.0540     113.3023      31.8125
    5360.5      21.3841      38.6751      25.8564    1950.0000      16.7670      29.7847      38.6562      32.2189      92.0277      32.3125
    5360.0      22.0565      45.5605      21.9488    1950.0000      15.4894      31.5556      42.2304      25.5270      65.0809      32.6250
    5359.5      24.6067      56.7776      17.6126    1950.0000      15.5080      28.4129      41.7561      21.3527      47.3520      32.7500
    5359.0      30.2069      73.2632      13.6494    1950.0000      17.4851      30.7483      42.9391      28.2814      44.4319      32.7500
    5358.5      43.7988     107.5342       9.2994    1950.0000      33.0430      58.4939      54.4344      32.4108      49.8966      32.0625
    5358.0      67.2308     188.4743       5.3058    1950.0000      46.0208     139.6243      56.4988      37.0137      65.9568      30.9375
    5357.5     116.8957     390.7526       2.5592    1804.5802      69.9299     117.6366      61.2585      32.8630      84.7286      32.0000
    5357.0     476.8708     513.8804       1.9460    1485.2802     107.0601     181.0487      63.8750      34.7934     104.5415      32.6250
    5356.5     845.5692     416.1132       2.4032    1644.9552     420.1620     314.1451      38.2294      25.8512     106.0015      34.1250
    5356.0     363.7567     163.9210       6.1005    1950.0000     563.3432     149.7441      50.7311      27.7622     105.7930      33.4375
    5355.5     106.0555      76.2921      13.1075    1334.2241     109.9411      50.8175      38.3952      22.6871     101.7021      34.2500
    5355.0      62.9324      52.3380      19.1066     297.4178      65.4739      28.7200      31.4585      19.0861     111.7137      33.6250
    5354.5      32.2979      25.7370      38.8545     198.2283      18.4655      14.2188      13.4432      11.8556     117.4809      33.0625
    5354.0      21.5107      18.1556      55.0795     160.2551      15.1947      12.7658      12.2225      11.1552     123.8208      35.3125
    5353.5      17.2256      15.4790      64.6035     151.9341      13.9540      12.3476      12.1375      12.2054     122.1522      35.6875
    5353.0      15.5388      14.9322      66.9692     145.0276      13.7948      13.4117      13.0305      16.1339     119.2906      36.3750
    5352.5      16.3771      15.8772      62.9834     146.5129      16.2412      14.6588      15.7321      20.8199     116.1619      34.9375
    5352.0      16.7514      19.2943      51.8288     140.6831      16.3443      16.3072      17.4614      27.6295     113.0681      34.7500
    5351.5      17.8171      21.4609      46.5963     193.7034      18.0474      17.8237      21.0888      34.8481     116.0026      34.1250
    5351.0      19.0336      23.9975      41.6710     257.4861      17.9054      19.5214      23.9174      36.2959     116.6284      34.5000
    5350.5      20.9412      29.0083      34.4729     383.4509      20.1851      21.7846      29.3631      42.7940     115.9527      35.6250
    5350.0      21.7422      31.3597      31.8881     624.0779      24.5028      21.6256      34.1094      31.2730     105.3154      34.8125
    5349.5      21.6231      30.6343      32.6431    1001.4764      30.5752      31.9976      45.0103      53.3445      93.6173      35.1875
    5349.0      20.0828      28.5742      34.9967    1450.1859      29.8232      30.6537      43.1566      37.4523      93.0068      35.1875
    5348.5      18.5409      27.2063      36.7562    1799.6144      18.5691      18.6424      27.0566      30.5196     100.9480      33.8125
    5348.0      15.9201      24.8209      40.2886    1950.0000      12.3201      13.8383      17.0690      16.9676     120.5719      34.0000
    5347.5      16.3039      28.1148      35.5685    1950.0000      12.1572      14.7466      18.7545      17.6839     123.2834      33.5625
    5347.0      19.0118      37.2312      26.8592    1950.0000      12.4808      17.4961      26.8648      27.8681     107.6249      33.1875
    5346.5      24.1631      53.5373      18.6786    1950.0000      25.4779      31.7031      42.2465      39.9566      73.2445      31.3750
    5346.0      32.5793      76.8610      13.0105    1950.0000      54.7593      56.3141      75.1470      66.0861      42.9956      30.5000
    5345.5      60.9128     111.2095       8.9920    1950.0000      97.6424      80.9186     107.0973      88.5019      29.2296      27.9375
    5345.0      75.0898     141.5895       7.0627    1950.0000     138.1660     212.2706     298.5443      81.3534      27.1093      26.6875
    5344.5      76.8465     132.5739       7.5430    1950.0000     164.1686     405.5476     899.7928      71.7049      29.0259      25.5000
    5344.0      66.0367     125.4764       7.9696    1950.0000      74.7564     130.2266     101.0016      88.2306      44.4605      26.0000
    5343.5      45.1939      74.6698      13.3923    1950.0000      40.6246      47.8346      79.2272      72.7585      63.9889      24.6875
    5343.0      32.6285      47.1594      21.2047    1950.0000      25.4834      27.4126      29.5645      32.4444      78.7639      23.8750
    5342.5      26.7646      38.2395      26.1510    1950.0000      19.2347      22.0137      17.5806      20.0817      71.7501      22.9375
    5342.0      27.2207      40.9000      24.4499    1950.0000      17.3234      21.3655      20.9050      23.2287      56.6017      21.5625
    5341.5      32.9910      54.5784      18.3223    1950.0000      29.8133      35.3340      42.9123      51.2580      50.4116      20.9375
    5341.0      41.1165      81.8642      12.2153    1950.0000      60.4661      58.6894      63.1359      63.2064      50.7510      19.6250
    5340.5      50.7456     117.3525       8.5213    1950.0000      85.7794      78.1113      90.2425      78.5959      57.6340      19.5625
    5340.0      56.1726     162.5832       6.1507    1950.0000      80.2985      89.2204     131.0125      81.7603      68.0952      19.3750
    5339.5      55.4356     218.9159       4.5680    1950.0000      45.8426      96.9534     173.1683      77.1058      98.3386      18.7500
    5339.0      52.8983     253.2138       3.9492    1950.0000      37.8252      66.2469     179.6944      54.2710     120.6736      17.5625
    5338.5      52.6611     234.8989       4.2572    1950.0000      41.7510      70.1683     157.0277      57.5275     122.4511      17.0000
    5338.0      55.7516     216.5188       4.6185    1950.0000      45.9086      82.6358     158.2450      69.6466      95.1278      16.8125
    5337.5      60.4764     211.9920       4.7172    1950.0000      53.9852     103.7441     181.4907      89.9443      65.0809      16.7500
    5337.0      68.4765     220.4622       4.5359    1950.0000      60.8466     129.5954     213.2204     115.3167      44.2234      17.5000
    5336.5      78.2132     252.0069       3.9681    1950.0000      68.9806     166.2930     264.4117     146.6476      35.4632      18.4375
    5336.0      91.6117     296.3386       3.3745    1950.0000      71.0031     165.1599     316.6973     148.8848      36.4018      17.1250
    5335.5     115.2603     364.4818       2.7436    1950.0000      84.6927     189.7897     383.1531     146.4287      36.4018      17.0000
    5335.0     129.4487     428.5388       2.3335    1950.0000     104.9233     226.6691     461.3813     239.4008      35.7210      16.5000
    5334.5     141.5639     477.0446       2.0962    1950.0000     127.9077     371.4889     708.6238     387.8897      37.0714      15.6250
    5334.0     145.2377     492.6732       2.0297    1950.0000     113.5130     208.0809    1115.1489     435.6606      36.6542      15.2500
    5333.5     141.2195     482.7982       2.0713    1950.0000     107.9609     175.4569     455.2183     235.9550      32.9550      14.0625
    5333.0     133.0150     454.0045       2.2026    1950.0000      90.5429     152.6277     434.2902     218.7120      23.5054      11.5000
