~VERSION INFORMATION
VERS.           2.0   :CWLS Log ASCII Standard - VERSION 2.0
WRAP.           NO    :One Line per depth step
PROD.  Schlumberger   :LAS Producer
PROG.  DLIS to ASCII 11C0-305                          :LAS Program name and version
CREA.        2004/05/20 06:33                          :LAS Creation date {YYYY/MM/DD hh:mm}
SOURCE.     AIT_TLD_MCFL_CNL_053PUP.DLIS               :DLIS File Name
FILE-ID.     AIT_TLD_MCFL_CNL_053PUP                   :File Identification Number
#--------------------------------------------------
~WELL INFORMATION
#MNEM.UNIT      DATA             DESCRIPTION
#---- ------ --------------   -----------------------------
STRT .F         5760.0       :START DEPTH     
STOP .F         4243.0       :STOP DEPTH     
STEP .F           -0.5       :STEP     
NULL .          -999.25      :NULL VALUE
COMP .        DEPARTMENT OF ENERGY                     :COMPANY
WELL .        48X - 28                                 :WELL
FLD  .        NAVAL PETROLEUM RESERVE # 3              :FIELD
LOC  .        490' FSL, 2449' FWL                      :LOCATION
CNTY .        NATRONA                                  :COUNTY
STAT .        WYOMING                                  :STATE
CTRY .                                                 :COUNTRY
API  .        49-025-23195                             :API NUMBER
UWI  .                                                 :UNIQUE WELL ID
DATE .        19-May-2004                              :LOG DATE {DD-MMM-YYYY}
SRVC .        Schlumberger                             :SERVICE COMPANY
LATI .DEG                                              :LATITUDE
LONG .DEG                                              :LONGITUDE
GDAT .                                                 :GeoDetic Datum
SECT .        28                                       :Section
RANG .        78W                                      :Range
TOWN .        39N                                      :Township
#-----------------------------------------------------------------------------
~PARAMETER INFORMATION
#MNEM.UNIT    VALUE                      DESCRIPTION
#---- -----   --------------------       ------------------------
RUN  .          1                        :RUN NUMBER
PDAT .        GROUND LEVEL               :Permanent Datum
EPD  .C3                                 :Elevation of Permanent Datum above Mean Sea Level
EPD  .C3                                 :Elevation of tool zero above Mean Sea Level
LMF  .          KELLY BUSHING            :Logging Measured From (Name of Logging Elevation Reference)
APD  .                                   :Elevation of Depth Reference (LMF) above Permanent Datum
#-----------------------------------------------------------------------------
~CURVE INFORMATION
#MNEM.UNIT   API CODE                                  DESCRIPTION
#---- -----  --------                                  -----------------------
DEPT .F                                                :DEPTH (BOREHOLE) {F10.1}
AHF20.OHMM                                             :Array Induction Four Foot Resistivity A20 {F13.4}
AHF60.OHMM                                             :Array Induction Four Foot Resistivity A60 {F13.4}
AHFCO60.MM/M                                           :Array Induction Four Foot Conductivity A60 {F13.4}
AHT10.OHMM                                             :Array Induction Two Foot Resistivity A10 {F13.4}
AHT20.OHMM                                             :Array Induction Two Foot Resistivity A20 {F13.4}
AHT30.OHMM                                             :Array Induction Two Foot Resistivity A30 {F13.4}
AHT60.OHMM                                             :Array Induction Two Foot Resistivity A60 {F13.4}
AHT90.OHMM                                             :Array Induction Two Foot Resistivity A90 {F13.4}
GR   .GAPI                                             :Gamma-Ray {F13.4}
SP   .MV                                               :Spontaneous Potential {F13.4}
#-----------------------------------------------------------------------------
# 
#     DEPT       AHF20        AHF60       AHFCO60       AHT10        AHT20        AHT30        AHT60        AHT90         GR           SP
#
~A  
# ...
    4363.5       2.2038       2.9958     333.8009       3.0111       2.1966       2.3351       2.9915       3.4662      39.8045      65.1250
    4363.0       2.2206       3.0484     328.0421       3.1200       2.2361       2.3983       3.1045       3.6129      42.1866      65.6875
    4362.5       2.2356       3.1239     320.1124       3.0845       2.2011       2.3737       3.1187       3.6156      42.8124      65.8125
    4362.0       2.2530       3.1974     312.7531       3.0452       2.1923       2.3857       3.1909       3.6921      41.8585      66.4375
    4361.5       2.2677       3.2671     306.0788       3.1295       2.2370       2.4407       3.2767       3.8836      40.7367      67.0000
    4361.0       2.2899       3.3340     299.9406       3.2470       2.2610       2.4812       3.3849       4.0391      39.4010      67.2500
    4360.5       2.3111       3.3910     294.9005       3.3306       2.2936       2.5208       3.4593       4.1913      46.2961      67.8125
    4360.0       2.3265       3.4337     291.2337       3.4172       2.3234       2.5554       3.5273       4.3591      43.3761      68.6875
    4359.5       2.3224       3.4246     292.0030       3.4426       2.3340       2.5303       3.4700       4.1774      41.9453      69.5625
    4359.0       2.2902       3.3407     299.3347       3.4557       2.3226       2.5193       3.4743       4.0589      38.3228      70.0625
    4358.5       2.2308       3.1989     312.6035       3.3107       2.2406       2.4184       3.2686       3.7687      40.9507      71.0625
    4358.0       2.1565       3.0400     328.9468       2.9321       2.1446       2.3079       3.1110       3.5359      41.6533      71.0000
    4357.5       2.0861       2.8965     345.2502       2.6791       2.0412       2.1798       2.8424       3.1725      35.8132      71.3750
    4357.0       2.0361       2.8030     356.7614       2.5285       1.9445       2.0500       2.6063       2.8808      37.4825      71.6250
    4356.5       2.0125       2.7611     362.1679       2.4890       1.9078       2.0240       2.5927       2.9030      40.7979      71.9375
    4356.0       2.0128       2.7667     361.4412       2.6783       1.9863       2.1099       2.7240       3.0642      50.2604      72.3750
    4355.5       2.0277       2.8056     356.4280       2.7606       2.0374       2.1973       2.9024       3.2926      48.4662      70.1875
    4355.0       2.0507       2.8601     349.6339       2.7955       2.0332       2.1824       2.8577       3.2711      48.0252      71.6875
    4354.5       2.0774       2.9331     340.9402       2.7913       2.0426       2.2043       2.8600       3.2898      41.1300      70.6875
    4354.0       2.1005       2.9994     333.3968       2.8340       2.0504       2.2228       2.9485       3.3847      39.2528      69.1875
    4353.5       2.1330       3.0736     325.3489       2.9077       2.1077       2.2680       3.0757       3.4541      38.9988      71.5625
    4353.0       2.1726       3.1571     316.7416       2.9751       2.1904       2.3786       3.2684       3.6639      45.1916      72.3125
    4352.5       2.1945       3.2038     312.1336       3.2235       2.2963       2.4924       3.4754       3.8001      42.4244      71.3125
    4352.0       2.1838       3.1940     313.0877       3.0725       2.2348       2.3805       3.3077       3.6258      41.2476      70.0625
    4351.5       2.1578       3.1308     319.4114       2.8725       2.1281       2.2714       3.1293       3.5038      37.2846      70.2500
    4351.0       2.1402       3.1082     321.7252       2.6968       2.1305       2.2505       3.0529       3.4686      38.7037      70.7500
    4350.5       2.1249       3.0876     323.8736       2.6883       2.0742       2.2040       2.9931       3.4176      41.3269      71.5625
    4350.0       2.1098       3.0896     323.6656       2.7119       2.0879       2.2287       2.9964       3.6130      40.2840      71.6875
    4349.5       2.1029       3.1101     321.5365       2.7278       2.0876       2.2816       3.2114       3.7039      44.0954      73.0000
    4349.0       2.0916       3.1383     318.6440       2.7486       2.0760       2.2845       3.1727       3.6739      39.7983      74.1250
    4348.5       2.0757       3.1526     317.1995       2.7407       2.0482       2.2677       3.1510       3.7614      38.6113      73.5000
    4348.0       2.0521       3.1419     318.2762       2.6806       2.0475       2.2344       3.1483       3.7537      35.5224      75.5625
    4347.5       2.0325       3.1100     321.5394       2.7201       2.0048       2.2698       3.2426       3.9287      41.2503      75.8125
    4347.0       2.0160       3.0586     326.9469       2.4903       2.0430       2.2290       3.1351       3.8375      44.0958      75.3750
    4346.5       1.9920       2.9861     334.8835       2.5533       1.9624       2.1378       2.8599       3.4592      48.4759      74.7500
    4346.0       1.9706       2.9270     341.6509       2.4787       1.8888       2.0792       2.8500       3.4797      44.1835      74.8125
    4345.5       1.9417       2.8713     348.2683       2.4446       1.9138       2.0691       2.8185       3.4093      47.5381      74.6875
    4345.0       1.9148       2.8166     355.0335       2.5590       1.9086       2.0701       2.7914       3.3609      47.1063      75.5000
    4344.5       1.9081       2.8159     355.1274       2.5013       1.9015       2.0554       2.7824       3.3144      48.7756      76.4375
    4344.0       1.9044       2.8146     355.2851       2.4687       1.8880       2.0642       2.7933       3.2366      45.8482      75.7500
    4343.5       1.9034       2.8160     355.1187       2.4108       1.8413       2.0314       2.7337       3.1240      44.2892      75.5625
    4343.0       1.9131       2.8436     351.6714       2.4874       1.8554       2.0344       2.7340       3.0479      43.0616      75.1250
    4342.5       1.9491       2.9110     343.5244       2.5742       1.8803       2.0826       2.8187       3.1606      40.7288      74.9375
    4342.0       2.0075       3.0122     331.9857       2.5734       2.0139       2.1844       2.9969       3.4449      41.9211      76.7500
    4341.5       2.0700       3.1229     320.2202       2.7113       2.0892       2.3106       3.2158       3.6289      40.6696      78.2500
    4341.0       2.1275       3.2207     310.4912       2.9812       2.1326       2.3741       3.2837       3.7381      39.7298      78.2500
    4340.5       2.1704       3.2891     304.0347       2.9604       2.1673       2.4139       3.3383       3.7233      38.7606      78.5000
    4340.0       2.2083       3.3377     299.6046       2.9570       2.1652       2.4095       3.3114       3.7342      35.5165      79.0625
    4339.5       2.2483       3.3878     295.1789       2.9669       2.2154       2.4103       3.2993       3.7501      36.9120      78.6250
    4339.0       2.2863       3.4384     290.8345       2.9784       2.3073       2.5207       3.4935       3.9236      35.2445      78.6875
    4338.5       2.2891       3.4237     292.0789       3.3221       2.4659       2.7079       3.8114       4.2816      38.5831      79.1875
    4338.0       2.2654       3.3463     298.8394       3.0175       2.3370       2.5490       3.4639       3.8176      41.2945      79.7500
    4337.5       2.2283       3.2451     308.1541       2.7644       2.1963       2.4155       3.2747       3.6595      43.6927      80.5625
    4337.0       2.1919       3.1926     313.2200       2.6307       2.1184       2.2753       3.0415       3.3813      45.2670      81.1250
    4336.5       2.1535       3.1102     321.5197       2.5891       2.1306       2.3155       3.0850       3.4716      42.0998      82.3125
    4336.0       2.1331       3.0784     324.8443       2.5609       2.1368       2.3255       3.0810       3.5365      39.3823      82.6875
    4335.5       2.1181       3.0664     326.1137       2.5023       2.1082       2.3006       3.0677       3.5133      38.7619      82.1875
