~VERSION INFORMATION
VERS.           2.0   :CWLS Log ASCII Standard - VERSION 2.0
WRAP.           NO    :One Line per depth step
PROD.  Schlumberger   :LAS Producer
PROG.  DLIS to ASCII 11C0-305                          :LAS Program name and version
CREA.        2004/05/20 06:33                          :LAS Creation date {YYYY/MM/DD hh:mm}
SOURCE.     AIT_TLD_MCFL_CNL_053PUP.DLIS               :DLIS File Name
FILE-ID.     AIT_TLD_MCFL_CNL_053PUP                   :File Identification Number
#--------------------------------------------------
~WELL INFORMATION
#MNEM.UNIT      DATA             DESCRIPTION
#---- ------ --------------   -----------------------------
STRT .F         5760.0       :START DEPTH     
STOP .F         4243.0       :STOP DEPTH     
STEP .F           -0.5       :STEP     
NULL .          -999.25      :NULL VALUE
COMP .        DEPARTMENT OF ENERGY                     :COMPANY
WELL .        48X - 28                                 :WELL
FLD  .        NAVAL PETROLEUM RESERVE # 3              :FIELD
LOC  .        490' FSL, 2449' FWL                      :LOCATION
CNTY .        NATRONA                                  :COUNTY
STAT .        WYOMING                                  :STATE
CTRY .                                                 :COUNTRY
API  .        49-025-23195                             :API NUMBER
UWI  .                                                 :UNIQUE WELL ID
DATE .        19-May-2004                              :LOG DATE {DD-MMM-YYYY}
SRVC .        Schlumberger                             :SERVICE COMPANY
LATI .DEG                                              :LATITUDE
LONG .DEG                                              :LONGITUDE
GDAT .                                                 :GeoDetic Datum
SECT .        28                                       :Section
RANG .        78W                                      :Range
TOWN .        39N                                      :Township
#-----------------------------------------------------------------------------
~PARAMETER INFORMATION
#MNEM.UNIT    VALUE                      DESCRIPTION
#---- -----   --------------------       ------------------------
RUN  .          1                        :RUN NUMBER
PDAT .        GROUND LEVEL               :Permanent Datum
EPD  .C3                                 :Elevation of Permanent Datum above Mean Sea Level
EPD  .C3                                 :Elevation of tool zero above Mean Sea Level
LMF  .          KELLY BUSHING            :Logging Measured From (Name of Logging Elevation Reference)
APD  .                                   :Elevation of Depth Reference (LMF) above Permanent Datum
#-----------------------------------------------------------------------------
~CURVE INFORMATION
#MNEM.UNIT   API CODE                                  DESCRIPTION
#---- -----  --------                                  -----------------------
DEPT .F                                                :DEPTH (BOREHOLE) {F10.1}
AHF20.OHMM                                             :Array Induction Four Foot Resistivity A20 {F13.4}
AHF60.OHMM                                             :Array Induction Four Foot Resistivity A60 {F13.4}
AHFCO60.MM/M                                           :Array Induction Four Foot Conductivity A60 {F13.4}
AHT10.OHMM                                             :Array Induction Two Foot Resistivity A10 {F13.4}
AHT20.OHMM                                             :Array Induction Two Foot Resistivity A20 {F13.4}
AHT30.OHMM                                             :Array Induction Two Foot Resistivity A30 {F13.4}
AHT60.OHMM                                             :Array Induction Two Foot Resistivity A60 {F13.4}
AHT90.OHMM                                             :Array Induction Two Foot Resistivity A90 {F13.4}
GR   .GAPI                                             :Gamma-Ray {F13.4}
SP   .MV                                               :Spontaneous Potential {F13.4}
#-----------------------------------------------------------------------------
# 
#     DEPT       AHF20        AHF60       AHFCO60       AHT10        AHT20        AHT30        AHT60        AHT90         GR           SP
#
~A  
    5760.0      16.6920      34.1995      29.2402      11.6708      16.4569      19.6770      34.1563      46.7631      24.9590      94.8125
    5759.5      16.6905      34.2048      29.2357      11.6680      16.4479      19.6685      34.1477      46.4071      24.9590      94.3750
    5759.0      16.6904      34.2255      29.2180      11.6617      16.4411      19.6661      34.1246      45.9821      24.9590      94.4375
    5758.5      16.6978      34.2512      29.1960      11.6462      16.4257      19.6488      34.1443      45.5640      24.9590      94.2500
    5758.0      16.7229      34.3421      29.1188      11.6470      16.4212      19.6249      34.2065      45.1048      24.9590      94.0625
    5757.5      16.7771      34.4114      29.0601      11.6171      16.4519      19.6420      34.2905      44.8390      24.9590      93.6875
    5757.0      16.8843      34.4693      29.0114      11.6112      16.6181      19.6710      34.3431      44.8294      24.9590      94.1875
    5756.5      17.0557      34.5437      28.9488      11.6110      16.8087      19.8058      34.3648      45.1194      24.9590      93.9375
    5756.0      17.2781      34.6374      28.8705      11.5818      17.1193      19.9153      34.5709      45.5688      24.9590      93.8750
    5755.5      17.4747      34.7662      28.7635      11.5592      17.5600      19.9016      34.9501      46.0865      24.9590      94.0625
    5755.0      17.8169      34.9020      28.6517      11.5078      18.0376      19.9403      35.3909      46.5202      24.9590      94.0625
    5754.5      17.9678      35.0726      28.5123      11.3799      18.5273      20.1503      35.0773      47.4025      24.9590      93.9375
    5754.0      17.9262      35.1553      28.4453      11.1986      18.7626      20.3675      35.8902      48.5718      24.9590      94.2500
    5753.5      17.6006      34.9904      28.5792      11.0362      18.5051      19.9917      37.3391      52.3161      24.9590      94.1250
    5753.0      16.9669      34.4152      29.0569      10.8036      17.4353      19.3736      35.8053      53.7193      24.9590      95.6875
    5752.5      16.1278      33.4782      29.8702      10.6290      16.3185      18.3952      34.2108      54.4527      24.9590      97.5000
    5752.0      15.2712      32.5207      30.7497      10.4824      15.2643      17.7379      32.8579      53.9414      24.9590      98.0625
    5751.5      14.5652      31.7989      31.4476      10.1789      14.3445      17.2755      31.6233      52.9309      24.9590      98.9375
    5751.0      13.5667      31.1433      32.1096      10.4161      13.3289      16.7304      30.8074      52.4006      24.9590      99.6875
    5750.5      13.0319      30.7633      32.5063      10.6065      12.5317      16.7047      30.5501      48.2467      24.9590      99.8125
    5750.0      12.6317      30.4763      32.8124      10.8719      12.0915      16.4941      29.2856      45.1576      24.9590      98.3125
    5749.5      12.4004      30.3311      32.9694      11.1293      11.8347      16.6606      29.0456      42.3450      24.9590      96.8125
    5749.0      12.4489      30.5341      32.7502      11.5456      11.7551      16.8542      28.4061      38.2474      24.9590      95.5625
    5748.5      12.8555      31.4270      31.8198      11.3111      11.8179      17.2360      28.3640      37.4413      24.9590      95.3125
    5748.0      13.4849      32.4384      30.8277      11.4725      12.2816      18.0851      29.9658      38.8316      24.9590      94.4375
    5747.5      14.1051      33.5682      29.7901      13.0990      14.2976      21.0961      36.5279      48.6012      24.9590      93.5000
    5747.0      15.4260      35.3239      28.3094      15.2522      19.3796      25.4758      44.4863      56.9983      24.9590      92.4375
    5746.5      15.3380      33.4282      29.9149      14.4203      20.8381      26.6501      41.5862      56.7444      24.9590      91.5000
    5746.0      14.5455      30.9937      32.2646      12.2739      15.4200      18.9950      29.4016      38.5415      24.9590      90.1250
    5745.5      14.5397      29.8180      33.5368      10.7209      14.6752      17.4314      25.9389      31.0964      24.9590      90.6250
    5745.0      13.5943      28.5058      35.0806      11.8292      12.5401      14.9458      21.5450      24.0472      24.9590      91.4375
    5744.5      13.5679      30.0179      33.3135      12.5787      11.3989      14.4916      21.2868      22.6066      24.9590      90.3750
    5744.0      15.4555      37.9887      26.3236      14.7004      13.9185      19.4551      33.7257      36.2247      24.9590      90.0000
    5743.5      18.1258      51.9259      19.2582      18.9798      19.8471      25.9008      44.1892      38.7286      24.9590      88.9375
    5743.0      21.9105      71.2618      14.0328      26.8077      24.8306      37.6558      72.6874      52.7228      24.9590      88.5625
    5742.5      28.6361     114.5013       8.7335      41.3455      31.0695      53.1018     120.3156      58.3317      24.9590      88.3750
    5742.0      37.7808     188.4064       5.3077      68.8522      45.5998      74.5532     174.0341      71.3639      24.9590      87.8750
    5741.5      52.1137     335.7344       2.9785     134.6750      77.2543     126.5388     272.2377      89.0710      24.9590      87.3125
    5741.0      64.4989     569.1299       1.7571    1950.0000      86.7736     145.6436     346.7332      65.8345      24.9590      87.5625
    5740.5      66.9677     735.5450       1.3595    1526.5244      89.0423     148.6503     300.1888      57.7401      24.9590      87.8750
    5740.0      57.3390     639.5832       1.5635     929.9833      53.8013     144.6306     236.3265      36.1092      24.9590      89.4375
    5739.5      59.6053     455.0753       2.1974     900.2573      40.6177      97.0356     172.8099      32.0416      24.9590      90.9375
    5739.0      58.6270     301.0326       3.3219     614.2454      39.9143      85.6552     190.3795      31.0696      24.9590      92.8125
    5738.5      61.5131     219.5496       4.5548     365.6433      53.0967     104.9022     168.6658      42.0052      24.9590      93.8125
    5738.0      66.6699     168.2429       5.9438     273.5702      80.2526     124.9196     184.0761      71.7334      23.7933      95.1250
    5737.5      62.6698     133.1129       7.5124     732.1125     118.4816     122.1326     187.6265     225.2264      23.2581      96.0000
    5737.0      48.6984      97.4161      10.2652      71.2776      55.8525     172.6539     273.7099     248.0103      23.2814      96.6250
    5736.5      34.4643      67.5598      14.8017      39.2570      37.1103      82.9400      99.0782     165.0284      22.1761      96.9375
    5736.0      24.7582      49.9332      20.0268      23.4648      23.1998      32.2890      49.0590      60.0654      20.6489      97.0000
    5735.5      18.9283      40.0252      24.9843      15.5498      15.0757      21.0134      35.0833      39.8870      17.5203      97.6250
    5735.0      15.8416      34.1496      29.2829      13.4503      13.6638      19.7993      30.4678      35.3912      19.3975      97.9375
    5734.5      14.1428      30.4282      32.8642      12.3047      12.6403      18.9039      28.2911      39.6404      18.5632      98.3750
    5734.0      13.2130      27.9862      35.7319      11.8988      12.1128      17.4568      26.8367      45.5375      20.7334      99.7500
    5733.5      12.6232      26.0792      38.3448      11.4382      12.9572      17.5846      25.1640      52.5948      21.3591     100.1250
    5733.0      12.0127      24.2065      41.3112      11.4615      13.5744      19.9541      25.3743      55.8227      26.1563     100.5000
    5732.5      11.1814      22.2099      45.0251      15.3952      15.4318      22.0697      27.1461      46.7528      24.8204     100.1250
    5732.0      10.2081      20.1228      49.6948      10.8910      10.1099      13.5659      20.1555      27.3346      22.5261      99.4375
