~VERSION INFORMATION
VERS.           2.0   :CWLS Log ASCII Standard - VERSION 2.0
WRAP.           NO    :One Line per depth step
PROD.  Schlumberger   :LAS Producer
PROG.  DLIS to ASCII 11C0-305                          :LAS Program name and version
CREA.        2004/05/20 06:33                          :LAS Creation date {YYYY/MM/DD hh:mm}
SOURCE.     AIT_TLD_MCFL_CNL_053PUP.DLIS               :DLIS File Name
FILE-ID.     AIT_TLD_MCFL_CNL_053PUP                   :File Identification Number
#--------------------------------------------------
~WELL INFORMATION
#MNEM.UNIT      DATA             DESCRIPTION
#---- ------ --------------   -----------------------------
STRT .F         5760.0       :START DEPTH     
STOP .F         4243.0       :STOP DEPTH     
STEP .F           -0.5       :STEP     
NULL .          -999.25      :NULL VALUE
COMP .        DEPARTMENT OF ENERGY                     :COMPANY
WELL .        48X - 28                                 :WELL
FLD  .        NAVAL PETROLEUM RESERVE # 3              :FIELD
LOC  .        490' FSL, 2449' FWL                      :LOCATION
CNTY .        NATRONA                                  :COUNTY
STAT .        WYOMING                                  :STATE
CTRY .                                                 :COUNTRY
API  .        49-025-23195                             :API NUMBER
UWI  .                                                 :UNIQUE WELL ID
DATE .        19-May-2004                              :LOG DATE {DD-MMM-YYYY}
SRVC .        Schlumberger                             :SERVICE COMPANY
LATI .DEG                                              :LATITUDE
LONG .DEG                                              :LONGITUDE
GDAT .                                                 :GeoDetic Datum
SECT .        28                                       :Section
RANG .        78W                                      :Range
TOWN .        39N                                      :Township
#-----------------------------------------------------------------------------
~PARAMETER INFORMATION
#MNEM.UNIT    VALUE                      DESCRIPTION
#---- -----   --------------------       ------------------------
RUN  .          1                        :RUN NUMBER
PDAT .        GROUND LEVEL               :Permanent Datum
EPD  .C3                                 :Elevation of Permanent Datum above Mean Sea Level
EPD  .C3                                 :Elevation of tool zero above Mean Sea Level
LMF  .          KELLY BUSHING            :Logging Measured From (Name of Logging Elevation Reference)
APD  .                                   :Elevation of Depth Reference (LMF) above Permanent Datum
#-----------------------------------------------------------------------------
~CURVE INFORMATION
#MNEM.UNIT   API CODE                                  DESCRIPTION
#---- -----  --------                                  -----------------------
DEPT .F                                                :DEPTH (BOREHOLE) {F10.1}
AHF20.OHMM                                             :Array Induction Four Foot Resistivity A20 {F13.4}
AHF60.OHMM                                             :Array Induction Four Foot Resistivity A60 {F13.4}
AHFCO60.MM/M                                           :Array Induction Four Foot Conductivity A60 {F13.4}
AHT10.OHMM                                             :Array Induction Two Foot Resistivity A10 {F13.4}
AHT20.OHMM                                             :Array Induction Two Foot Resistivity A20 {F13.4}
AHT30.OHMM                                             :Array Induction Two Foot Resistivity A30 {F13.4}
AHT60.OHMM                                             :Array Induction Two Foot Resistivity A60 {F13.4}
AHT90.OHMM                                             :Array Induction Two Foot Resistivity A90 {F13.4}
GR   .GAPI                                             :Gamma-Ray {F13.4}
SP   .MV                                               :Spontaneous Potential {F13.4}
#-----------------------------------------------------------------------------
# 
#     DEPT       AHF20        AHF60       AHFCO60       AHT10        AHT20        AHT30        AHT60        AHT90         GR           SP
#
~A  
# ...
    5076.0      13.8355      16.5703      60.3491    1950.0000      13.3259      13.1792      16.8517      16.6081     130.8825      43.1250
    5075.5      14.3981      17.0878      58.5211    1950.0000      14.2417      13.8919      17.5923      17.2396     132.4454      43.6250
    5075.0      14.7831      17.3373      57.6790    1950.0000      14.8350      14.4012      18.1142      17.5702     125.9949      44.4375
    5074.5      14.9261      17.3329      57.6936    1950.0000      14.4370      14.1037      17.4645      16.8140     127.2464      44.3125
    5074.0      14.9055      17.2071      58.1156    1950.0000      13.9988      13.6466      17.1751      16.4074     134.3379      43.4375
    5073.5      14.8327      17.0406      58.6833    1950.0000      13.9958      13.5908      16.9543      16.0200     143.1108      43.0625
    5073.0      14.7771      16.8457      59.3624    1950.0000      14.1001      13.6130      16.7338      15.8763     140.6079      43.3750
    5072.5      14.7305      16.5972      60.2513    1950.0000      14.1212      13.6283      16.6532      15.8302     133.3078      43.3125
    5072.0      14.6752      16.3596      61.1262    1950.0000      14.0471      13.4492      16.3352      15.6027     131.6889      43.0000
    5071.5      14.5556      16.0491      62.3088    1950.0000      14.3286      13.6460      16.1181      15.8439     127.5174      42.4375
    5071.0      14.1923      15.4566      64.6973    1950.0000      14.4660      13.6158      16.0612      15.4618     126.1631      41.9375
    5070.5      13.4009      14.5452      68.7514    1950.0000      14.0400      13.2723      15.4290      14.8032     121.0795      42.0000
    5070.0      12.2833      13.3253      75.0449    1950.0000      13.4207      13.0372      14.9231      14.0188     125.8767      41.9375
    5069.5      11.1901      12.1207      82.5033    1950.0000      11.8145      11.4659      12.9172      11.9278     129.1681      42.7500
    5069.0      10.1055      11.0574      90.4373    1950.0000       9.1463       9.0364      10.3227       9.8745     135.6339      43.2500
    5068.5       9.3476      10.2952      97.1323    1950.0000       7.9157       8.0380       9.0231       8.7426     132.0882      42.6875
    5068.0       9.1881      10.1612      98.4135    1950.0000       7.9299       7.8803       8.7973       8.8212     132.2368      42.2500
    5067.5       9.4689      10.5664      94.6400    1950.0000       8.6287       8.7169       9.8335       9.8829     124.8929      42.0625
    5067.0      10.1088      11.4716      87.1720    1950.0000       9.6328       9.9913      11.2384      11.0806     131.9845      42.0625
    5066.5      10.9806      12.7422      78.4796    1950.0000      10.8128      11.3038      13.1596      13.1760     127.3958      41.7500
    5066.0      11.9658      14.0906      70.9692    1950.0000      12.1639      12.5589      15.0020      15.1111     123.3039      42.1875
    5065.5      12.8227      15.2646      65.5110    1950.0000      13.1999      13.5341      16.4989      16.5379     118.9239      42.7500
    5065.0      13.3190      16.0341      62.3670    1950.0000      13.6652      13.9568      17.3930      17.3132     119.3410      43.1250
    5064.5      13.4021      16.3230      61.2633    1950.0000      13.1516      13.5076      16.7482      16.3895     118.4251      42.6875
    5064.0      13.2760      16.2496      61.5399    1950.0000      12.5918      13.0592      16.2990      16.3855     120.3023      43.0625
    5063.5      13.1888      16.1051      62.0920    1950.0000      12.4763      12.9164      16.1382      16.0587     124.6108      43.3750
    5063.0      13.0355      16.0866      62.1634    1950.0000      12.2728      12.7399      16.0021      16.0219     132.3738      43.0000
    5062.5      12.9362      15.9876      62.5486    1950.0000      12.2107      12.7929      16.0193      16.1393     126.1165      43.1250
    5062.0      12.8977      16.0297      62.3840    1950.0000      12.0742      12.7586      16.0239      16.3556     118.8880      43.4375
    5061.5      12.9022      16.1470      61.9311    1950.0000      11.9527      12.6789      16.0166      16.4381     116.8051      43.5625
    5061.0      12.9698      16.3285      61.2425    1950.0000      11.8867      12.5808      15.9899      16.5058     114.7194      42.3750
    5060.5      13.0765      16.5298      60.4967    1950.0000      12.1927      12.9292      16.4099      17.1033     123.0624      42.0000
    5060.0      13.2009      16.6453      60.0770    1950.0000      12.4676      13.1122      16.7578      17.5253     122.1516      41.6875
    5059.5      13.3512      16.8195      59.4547    1950.0000      12.7153      13.3354      17.1656      18.0333     125.9059      41.2500
    5059.0      13.5013      16.9986      58.8284    1950.0000      12.5863      13.0754      16.9111      17.8785     122.7773      42.0625
    5058.5      13.6378      17.1512      58.3049    1950.0000      12.4659      12.8825      16.8232      17.8543     119.6385      42.3750
    5058.0      13.7992      17.3402      57.6693    1950.0000      12.7931      13.1428      17.2542      18.4145     116.5099      42.3125
    5057.5      13.9917      17.6495      56.6588    1950.0000      13.2824      13.5122      17.9880      19.2000     110.8931      42.0625
    5057.0      14.0599      17.6924      56.5214    1950.0000      13.5915      13.6875      18.3744      19.6313     112.2283      42.0625
    5056.5      13.8994      17.4899      57.1758    1950.0000      13.7351      13.9378      18.7668      20.0240     116.8170      41.7500
    5056.0      13.4183      16.9902      58.8575    1950.0000      13.0159      13.2231      17.9512      18.9609     125.4018      41.7500
    5055.5      13.0094      16.1570      61.8927    1950.0000      12.2293      12.4246      16.2098      17.0554     127.4875      42.0000
    5055.0      12.4264      15.4135      64.8780    1950.0000      11.4175      11.4584      14.8679      15.4828     122.2732      42.5625
    5054.5      12.2139      14.9697      66.8014    1950.0000      10.3561      10.6027      13.6333      14.0739     120.1394      42.6875
    5054.0      12.4587      15.2242      65.6847    1950.0000      10.4437      10.5066      13.4887      13.7762     118.3859      43.0000
    5053.5      13.0081      15.9512      62.6910    1950.0000      11.8465      11.8732      15.8158      15.8717     118.8031      42.8750
    5053.0      13.6150      16.5992      60.2439    1950.0000      14.0259      13.8718      18.3783      18.6302     107.5826      42.9375
    5052.5      14.1944      17.3352      57.6862    1950.0000      15.4213      15.5702      20.2684      19.9729     116.6363      43.0625
    5052.0      14.2136      17.2388      58.0086    1950.0000      13.9719      13.8212      18.3577      18.3684     119.7649      42.7500
    5051.5      13.9427      16.6780      59.9593    1950.0000      13.0263      12.6822      16.5989      16.7371     129.7805      43.2500
    5051.0      13.6868      16.3146      61.2949    1950.0000      12.4451      11.9574      15.5859      15.9699     120.8118      43.0000
    5050.5      13.3607      15.8424      63.1217    1950.0000      11.7877      11.4250      14.8761      15.1896     119.7689      42.8750
    5050.0      13.3677      15.8271      63.1829    1950.0000      11.9839      11.6964      15.2232      15.5871     115.4362      42.8750
    5049.5      13.6372      16.2357      61.5928    1950.0000      12.4950      12.0769      16.0974      16.5984     117.1049      42.6875
    5049.0      14.0294      16.8171      59.4631    1950.0000      13.0069      12.7154      16.7020      17.4953     109.8047      41.0625
    5048.5      14.4558      17.3976      57.4793    1950.0000      13.9232      13.3828      17.7951      18.8063     106.0295      41.9375
    5048.0      14.7657      17.8637      55.9794    1950.0000      14.1199      13.6193      17.9960      19.3273     100.6065      42.5625
