~VERSION INFORMATION
VERS.           2.0   :CWLS Log ASCII Standard - VERSION 2.0
WRAP.           NO    :One Line per depth step
PROD.  Schlumberger   :LAS Producer
PROG.  DLIS to ASCII 11C0-305                          :LAS Program name and version
CREA.        2004/05/20 06:33                          :LAS Creation date {YYYY/MM/DD hh:mm}
SOURCE.     AIT_TLD_MCFL_CNL_053PUP.DLIS               :DLIS File Name
FILE-ID.     AIT_TLD_MCFL_CNL_053PUP                   :File Identification Number
#--------------------------------------------------
~WELL INFORMATION
#MNEM.UNIT      DATA             DESCRIPTION
#---- ------ --------------   -----------------------------
STRT .F         5760.0       :START DEPTH     
STOP .F         4243.0       :STOP DEPTH     
STEP .F           -0.5       :STEP     
NULL .          -999.25      :NULL VALUE
COMP .        DEPARTMENT OF ENERGY                     :COMPANY
WELL .        48X - 28                                 :WELL
FLD  .        NAVAL PETROLEUM RESERVE # 3              :FIELD
LOC  .        490' FSL, 2449' FWL                      :LOCATION
CNTY .        NATRONA                                  :COUNTY
STAT .        WYOMING                                  :STATE
CTRY .                                                 :COUNTRY
API  .        49-025-23195                             :API NUMBER
UWI  .                                                 :UNIQUE WELL ID
DATE .        19-May-2004                              :LOG DATE {DD-MMM-YYYY}
SRVC .        Schlumberger                             :SERVICE COMPANY
LATI .DEG                                              :LATITUDE
LONG .DEG                                              :LONGITUDE
GDAT .                                                 :GeoDetic Datum
SECT .        28                                       :Section
RANG .        78W                                      :Range
TOWN .        39N                                      :Township
#-----------------------------------------------------------------------------
~PARAMETER INFORMATION
#MNEM.UNIT    VALUE                      DESCRIPTION
#---- -----   --------------------       ------------------------
RUN  .          1                        :RUN NUMBER
PDAT .        GROUND LEVEL               :Permanent Datum
EPD  .C3                                 :Elevation of Permanent Datum above Mean Sea Level
EPD  .C3                                 :Elevation of tool zero above Mean Sea Level
LMF  .          KELLY BUSHING            :Logging Measured From (Name of Logging Elevation Reference)
APD  .                                   :Elevation of Depth Reference (LMF) above Permanent Datum
#-----------------------------------------------------------------------------
~CURVE INFORMATION
#MNEM.UNIT   API CODE                                  DESCRIPTION
#---- -----  --------                                  -----------------------
DEPT .F                                                :DEPTH (BOREHOLE) {F10.1}
AHF20.OHMM                                             :Array Induction Four Foot Resistivity A20 {F13.4}
AHF60.OHMM                                             :Array Induction Four Foot Resistivity A60 {F13.4}
AHFCO60.MM/M                                           :Array Induction Four Foot Conductivity A60 {F13.4}
AHT10.OHMM                                             :Array Induction Two Foot Resistivity A10 {F13.4}
AHT20.OHMM                                             :Array Induction Two Foot Resistivity A20 {F13.4}
AHT30.OHMM                                             :Array Induction Two Foot Resistivity A30 {F13.4}
AHT60.OHMM                                             :Array Induction Two Foot Resistivity A60 {F13.4}
AHT90.OHMM                                             :Array Induction Two Foot Resistivity A90 {F13.4}
GR   .GAPI                                             :Gamma-Ray {F13.4}
SP   .MV                                               :Spontaneous Potential {F13.4}
#-----------------------------------------------------------------------------
# 
#     DEPT       AHF20        AHF60       AHFCO60       AHT10        AHT20        AHT30        AHT60        AHT90         GR           SP
#
~A  
# ...
    5475.0      23.4606      60.2369      16.6011     591.7186      23.8728      34.8629      75.6815      85.3668      46.4823      57.6250
    5474.5      21.7225      56.8235      17.5984     383.2060      28.9669      36.7283      72.2871      76.6023      51.1687      57.0625
    5474.0      18.9117      49.5637      20.1761     240.7601      23.7949      35.8567      59.0400      61.4033      48.0401      57.5625
    5473.5      16.6349      42.2797      23.6520     164.1318      15.6981      20.4346      38.1922      41.4223      38.9661      58.4375
    5473.0      15.2479      37.6986      26.5262     122.8106      10.2512      13.0599      25.6490      28.8029      35.6289      59.8125
    5472.5      15.2121      35.8354      27.9054      75.8572      12.1710      15.3241      28.7791      40.5215      38.5490      60.5000
    5472.0      15.5409      35.3186      28.3137     124.1857      15.9864      19.4172      34.4873      44.8335      37.1304      61.3750
    5471.5      16.3123      35.1952      28.4130      96.6211      23.6503      28.4421      43.9335      59.8636      33.7932      62.4375
    5471.0      15.6064      33.3516      29.9836      83.4020      19.8495      30.5002      43.8190      55.5832      35.0446      63.1875
    5470.5      14.1402      29.8782      33.4692      57.6029      16.3075      22.0333      35.9635      46.7009      37.7521      63.3125
    5470.0      12.9104      27.0520      36.9659      38.4452      12.4789      15.8739      25.4663      35.1437      39.2766      64.3750
    5469.5      11.4332      23.7730      42.0646      23.4194       9.9252      12.4963      18.3488      25.7423      35.7308      65.2500
    5469.0      11.0101      23.3846      42.7632      19.9642       9.3422      11.7071      17.2426      24.3422      35.3137      65.7500
    5468.5      11.1530      25.2445      39.6126      21.8174       9.3758      12.6192      20.6838      29.0768      33.1568      66.1875
    5468.0      11.7477      29.2932      34.1376      33.7495      11.8659      17.5168      31.0583      44.1076      33.1568      67.2500
    5467.5      12.5039      34.7714      28.7593      47.4031      14.4712      23.2495      45.0359      61.9504      32.1139      65.8750
    5467.0      13.2777      40.2090      24.8700      48.6981      13.9034      22.7940      49.8078      63.4246      30.2169      65.5625
    5466.5      13.9835      46.7742      21.3793      46.1303      12.9932      21.3077      47.2430      57.2690      28.1311      65.8750
    5466.0      14.9968      54.8963      18.2162      39.6938      11.9851      20.3778      47.0836      51.1481      26.6711      66.4375
    5465.5      16.5358      64.8359      15.4236      39.7294      13.7541      25.4830      63.7859      56.8968      26.6976      67.4375
    5465.0      18.2462      76.2065      13.1222      52.1935      18.8577      31.6391      78.1576      56.2192      26.0367      66.9375
    5464.5      21.5995      88.6303      11.2828      92.4277      22.4810      40.4641      92.7219      56.5262      23.3252      64.7500
    5464.0      24.6246      96.4512      10.3679     121.7120      26.5730      39.8794      97.8507      52.0732      22.4909      63.7500
    5463.5      27.5912      99.1471      10.0860     208.1003      33.8298      32.0267      62.2027      45.8222      19.3995      62.5000
    5463.0      30.1762      96.4614      10.3668     411.7095      29.1689      55.5538      96.1405      55.1754      20.0252      62.3125
    5462.5      30.7917      91.5550      10.9224     833.3911      25.6522      52.9071      80.9105      56.2316      17.3137      62.3750
    5462.0      30.3247      84.6245      11.8169    1348.6855      29.3818      42.0529      75.4972      60.4281      18.0291      62.6875
    5461.5      28.9948      81.0029      12.3452    1853.6376      24.3470      36.8493      47.9391      46.6522      16.3605      63.8125
    5461.0      30.4203      88.9940      11.2367    1950.0000      24.4344      37.9302      36.9918      39.3607      16.3605      62.8125
    5460.5      34.9369     117.2405       8.5295    1950.0000      30.2204      43.5304      56.4168      53.1142      19.2130      61.2500
    5460.0      43.0438     167.7148       5.9625    1950.0000      39.8644      66.4675     115.6491     103.4983      21.9245      58.1875
    5459.5      55.9952     239.3379       4.1782    1950.0000      88.2633      94.2399     129.3181     101.0830      30.0589      55.5625
    5459.0      69.0299     321.0788       3.1145    1950.0000      68.4298     116.1576     183.0268     112.1931      36.0297      55.3125
    5458.5      76.0784     333.4754       2.9987    1950.0000      77.5082     127.8335     213.8877     113.7384      38.1155      56.0625
    5458.0      74.1519     262.2585       3.8130    1950.0000      97.8931     120.3433     179.9677      81.0777      38.1155      54.6250
    5457.5      62.8115     192.6853       5.1898    1950.0000      65.6088      92.2142     128.5441      66.2241      38.8146      53.3750
    5457.0      59.3145     143.0623       6.9900    1950.0000      63.4343      66.3521      96.4262      63.3728      46.9490      52.3125
    5456.5      53.8027     114.2418       8.7534    1950.0000      47.6916      53.8300      57.1525      45.1666      49.8691      50.3750
    5456.0      51.3198     105.4711       9.4813    1950.0000      42.9650      47.8382      44.4632      39.9758      49.8495      50.3125
    5455.5      52.0145     114.0380       8.7690    1950.0000      50.3574      56.9574      58.6826      52.3998      44.2179      50.6250
    5455.0      60.2331     157.5581       6.3469    1950.0000      53.8065      83.2309      86.3332      72.8507      44.5521      50.2500
    5454.5      66.6032     213.6599       4.6803    1950.0000      65.6948     119.8733     123.3094      91.1375      39.5463      49.6875
    5454.0      76.8152     308.0627       3.2461    1950.0000      79.1376     182.2905     190.8653     107.0434      40.1720      48.1250
    5453.5      98.2589     407.5459       2.4537    1950.0000      94.2447     262.2548     273.9890     126.4844      34.6873      47.1250
    5453.0     120.9022     391.2500       2.5559    1950.0000     129.8797     282.5563     280.3412     137.0806      38.0245      46.2500
    5452.5     109.9758     281.0505       3.5581    1950.0000     149.1121     223.2571     218.5333     182.5966      38.1045      47.0625
    5452.0      84.2631     191.8577       5.2122    1950.0000     122.1322     294.7847     168.0433     125.6312      45.5494      48.0625
    5451.5      64.9496     132.5412       7.5448    1950.0000      82.5171     111.7009      96.5292      88.9022      53.2667      48.7500
    5451.0      54.0256      94.2963      10.6049    1950.0000      42.5242      51.9280      42.9283      50.9212      58.2895      47.9375
    5450.5      45.1794      77.1112      12.9683    1950.0000      29.9437      36.5288      37.4778      42.6572      56.4123      46.1250
    5450.0      42.1231      75.7022      13.2097    1950.0000      38.9509      46.3219      48.9565      58.7923      45.5664      45.3750
    5449.5      42.3639      85.9646      11.6327    1950.0000      43.4667      61.9744      71.2884      88.1892      36.7431      44.8125
    5449.0      43.9633     106.9456       9.3505    1950.0000      48.6053      71.8387      96.6393     117.9502      34.6574      45.0625
    5448.5      44.4494     138.7776       7.2058    1950.0000      47.3057      80.0671     137.3320     159.4455      36.5346      44.8750
    5448.0      43.6848     185.0666       5.4035    1950.0000      42.9066      86.9337     211.0784     199.8996      40.3350      45.1875
    5447.5      42.9289     250.2108       3.9966    1950.0000      39.8394      85.2136     300.8481     214.7922      36.5806      46.5000
    5447.0      43.1459     327.4872       3.0536    1950.0000      34.2452      79.6465     395.9690     204.2293      38.4578      47.1250
