~VERSION INFORMATION
VERS.           2.0   :CWLS Log ASCII Standard - VERSION 2.0
WRAP.           NO    :One Line per depth step
PROD.  Schlumberger   :LAS Producer
PROG.  DLIS to ASCII 11C0-305                          :LAS Program name and version
CREA.        2004/05/20 06:33                          :LAS Creation date {YYYY/MM/DD hh:mm}
SOURCE.     AIT_TLD_MCFL_CNL_053PUP.DLIS               :DLIS File Name
FILE-ID.     AIT_TLD_MCFL_CNL_053PUP                   :File Identification Number
#--------------------------------------------------
~WELL INFORMATION
#MNEM.UNIT      DATA             DESCRIPTION
#---- ------ --------------   -----------------------------
STRT .F         5760.0       :START DEPTH     
STOP .F         4243.0       :STOP DEPTH     
STEP .F           -0.5       :STEP     
NULL .          -999.25      :NULL VALUE
COMP .        DEPARTMENT OF ENERGY                     :COMPANY
WELL .        48X - 28                                 :WELL
FLD  .        NAVAL PETROLEUM RESERVE # 3              :FIELD
LOC  .        490' FSL, 2449' FWL                      :LOCATION
CNTY .        NATRONA                                  :COUNTY
STAT .        WYOMING                                  :STATE
CTRY .                                                 :COUNTRY
API  .        49-025-23195                             :API NUMBER
UWI  .                                                 :UNIQUE WELL ID
DATE .        19-May-2004                              :LOG DATE {DD-MMM-YYYY}
SRVC .        Schlumberger                             :SERVICE COMPANY
LATI .DEG                                              :LATITUDE
LONG .DEG                                              :LONGITUDE
GDAT .                                                 :GeoDetic Datum
SECT .        28                                       :Section
RANG .        78W                                      :Range
TOWN .        39N                                      :Township
#-----------------------------------------------------------------------------
~PARAMETER INFORMATION
#MNEM.UNIT    VALUE                      DESCRIPTION
#---- -----   --------------------       ------------------------
RUN  .          1                        :RUN NUMBER
PDAT .        GROUND LEVEL               :Permanent Datum
EPD  .C3                                 :Elevation of Permanent Datum above Mean Sea Level
EPD  .C3                                 :Elevation of tool zero above Mean Sea Level
LMF  .          KELLY BUSHING            :Logging Measured From (Name of Logging Elevation Reference)
APD  .                                   :Elevation of Depth Reference (LMF) above Permanent Datum
#-----------------------------------------------------------------------------
~CURVE INFORMATION
#MNEM.UNIT   API CODE                                  DESCRIPTION
#---- -----  --------                                  -----------------------
DEPT .F                                                :DEPTH (BOREHOLE) {F10.1}
AHF20.OHMM                                             :Array Induction Four Foot Resistivity A20 {F13.4}
AHF60.OHMM                                             :Array Induction Four Foot Resistivity A60 {F13.4}
AHFCO60.MM/M                                           :Array Induction Four Foot Conductivity A60 {F13.4}
AHT10.OHMM                                             :Array Induction Two Foot Resistivity A10 {F13.4}
AHT20.OHMM                                             :Array Induction Two Foot Resistivity A20 {F13.4}
AHT30.OHMM                                             :Array Induction Two Foot Resistivity A30 {F13.4}
AHT60.OHMM                                             :Array Induction Two Foot Resistivity A60 {F13.4}
AHT90.OHMM                                             :Array Induction Two Foot Resistivity A90 {F13.4}
GR   .GAPI                                             :Gamma-Ray {F13.4}
SP   .MV                                               :Spontaneous Potential {F13.4}
#-----------------------------------------------------------------------------
# 
#     DEPT       AHF20        AHF60       AHFCO60       AHT10        AHT20        AHT30        AHT60        AHT90         GR           SP
#
~A  
# ...
    5674.5      47.5853     189.0469       5.2897     959.0358      66.5874     111.7686     192.8364      66.3835      36.5840      78.3750
    5674.0      45.2687     139.4440       7.1713     604.6920      59.5194     141.6487     140.4121      62.0042      33.6230      77.6875
    5673.5      39.9583      93.5360      10.6911     415.4903      47.6107      89.6322     124.9539      90.7579      34.3739      76.8125
    5673.0      34.0029      67.5014      14.8145     267.7130      37.0058      52.9091      67.6297      51.9091      26.8652      76.4375
    5672.5      29.8888      55.3324      18.0726     216.5017      27.7294      36.5430      38.9871      37.7540      23.9861      75.8125
    5672.0      25.1531      45.5650      21.9467     182.3996      20.9830      29.2004      34.3989      36.7781      22.7347      75.0625
    5671.5      23.5604      41.7674      23.9421     156.5256      20.3043      29.2119      35.5106      43.5916      25.2376      74.9375
    5671.0      23.0935      43.7696      22.8469     117.5915      20.7780      33.1690      42.9926      52.0556      24.8204      73.7500
    5670.5      22.9513      47.2194      21.1777     132.1812      22.8336      30.9868      43.8797      58.6891      23.7776      74.0000
    5670.0      23.1405      51.6463      19.3625     146.1008      22.6994      32.0008      48.6677      64.9249      24.1947      73.8125
    5669.5      23.4531      57.5955      17.3625     174.0443      21.6805      30.7677      52.3378      66.9722      28.3662      75.6250
    5669.0      24.9360      64.4314      15.5204     235.8681      24.4506      33.9790      60.9618      74.8893      29.6177      77.1250
    5668.5      26.9521      73.5946      13.5880     329.0792      24.6558      37.1101      70.3410      84.6325      27.3233      78.5625
    5668.0      28.3183      84.2919      11.8635     524.1367      28.0127      41.6435      84.0854      84.0874      25.6547      79.8750
    5667.5      30.6329      94.0362      10.6342     800.3751      32.5278      53.7023     103.0681      82.5158      26.6976      80.6250
    5667.0      32.4449     100.9809       9.9029    1102.7502      30.4166      52.5809      90.0661      56.8477      29.8262      81.3125
    5666.5      34.4675     110.5189       9.0482    1143.6146      30.7189      54.2864     104.1745      44.1952      29.8262      81.6250
    5666.0      37.2238     117.7355       8.4936     831.1854      36.1667      63.7003     138.7250      41.8060      31.9120      81.6250
    5665.5      40.4936     127.2860       7.8563     494.2079      45.6030      63.7233     151.5967      31.2390      32.7463      81.3750
    5665.0      45.7914     145.3219       6.8813     256.3275      46.0300      65.1443     168.8199      28.4093      31.0777      82.0000
    5664.5      48.5501     152.2673       6.5674     132.1727      48.4624      75.5041     200.5176      28.4992      27.7405      82.1250
    5664.0      46.2358     114.6249       8.7241      68.7871      51.4423      73.2704     174.8520      33.9271      24.1875      81.4375
    5663.5      39.6977      69.9628      14.2933      41.8350      49.7501      57.8267     108.3490      28.5544      24.3961      81.3125
    5663.0      29.0801      44.1992      22.6248      33.5773      41.0315     148.8097     346.9632      65.8568      24.6046      80.3125
    5662.5      20.4674      26.2340      38.1184      28.1153      47.8701      46.2027      49.7917      49.6634      24.8204      80.6875
    5662.0      10.4510      14.7580      67.7597      14.1632      21.6844      20.2079      23.8267      31.4035      24.8204      81.2500
    5661.5       6.5722       8.3825     119.2957       7.8394       7.8064       8.1340       9.1848      12.1004      23.9861      81.5000
    5661.0       4.7898       5.7135     175.0230       3.6489       4.5681       4.6957       5.3596       6.8350      23.1518      81.3125
    5660.5       3.6876       4.3925     227.6598       2.5605       3.0395       2.9404       3.1124       3.8668      25.0290      80.0625
    5660.0       3.3743       4.0702     245.6911       2.3261       2.7232       2.6022       2.8635       3.3983      25.0290      79.9375
    5659.5       3.4678       4.3094     232.0503       1.9935       2.8573       2.9823       3.3581       4.0645      29.6177      78.5625
    5659.0       3.9355       5.1559     193.9536       2.8886       3.9583       3.6129       4.4278       5.8942      31.4948      79.9375
    5658.5       4.8622       7.3412     136.2168       5.0920       4.7826       5.2741       7.1355       9.7330      32.7463      80.0625
    5658.0       6.2508      10.9684      91.1713       7.4755       6.8928       8.2393      13.6581      19.7076      32.9379      81.0625
    5657.5       8.2184      19.1148      52.3154       9.3219      12.9299      10.7568      33.2682      51.3224      28.3492      80.8125
    5657.0      10.2736      30.2628      33.0439       8.2573      15.6180      26.5327      56.6598      62.9903      27.0329      80.2500
    5656.5      11.4281      47.1922      21.1899       9.2464      13.3856      22.8667      56.2433      58.2039      21.4184      80.3125
    5656.0      11.4539      56.7320      17.6267       8.2126      11.0365      19.6529      49.8997      44.4566      20.5841      80.0625
    5655.5      11.3272      55.5889      17.9892       7.3620       9.4354      16.5736      37.8277      28.0276      17.3117      81.0000
    5655.0      11.4608      50.5211      19.7937       7.6473       9.7539      16.3385      47.5114      26.0795      17.1032      81.2500
    5654.5      11.7917      45.5209      21.9679       8.5680      11.9476      19.4742      40.5898      26.8933      15.2260      82.3750
    5654.0      12.1785      41.1398      24.3074      10.0574      13.9202      23.2635      40.0120      26.7525      15.2260      83.5625
    5653.5      12.4934      37.2434      26.8504      10.0849      13.3480      21.4156      34.6679      24.7093      16.6860      84.2500
    5653.0      12.6839      34.2784      29.1729      10.3310      12.2877      19.5993      32.7162      24.6291      18.1460      84.7500
    5652.5      12.7043      32.1869      31.0685      10.2014      12.7646      19.4477      31.1664      24.6186      22.7347      84.0625
    5652.0      12.4365      29.9718      33.3647      10.1043      12.5639      18.4833      27.9144      23.0193      25.0290      83.8125
    5651.5      12.3331      28.5265      35.0551       9.9344      12.0396      18.5978      25.9575      21.4983      28.3662      83.5000
    5651.0      12.1135      28.4134      35.1947      10.0928      11.5276      16.7776      25.1114      21.1139      28.1576      84.1875
    5650.5      12.3347      29.4242      33.9856      10.3058      11.3704      16.3107      25.1836      22.0269      26.4890      84.8125
    5650.0      12.8445      31.6545      31.5911      10.5902      12.6891      17.8180      31.6192      28.1620      26.2805      85.1250
    5649.5      13.5633      34.8608      28.6855      10.8915      14.4530      20.1701      36.7926      33.7806      25.6547      85.1875
    5649.0      14.2121      37.8063      26.4506      12.2233      16.3535      23.3427      44.3755      45.2514      25.8633      84.5000
    5648.5      14.2638      38.4545      26.0048      11.7923      16.2014      22.4013      46.0704      46.2042      26.6976      85.1875
    5648.0      13.4961      35.7805      27.9482      11.4164      16.3907      21.9158      44.8729      48.7521      25.0290      87.1250
    5647.5      12.0145      30.4150      32.8785      10.8990      14.7342      19.1015      37.0159      42.5453      24.6119      88.7500
    5647.0      10.3868      24.4745      40.8588       8.5695      11.0640      14.5501      25.8648      31.9425      22.7621      90.0000
    5646.5       9.2626      20.5413      48.6825       7.2436       9.4808      11.8097      19.0840      23.6020      26.3079      90.8125
