~VERSION INFORMATION
VERS.           2.0   :CWLS Log ASCII Standard - VERSION 2.0
WRAP.           NO    :One Line per depth step
PROD.  Schlumberger   :LAS Producer
PROG.  DLIS to ASCII 11C0-305                          :LAS Program name and version
CREA.        2004/05/20 06:33                          :LAS Creation date {YYYY/MM/DD hh:mm}
SOURCE.     AIT_TLD_MCFL_CNL_053PUP.DLIS               :DLIS File Name
FILE-ID.     AIT_TLD_MCFL_CNL_053PUP                   :File Identification Number
#--------------------------------------------------
~WELL INFORMATION
#MNEM.UNIT      DATA             DESCRIPTION
#---- ------ --------------   -----------------------------
STRT .F         5760.0       :START DEPTH     
STOP .F         4243.0       :STOP DEPTH     
STEP .F           -0.5       :STEP     
NULL .          -999.25      :NULL VALUE
COMP .        DEPARTMENT OF ENERGY                     :COMPANY
WELL .        48X - 28                                 :WELL
FLD  .        NAVAL PETROLEUM RESERVE # 3              :FIELD
LOC  .        490' FSL, 2449' FWL                      :LOCATION
CNTY .        NATRONA                                  :COUNTY
STAT .        WYOMING                                  :STATE
CTRY .                                                 :COUNTRY
API  .        49-025-23195                             :API NUMBER
UWI  .                                                 :UNIQUE WELL ID
DATE .        19-May-2004                              :LOG DATE {DD-MMM-YYYY}
SRVC .        Schlumberger                             :SERVICE COMPANY
LATI .DEG                                              :LATITUDE
LONG .DEG                                              :LONGITUDE
GDAT .                                                 :GeoDetic Datum
SECT .        28                                       :Section
RANG .        78W                                      :Range
TOWN .        39N                                      :Township
#-----------------------------------------------------------------------------
~PARAMETER INFORMATION
#MNEM.UNIT    VALUE                      DESCRIPTION
#---- -----   --------------------       ------------------------
RUN  .          1                        :RUN NUMBER
PDAT .        GROUND LEVEL               :Permanent Datum
EPD  .C3                                 :Elevation of Permanent Datum above Mean Sea Level
EPD  .C3                                 :Elevation of tool zero above Mean Sea Level
LMF  .          KELLY BUSHING            :Logging Measured From (Name of Logging Elevation Reference)
APD  .                                   :Elevation of Depth Reference (LMF) above Permanent Datum
#-----------------------------------------------------------------------------
~CURVE INFORMATION
#MNEM.UNIT   API CODE                                  DESCRIPTION
#---- -----  --------                                  -----------------------
DEPT .F                                                :DEPTH (BOREHOLE) {F10.1}
AHF20.OHMM                                             :Array Induction Four Foot Resistivity A20 {F13.4}
AHF60.OHMM                                             :Array Induction Four Foot Resistivity A60 {F13.4}
AHFCO60.MM/M                                           :Array Induction Four Foot Conductivity A60 {F13.4}
AHT10.OHMM                                             :Array Induction Two Foot Resistivity A10 {F13.4}
AHT20.OHMM                                             :Array Induction Two Foot Resistivity A20 {F13.4}
AHT30.OHMM                                             :Array Induction Two Foot Resistivity A30 {F13.4}
AHT60.OHMM                                             :Array Induction Two Foot Resistivity A60 {F13.4}
AHT90.OHMM                                             :Array Induction Two Foot Resistivity A90 {F13.4}
GR   .GAPI                                             :Gamma-Ray {F13.4}
SP   .MV                                               :Spontaneous Potential {F13.4}
#-----------------------------------------------------------------------------
# 
#     DEPT       AHF20        AHF60       AHFCO60       AHT10        AHT20        AHT30        AHT60        AHT90         GR           SP
#
~A  
# ...
    5560.5      12.5514      35.7215      27.9944      12.8570      13.1814      18.5784      40.0259      63.9638      28.0162      65.0000
    5560.0      12.0294      35.6204      28.0738      11.7462      12.5788      17.7947      39.8763      62.1712      28.4294      65.0625
    5559.5      11.3504      33.6623      29.7068      10.8116      12.2061      17.2730      38.6838      60.5997      29.9716      65.1875
    5559.0      10.5275      30.7446      32.5260       9.4200      10.6284      14.9566      32.0533      54.3359      30.7428      66.0625
    5558.5       9.8442      28.2954      35.3414       8.4471       9.7613      13.3331      28.2016      49.7661      30.5342      66.5625
    5558.0       9.2458      26.2811      38.0502       7.7795       9.1767      12.4738      24.9711      43.7021      28.1610      67.1875
    5557.5       8.8342      25.2353      39.6271       7.4362       8.8453      12.0064      23.9553      42.8724      28.3437      67.5625
    5557.0       8.4917      24.6304      40.6003       7.1662       8.7864      11.7049      23.7428      44.4029      28.7608      68.6250
    5556.5       8.1811      24.3321      41.0980       6.7440       8.3242      11.5900      24.3110      48.2101      33.0398      70.2500
    5556.0       7.9142      24.2471      41.2420       6.5076       7.9424      11.6273      25.6387      53.5827      34.4706      71.0000
    5555.5       7.6858      24.0926      41.5066       6.2454       7.8499      11.2002      25.4404      55.3830      34.8877      71.2500
    5555.0       7.4141      23.5501      42.4626       5.9732       7.7125      11.2025      26.0547      56.5559      28.2178      71.9375
    5554.5       7.0413      22.4042      44.6344       6.0111       7.5352      10.8579      25.4011      51.6049      25.9785      73.0625
    5554.0       6.6024      20.3095      49.2380       5.4130       6.7642       9.7586      21.5326      40.1225      24.9397      72.4375
    5553.5       6.2292      18.2441      54.8123       4.9560       6.2737       8.8846      18.0969      34.0082      27.7445      72.6250
    5553.0       5.8464      16.4761      60.6939       4.6877       5.7120       8.2179      16.4995      29.9299      26.1683      72.8750
    5552.5       5.6217      15.4148      64.8728       4.4733       5.4261       7.6172      14.2005      25.8203      24.0137      72.7500
    5552.0       5.5136      15.0850      66.2912       4.1652       4.9927       6.8674      12.4092      21.9463      24.2222      72.4375
    5551.5       5.5255      15.4758      64.6171       4.3188       5.1789       7.3357      13.6038      23.7758      27.0838      73.1250
    5551.0       5.6213      16.3936      60.9996       4.6301       5.7362       8.3344      16.6344      28.7239      28.8173      75.3750
    5550.5       5.7514      17.4806      57.2062       4.9508       6.1660       9.4756      20.0516      35.4821      28.4242      75.2500
    5550.0       5.8645      18.4384      54.2348       4.8792       5.9224       8.9122      18.5976      30.3099      26.5165      76.4375
    5549.5       5.9595      19.3023      51.8072       4.8223       5.8249       8.8250      18.2137      26.7925      25.6822      76.3125
    5549.0       6.0810      20.4543      48.8894       4.8982       5.8797       8.9122      18.7810      25.2581      24.2605      76.2500
    5548.5       6.2856      22.3286      44.7855       5.0408       6.0845       9.3841      20.5001      25.0794      22.3800      74.9375
    5548.0       6.5761      25.1399      39.7774       5.2803       6.3804      10.2034      24.4859      27.4283      20.5280      74.8750
    5547.5       6.8569      28.1476      35.5270       5.6812       7.0040      11.6379      30.4002      32.8961      21.7204      75.1250
    5547.0       7.2946      31.9069      31.3411       6.0075       7.3693      12.7003      36.1903      36.6865      25.6833      76.0625
    5546.5       7.7177      35.3463      28.2915       6.3843       7.9694      13.7874      41.8698      40.3040      28.3138      77.3125
    5546.0       8.0076      35.8195      27.9178       6.9025       8.7589      15.3521      47.5648      44.6709      26.2247      76.4375
    5545.5       7.9561      32.7469      30.5372       6.8287       8.8172      14.8780      40.5945      40.4483      23.6570      75.5625
    5545.0       7.6342      27.8052      35.9645       6.3594       8.0850      13.1772      31.2989      32.3783      21.9877      75.8125
    5544.5       7.2432      23.3524      42.8221       5.8408       7.3335      11.1758      22.8577      25.1383      24.2820      75.6250
    5544.0       6.9093      20.4677      48.8575       5.3914       6.6924       9.5919      18.2535      20.8496      23.0910      75.2500
    5543.5       6.6004      18.3380      54.5316       4.9909       6.1179       8.6330      15.2225      17.4309      24.9987      75.7500
    5543.0       6.4812      17.6039      56.8057       4.8935       5.9284       8.2746      14.5268      16.8800      26.0416      75.9375
    5542.5       6.5643      18.1299      55.1575       5.2496       6.4730       9.3842      17.1662      21.3157      27.0026      76.3125
    5542.0       6.7031      19.5363      51.1869       5.5759       7.0407      10.6656      20.9045      25.3149      27.0284      76.1250
    5541.5       6.8123      20.6945      48.3221       5.6776       7.2029      11.2241      23.1440      27.8999      24.7341      74.3750
    5541.0       6.9577      21.8865      45.6903       5.5323       6.6779      10.0785      20.8392      24.7390      23.4403      73.1250
    5540.5       7.0922      23.1203      43.2520       5.2985       6.5464       9.7616      20.2160      23.7095      20.8716      72.7500
    5540.0       7.2656      24.6405      40.5835       5.6995       7.2984      11.3530      24.8227      28.9612      24.2525      73.0625
    5539.5       7.3828      25.4959      39.2220       6.0672       8.0986      12.9489      30.0469      35.2340      25.0003      73.3750
    5539.0       7.4247      25.8800      38.6398       6.1291       7.9342      13.1674      28.7940      34.1382      25.1585      74.0625
    5538.5       7.4835      26.3962      37.8842       5.8549       7.4723      11.7293      25.7781      27.0131      23.6547      74.8750
    5538.0       7.4463      26.6551      37.5163       5.5019       6.6348      10.1855      22.1187      21.9716      24.2871      75.1875
    5537.5       7.6755      28.5811      34.9882       5.7015       7.1453      11.2587      25.4184      23.2352      25.6548      75.4375
    5537.0       8.0608      31.7107      31.5351       5.9817       7.7319      13.1751      31.4100      26.8426      22.9161      75.8750
    5536.5       8.3828      34.5301      28.9602       6.4102       8.4982      13.8822      34.7532      30.7206      24.5847      76.2500
    5536.0       9.1185      39.0541      25.6055       6.6273       9.6889      16.7436      45.1235      38.2688      23.3332      77.4375
    5535.5       9.4236      39.6480      25.2219       7.4587      11.4703      20.3040      52.8985      47.1757      25.4462      78.6875
    5535.0       9.2778      37.1893      26.8894       7.4105      10.6790      18.4777      47.0535      41.8487      26.5416      78.6250
    5534.5       8.8422      32.9336      30.3641       6.8021       9.4224      14.4551      33.8878      30.6926      31.5474      77.9375
    5534.0       8.3411      28.7346      34.8013       6.2798       8.4248      12.5226      28.3847      29.6896      32.1732      77.2500
    5533.5       7.8183      25.5877      39.0812       5.8146       7.6618      11.0947      24.2736      26.6524      31.2863      77.4375
    5533.0       7.4457      23.4285      42.6831       5.3487       6.9220       9.5989      20.7981      25.2939      30.2434      78.1250
    5532.5       7.1622      22.2075      45.0298       5.4014       7.0261      10.0185      20.6984      30.0445      30.8691      78.3125
