~VERSION INFORMATION
VERS.           2.0   :CWLS Log ASCII Standard - VERSION 2.0
WRAP.           NO    :One Line per depth step
PROD.  Schlumberger   :LAS Producer
PROG.  DLIS to ASCII 11C0-305                          :LAS Program name and version
CREA.        2004/05/20 06:33                          :LAS Creation date {YYYY/MM/DD hh:mm}
SOURCE.     AIT_TLD_MCFL_CNL_053PUP.DLIS               :DLIS File Name
FILE-ID.     AIT_TLD_MCFL_CNL_053PUP                   :File Identification Number
#--------------------------------------------------
~WELL INFORMATION
#MNEM.UNIT      DATA             DESCRIPTION
#---- ------ --------------   -----------------------------
STRT .F         5760.0       :START DEPTH     
STOP .F         4243.0       :STOP DEPTH     
STEP .F           -0.5       :STEP     
NULL .          -999.25      :NULL VALUE
COMP .        DEPARTMENT OF ENERGY                     :COMPANY
WELL .        48X - 28                                 :WELL
FLD  .        NAVAL PETROLEUM RESERVE # 3              :FIELD
LOC  .        490' FSL, 2449' FWL                      :LOCATION
CNTY .        NATRONA                                  :COUNTY
STAT .        WYOMING                                  :STATE
CTRY .                                                 :COUNTRY
API  .        49-025-23195                             :API NUMBER
UWI  .                                                 :UNIQUE WELL ID
DATE .        19-May-2004                              :LOG DATE {DD-MMM-YYYY}
SRVC .        Schlumberger                             :SERVICE COMPANY
LATI .DEG                                              :LATITUDE
LONG .DEG                                              :LONGITUDE
GDAT .                                                 :GeoDetic Datum
SECT .        28                                       :Section
RANG .        78W                                      :Range
TOWN .        39N                                      :Township
#-----------------------------------------------------------------------------
~PARAMETER INFORMATION
#MNEM.UNIT    VALUE                      DESCRIPTION
#---- -----   --------------------       ------------------------
RUN  .          1                        :RUN NUMBER
PDAT .        GROUND LEVEL               :Permanent Datum
EPD  .C3                                 :Elevation of Permanent Datum above Mean Sea Level
EPD  .C3                                 :Elevation of tool zero above Mean Sea Level
LMF  .          KELLY BUSHING            :Logging Measured From (Name of Logging Elevation Reference)
APD  .                                   :Elevation of Depth Reference (LMF) above Permanent Datum
#-----------------------------------------------------------------------------
~CURVE INFORMATION
#MNEM.UNIT   API CODE                                  DESCRIPTION
#---- -----  --------                                  -----------------------
DEPT .F                                                :DEPTH (BOREHOLE) {F10.1}
AHF20.OHMM                                             :Array Induction Four Foot Resistivity A20 {F13.4}
AHF60.OHMM                                             :Array Induction Four Foot Resistivity A60 {F13.4}
AHFCO60.MM/M                                           :Array Induction Four Foot Conductivity A60 {F13.4}
AHT10.OHMM                                             :Array Induction Two Foot Resistivity A10 {F13.4}
AHT20.OHMM                                             :Array Induction Two Foot Resistivity A20 {F13.4}
AHT30.OHMM                                             :Array Induction Two Foot Resistivity A30 {F13.4}
AHT60.OHMM                                             :Array Induction Two Foot Resistivity A60 {F13.4}
AHT90.OHMM                                             :Array Induction Two Foot Resistivity A90 {F13.4}
GR   .GAPI                                             :Gamma-Ray {F13.4}
SP   .MV                                               :Spontaneous Potential {F13.4}
#-----------------------------------------------------------------------------
# 
#     DEPT       AHF20        AHF60       AHFCO60       AHT10        AHT20        AHT30        AHT60        AHT90         GR           SP
#
~A  
# ...
    4962.0      10.1966      11.5161      86.8351    1950.0000       9.2353       9.0846      11.3469      12.0802     131.8511      41.3750
    4961.5       9.9271      11.2130      89.1821    1950.0000       8.6392       8.5687      10.7570      10.6351     126.9809      40.5625
    4961.0       9.8827      11.1874      89.3864    1950.0000       8.3613       8.2810      10.5762      10.3217     126.7723      41.3750
    4960.5      10.0618      11.3293      88.2669    1950.0000       8.8291       8.4737      10.9935      10.5188     124.2380      41.6250
    4960.0      10.3922      11.4354      87.4478    1950.0000       9.5855       9.0621      11.0321      11.3660     118.0378      41.7500
    4959.5      10.8796      11.4519      87.3217    1950.0000      10.2761       9.1172      11.3713      11.8789     114.9092      42.0000
    4959.0      11.2565      11.4423      87.3953    1950.0000      10.7445       9.3037      11.4931      12.0240     115.2996      42.4375
    4958.5      11.6487      11.4917      87.0190    1950.0000      11.6729       9.0656      11.8159      12.3191     120.9470      42.6250
    4958.0      11.8886      11.7398      85.1804    1950.0000      11.8109       9.5489      12.2703      12.6338     117.6843      43.1250
    4957.5      12.1706      12.3972      80.6634    1950.0000      11.2683      10.3090      12.8492      13.3388     115.6253      42.4375
    4957.0      11.7688      12.3787      80.7842    1950.0000      11.1761       9.8034      12.5136      12.7781     116.6550      42.4375
    4956.5      11.3777      12.2680      81.5127    1950.0000      11.1257       9.6929      12.5221      12.5467     117.2062      42.5625
    4956.0      11.0696      12.0080      83.2776    1950.0000      10.7036       9.5436      12.4621      12.1820     120.5434      42.8750
    4955.5      10.8068      11.6325      85.9662    1950.0000      10.3023       9.2275      11.8495      11.7110     114.5438      43.8125
    4955.0      10.4840      11.1376      89.7861    1950.0000       9.9846       8.9364      11.2224      11.2392     117.6724      43.6875
    4954.5      10.2018      10.7535      92.9933    1950.0000       9.7234       8.6670      10.5156      10.9732     122.8868      44.4375
    4954.0       9.8807      10.4114      96.0489    1950.0000       9.5349       8.5097      10.2238      10.5731     128.8864      43.3125
    4953.5       9.5225      10.1499      98.5229    1950.0000       9.2395       8.2345       9.9488      10.0909     135.7694      43.0625
    4953.0       9.2307       9.9429     100.5743    1950.0000       8.9287       8.1005       9.7608       9.8330     129.7533      42.9375
    4952.5       9.1907      10.0026      99.9736    1950.0000       8.7582       8.1932       9.9712       9.7507     128.9321      42.8750
    4952.0       9.2609      10.3123      96.9719    1950.0000       8.7881       8.2390      10.1913       9.8837     121.8406      42.9375
    4951.5       9.4521      10.7620      92.9192    1950.0000       8.7373       8.2499      10.1577      10.0164     117.8299      42.6250
    4951.0       9.7545      11.3356      88.2174    1950.0000       9.3517       8.8868      11.2540      11.3164     107.6097      42.1875
    4950.5      10.1522      11.9929      83.3830    1950.0000      10.2248       9.8673      12.6937      12.6869     100.9353      41.8750
    4950.0      10.5339      12.6670      78.9450    1950.0000      10.5438      10.2469      12.9382      12.6670     103.3200      42.0625
    4949.5      10.8522      13.2326      75.5712    1950.0000      10.8677      10.7276      13.4484      13.4880     109.5773      42.4375
    4949.0      10.7680      13.1491      76.0507    1950.0000      10.3675      10.7879      14.0170      13.8915     109.7858      42.4375
    4948.5      10.4937      12.8075      78.0791    1950.0000      10.1776      10.5235      13.3936      13.2219     107.1240      42.9375
    4948.0      10.1091      12.2639      81.5404    1950.0000      10.1233      10.3591      13.3724      13.0882     111.2955      42.3125
    4947.5       9.6705      11.6043      86.1753    1950.0000       9.5692       9.5618      11.7079      11.3977     120.4728      42.6250
    4947.0       9.2298      10.9395      91.4118    1950.0000       8.8682       8.7681      10.4166      10.3370     132.4349      42.6250
    4946.5       8.8398      10.3843      96.2993    1950.0000       8.8314       8.4535       9.8090       9.8598     132.0177      42.2500
    4946.0       8.5347       9.9925     100.0752    1950.0000       8.2546       8.2085       9.5030       9.5521     134.9378      42.3125
    4945.5       8.3707       9.8255     101.7765    1950.0000       7.9496       8.0058       9.0027       9.3170     129.8838      42.6250
    4945.0       8.4615      10.0002      99.9985    1950.0000       7.6681       7.8662       9.0711       9.2197     133.0125      42.6875
    4944.5       8.9127      10.6983      93.4727    1950.0000       7.9743       8.3671       9.6285       9.8314     127.3809      42.6875
    4944.0       9.6898      12.1204      82.5053    1950.0000       9.0344       9.6066      11.7862      11.8030     116.9345      42.8750
    4943.5      10.7848      14.3202      69.8316    1950.0000      10.5944      11.3625      14.3588      14.3371     102.3342      42.8750
    4943.0      12.0819      16.8661      59.2904    1950.0000      12.1611      13.4354      18.1244      17.7574      89.0858      42.3125
    4942.5      13.7857      20.3674      49.0980    1950.0000      13.7627      15.7080      22.1238      21.5300      83.7391      42.2500
    4942.0      15.7238      24.6730      40.5302    1950.0000      15.3665      17.9045      27.0035      26.0880      75.3961      42.3750
    4941.5      17.5936      29.8349      33.5177    1950.0000      17.2697      20.3901      32.3232      30.5069      70.7071      42.0000
    4941.0      19.5465      34.8365      28.7056    1950.0000      18.4108      22.3468      36.5189      35.7478      67.6814      41.5625
    4940.5      21.4509      38.8893      25.7140    1950.0000      20.8808      25.4999      41.3850      40.3876      68.0986      41.1875
    4940.0      22.4364      41.0775      24.3442    1950.0000      24.6409      30.3010      47.4282      42.5775      64.5528      40.8750
    4939.5      22.5370      40.5066      24.6873    1950.0000      23.6057      29.3157      45.3071      38.5499      63.1480      41.1875
    4939.0      21.9828      37.7562      26.4857    1950.0000      20.0998      25.2532      39.1667      31.9483      73.3682      42.0000
    4938.5      21.1483      34.3958      29.0733    1950.0000      19.4832      22.4411      32.9026      25.5715      84.6312      42.2500
    4938.0      20.6140      31.1944      32.0571    1950.0000      19.2617      22.3447      32.8376      27.3345      87.6017      42.7500
    4937.5      20.3851      28.2376      35.4138    1950.0000      20.2021      21.7126      28.5201      24.9049      84.9315      42.4375
    4937.0      19.9751      25.8444      38.6931    1950.0000      18.5522      19.4112      24.4338      23.6614      81.1771      42.3750
    4936.5      19.4512      24.1264      41.4484    1950.0000      17.3961      17.1286      22.1423      21.5468      84.0972      42.3750
    4936.0      18.8803      22.8715      43.7226    1950.0000      18.7507      17.5775      21.4422      21.9425      88.4360      42.3750
    4935.5      18.2531      21.0579      47.4881    1950.0000      18.0661      18.0086      22.0323      22.2361      96.7556      42.8750
    4935.0      18.1410      21.1814      47.2113    1950.0000      18.2568      18.2968      21.5205      22.4273     105.0986      42.8750
    4934.5      17.0675      20.2187      49.4591    1950.0000      18.0436      18.4389      21.9235      22.1714     105.0522      43.1250
    4934.0      15.4391      18.3079      54.6212    1950.0000      16.8230      16.6961      20.5327      19.5516     110.0814      43.5625
