~VERSION INFORMATION
VERS.           2.0   :CWLS Log ASCII Standard - VERSION 2.0
WRAP.           NO    :One Line per depth step
PROD.  Schlumberger   :LAS Producer
PROG.  DLIS to ASCII 11C0-305                          :LAS Program name and version
CREA.        2004/05/20 06:33                          :LAS Creation date {YYYY/MM/DD hh:mm}
SOURCE.     AIT_TLD_MCFL_CNL_053PUP.DLIS               :DLIS File Name
FILE-ID.     AIT_TLD_MCFL_CNL_053PUP                   :File Identification Number
#--------------------------------------------------
~WELL INFORMATION
#MNEM.UNIT      DATA             DESCRIPTION
#---- ------ --------------   -----------------------------
STRT .F         5760.0       :START DEPTH     
STOP .F         4243.0       :STOP DEPTH     
STEP .F           -0.5       :STEP     
NULL .          -999.25      :NULL VALUE
COMP .        DEPARTMENT OF ENERGY                     :COMPANY
WELL .        48X - 28                                 :WELL
FLD  .        NAVAL PETROLEUM RESERVE # 3              :FIELD
LOC  .        490' FSL, 2449' FWL                      :LOCATION
CNTY .        NATRONA                                  :COUNTY
STAT .        WYOMING                                  :STATE
CTRY .                                                 :COUNTRY
API  .        49-025-23195                             :API NUMBER
UWI  .                                                 :UNIQUE WELL ID
DATE .        19-May-2004                              :LOG DATE {DD-MMM-YYYY}
SRVC .        Schlumberger                             :SERVICE COMPANY
LATI .DEG                                              :LATITUDE
LONG .DEG                                              :LONGITUDE
GDAT .                                                 :GeoDetic Datum
SECT .        28                                       :Section
RANG .        78W                                      :Range
TOWN .        39N                                      :Township
#-----------------------------------------------------------------------------
~PARAMETER INFORMATION
#MNEM.UNIT    VALUE                      DESCRIPTION
#---- -----   --------------------       ------------------------
RUN  .          1                        :RUN NUMBER
PDAT .        GROUND LEVEL               :Permanent Datum
EPD  .C3                                 :Elevation of Permanent Datum above Mean Sea Level
EPD  .C3                                 :Elevation of tool zero above Mean Sea Level
LMF  .          KELLY BUSHING            :Logging Measured From (Name of Logging Elevation Reference)
APD  .                                   :Elevation of Depth Reference (LMF) above Permanent Datum
#-----------------------------------------------------------------------------
~CURVE INFORMATION
#MNEM.UNIT   API CODE                                  DESCRIPTION
#---- -----  --------                                  -----------------------
DEPT .F                                                :DEPTH (BOREHOLE) {F10.1}
AHF20.OHMM                                             :Array Induction Four Foot Resistivity A20 {F13.4}
AHF60.OHMM                                             :Array Induction Four Foot Resistivity A60 {F13.4}
AHFCO60.MM/M                                           :Array Induction Four Foot Conductivity A60 {F13.4}
AHT10.OHMM                                             :Array Induction Two Foot Resistivity A10 {F13.4}
AHT20.OHMM                                             :Array Induction Two Foot Resistivity A20 {F13.4}
AHT30.OHMM                                             :Array Induction Two Foot Resistivity A30 {F13.4}
AHT60.OHMM                                             :Array Induction Two Foot Resistivity A60 {F13.4}
AHT90.OHMM                                             :Array Induction Two Foot Resistivity A90 {F13.4}
GR   .GAPI                                             :Gamma-Ray {F13.4}
SP   .MV                                               :Spontaneous Potential {F13.4}
#-----------------------------------------------------------------------------
# 
#     DEPT       AHF20        AHF60       AHFCO60       AHT10        AHT20        AHT30        AHT60        AHT90         GR           SP
#
~A  
# ...
    5161.5      32.9411      47.2635      21.1580     996.9174      68.1876      21.4381      52.6966      35.7608      18.1787      43.6250
    5161.0      36.8421      54.7063      18.2794    1228.1565      67.9354      23.8164      65.9243      39.1222      16.3016      42.8750
    5160.5      33.1315      52.9836      18.8738    1950.0000      41.6346      23.9438      68.7254      40.3737      12.9318      42.7500
    5160.0      25.3089      43.1390      23.1809    1950.0000      29.6497      15.7532      55.7668      24.2947      15.1613      43.4375
    5159.5      18.8890      31.3907      31.8565    1950.0000      19.4271      14.4346      41.3516      23.1242      32.6816      43.5625
    5159.0      15.2674      21.2552      47.0473    1950.0000      14.2773      12.2069      20.8045      19.4259      58.3363      42.8750
    5158.5      12.0970      16.2540      61.5234    1950.0000      10.3482       8.9096      13.5396      14.6318      80.5222      42.4375
    5158.0      10.3474      13.1660      75.9535    1950.0000       8.8653       8.0932      10.6439      12.8314      86.3623      41.7500
    5157.5       9.5991      11.8470      84.4093    1950.0000       8.4282       8.0554      10.3637      12.4551      90.7424      41.2500
    5157.0       9.2784      11.6081      86.1469    1950.0000       8.2825       8.1782      10.9003      12.4571      88.3577      41.7500
    5156.5       9.2480      11.9350      83.7874    1950.0000       8.6821       8.6525      11.7024      13.3198      91.4863      42.0625
    5156.0       9.3011      12.1467      82.3269    1950.0000       9.1460       9.2952      12.8006      14.3221      91.0692      42.6875
    5155.5       9.4210      12.3996      80.6477    1926.4878       9.6329       9.5521      13.4667      14.5806      96.9949      42.5625
    5155.0       9.3355      12.2059      81.9274    1833.4435       9.3042       9.2310      12.8461      13.6366     102.8350      42.5625
    5154.5       9.0442      11.6536      85.8101    1654.2455       8.8977       8.8115      12.1594      12.0335      99.2893      42.3125
    5154.0       8.6385      10.8660      92.0300    1339.7684       8.3784       8.0168      10.1669      10.7112     100.9945      41.9375
    5153.5       8.2067      10.0911      99.0970    1009.6827       7.8010       7.6471       9.8780       9.8199     105.3745      42.2500
    5153.0       7.8435       9.4543     105.7725     704.1716       7.7244       7.3858       9.8871      10.1220     116.8462      42.5625
    5152.5       7.5215       8.9055     112.2903     476.9322       7.7039       7.3366       9.0987       9.2011     128.2427      43.0000
    5152.0       7.2000       8.4944     117.7244     330.6927       6.8164       7.0201       8.1067       8.2259     130.7456      44.0625
    5151.5       6.8942       8.1679     122.4298     253.9613       6.4862       6.4944       7.8014       7.9419     131.9970      44.0000
    5151.0       6.7534       7.9277     126.1393     190.6100       6.0517       5.9271       7.2738       7.2849     121.1823      44.0625
    5150.5       6.9709       8.2782     120.7986     203.0578       6.5038       6.8490       8.4686       8.7547     115.1782      43.3750
    5150.0       7.2743       8.7751     113.9589     258.6759       6.9495       7.1661       8.7481       8.6953     107.4610      42.8750
    5149.5       7.6001       9.3491     106.9621     342.9078       7.4121       7.6640       9.1867       9.3514     107.0438      42.8750
    5149.0       8.0968      10.0224      99.7761     514.6219       8.0855       7.9421       9.8290       9.9128     103.4668      43.0625
    5148.5       8.5449      10.7044      93.4198     815.7444       8.5208       8.4661      11.0623      10.5982     101.1725      43.0625
    5148.0       8.9030      11.0635      90.3872    1239.3643       9.3357       9.1254      11.7857      11.5162     101.5896      42.6250
    5147.5       9.1156      11.1677      89.5441    1641.7437       9.4552       9.1973      11.7644      11.4437     104.8889      42.2500
    5147.0       9.2511      11.2984      88.5083    1928.3210       8.9703       8.8633      11.1752      10.9723     109.0604      42.0625
    5146.5       9.3522      11.4079      87.6587    1950.0000       8.5947       8.6163      10.7999      10.6111     112.6062      42.0000
    5146.0       9.5321      11.6830      85.5943    1950.0000       8.8884       8.7432      11.2122      11.3969     115.7455      42.8750
    5145.5       9.9235      12.3569      80.9266    1950.0000       9.4019       9.4680      12.1028      11.9814     112.8255      43.2500
    5145.0      10.4563      13.2434      75.5095    1950.0000      10.0435      10.2393      13.1954      12.7292     110.7397      43.5625
    5144.5      11.0447      14.2380      70.2346    1950.0000      10.7812      10.7534      14.3653      13.9079     107.4012      43.5625
    5144.0      11.5941      15.1491      66.0107    1950.0000      11.2829      11.8068      15.9995      14.6711     109.6620      43.9375
    5143.5      12.0597      15.8692      63.0151    1950.0000      11.6044      12.1470      16.5520      15.4616     103.8219      43.9375
    5143.0      12.4844      16.3698      61.0882    1950.0000      11.5659      12.5357      17.0107      15.8877      99.0525      43.7500
    5142.5      12.8113      16.7169      59.8197    1950.0000      12.3930      12.6734      16.9108      15.7026      97.0003      43.6250
    5142.0      12.6801      16.1641      61.8655    1950.0000      12.3863      12.2446      16.4940      16.3114     100.5461      43.0000
    5141.5      12.6968      16.0799      62.1895    1950.0000      12.0971      12.4281      16.0682      16.3349     105.5539      43.0625
    5141.0      12.6557      16.2060      61.7054    1950.0000      11.8519      12.4245      16.0657      16.0253     105.3453      42.8750
    5140.5      12.4977      16.2741      61.4473    1950.0000      11.3074      12.3912      15.8087      16.3434     108.6825      42.5625
    5140.0      12.3224      16.3499      61.1626    1950.0000      10.9433      12.1733      15.5981      16.8272     100.0676      42.1875
    5139.5      12.4032      17.0307      58.7176    1950.0000      10.8846      12.4123      16.4824      17.0619     100.9019      41.3750
    5139.0      12.6386      18.1690      55.0388    1950.0000      10.8925      12.8496      18.1341      18.1064      94.4361      40.5625
    5138.5      13.0972      19.5024      51.2757    1950.0000      11.2119      13.4934      18.9060      19.7406      95.1815      39.5000
    5138.0      13.8053      20.8764      47.9010    1950.0000      11.8742      14.2926      20.1441      21.0003      92.8872      39.2500
    5137.5      14.8512      22.2520      44.9397    1950.0000      12.5542      15.3248      22.1046      22.3240      90.8015      38.1875
    5137.0      16.2968      23.7816      42.0493    1950.0000      13.7265      15.3281      22.8748      24.8966      95.5708      37.5000
    5136.5      18.7331      26.3640      37.9306    1950.0000      15.2833      16.2821      23.9066      24.5247      94.7365      36.7500
    5136.0      23.0455      30.4182      32.8751    1950.0000      19.7190      19.1425      27.6388      26.7872      93.9722      36.1875
    5135.5      29.0904      35.5849      28.1018    1950.0000      24.4598      22.4873      34.5463      30.8186      89.5488      35.7500
    5135.0      39.9137      44.7184      22.3621    1950.0000      33.8402      28.3147      45.8054      37.2236      79.5372      34.7500
    5134.5      59.1564      59.3265      16.8559    1950.0000      44.7088      36.7402      60.4030      42.6289      65.9757      34.6250
    5134.0      89.8011      77.1923      12.9547    1950.0000      82.4360      48.0277      96.6511      52.4512      44.7010      33.7500
    5133.5     136.1536      86.4027      11.5737    1950.0000     104.5458      60.7403     114.4167      41.6799      28.6670      33.1875
