~VERSION INFORMATION
VERS.           2.0   :CWLS Log ASCII Standard - VERSION 2.0
WRAP.           NO    :One Line per depth step
PROD.  Schlumberger   :LAS Producer
PROG.  DLIS to ASCII 11C0-305                          :LAS Program name and version
CREA.        2004/05/20 06:33                          :LAS Creation date {YYYY/MM/DD hh:mm}
SOURCE.     AIT_TLD_MCFL_CNL_053PUP.DLIS               :DLIS File Name
FILE-ID.     AIT_TLD_MCFL_CNL_053PUP                   :File Identification Number
#--------------------------------------------------
~WELL INFORMATION
#MNEM.UNIT      DATA             DESCRIPTION
#---- ------ --------------   -----------------------------
STRT .F         5760.0       :START DEPTH     
STOP .F         4243.0       :STOP DEPTH     
STEP .F           -0.5       :STEP     
NULL .          -999.25      :NULL VALUE
COMP .        DEPARTMENT OF ENERGY                     :COMPANY
WELL .        48X - 28                                 :WELL
FLD  .        NAVAL PETROLEUM RESERVE # 3              :FIELD
LOC  .        490' FSL, 2449' FWL                      :LOCATION
CNTY .        NATRONA                                  :COUNTY
STAT .        WYOMING                                  :STATE
CTRY .                                                 :COUNTRY
API  .        49-025-23195                             :API NUMBER
UWI  .                                                 :UNIQUE WELL ID
DATE .        19-May-2004                              :LOG DATE {DD-MMM-YYYY}
SRVC .        Schlumberger                             :SERVICE COMPANY
LATI .DEG                                              :LATITUDE
LONG .DEG                                              :LONGITUDE
GDAT .                                                 :GeoDetic Datum
SECT .        28                                       :Section
RANG .        78W                                      :Range
TOWN .        39N                                      :Township
#-----------------------------------------------------------------------------
~PARAMETER INFORMATION
#MNEM.UNIT    VALUE                      DESCRIPTION
#---- -----   --------------------       ------------------------
RUN  .          1                        :RUN NUMBER
PDAT .        GROUND LEVEL               :Permanent Datum
EPD  .C3                                 :Elevation of Permanent Datum above Mean Sea Level
EPD  .C3                                 :Elevation of tool zero above Mean Sea Level
LMF  .          KELLY BUSHING            :Logging Measured From (Name of Logging Elevation Reference)
APD  .                                   :Elevation of Depth Reference (LMF) above Permanent Datum
#-----------------------------------------------------------------------------
~CURVE INFORMATION
#MNEM.UNIT   API CODE                                  DESCRIPTION
#---- -----  --------                                  -----------------------
DEPT .F                                                :DEPTH (BOREHOLE) {F10.1}
AHF20.OHMM                                             :Array Induction Four Foot Resistivity A20 {F13.4}
AHF60.OHMM                                             :Array Induction Four Foot Resistivity A60 {F13.4}
AHFCO60.MM/M                                           :Array Induction Four Foot Conductivity A60 {F13.4}
AHT10.OHMM                                             :Array Induction Two Foot Resistivity A10 {F13.4}
AHT20.OHMM                                             :Array Induction Two Foot Resistivity A20 {F13.4}
AHT30.OHMM                                             :Array Induction Two Foot Resistivity A30 {F13.4}
AHT60.OHMM                                             :Array Induction Two Foot Resistivity A60 {F13.4}
AHT90.OHMM                                             :Array Induction Two Foot Resistivity A90 {F13.4}
GR   .GAPI                                             :Gamma-Ray {F13.4}
SP   .MV                                               :Spontaneous Potential {F13.4}
#-----------------------------------------------------------------------------
# 
#     DEPT       AHF20        AHF60       AHFCO60       AHT10        AHT20        AHT30        AHT60        AHT90         GR           SP
#
~A  
# ...
    4762.5      17.3729      18.4119      54.3127    1950.0000      17.7486      16.9553      19.0579      18.4952      98.7513      43.6250
    4762.0      15.3878      16.0644      62.2495    1950.0000      16.5116      15.7579      17.5156      16.5170     110.7458      43.2500
    4761.5      13.1987      13.7443      72.7572    1950.0000      14.7642      14.1609      15.8688      14.8161     119.2023      43.3750
    4761.0      11.1880      11.6179      86.0741    1891.8770      11.8057      11.3469      12.6338      11.7080     133.5616      43.1250
    4760.5       9.5896       9.8862     101.1510    1794.1104       9.3455       9.0741       9.9987       9.5629     146.5961      43.0625
    4760.0       8.3089       8.5733     116.6411    1679.2164       7.7274       7.5625       8.1914       7.9166     154.6324      42.6875
    4759.5       7.4757       7.7103     129.6968    1578.5839       6.7697       6.5943       7.0807       6.8931     157.0688      42.3125
    4759.0       7.0029       7.2433     138.0587    1511.2684       6.3749       6.3468       6.7000       6.6882     151.6459      42.1875
    4758.5       6.8146       7.0533     141.7784    1521.6948       6.4489       6.4342       6.8072       6.8318     149.2077      42.4375
    4758.0       6.8071       7.0649     141.5440    1588.5634       6.5313       6.5077       6.8281       7.1522     144.7178      42.4375
    4757.5       6.8994       7.2314     138.2862    1692.1786       6.7330       6.7840       7.2490       7.3979     150.2220      42.7500
    4757.0       7.0737       7.5097     133.1604    1806.2087       7.0438       7.1539       7.6575       7.7770     144.8325      42.5625
    4756.5       7.3198       7.8673     127.1081    1899.0634       7.0848       7.2509       7.7606       7.7200     147.6530      42.2500
    4756.0       7.6732       8.3528     119.7205    1950.0000       7.0103       7.2733       7.8748       7.8819     137.3523      41.5000
    4755.5       8.3297       9.2328     108.3096    1950.0000       7.1597       7.4117       8.1853       8.0204     134.4323      41.5000
    4755.0       9.5442      10.7685      92.8636    1950.0000       8.6518       8.9685      10.2373      10.2178     127.2783      41.1875
    4754.5      11.2149      12.9658      77.1258    1950.0000      11.0668      11.5131      12.9217      12.2969     118.7260      41.0000
    4754.0      13.9838      15.9627      62.6460    1950.0000      14.5971      15.5660      17.8407      16.4927     107.7404      40.1875
    4753.5      18.1362      20.6736      48.3708    1950.0000      20.5367      21.5321      24.8571      22.4098     104.3566      39.9375
    4753.0      22.1605      25.1935      39.6927    1950.0000      31.7669      35.4651      37.9440      32.5236     111.6567      39.6875
    4752.5      23.3276      26.3872      37.8972    1950.0000      34.5421      40.7310      44.9734      31.7754     123.6129      40.5000
    4752.0      21.6773      23.7446      42.1148    1950.0000      26.4093      27.0900      29.8269      21.4627     132.7902      40.3125
    4751.5      18.8065      19.7717      50.5773    1950.0000      17.4944      17.2732      19.2999      16.2468     135.0428      40.5625
    4751.0      16.4249      16.8880      59.2136    1950.0000      13.9589      13.4230      14.9194      12.7244     136.9923      40.8125
    4750.5      15.0417      15.4024      64.9249    1950.0000      12.0816      11.5881      12.7373      11.4658     131.3922      40.5000
    4750.0      14.8859      15.4088      64.8980    1950.0000      12.5082      12.2695      13.1451      12.6031     126.6367      40.6250
    4749.5      15.4867      16.3061      61.3266    1950.0000      14.5772      14.0733      15.3834      15.1522     120.8717      41.0000
    4749.0      16.3349      17.4022      57.4639    1950.0000      16.4031      16.3310      17.6203      19.2718     113.7488      41.3125
    4748.5      17.2577      19.1031      52.3475    1950.0000      17.9540      18.4270      21.3028      21.6603     107.7733      41.3125
    4748.0      17.7030      20.3428      49.1574    1950.0000      17.8486      18.1454      21.4184      22.4272      97.8950      41.2500
    4747.5      17.6779      21.0624      47.4780    1950.0000      16.4884      18.1654      22.0858      23.0746     103.3505      41.5625
    4747.0      17.3558      21.3122      46.9216    1950.0000      16.6532      17.5996      21.8477      21.8727     107.6574      41.3750
    4746.5      16.8503      21.0569      47.4903    1950.0000      16.3428      17.1934      22.4701      20.7240     119.9203      41.5625
    4746.0      16.0003      20.3200      49.2127    1950.0000      15.5757      16.3831      21.2331      19.8776     123.8507      41.3750
    4745.5      15.3306      19.3339      51.7226    1950.0000      14.7738      15.3180      19.3185      18.2133     124.5101      41.3750
    4745.0      14.6996      18.4217      54.2839    1950.0000      13.5297      14.0640      17.5983      16.6637     128.7247      41.5000
    4744.5      14.2204      17.7558      56.3195    1950.0000      13.3078      14.0337      17.1511      16.3823     128.8915      41.3125
    4744.0      13.8808      17.2838      57.8576    1950.0000      13.5271      14.3085      17.2234      16.6566     127.1893      41.9375
    4743.5      13.5214      16.8927      59.1973    1950.0000      13.6481      14.3200      17.3339      16.7336     128.2210      41.6250
    4743.0      13.1357      16.6772      59.9622    1950.0000      12.9751      13.8619      16.8970      16.3109     125.3426      40.9375
    4742.5      12.7834      16.5667      60.3619    1950.0000      12.0755      13.2257      16.1498      15.8301     134.1913      40.5625
    4742.0      12.5039      16.5936      60.2642    1950.0000      11.2130      12.6617      15.5280      15.4511     130.8652      40.3750
    4741.5      12.5181      17.0335      58.7078    1950.0000      11.2048      12.7423      15.7248      16.0188     129.4511      41.2500
    4741.0      13.0480      18.2010      54.9420    1950.0000      11.9340      13.9706      17.6278      18.7623     120.3939      41.7500
    4740.5      13.7577      19.7368      50.6668    1950.0000      12.6433      15.2184      19.6936      19.1904     107.4719      42.2500
    4740.0      14.3238      20.9257      47.7882    1950.0000      13.5944      16.3007      21.8869      21.3087      97.2057      42.0625
    4739.5      15.3717      22.3655      44.7118    1950.0000      14.5227      17.2789      23.6551      22.9075     100.3504      41.9375
    4739.0      16.4535      23.4077      42.7209    1950.0000      15.5718      18.3667      25.0268      24.6461     104.3038      42.0625
    4738.5      17.2094      23.7148      42.1678    1950.0000      17.1803      18.7951      25.7360      25.5091     112.1852      41.9375
    4738.0      16.6336      22.4824      44.4793    1950.0000      19.3571      20.3991      25.8194      25.6856     108.8075      42.3125
    4737.5      15.2494      19.7872      50.5377    1950.0000      17.4008      18.1335      20.6629      21.5346     120.6253      42.3750
    4737.0      14.2008      18.0827      55.3014    1950.0000      13.4141      14.5888      18.9991      19.0770     126.5098      42.6875
    4736.5      13.2130      16.9060      59.1506    1950.0000      12.3284      12.6517      15.8560      15.9323     141.1346      42.9375
    4736.0      12.0354      15.4796      64.6013    1950.0000      10.7092      11.2123      14.7625      15.1094     141.3731      42.8750
    4735.5      11.7356      15.3468      65.1603    1950.0000      10.6633      12.3260      15.6687      17.0322     144.2619      43.0000
    4735.0      11.6280      15.5096      64.4761    1950.0000      10.8624      11.9428      15.0331      14.8818     136.1275      43.1250
    4734.5      11.4247      15.1504      66.0048    1950.0000      10.9746      12.2963      15.7197      15.3167     135.5428      42.6250
