~VERSION INFORMATION
VERS.           2.0   :CWLS Log ASCII Standard - VERSION 2.0
WRAP.           NO    :One Line per depth step
PROD.  Schlumberger   :LAS Producer
PROG.  DLIS to ASCII 11C0-305                          :LAS Program name and version
CREA.        2004/05/20 06:33                          :LAS Creation date {YYYY/MM/DD hh:mm}
SOURCE.     AIT_TLD_MCFL_CNL_053PUP.DLIS               :DLIS File Name
FILE-ID.     AIT_TLD_MCFL_CNL_053PUP                   :File Identification Number
#--------------------------------------------------
~WELL INFORMATION
#MNEM.UNIT      DATA             DESCRIPTION
#---- ------ --------------   -----------------------------
STRT .F         5760.0       :START DEPTH     
STOP .F         4243.0       :STOP DEPTH     
STEP .F           -0.5       :STEP     
NULL .          -999.25      :NULL VALUE
COMP .        DEPARTMENT OF ENERGY                     :COMPANY
WELL .        48X - 28                                 :WELL
FLD  .        NAVAL PETROLEUM RESERVE # 3              :FIELD
LOC  .        490' FSL, 2449' FWL                      :LOCATION
CNTY .        NATRONA                                  :COUNTY
STAT .        WYOMING                                  :STATE
CTRY .                                                 :COUNTRY
API  .        49-025-23195                             :API NUMBER
UWI  .                                                 :UNIQUE WELL ID
DATE .        19-May-2004                              :LOG DATE {DD-MMM-YYYY}
SRVC .        Schlumberger                             :SERVICE COMPANY
LATI .DEG                                              :LATITUDE
LONG .DEG                                              :LONGITUDE
GDAT .                                                 :GeoDetic Datum
SECT .        28                                       :Section
RANG .        78W                                      :Range
TOWN .        39N                                      :Township
#-----------------------------------------------------------------------------
~PARAMETER INFORMATION
#MNEM.UNIT    VALUE                      DESCRIPTION
#---- -----   --------------------       ------------------------
RUN  .          1                        :RUN NUMBER
PDAT .        GROUND LEVEL               :Permanent Datum
EPD  .C3                                 :Elevation of Permanent Datum above Mean Sea Level
EPD  .C3                                 :Elevation of tool zero above Mean Sea Level
LMF  .          KELLY BUSHING            :Logging Measured From (Name of Logging Elevation Reference)
APD  .                                   :Elevation of Depth Reference (LMF) above Permanent Datum
#-----------------------------------------------------------------------------
~CURVE INFORMATION
#MNEM.UNIT   API CODE                                  DESCRIPTION
#---- -----  --------                                  -----------------------
DEPT .F                                                :DEPTH (BOREHOLE) {F10.1}
AHF20.OHMM                                             :Array Induction Four Foot Resistivity A20 {F13.4}
AHF60.OHMM                                             :Array Induction Four Foot Resistivity A60 {F13.4}
AHFCO60.MM/M                                           :Array Induction Four Foot Conductivity A60 {F13.4}
AHT10.OHMM                                             :Array Induction Two Foot Resistivity A10 {F13.4}
AHT20.OHMM                                             :Array Induction Two Foot Resistivity A20 {F13.4}
AHT30.OHMM                                             :Array Induction Two Foot Resistivity A30 {F13.4}
AHT60.OHMM                                             :Array Induction Two Foot Resistivity A60 {F13.4}
AHT90.OHMM                                             :Array Induction Two Foot Resistivity A90 {F13.4}
GR   .GAPI                                             :Gamma-Ray {F13.4}
SP   .MV                                               :Spontaneous Potential {F13.4}
#-----------------------------------------------------------------------------
# 
#     DEPT       AHF20        AHF60       AHFCO60       AHT10        AHT20        AHT30        AHT60        AHT90         GR           SP
#
~A  
# ...
    4677.0      12.4923      14.5439      68.7573    1950.0000      12.3001      12.2439      14.7618      14.4233     114.2725      46.5625
    4676.5      12.4154      14.4100      69.3961    1950.0000      11.9223      12.1873      14.4177      14.2953     120.5298      45.8750
    4676.0      12.1985      14.2943      69.9580    1950.0000      11.6230      11.8091      13.9177      13.8499     121.7966      44.0625
    4675.5      12.0346      14.2053      70.3961    1950.0000      11.0533      11.3668      13.4533      13.4011     113.9700      44.4375
    4675.0      12.1889      14.4049      69.4208    1950.0000      11.2355      11.7011      13.8855      13.9259      99.3698      44.8125
    4674.5      12.3223      14.7787      67.6650    1950.0000      11.9590      12.2960      14.6709      14.5723      90.2767      45.3750
    4674.0      12.4586      14.9516      66.8825    1950.0000      12.2189      12.7818      15.3748      15.2460      88.3270      45.8125
    4673.5      12.6443      15.1480      66.0154    1950.0000      12.6174      13.2908      16.0849      15.8051      89.5905      46.0000
    4673.0      12.6722      15.1569      65.9765    1950.0000      12.6131      12.9773      15.6084      15.6030      89.0737      45.4375
    4672.5      12.5312      14.9235      67.0086    1950.0000      12.1193      12.4664      15.0141      15.1003      92.9311      45.1250
    4672.0      12.4474      14.8077      67.5326    1950.0000      11.9230      12.1131      14.3775      14.5610      92.2934      45.1875
    4671.5      12.4148      14.7778      67.6688    1950.0000      11.6791      11.9094      14.1231      14.3724      96.1451      44.8750
    4671.0      12.5002      14.9303      66.9777    1950.0000      12.0053      12.1311      14.3811      14.7043      92.8066      45.3750
    4670.5      12.6811      15.2323      65.6501    1950.0000      12.5069      12.8623      15.3312      15.6529      92.3894      45.7500
    4670.0      12.8830      15.5934      64.1297    1950.0000      13.0782      13.5411      16.3094      16.3032      93.8187      46.0625
    4669.5      12.9647      15.8005      63.2891    1950.0000      13.0794      13.5348      16.4325      16.2488      98.0970      46.1875
    4669.0      12.8966      15.7985      63.2970    1950.0000      12.9532      13.4495      16.4403      16.0060     102.2520      46.7500
    4668.5      12.7128      15.6134      64.0475    1950.0000      12.5222      13.0196      15.8626      15.2340     108.8598      46.0625
    4668.0      12.4778      15.3500      65.1465    1950.0000      12.1535      12.5247      15.4328      14.5999     108.8739      46.5000
    4667.5      12.2978      15.0851      66.2907    1950.0000      12.1307      12.4871      15.0333      14.2973     111.1847      46.1875
    4667.0      12.1188      14.8727      67.2373    1950.0000      11.9045      12.3965      14.6305      13.9831     105.0534      46.1875
    4666.5      11.9578      14.7520      67.7876    1950.0000      11.7520      12.2624      14.6084      14.1215     103.5793      46.4375
    4666.0      11.8251      14.7364      67.8590    1950.0000      11.4674      12.1667      14.4835      14.1937      96.2606      46.4375
    4665.5      11.7729      14.8311      67.4260    1950.0000      11.4833      12.3968      14.7350      14.7701     100.3515      46.1875
    4665.0      11.8055      15.0908      66.2655    1950.0000      11.4651      12.5545      15.1388      15.0769      98.8915      45.5000
    4664.5      11.8300      15.4878      64.5670    1950.0000      11.5567      12.6871      15.4330      15.6159     104.3403      45.7500
    4664.0      11.8727      15.7671      63.4230    1950.0000      11.5052      12.9131      15.8114      16.1851      97.2035      46.0625
    4663.5      11.9168      16.0905      62.1484    1950.0000      11.5899      13.1024      16.1654      16.6621      89.6450      46.8125
    4663.0      11.9699      16.3891      61.0162    1950.0000      11.5692      13.1722      16.3838      17.0105      85.0490      47.2500
    4662.5      12.0238      16.6815      59.9467    1950.0000      11.6177      13.2685      16.5159      17.3760      83.3307      47.3750
    4662.0      12.0855      16.9220      59.0946    1950.0000      11.6559      13.3108      16.7198      17.7022      95.0156      47.5625
    4661.5      12.1826      17.2425      57.9961    1950.0000      11.7114      13.4149      16.9542      18.1452      93.3470      36.1875
    4661.0      12.2947      17.6299      56.7217    1950.0000      11.8341      13.5847      17.3256      18.7091      88.8480      42.4375
    4660.5      12.4287      18.1154      55.2017    1950.0000      11.9208      13.8212      17.8526      19.4359      88.4759      47.0625
    4660.0      12.6026      18.7085      53.4516    1950.0000      12.0542      14.1387      18.5132      20.1540      87.1177      47.4375
    4659.5      12.8797      19.5305      51.2020    1950.0000      12.2400      14.5294      19.4618      20.9089      86.8792      47.4375
    4659.0      13.1350      20.2088      49.4835    1950.0000      12.4547      14.8939      20.3403      21.5204      78.3277      47.9375
    4658.5      13.4187      20.9672      47.6935    1950.0000      12.6642      15.2851      21.1949      22.1435      74.7784      48.5000
    4658.0      13.7965      21.6925      46.0988    1950.0000      12.9646      15.5747      21.7126      22.4460      77.6884      49.1250
    4657.5      14.2044      22.3503      44.7422    1950.0000      13.2113      16.0410      22.3172      22.7834      75.1392      48.8125
    4657.0      14.6423      22.8207      43.8199    1950.0000      13.4010      16.0054      22.4443      22.9068      78.3780      48.2500
    4656.5      15.2252      23.3159      42.8892    1950.0000      14.0640      16.6789      23.2007      23.0296      75.9449      47.2500
    4656.0      15.9277      23.7275      42.1452    1950.0000      14.9300      17.4944      24.1459      23.2591      80.5799      46.6875
    4655.5      16.7490      24.0079      41.6529    1950.0000      16.0821      18.3902      24.7132      23.4207      77.7936      46.2500
    4655.0      17.2705      23.4569      42.6315    1950.0000      17.3380      19.2745      25.5105      23.5776      78.5581      46.1875
    4654.5      17.3335      22.1289      45.1898    1950.0000      17.6207      18.7598      24.6028      21.9761      75.1419      45.5000
    4654.0      16.4539      19.9831      50.0422    1950.0000      18.3527      18.5018      23.1000      20.7413      81.8434      45.1250
    4653.5      14.1503      16.7505      59.6996    1950.0000      17.5958      18.0528      21.7995      18.8878      89.9779      44.1250
    4653.0      11.7806      13.3525      74.8921    1950.0000      13.7298      13.7536      15.8534      14.2212     113.5331      43.2500
    4652.5      10.1696      11.1455      89.7223    1950.0000       9.7271       9.5716      10.7509      10.1506     137.3584      43.0625
    4652.0       8.7684       9.4893     105.3818    1950.0000       7.3641       7.4329       8.0014       7.6177     148.7292      43.2500
    4651.5       7.9686       8.5609     116.8101    1950.0000       6.8145       6.8315       7.4102       7.1110     144.8590      43.1250
    4651.0       7.6746       8.1564     122.6034    1950.0000       7.1761       7.2909       7.7815       7.5663     137.9649      43.0000
    4650.5       7.7082       8.2161     121.7126    1950.0000       7.4581       7.5246       8.1337       7.8361     139.9429      43.3125
    4650.0       7.9584       8.6334     115.8295    1950.0000       7.1288       7.3892       8.0698       7.9407     137.3814      42.9375
    4649.5       8.4471       9.3502     106.9491    1950.0000       7.5197       7.6508       8.5886       8.6357     127.8427      43.0000
    4649.0       9.2302      10.4248      95.9255    1950.0000       8.7242       9.1234      10.4376      10.5899     115.0962      42.9375
