~VERSION INFORMATION
VERS.           2.0   :CWLS Log ASCII Standard - VERSION 2.0
WRAP.           NO    :One Line per depth step
PROD.  Schlumberger   :LAS Producer
PROG.  DLIS to ASCII 11C0-305                          :LAS Program name and version
CREA.        2004/05/20 06:33                          :LAS Creation date {YYYY/MM/DD hh:mm}
SOURCE.     AIT_TLD_MCFL_CNL_053PUP.DLIS               :DLIS File Name
FILE-ID.     AIT_TLD_MCFL_CNL_053PUP                   :File Identification Number
#--------------------------------------------------
~WELL INFORMATION
#MNEM.UNIT      DATA             DESCRIPTION
#---- ------ --------------   -----------------------------
STRT .F         5760.0       :START DEPTH     
STOP .F         4243.0       :STOP DEPTH     
STEP .F           -0.5       :STEP     
NULL .          -999.25      :NULL VALUE
COMP .        DEPARTMENT OF ENERGY                     :COMPANY
WELL .        48X - 28                                 :WELL
FLD  .        NAVAL PETROLEUM RESERVE # 3              :FIELD
LOC  .        490' FSL, 2449' FWL                      :LOCATION
CNTY .        NATRONA                                  :COUNTY
STAT .        WYOMING                                  :STATE
CTRY .                                                 :COUNTRY
API  .        49-025-23195                             :API NUMBER
UWI  .                                                 :UNIQUE WELL ID
DATE .        19-May-2004                              :LOG DATE {DD-MMM-YYYY}
SRVC .        Schlumberger                             :SERVICE COMPANY
LATI .DEG                                              :LATITUDE
LONG .DEG                                              :LONGITUDE
GDAT .                                                 :GeoDetic Datum
SECT .        28                                       :Section
RANG .        78W                                      :Range
TOWN .        39N                                      :Township
#-----------------------------------------------------------------------------
~PARAMETER INFORMATION
#MNEM.UNIT    VALUE                      DESCRIPTION
#---- -----   --------------------       ------------------------
RUN  .          1                        :RUN NUMBER
PDAT .        GROUND LEVEL               :Permanent Datum
EPD  .C3                                 :Elevation of Permanent Datum above Mean Sea Level
EPD  .C3                                 :Elevation of tool zero above Mean Sea Level
LMF  .          KELLY BUSHING            :Logging Measured From (Name of Logging Elevation Reference)
APD  .                                   :Elevation of Depth Reference (LMF) above Permanent Datum
#-----------------------------------------------------------------------------
~CURVE INFORMATION
#MNEM.UNIT   API CODE                                  DESCRIPTION
#---- -----  --------                                  -----------------------
DEPT .F                                                :DEPTH (BOREHOLE) {F10.1}
AHF20.OHMM                                             :Array Induction Four Foot Resistivity A20 {F13.4}
AHF60.OHMM                                             :Array Induction Four Foot Resistivity A60 {F13.4}
AHFCO60.MM/M                                           :Array Induction Four Foot Conductivity A60 {F13.4}
AHT10.OHMM                                             :Array Induction Two Foot Resistivity A10 {F13.4}
AHT20.OHMM                                             :Array Induction Two Foot Resistivity A20 {F13.4}
AHT30.OHMM                                             :Array Induction Two Foot Resistivity A30 {F13.4}
AHT60.OHMM                                             :Array Induction Two Foot Resistivity A60 {F13.4}
AHT90.OHMM                                             :Array Induction Two Foot Resistivity A90 {F13.4}
GR   .GAPI                                             :Gamma-Ray {F13.4}
SP   .MV                                               :Spontaneous Potential {F13.4}
#-----------------------------------------------------------------------------
# 
#     DEPT       AHF20        AHF60       AHFCO60       AHT10        AHT20        AHT30        AHT60        AHT90         GR           SP
#
~A  
# ...
    4477.5      16.9717      33.5552      29.8016      58.2563      22.5998      21.4954      41.3363      50.6145      47.4937      56.1250
    4477.0      11.4808      19.7748      50.5694      28.9211      12.2511      10.7146      19.5665      26.9253      49.6544      56.0625
    4476.5       8.3747      13.2633      75.3962      14.9637       8.2681       7.3983      11.8178      18.1763      47.7772      55.3750
    4476.0       6.4291       9.7263     102.8135      11.8195       6.8828       6.7577      11.0258      16.6444      40.6120      56.2500
    4475.5       5.0491       7.4480     134.2649       9.7966       6.2748       6.0694       9.6963      15.3325      42.6020      56.6250
    4475.0       4.0758       5.9834     167.1290       5.7814       4.4625       4.4708       6.3498       9.0050      45.6185      58.5000
    4474.5       3.4118       4.9201     203.2475       4.0644       3.4517       3.5032       4.8673       7.0716      47.5242      59.2500
    4474.0       2.8976       4.1288     242.2040       3.0331       2.7671       2.8701       3.8535       5.6216      46.2727      60.0000
    4473.5       2.6028       3.7476     266.8355       2.5349       2.3712       2.4520       3.1965       4.6159      41.9803      60.3750
    4473.0       2.4629       3.6214     276.1331       2.3158       2.2030       2.3339       3.0131       4.3140      45.6535      60.9375
    4472.5       2.4096       3.6887     271.0952       2.4034       2.3494       2.5757       3.5405       5.1752      43.4841      61.1875
    4472.0       2.4068       3.8791     257.7946       2.4863       2.4638       2.7546       3.9872       5.9569      45.3758      61.1875
    4471.5       2.4292       4.1045     243.6344       2.4567       2.4592       2.8278       4.3286       6.4731      46.0082      61.3750
    4471.0       2.4359       4.3109     231.9704       2.4448       2.4706       2.9125       4.5052       6.7330      46.0919      62.2500
    4470.5       2.4519       4.5002     222.2105       2.3230       2.3797       2.8774       4.5971       6.6969      49.2080      62.5000
    4470.0       2.5211       4.8019     208.2489       2.1949       2.2800       2.7187       4.1413       5.5297      49.9048      63.1250
    4469.5       2.6787       5.4359     183.9613       2.2265       2.3171       2.8431       4.3922       5.5321      53.6592      64.0000
    4469.0       2.8765       6.5358     153.0041       2.5553       2.7300       3.4043       5.7406       7.0708      57.9516      63.0625
    4468.5       3.2257       8.3630     119.5738       3.0600       3.5340       4.6903      10.5111      15.8826      59.6191      62.7500
    4468.0       3.5317      10.5451      94.8310       4.1068       4.8187       7.2070      26.4117      29.2974      60.6619      61.9375
    4467.5       3.5693      10.7491      93.0308       4.1962       4.9527       7.4882      26.5051      28.6775      58.7542      61.9375
    4467.0       3.2772       8.3357     119.9659       3.2726       3.8641       5.0097      12.1244      17.7400      60.3461      62.0625
    4466.5       2.9205       6.2084     161.0721       2.4668       2.7624       3.2294       5.3383       6.5942      60.9500      62.8125
    4466.0       2.6548       5.2266     191.3284       2.1139       2.4335       2.8433       4.3534       5.3653      56.8785      63.3750
    4465.5       2.4563       4.5398     220.2730       2.0816       2.3868       2.7234       4.1042       5.1480      54.3756      63.4375
    4465.0       2.3271       4.1863     238.8773       1.9976       2.2668       2.5703       3.8401       4.9299      52.9448      63.5000
    4464.5       2.2389       3.9782     251.3698       1.9857       2.2542       2.5984       3.9684       5.2432      53.1941      63.7500
    4464.0       2.1577       3.8261     261.3629       2.0367       2.2845       2.6488       4.2108       5.7763      52.9331      64.1875
    4463.5       2.0701       3.6624     273.0425       1.9128       2.1280       2.4617       3.7952       5.1068      50.2143      65.0625
    4463.0       1.9780       3.5040     285.3879       1.7453       1.9694       2.2902       3.4648       4.5663      49.7267      65.2500
    4462.5       1.8946       3.3185     301.3441       1.6422       1.8388       2.1283       3.1674       4.0636      50.9191      65.4375
    4462.0       1.8377       3.1962     312.8680       1.5826       1.7759       2.0400       2.9764       3.8107      52.7962      66.0625
    4461.5       1.8097       3.1454     317.9295       1.5374       1.7371       2.0212       2.9693       3.8217      55.9953      66.2500
    4461.0       1.7929       3.1074     321.8078       1.5944       1.8083       2.0987       3.1613       4.2235      53.3546      66.5000
    4460.5       1.7711       3.0468     328.2186       1.5997       1.8153       2.0971       3.1585       4.2403      50.8577      67.2500
    4460.0       1.7514       2.9904     334.4000       1.5876       1.7927       2.0700       3.1011       4.1728      46.0605      68.1250
    4459.5       1.7084       2.8929     345.6702       1.5412       1.7424       1.9921       2.9077       3.8915      43.6934      68.2500
    4459.0       1.6577       2.7409     364.8420       1.4862       1.6691       1.9076       2.7784       3.6590      43.2702      68.6875
    4458.5       1.6069       2.6259     380.8274       1.4632       1.6260       1.8853       2.7015       3.4979      43.4391      69.8750
    4458.0       1.5527       2.5088     398.5977       1.3819       1.5038       1.7200       2.3609       2.9430      43.4391      70.1875
    4457.5       1.5301       2.4532     407.6234       1.2822       1.3759       1.5832       2.0995       2.5258      43.8563      70.3750
    4457.0       1.6021       2.6314     380.0330       1.2929       1.3864       1.6016       2.1333       2.5895      43.8563      70.3125
    4456.5       1.7642       3.0935     323.2570       1.4132       1.5442       1.7991       2.5012       3.0944      48.3499      69.7500
    4456.0       1.9586       3.7755     264.8668       1.7786       1.9288       2.3811       3.7941       4.8907      52.1714      69.9375
    4455.5       2.2854       5.0058     199.7687       2.6195       3.1176       4.3527      10.0792      15.9463      56.5911      69.2500
    4455.0       2.5643       6.3394     157.7424       3.0900       4.0118       5.9135      15.6276      20.2203      53.2898      67.2500
    4454.5       2.6015       6.4923     154.0286       2.4684       2.8584       3.7214       9.5873      12.2227      50.3026      65.9375
    4454.0       2.4901       5.5129     181.3925       2.0852       2.3980       2.9493       5.1361       6.1312      45.1682      64.8750
    4453.5       2.3852       4.7413     210.9141       1.9892       2.2839       2.6502       4.1278       5.0332      48.0524      64.7500
    4453.0       2.3003       4.3584     229.4406       1.8949       2.1685       2.5214       3.7998       4.5888      48.8934      64.8125
    4452.5       2.2514       4.1290     242.1879       1.9432       2.1851       2.5607       3.8215       4.6618      49.6238      64.8125
    4452.0       2.2524       4.0935     244.2883       1.9360       2.1787       2.5607       3.7939       4.7082      45.0352      65.0000
    4451.5       2.2990       4.1904     238.6398       2.0124       2.2918       2.7354       4.1870       5.2630      40.4913      65.0625
    4451.0       2.3633       4.4476     224.8400       2.1156       2.3796       2.8472       4.4694       5.5620      42.6009      65.5000
    4450.5       2.4389       4.7486     210.5885       2.1161       2.3810       2.8771       4.5105       5.9309      36.1975      66.3750
    4450.0       2.5204       5.0585     197.6883       2.1257       2.4083       2.9329       4.6777       5.9093      33.1008      66.8125
    4449.5       2.6333       5.4659     182.9527       2.2842       2.6246       3.2212       5.4943       6.9643      25.1749      66.8125
