~VERSION INFORMATION
VERS.           2.0   :CWLS Log ASCII Standard - VERSION 2.0
WRAP.           NO    :One Line per depth step
PROD.  Schlumberger   :LAS Producer
PROG.  DLIS to ASCII 11C0-305                          :LAS Program name and version
CREA.        2004/05/20 06:33                          :LAS Creation date {YYYY/MM/DD hh:mm}
SOURCE.     AIT_TLD_MCFL_CNL_053PUP.DLIS               :DLIS File Name
FILE-ID.     AIT_TLD_MCFL_CNL_053PUP                   :File Identification Number
#--------------------------------------------------
~WELL INFORMATION
#MNEM.UNIT      DATA             DESCRIPTION
#---- ------ --------------   -----------------------------
STRT .F         5760.0       :START DEPTH     
STOP .F         4243.0       :STOP DEPTH     
STEP .F           -0.5       :STEP     
NULL .          -999.25      :NULL VALUE
COMP .        DEPARTMENT OF ENERGY                     :COMPANY
WELL .        48X - 28                                 :WELL
FLD  .        NAVAL PETROLEUM RESERVE # 3              :FIELD
LOC  .        490' FSL, 2449' FWL                      :LOCATION
CNTY .        NATRONA                                  :COUNTY
STAT .        WYOMING                                  :STATE
CTRY .                                                 :COUNTRY
API  .        49-025-23195                             :API NUMBER
UWI  .                                                 :UNIQUE WELL ID
DATE .        19-May-2004                              :LOG DATE {DD-MMM-YYYY}
SRVC .        Schlumberger                             :SERVICE COMPANY
LATI .DEG                                              :LATITUDE
LONG .DEG                                              :LONGITUDE
GDAT .                                                 :GeoDetic Datum
SECT .        28                                       :Section
RANG .        78W                                      :Range
TOWN .        39N                                      :Township
#-----------------------------------------------------------------------------
~PARAMETER INFORMATION
#MNEM.UNIT    VALUE                      DESCRIPTION
#---- -----   --------------------       ------------------------
RUN  .          1                        :RUN NUMBER
PDAT .        GROUND LEVEL               :Permanent Datum
EPD  .C3                                 :Elevation of Permanent Datum above Mean Sea Level
EPD  .C3                                 :Elevation of tool zero above Mean Sea Level
LMF  .          KELLY BUSHING            :Logging Measured From (Name of Logging Elevation Reference)
APD  .                                   :Elevation of Depth Reference (LMF) above Permanent Datum
#-----------------------------------------------------------------------------
~CURVE INFORMATION
#MNEM.UNIT   API CODE                                  DESCRIPTION
#---- -----  --------                                  -----------------------
DEPT .F                                                :DEPTH (BOREHOLE) {F10.1}
AHF20.OHMM                                             :Array Induction Four Foot Resistivity A20 {F13.4}
AHF60.OHMM                                             :Array Induction Four Foot Resistivity A60 {F13.4}
AHFCO60.MM/M                                           :Array Induction Four Foot Conductivity A60 {F13.4}
AHT10.OHMM                                             :Array Induction Two Foot Resistivity A10 {F13.4}
AHT20.OHMM                                             :Array Induction Two Foot Resistivity A20 {F13.4}
AHT30.OHMM                                             :Array Induction Two Foot Resistivity A30 {F13.4}
AHT60.OHMM                                             :Array Induction Two Foot Resistivity A60 {F13.4}
AHT90.OHMM                                             :Array Induction Two Foot Resistivity A90 {F13.4}
GR   .GAPI                                             :Gamma-Ray {F13.4}
SP   .MV                                               :Spontaneous Potential {F13.4}
#-----------------------------------------------------------------------------
# 
#     DEPT       AHF20        AHF60       AHFCO60       AHT10        AHT20        AHT30        AHT60        AHT90         GR           SP
#
~A  
# ...
    5275.5       9.3339      11.9018      84.0206      47.0072       8.9778       9.9188      13.0841      12.1297     111.3953      40.0000
    5275.0       8.6875      10.5771      94.5440      35.8434       8.0589       8.8141      10.2332      11.7764     111.8289      40.8750
    5274.5       8.2790      10.1475      98.5469      35.4310       7.3007       7.3843       7.4837       8.0098     113.4976      40.6250
    5274.0       8.6389      10.8086      92.5189      65.8524       7.2261       7.7617       8.8597       9.8065     112.2461      40.3750
    5273.5       9.5541      12.2614      81.5567      78.3070      10.4535       9.0141      10.3449      11.7833     113.7202      40.5000
    5273.0      10.7522      14.3008      69.9260     136.9500      11.4615      12.3038      15.0737      18.6237     112.0516      40.5000
    5272.5      12.3707      17.5634      56.9366     264.9902      12.8773      14.3106      19.1869      22.8798     113.0945      40.9375
    5272.0      13.6521      20.8093      48.0555     542.4193      14.2424      16.2448      23.8588      26.3822     105.1886      41.3125
    5271.5      14.5316      23.8273      41.9686    1078.9647      14.4299      17.3406      27.6741      26.2034     101.2257      41.0625
    5271.0      15.0641      25.9796      38.4917    1734.0854      14.2870      17.1497      28.8754      25.8828     100.6000      41.3125
    5270.5      15.3648      26.9772      37.0683    1950.0000      14.2800      16.9516      28.7408      24.2281     104.9288      40.1250
    5270.0      15.6628      26.9551      37.0987    1950.0000      14.7414      17.0452      27.9790      24.8022      97.4201      39.9375
    5269.5      16.0491      26.0821      38.3404    1950.0000      15.7042      18.0973      27.1096      25.4881      88.0342      39.6250
    5269.0      16.2019      24.3251      41.1097    1950.0000      17.3533      19.1626      25.9563      26.9931      76.1109      39.8125
    5268.5      15.5916      22.1794      45.0870    1950.0000      17.9013      20.0181      25.2690      26.9400      80.6995      39.2500
    5268.0      14.3663      19.8715      50.3232    1950.0000      15.8073      17.3902      21.8620      23.0464      91.5454      39.2500
    5267.5      13.1050      17.9983      55.5608    1950.0000      12.7162      13.8242      17.4638      17.8721      99.8546      38.5000
    5267.0      12.0035      16.2336      61.6005    1950.0000      10.4458      11.4445      14.2109      14.4235     104.8604      38.0625
    5266.5      11.4356      15.4393      64.7698    1950.0000      10.2113      10.9453      13.7177      13.8308     108.1976      38.4375
    5266.0      11.4557      15.6624      63.8472    1950.0000      10.4385      11.3285      13.8089      13.8139     106.3271      38.2500
    5265.5      12.1062      17.1053      58.4615    1950.0000      10.9670      12.1806      15.3402      15.3992     106.5356      38.4375
    5265.0      13.4643      19.9696      50.0761    1950.0000      12.2713      14.0769      18.3284      18.4142      88.3896      38.5625
    5264.5      15.8549      25.2197      39.6515    1950.0000      14.7714      17.5193      24.4665      25.0916      60.4889      38.2500
    5264.0      18.9508      32.6734      30.6059    1950.0000      19.0418      23.0455      35.5137      35.3534      30.0369      37.7500
    5263.5      23.1145      43.5867      22.9428    1950.0000      25.8370      31.5399      56.2805      54.7248      11.8909      37.4375
    5263.0      27.3688      55.7266      17.9447    1950.0000      30.0014      40.9328      78.0872      73.8507       9.7416      37.1250
    5262.5      30.0767      63.6240      15.7173    1950.0000      33.4106      45.7913      91.0447      86.8258       9.3245      36.8125
    5262.0      29.4761      62.1861      16.0808    1950.0000      33.3796      43.8603      84.8446      81.9887      15.5818      37.0625
    5261.5      26.3031      52.6563      18.9911    1950.0000      28.7699      37.0592      67.0763      64.0760      37.0469      37.1250
    5261.0      22.3768      40.7051      24.5669    1950.0000      22.7474      27.1005      45.4892      44.3848      71.2532      37.4375
    5260.5      18.7442      31.1440      32.1089    1950.0000      17.8347      20.6784      31.7369      32.5468     102.3309      37.1875
    5260.0      16.3313      25.2303      39.6349    1950.0000      15.1360      17.4207      24.0804      24.6157     119.6944      37.1250
    5259.5      14.3657      21.2622      47.0318    1950.0000      13.6109      15.1999      20.0841      20.7915     123.8659      36.5000
    5259.0      12.9716      18.6623      53.5840    1950.0000      12.0030      13.6245      17.1768      18.0877     124.0745      36.5625
    5258.5      12.3510      17.3257      57.7178    1950.0000      10.9039      12.3489      15.4659      16.5205     118.6343      36.5000
    5258.0      12.3300      17.2467      57.9820    1950.0000      10.2895      11.5265      14.9440      17.4625     107.3713      36.3125
    5257.5      12.6825      17.8938      55.8852    1950.0000      11.2433      12.7319      16.4507      19.7616      82.9680      36.0000
    5257.0      13.2176      18.8916      52.9337    1950.0000      14.0618      15.7561      20.6157      22.9218      65.7983      35.8125
    5256.5      13.4992      19.6408      50.9145    1950.0000      15.3496      18.3185      23.6696      23.8193      64.5469      35.1875
    5256.0      13.2813      19.4684      51.3654    1950.0000      13.6588      16.1280      22.3581      22.3018      80.8158      34.9375
    5255.5      12.5934      17.8225      56.1088    1950.0000      12.4725      14.2627      18.9789      20.2948     100.5670      35.3125
    5255.0      11.4922      16.1310      61.9925    1950.0000      10.9120      12.6355      16.6093      17.4634     107.6586      35.4375
    5254.5      10.7858      14.6347      68.3306    1950.0000       9.8618      11.0827      13.6328      14.8360     107.0328      35.5000
    5254.0      10.1322      13.6135      73.4566    1950.0000       9.0283      10.2262      12.7601      13.0465      97.7741      35.3750
    5253.5       9.9881      13.4420      74.3935    1950.0000       9.1149      10.2094      12.6687      12.8638      94.2284      35.3750
    5253.0      10.1017      13.6110      73.4700    1950.0000       9.2871      10.3318      12.9565      13.0864      97.5656      35.5000
    5252.5      10.4892      14.2343      70.2528    1950.0000       9.4242      10.6519      13.5797      13.8431      99.9161      35.6875
    5252.0      11.5450      16.0294      62.3852    1950.0000       9.6209      10.9472      14.1370      15.0442      94.9103      35.6250
    5251.5      13.3060      19.0414      52.5172    1950.0000      11.1032      12.5025      16.8692      19.6170      73.4623      36.1250
    5251.0      15.4951      23.0048      43.4692    1950.0000      13.9491      16.5512      23.8095      27.3990      48.2162      36.0625
    5250.5      19.7304      29.7843      33.5747    1950.0000      21.3010      23.1147      35.1797      43.3800      28.1366      36.5625
    5250.0      22.7959      35.8185      27.9185    1950.0000      25.3014      33.9728      49.6809      60.1889      25.5984      36.7500
    5249.5      23.2901      38.2922      26.1150    1950.0000      27.3499      38.5345      54.9447      60.1236      39.5730      36.6875
    5249.0      21.4056      35.5219      28.1517    1950.0000      28.1117      30.1443      48.7178      47.7019      56.0012      36.4375
    5248.5      18.6020      29.7403      33.6244    1950.0000      16.0127      17.3292      29.8276      28.7707      76.6502      36.5625
    5248.0      16.5379      25.7577      38.8233    1950.0000      10.9303      11.6967      19.3042      18.1535      79.7788      36.6875
    5247.5      15.7363      23.1708      43.1578    1950.0000      10.2577      10.8418      17.9650      18.0154      63.8275      37.0625
