~VERSION INFORMATION
VERS.           2.0   :CWLS Log ASCII Standard - VERSION 2.0
WRAP.           NO    :One Line per depth step
PROD.  Schlumberger   :LAS Producer
PROG.  DLIS to ASCII 11C0-305                          :LAS Program name and version
CREA.        2004/05/20 06:33                          :LAS Creation date {YYYY/MM/DD hh:mm}
SOURCE.     AIT_TLD_MCFL_CNL_053PUP.DLIS               :DLIS File Name
FILE-ID.     AIT_TLD_MCFL_CNL_053PUP                   :File Identification Number
#--------------------------------------------------
~WELL INFORMATION
#MNEM.UNIT      DATA             DESCRIPTION
#---- ------ --------------   -----------------------------
STRT .F         5760.0       :START DEPTH     
STOP .F         4243.0       :STOP DEPTH     
STEP .F           -0.5       :STEP     
NULL .          -999.25      :NULL VALUE
COMP .        DEPARTMENT OF ENERGY                     :COMPANY
WELL .        48X - 28                                 :WELL
FLD  .        NAVAL PETROLEUM RESERVE # 3              :FIELD
LOC  .        490' FSL, 2449' FWL                      :LOCATION
CNTY .        NATRONA                                  :COUNTY
STAT .        WYOMING                                  :STATE
CTRY .                                                 :COUNTRY
API  .        49-025-23195                             :API NUMBER
UWI  .                                                 :UNIQUE WELL ID
DATE .        19-May-2004                              :LOG DATE {DD-MMM-YYYY}
SRVC .        Schlumberger                             :SERVICE COMPANY
LATI .DEG                                              :LATITUDE
LONG .DEG                                              :LONGITUDE
GDAT .                                                 :GeoDetic Datum
SECT .        28                                       :Section
RANG .        78W                                      :Range
TOWN .        39N                                      :Township
#-----------------------------------------------------------------------------
~PARAMETER INFORMATION
#MNEM.UNIT    VALUE                      DESCRIPTION
#---- -----   --------------------       ------------------------
RUN  .          1                        :RUN NUMBER
PDAT .        GROUND LEVEL               :Permanent Datum
EPD  .C3                                 :Elevation of Permanent Datum above Mean Sea Level
EPD  .C3                                 :Elevation of tool zero above Mean Sea Level
LMF  .          KELLY BUSHING            :Logging Measured From (Name of Logging Elevation Reference)
APD  .                                   :Elevation of Depth Reference (LMF) above Permanent Datum
#-----------------------------------------------------------------------------
~CURVE INFORMATION
#MNEM.UNIT   API CODE                                  DESCRIPTION
#---- -----  --------                                  -----------------------
DEPT .F                                                :DEPTH (BOREHOLE) {F10.1}
AHF20.OHMM                                             :Array Induction Four Foot Resistivity A20 {F13.4}
AHF60.OHMM                                             :Array Induction Four Foot Resistivity A60 {F13.4}
AHFCO60.MM/M                                           :Array Induction Four Foot Conductivity A60 {F13.4}
AHT10.OHMM                                             :Array Induction Two Foot Resistivity A10 {F13.4}
AHT20.OHMM                                             :Array Induction Two Foot Resistivity A20 {F13.4}
AHT30.OHMM                                             :Array Induction Two Foot Resistivity A30 {F13.4}
AHT60.OHMM                                             :Array Induction Two Foot Resistivity A60 {F13.4}
AHT90.OHMM                                             :Array Induction Two Foot Resistivity A90 {F13.4}
GR   .GAPI                                             :Gamma-Ray {F13.4}
SP   .MV                                               :Spontaneous Potential {F13.4}
#-----------------------------------------------------------------------------
# 
#     DEPT       AHF20        AHF60       AHFCO60       AHT10        AHT20        AHT30        AHT60        AHT90         GR           SP
#
~A  
# ...
    4876.5      11.2075      13.4011      74.6209    1950.0000      10.6166      10.8914      12.3395      12.3131     122.2426      45.1875
    4876.0      10.4954      12.5962      79.3893    1950.0000       9.3140       9.7394      11.0917      11.2775     120.7826      45.0000
    4875.5      10.3691      12.3546      80.9415    1950.0000       9.4335       9.9607      11.2597      12.0102     124.9541      44.3125
    4875.0      10.7681      13.1426      76.0885    1950.0000      10.2375      11.2268      12.9421      13.7267     118.0385      44.1250
    4874.5      10.9851      13.5671      73.7077    1950.0000      10.5703      11.9630      13.9022      14.3789     112.1984      43.6250
    4874.0      11.4234      14.1875      70.4847    1950.0000      12.0819      13.4450      15.7370      16.1668     106.3583      43.3125
    4873.5      11.6835      14.5032      68.9503    1950.0000      13.0442      14.6602      17.2056      16.9755     105.8429      43.7500
    4873.0      11.4131      14.1367      70.7380    1950.0000      12.3238      13.3354      15.3870      14.9524     116.6888      43.6250
    4872.5      11.0165      13.2612      75.4080    1950.0000      10.5808      11.4216      13.0113      12.8199     129.6205      43.9375
    4872.0      10.5821      12.6497      79.0530    1950.0000       9.6839      10.2689      11.5786      11.3793     133.9513      43.9375
    4871.5      10.3602      12.3161      81.1943    1950.0000       9.6900      10.0586      11.0564      10.8961     131.0313      43.5625
    4871.0      10.4785      12.5153      79.9023    1950.0000       9.6800      10.0984      11.2812      11.1867     119.1425      43.5625
    4870.5      10.9326      13.2433      75.5098    1950.0000      10.4588      11.2028      12.6252      12.5058     117.9084      43.6875
    4870.0      11.6885      14.4759      69.0803    1950.0000      11.3553      12.5265      14.4153      14.5509     108.3139      43.4375
    4869.5      12.9528      16.4591      60.7566    1950.0000      12.5475      14.0311      16.4509      16.0991     102.0395      43.6875
    4869.0      14.1849      18.9006      52.9083    1950.0000      13.8455      15.4699      18.3913      18.3789      90.7131      43.7500
    4868.5      15.9585      21.9412      45.5764    1950.0000      14.9387      18.1823      22.4676      21.8173      84.4559      44.4375
    4868.0      18.2609      25.6241      39.0258    1950.0000      18.4768      22.1687      28.5337      26.8699      74.2018      44.3125
    4867.5      20.6835      29.3278      34.0973    1950.0000      22.5671      26.6475      34.8237      32.6909      66.6931      44.2500
    4867.0      22.3118      31.8212      31.4256    1950.0000      23.4089      28.2609      37.3266      32.1051      62.9387      44.3750
    4866.5      22.4349      31.4552      31.7912    1950.0000      22.9637      26.5696      34.9530      31.1019      71.2535      43.9375
    4866.0      21.6984      29.1407      34.3162    1950.0000      21.2396      23.2548      29.6537      27.7094      79.5965      44.0625
    4865.5      20.7814      26.4284      37.8382    1950.0000      19.8548      21.0977      26.2799      25.7037      86.2524      44.0625
    4865.0      19.8733      25.4697      39.2623    1950.0000      19.1032      20.0777      24.2155      24.0994      81.3259      44.5000
    4864.5      19.1429      24.1592      41.3921    1950.0000      18.5311      19.3494      23.1442      23.2974      82.9945      44.3125
    4864.0      18.4986      23.2713      42.9713    1950.0000      17.4883      18.9322      22.7404      22.7955      83.4409      43.6875
    4863.5      17.7214      22.5937      44.2602    1950.0000      17.2277      18.6620      22.5672      22.5241      87.1953      43.5625
    4863.0      17.0585      22.3023      44.8384    1950.0000      17.1139      18.8427      23.2353      22.3618      88.2381      43.1250
    4862.5      16.5572      22.1497      45.1473    1950.0000      15.8451      17.7804      22.1010      20.5176      90.8918      44.0000
    4862.0      16.1489      21.8834      45.6968    1950.0000      14.2339      16.4771      21.0741      19.2761      89.2232      44.2500
    4861.5      15.9454      21.6171      46.2597    1950.0000      14.1088      16.0932      21.1653      19.3161      79.3990      44.7500
    4861.0      15.9556      21.3639      46.8079    1950.0000      14.4107      17.3256      21.5632      20.7437      77.3603      45.0000
    4860.5      16.0870      21.2752      47.0031    1950.0000      15.2796      17.0741      21.1768      20.9830      75.4368      44.8750
    4860.0      16.6666      21.6564      46.1757    1950.0000      15.5087      17.1039      21.2028      21.5704      84.0096      44.3125
    4859.5      16.8638      21.9502      45.5577    1950.0000      15.8092      17.7627      22.2914      23.1070      88.6714      44.2500
    4859.0      17.2286      22.3137      44.8156    1950.0000      16.2763      17.8209      22.5277      23.8004      91.4292      44.1250
    4858.5      17.5722      23.0642      43.3572    1950.0000      16.3354      18.2205      23.3881      24.6711      86.9104      44.3125
    4858.0      17.6198      23.3028      42.9132    1950.0000      16.8602      18.3208      23.9575      25.1207      81.8314      44.7500
    4857.5      17.4807      23.2135      43.0783    1950.0000      16.8227      18.4635      24.2896      24.8203      81.8314      45.7500
    4857.0      17.0748      22.6893      44.0737    1950.0000      16.2345      17.4679      23.2305      23.7129      88.2359      45.5625
    4856.5      16.5978      21.7372      46.0041    1950.0000      15.2955      16.6313      22.0587      22.1502      93.4503      45.4375
    4856.0      16.0470      20.6195      48.4978    1950.0000      15.1693      16.1954      21.2021      21.0135      97.3960      44.8125
    4855.5      15.3846      19.4099      51.5202    1950.0000      14.9624      15.7020      20.0283      19.6879     101.3505      43.9375
    4855.0      14.4954      17.8542      56.0091    1950.0000      14.5868      15.0819      18.8822      18.3303     105.9391      44.4375
    4854.5      13.4537      16.3234      61.2619    1950.0000      13.3173      14.1048      16.7432      16.2034     114.2429      44.5000
    4854.0      12.6108      15.1337      66.0776    1950.0000      11.9533      12.2552      14.7516      14.3709     118.6230      44.2500
    4853.5      11.8886      14.0368      71.2413    1950.0000      10.1285      10.7119      12.7457      12.5539     119.1452      44.0625
    4853.0      11.6097      13.5457      73.8241    1950.0000      10.5094      10.8282      12.8983      13.5474     113.9872      43.3750
    4852.5      11.4686      13.2814      75.2934    1950.0000      10.5265      11.6728      13.7221      13.3068     107.7300      42.8750
    4852.0      11.3458      13.1229      76.2029    1950.0000      11.1368      11.6295      13.5498      14.0676      98.4297      42.5625
    4851.5      11.1613      12.8251      77.9719    1950.0000      10.9225      11.4053      12.7944      12.6551     100.0146      43.0000
    4851.0      10.9313      12.5583      79.6287    1950.0000      10.7905      11.0790      12.7936      12.8302     108.1490      43.6250
    4850.5      10.6582      12.2395      81.7029    1950.0000       9.5411       9.6603      11.9492      12.1080     121.3071      43.7500
    4850.0      10.4586      11.9211      83.8848    1950.0000       9.4448       9.6500      11.6006      11.7480     125.6382      43.3125
    4849.5      10.2072      11.5333      86.7053    1950.0000       9.9936       9.8312      11.5528      11.4597     122.5096      42.8750
    4849.0      10.0428      11.2206      89.1214    1950.0000      10.2217       9.9920      11.8258      11.6121     124.8039      43.0625
    4848.5       9.8914      10.9066      91.6874    1950.0000       9.6047       9.3129      10.7307      10.8079     127.9040      42.6875
