~VERSION INFORMATION
VERS.           2.0   :CWLS Log ASCII Standard - VERSION 2.0
WRAP.           NO    :One Line per depth step
PROD.  Schlumberger   :LAS Producer
PROG.  DLIS to ASCII 11C0-305                          :LAS Program name and version
CREA.        2004/05/20 06:33                          :LAS Creation date {YYYY/MM/DD hh:mm}
SOURCE.     AIT_TLD_MCFL_CNL_053PUP.DLIS               :DLIS File Name
FILE-ID.     AIT_TLD_MCFL_CNL_053PUP                   :File Identification Number
#--------------------------------------------------
~WELL INFORMATION
#MNEM.UNIT      DATA             DESCRIPTION
#---- ------ --------------   -----------------------------
STRT .F         5760.0       :START DEPTH     
STOP .F         4243.0       :STOP DEPTH     
STEP .F           -0.5       :STEP     
NULL .          -999.25      :NULL VALUE
COMP .        DEPARTMENT OF ENERGY                     :COMPANY
WELL .        48X - 28                                 :WELL
FLD  .        NAVAL PETROLEUM RESERVE # 3              :FIELD
LOC  .        490' FSL, 2449' FWL                      :LOCATION
CNTY .        NATRONA                                  :COUNTY
STAT .        WYOMING                                  :STATE
CTRY .                                                 :COUNTRY
API  .        49-025-23195                             :API NUMBER
UWI  .                                                 :UNIQUE WELL ID
DATE .        19-May-2004                              :LOG DATE {DD-MMM-YYYY}
SRVC .        Schlumberger                             :SERVICE COMPANY
LATI .DEG                                              :LATITUDE
LONG .DEG                                              :LONGITUDE
GDAT .                                                 :GeoDetic Datum
SECT .        28                                       :Section
RANG .        78W                                      :Range
TOWN .        39N                                      :Township
#-----------------------------------------------------------------------------
~PARAMETER INFORMATION
#MNEM.UNIT    VALUE                      DESCRIPTION
#---- -----   --------------------       ------------------------
RUN  .          1                        :RUN NUMBER
PDAT .        GROUND LEVEL               :Permanent Datum
EPD  .C3                                 :Elevation of Permanent Datum above Mean Sea Level
EPD  .C3                                 :Elevation of tool zero above Mean Sea Level
LMF  .          KELLY BUSHING            :Logging Measured From (Name of Logging Elevation Reference)
APD  .                                   :Elevation of Depth Reference (LMF) above Permanent Datum
#-----------------------------------------------------------------------------
~CURVE INFORMATION
#MNEM.UNIT   API CODE                                  DESCRIPTION
#---- -----  --------                                  -----------------------
DEPT .F                                                :DEPTH (BOREHOLE) {F10.1}
AHF20.OHMM                                             :Array Induction Four Foot Resistivity A20 {F13.4}
AHF60.OHMM                                             :Array Induction Four Foot Resistivity A60 {F13.4}
AHFCO60.MM/M                                           :Array Induction Four Foot Conductivity A60 {F13.4}
AHT10.OHMM                                             :Array Induction Two Foot Resistivity A10 {F13.4}
AHT20.OHMM                                             :Array Induction Two Foot Resistivity A20 {F13.4}
AHT30.OHMM                                             :Array Induction Two Foot Resistivity A30 {F13.4}
AHT60.OHMM                                             :Array Induction Two Foot Resistivity A60 {F13.4}
AHT90.OHMM                                             :Array Induction Two Foot Resistivity A90 {F13.4}
GR   .GAPI                                             :Gamma-Ray {F13.4}
SP   .MV                                               :Spontaneous Potential {F13.4}
#-----------------------------------------------------------------------------
# 
#     DEPT       AHF20        AHF60       AHFCO60       AHT10        AHT20        AHT30        AHT60        AHT90         GR           SP
#
~A  
# ...
    4563.0      15.6488      17.9782      55.6229    1950.0000      17.0633      14.4400      18.7519      20.3593      83.0366      46.6875
    4562.5      16.4631      20.7714      48.1431    1950.0000      18.8332      24.2722      18.3144      22.4254      88.7868      46.4375
    4562.0      15.8154      22.2546      44.9346    1950.0000      20.1677      29.1876      30.4950      31.1326      85.4496      46.0625
    4561.5      11.8407      17.4519      57.3003    1950.0000      12.1143      21.5419      22.8407      23.6171      83.5618      46.0625
    4561.0       9.9755      15.3899      64.9776    1950.0000       8.5990      10.1876      13.0778      13.7569      81.8612      46.2500
    4560.5       8.8257      12.8536      77.7991    1950.0000       6.3890       8.3562      10.0044       7.2252      84.4060      45.7500
    4560.0       8.1629      10.6636      93.7766    1950.0000       4.6916       5.4942       6.9318       7.3152      90.2461      45.5000
    4559.5       8.5262       9.8595     101.4252    1950.0000       5.3632       5.8854       8.3013      12.7486      91.7082      45.3125
    4559.0      10.7648      10.1806      98.2259    1950.0000       8.5471       8.2156       9.5600      10.6847      89.9977      42.5625
    4558.5      15.3824      11.6252      86.0197    1950.0000      13.1763       9.4755      10.5025      10.8076      96.9747      40.6875
    4558.0      23.6722      13.0247      76.7772    1950.0000      26.3645      20.9831       9.8300      11.4138     114.3828      42.1875
    4557.5      34.9051      15.2712      65.4827    1950.0000      52.7177      22.8399      17.3131      13.8185     130.8603      44.6875
    4557.0      43.7938      15.2115      65.7395    1950.0000      55.3989      21.6207      17.2709      15.5203     139.6741      44.4375
    4556.5      38.5390      13.0403      76.6854    1950.0000      39.2693      14.0793      15.6926      12.5708     128.8387      44.0625
    4556.0      28.7643      12.2670      81.5197    1950.0000      25.5115      11.1689      10.6586       8.9867     127.1875      44.1250
    4555.5      22.4843      11.7265      85.2768    1950.0000      19.7617      10.6865       9.2405       7.9280     115.5681      44.0625
    4555.0      18.4997      11.6690      85.6969    1950.0000      17.0330      10.5954      11.0896       9.6877     110.9032      43.3750
    4554.5      15.8339      12.1072      82.5953    1950.0000      15.6475       9.4138      15.3428      12.5261      98.7884      43.0625
    4554.0      14.3719      13.4955      74.0986    1950.0000      11.9897      11.1688      14.8438      16.0604      93.0183      42.4375
    4553.5      14.2340      15.6596      63.8584    1950.0000      10.7755      13.9496      14.9355      16.5883      90.6336      41.8750
    4553.0      15.0973      17.3741      57.5568    1761.4657      11.4101      13.7661      16.9691      18.6531      88.9650      33.2500
    4552.5      17.1187      19.3326      51.7262    1000.8066      13.5777      12.8978      17.9449      22.9101     105.6399      36.7500
    4552.0      17.5814      20.0542      49.8648     488.3289      14.3308      14.9436      22.5665      23.4890     118.9467      41.5625
    4551.5      26.9460      25.9485      38.5378     235.8542      29.9875      19.4931      26.0636      19.9945     134.3994      41.8750
    4551.0      29.0820      20.5398      48.6861     121.6889      37.5407      24.8950      20.9250      14.6178     136.8330      41.5625
    4550.5      24.5791      14.4999      68.9659      79.1982      25.5979      12.7624      12.9781      13.0686     137.8758      41.5000
    4550.0      18.4266      11.6879      85.5587      51.1709      17.4094       8.0483      11.6056       9.9777     137.8277      41.6250
    4549.5      14.8773      10.3446      96.6684      24.7838      18.6163      10.7394      12.1991       9.8712     128.2437      41.5000
    4549.0      10.6391       8.4696     118.0696      22.3354       8.0828       7.7576       6.7617       6.8780     122.4788      41.9375
    4548.5       8.8118       7.9022     126.5462      57.3670       5.4005       4.9032       5.5828       5.9800     116.2516      41.8750
    4548.0       8.5888       8.7042     114.8867      52.2450       8.0175       6.6791       7.8624       8.5978     114.6276      41.9375
    4547.5       9.4079      10.9473      91.3468      85.3506       8.4038       8.4264      13.6317      14.6897     111.7275      42.0625
    4547.0      10.8239      12.9557      77.1863     162.7684       9.8873      11.2301      15.9078      17.6266     112.3533      42.5625
    4546.5      11.5956      15.4059      64.9102     345.4850      10.1263      11.9142      17.2988      17.9355     117.3611      42.1875
    4546.0      12.6159      17.3636      57.5917     705.8638      12.0623      13.9393      17.1247      17.5114     129.7804      40.5625
    4545.5      14.3105      17.7920      56.2050    1379.0280      15.0161      12.7045      18.0662      16.3403     136.5730      40.2500
    4545.0      17.8190      17.5980      56.8248    1950.0000      18.2316      15.3203      26.5174      16.4875     141.9493      40.3125
    4544.5      21.0669      14.6118      68.4378    1950.0000      18.0924      14.0289      15.8504      13.4442     134.8147      40.6250
    4544.0      23.3649      14.4386      69.2587    1950.0000      20.3615      15.3394      15.6701      14.1165     125.3254      39.8750
    4543.5      24.3344      14.1077      70.8834    1950.0000      19.6601      13.5380      13.9629      13.6514     112.1852      39.3125
    4543.0      22.1963      14.3603      69.6364    1950.0000      24.4544      15.3397      15.5399      19.9992     114.7614      39.1250
    4542.5      20.4074      15.5982      64.1100    1950.0000      15.8631      16.8520      17.8688      15.1350     122.0468      38.2500
    4542.0      17.9699      17.1138      58.4323    1950.0000      16.7390      14.6102      16.6769      16.0961     134.1032      38.1250
    4541.5      17.2857      18.2371      54.8332    1950.0000      17.0217      14.5451      18.3895      16.9830     128.2327      39.0625
    4541.0      17.1382      18.9499      52.7706    1950.0000      12.7076      14.8995      19.6436      16.3949     126.1936      39.3125
    4540.5      15.7790      19.1915      52.1065    1950.0000      13.2835      13.5920      19.1969      16.0033     113.9954      39.6875
    4540.0      16.1219      18.6092      53.7369    1950.0000      13.7265      12.5348      17.2921      15.1399     109.1981      39.5000
    4539.5      18.2255      17.5267      57.0559    1950.0000      14.7763      12.5544      17.5250      20.0324      97.0363      39.5625
    4539.0      22.1502      18.7382      53.3670    1950.0000      19.1368      14.5814      17.4848      21.3965      96.7981      39.0625
    4538.5      25.5921      19.1432      52.2379    1950.0000      25.8356      17.1315      18.9441      22.2006      99.7181      39.4375
    4538.0      29.8663      19.7126      50.7289    1950.0000      30.2719      17.1632      19.6707      19.6980     110.2107      39.6875
    4537.5      33.2742      21.0839      47.4296    1950.0000      35.3338      16.0558      17.9061      18.8454     119.5471      40.6250
    4537.0      35.0993      23.9746      41.7108    1950.0000      36.0870      20.2739      25.3434      26.7532     124.7615      41.0625
    4536.5      32.9515      25.7468      38.8397    1950.0000      27.5349      22.5785      28.7621      25.0867     127.5770      41.0625
    4536.0      29.7062      27.1699      36.8054    1950.0000      33.7314      19.2836      25.5909      22.5683     123.4180      41.6875
    4535.5      27.8829      27.4148      36.4767    1950.0000      27.9633      19.9209      28.3542      22.1690     116.6978      41.2500
    4535.0      26.1593      27.8521      35.9039    1950.0000      23.7026      19.7896      28.7724      24.6451     105.9105      41.5625
