~VERSION INFORMATION
VERS.           2.0   :CWLS Log ASCII Standard - VERSION 2.0
WRAP.           NO    :One Line per depth step
PROD.  Schlumberger   :LAS Producer
PROG.  DLIS to ASCII 11C0-305                          :LAS Program name and version
CREA.        2004/05/20 06:33                          :LAS Creation date {YYYY/MM/DD hh:mm}
SOURCE.     AIT_TLD_MCFL_CNL_053PUP.DLIS               :DLIS File Name
FILE-ID.     AIT_TLD_MCFL_CNL_053PUP                   :File Identification Number
#--------------------------------------------------
~WELL INFORMATION
#MNEM.UNIT      DATA             DESCRIPTION
#---- ------ --------------   -----------------------------
STRT .F         5760.0       :START DEPTH     
STOP .F         4243.0       :STOP DEPTH     
STEP .F           -0.5       :STEP     
NULL .          -999.25      :NULL VALUE
COMP .        DEPARTMENT OF ENERGY                     :COMPANY
WELL .        48X - 28                                 :WELL
FLD  .        NAVAL PETROLEUM RESERVE # 3              :FIELD
LOC  .        490' FSL, 2449' FWL                      :LOCATION
CNTY .        NATRONA                                  :COUNTY
STAT .        WYOMING                                  :STATE
CTRY .                                                 :COUNTRY
API  .        49-025-23195                             :API NUMBER
UWI  .                                                 :UNIQUE WELL ID
DATE .        19-May-2004                              :LOG DATE {DD-MMM-YYYY}
SRVC .        Schlumberger                             :SERVICE COMPANY
LATI .DEG                                              :LATITUDE
LONG .DEG                                              :LONGITUDE
GDAT .                                                 :GeoDetic Datum
SECT .        28                                       :Section
RANG .        78W                                      :Range
TOWN .        39N                                      :Township
#-----------------------------------------------------------------------------
~PARAMETER INFORMATION
#MNEM.UNIT    VALUE                      DESCRIPTION
#---- -----   --------------------       ------------------------
RUN  .          1                        :RUN NUMBER
PDAT .        GROUND LEVEL               :Permanent Datum
EPD  .C3                                 :Elevation of Permanent Datum above Mean Sea Level
EPD  .C3                                 :Elevation of tool zero above Mean Sea Level
LMF  .          KELLY BUSHING            :Logging Measured From (Name of Logging Elevation Reference)
APD  .                                   :Elevation of Depth Reference (LMF) above Permanent Datum
#-----------------------------------------------------------------------------
~CURVE INFORMATION
#MNEM.UNIT   API CODE                                  DESCRIPTION
#---- -----  --------                                  -----------------------
DEPT .F                                                :DEPTH (BOREHOLE) {F10.1}
AHF20.OHMM                                             :Array Induction Four Foot Resistivity A20 {F13.4}
AHF60.OHMM                                             :Array Induction Four Foot Resistivity A60 {F13.4}
AHFCO60.MM/M                                           :Array Induction Four Foot Conductivity A60 {F13.4}
AHT10.OHMM                                             :Array Induction Two Foot Resistivity A10 {F13.4}
AHT20.OHMM                                             :Array Induction Two Foot Resistivity A20 {F13.4}
AHT30.OHMM                                             :Array Induction Two Foot Resistivity A30 {F13.4}
AHT60.OHMM                                             :Array Induction Two Foot Resistivity A60 {F13.4}
AHT90.OHMM                                             :Array Induction Two Foot Resistivity A90 {F13.4}
GR   .GAPI                                             :Gamma-Ray {F13.4}
SP   .MV                                               :Spontaneous Potential {F13.4}
#-----------------------------------------------------------------------------
# 
#     DEPT       AHF20        AHF60       AHFCO60       AHT10        AHT20        AHT30        AHT60        AHT90         GR           SP
#
~A  
# ...
    4278.0       2.0873       3.1215     320.3540       2.3461       2.0763       2.3103       3.1196       3.6251      67.4539      -1.7500
    4277.5       2.0873       3.1215     320.3540       2.3461       2.0763       2.3103       3.1196       3.6251      69.7482      -1.9375
    4277.0       2.0873       3.1215     320.3540       2.3461       2.0763       2.3103       3.1196       3.6251      70.9406      -2.6875
    4276.5       2.0873       3.1215     320.3540       2.3461       2.0763       2.3103       3.1196       3.6251      70.9643      -3.5000
    4276.0       2.0873       3.1215     320.3540       2.3461       2.0763       2.3103       3.1196       3.6251      61.3698      -3.5625
    4275.5       2.0873       3.1215     320.3540       2.3461       2.0763       2.3103       3.1196       3.6251      55.8644      -3.1250
    4275.0       2.0873       3.1215     320.3540       2.3461       2.0763       2.3103       3.1196       3.6251      51.8330      -2.9375
    4274.5       2.0873       3.1215     320.3540       2.3461       2.0763       2.3103       3.1196       3.6251      55.5648      -2.6250
    4274.0       2.0873       3.1215     320.3540       2.3461       2.0763       2.3103       3.1196       3.6251      56.2928      -2.5625
    4273.5       2.0873       3.1215     320.3540       2.3461       2.0763       2.3103       3.1196       3.6251      51.0103      -2.9375
    4273.0       2.0873       3.1215     320.3540       2.3461       2.0763       2.3103       3.1196       3.6251      42.1870      -2.0000
    4272.5       2.0873       3.1215     320.3540       2.3461       2.0763       2.3103       3.1196       3.6251      32.8011      -1.5000
    4272.0       2.0873       3.1215     320.3540       2.3461       2.0763       2.3103       3.1196       3.6251      28.5225      -0.1875
    4271.5       2.0873       3.1215     320.3540       2.3461       2.0763       2.3103       3.1196       3.6251      29.8596       1.9375
    4271.0       2.0873       3.1215     320.3540       2.3461       2.0763       2.3103       3.1196       3.6251      31.6093       2.1875
    4270.5       2.0873       3.1215     320.3540       2.3461       2.0763       2.3103       3.1196       3.6251      32.5632       1.4375
    4270.0       2.0873       3.1215     320.3540       2.3461       2.0763       2.3103       3.1196       3.6251      32.1460       1.1875
    4269.5       2.0873       3.1215     320.3540       2.3461       2.0763       2.3103       3.1196       3.6251      31.9208       0.8750
    4269.0       2.0873       3.1215     320.3540       2.3461       2.0763       2.3103       3.1196       3.6251      31.9765       0.2500
    4268.5       2.0873       3.1215     320.3540       2.3461       2.0763       2.3103       3.1196       3.6251      33.4288      -0.5625
    4268.0       2.0873       3.1215     320.3540       2.3461       2.0763       2.3103       3.1196       3.6251      33.3643      -1.2500
    4267.5       2.0873       3.1215     320.3540       2.3461       2.0763       2.3103       3.1196       3.6251      40.2241      -1.9375
    4267.0       2.0873       3.1215     320.3540       2.3461       2.0763       2.3103       3.1196       3.6251      42.8444      -2.2500
    4266.5       2.0873       3.1215     320.3540       2.3461       2.0763       2.3103       3.1196       3.6251      43.0530      -2.1250
    4266.0       2.0873       3.1215     320.3540       2.3461       2.0763       2.3103       3.1196       3.6251      37.8067      -2.5625
    4265.5       2.0873       3.1215     320.3540       2.3461       2.0763       2.3103       3.1196       3.6251      34.4835      -2.6875
    4265.0       2.0873       3.1215     320.3540       2.3461       2.0763       2.3103       3.1196       3.6251      33.0234      -3.3125
    4264.5       2.0873       3.1215     320.3540       2.3461       2.0763       2.3103       3.1196       3.6251      31.8204      -3.3125
    4264.0       2.0873       3.1215     320.3540       2.3461       2.0763       2.3103       3.1196       3.6251      30.6281      -2.8750
    4263.5       2.0873       3.1215     320.3540       2.3461       2.0763       2.3103       3.1196       3.6251      32.5052      -2.3125
    4263.0       2.0873       3.1215     320.3540       2.3461       2.0763       2.3103       3.1196       3.6251      31.0851      -2.4375
    4262.5       2.0873       3.1215     320.3540       2.3461       2.0763       2.3103       3.1196       3.6251      34.4482      -2.6875
    4262.0       2.0873       3.1215     320.3540       2.3461       2.0763       2.3103       3.1196       3.6251      36.9707      -2.8125
    4261.5       2.0873       3.1215     320.3540       2.3461       2.0763       2.3103       3.1196       3.6251      40.6919      -3.2500
    4261.0       2.0873       3.1215     320.3540       2.3461       2.0763       2.3103       3.1196       3.6251      39.4750      -3.3125
    4260.5       2.0873       3.1215     320.3540       2.3461       2.0763       2.3103       3.1196       3.6251      34.4725      -3.3125
    4260.0       2.0873       3.1215     320.3540       2.3461       2.0763       2.3103       3.1196       3.6251      31.1353      -2.6875
    4259.5       2.0873       3.1215     320.3540       2.3461       2.0763       2.3103       3.1196       3.6251      28.9891      -3.0000
    4259.0       2.0873       3.1215     320.3540       2.3461       2.0763       2.3103       3.1196       3.6251      30.4262      -2.6250
    4258.5       2.0873       3.1215     320.3540       2.3461       2.0763       2.3103       3.1196       3.6251      35.7655      -1.0625
    4258.0       2.0873       3.1215     320.3540       2.3461       2.0763       2.3103       3.1196       3.6251      35.1656      -1.1875
    4257.5       2.0873       3.1215     320.3540       2.3461       2.0763       2.3103       3.1196       3.6251      36.3489       0.1875
    4257.0       2.0873       3.1215     320.3540       2.3461       2.0763       2.3103       3.1196       3.6251      32.0565      -1.1875
    4256.5       2.0873       3.1215     320.3540       2.3461       2.0763       2.3103       3.1196       3.6251      37.2709      -2.0000
    4256.0       2.0873       3.1215     320.3540       2.3461       2.0763       2.3103       3.1196       3.6251      36.8077      -2.8750
    4255.5       2.0873       3.1215     320.3540       2.3461       2.0763       2.3103       3.1196       3.6251      38.6809      -3.3750
    4255.0       2.0873       3.1215     320.3540       2.3461       2.0763       2.3103       3.1196       3.6251      34.7705      -4.0625
    4254.5       2.0873       3.1215     320.3540       2.3461       2.0763       2.3103       3.1196       3.6251      31.9089      -4.9375
    4254.0       2.0873       3.1215     320.3540       2.3461       2.0763       2.3103       3.1196       3.6251      31.0746      -5.1875
    4253.5       2.0873       3.1215     320.3540       2.3461       2.0763       2.3103       3.1196       3.6251      33.2185      -4.9375
    4253.0       2.0873       3.1215     320.3540       2.3461       2.0763       2.3103       3.1196       3.6251      40.7830      -4.7500
    4252.5       2.0873       3.1215     320.3540       2.3461       2.0763       2.3103       3.1196       3.6251      49.2828      -4.6250
    4252.0       2.0873       3.1215     320.3540       2.3461       2.0763       2.3103       3.1196       3.6251      55.2208      -4.8750
    4251.5       2.0873       3.1215     320.3540       2.3461       2.0763       2.3103       3.1196       3.6251      57.1950      -5.6875
    4251.0       2.0873       3.1215     320.3540       2.3461       2.0763       2.3103       3.1196       3.6251      55.1610      -6.0000
    4250.5       2.0873       3.1215     320.3540       2.3461       2.0763       2.3103       3.1196       3.6251      52.0816      -5.6875
    4250.0       2.0873       3.1215     320.3540       2.3461       2.0763       2.3103       3.1196       3.6251      45.3101      -5.5625
