~Version Information
 VERS.                2.00:   CWLS log ASCII Standard -VERSION 2.00
 WRAP.                  NO:   One line per frame
~Well Information Block
#MNEM.UNIT              Data                Description
#--------- -------------------------------  -------------------------------
 STRT.F                          817.0000:   Starting Depth
 STOP.F                           -6.7500:   Ending Depth
 STEP.F                           -0.5000:   Level Spacing
 NULL.                          -999.2500:   Absent Value
 COMP.     FLUOR DANIEL (NPSOR), INC.    :   Company
 WELL.     26 X 14                       :   Well
 FLD .                                   :   Field
 LOC .                                   :   Location
 PROV.                                   :   Province
 SRVC.                                   :   Service Company
 LIC .                                   :   License Number
 DATE.                                   :   Log Date
 UWI .                                   :   Unique Well ID
~Curve Information Block
#MNEM.UNIT       API Codes    Curve Description
#---------    -------------   -------------------------------
 DEPT.F        0   0  0  0:   Depth
 GR  .API      0   0  0  0:   Gamma ray counts
 TEN .LBF      0   0  0  0:   Differential Tension
 RILM.OHMM     0   0  0  0:   Resistivity from CILM
 RILD.OHMM     0   0  0  0:   Resistivity from CILD
#  Curve Data
~A
# ...
   214.0000    122.3059     -0.7204      5.6080      5.0745
   213.5000    128.0323      3.4785      5.1108      4.9915
   213.0000    126.1599      3.7802      4.7398      5.0279
   212.5000    120.7151      3.7100      4.5955      5.1419
   212.0000    115.1621      7.2062      4.7577      5.3899
   211.5000    110.3582     10.2230      5.2884      5.8632
   211.0000    105.5256     10.6027      6.2250      6.6269
   210.5000    101.2586      8.3277      7.4778      7.6830
   210.0000     99.5422      1.2264      8.6880      8.8549
   209.5000     99.8026     -8.9758      9.4997      9.7525
   209.0000    100.1114    -14.8440      9.8647     10.1266
   208.5000     98.5913    -14.8321      9.8333      9.9992
   208.0000     97.8426    -12.0570      9.4014      9.3374
   207.5000     99.6497     -6.3385      8.5511      8.1391
   207.0000    102.4485      2.3095      7.3676      6.6238
   206.5000    103.7436     11.3503      6.0837      5.1706
   206.0000    106.8722     16.5206      4.9319      4.0533
   205.5000    115.1048     15.8752      3.9877      3.2439
   205.0000    127.2233     10.7814      3.2686      2.7199
   204.5000    138.3203      1.2508      2.7171      2.3770
   204.0000    145.3378     -9.6777      2.2938      2.1443
   203.5000    148.0417    -14.6019      2.0070      1.9933
   203.0000    148.4740    -14.9935      1.8625      1.9284
   202.5000    147.0085    -15.8679      1.8450      1.9535
   202.0000    141.0241    -18.8615      1.9453      2.0752
   201.5000    129.8608    -24.9469      2.1591      2.2970
   201.0000    118.1834    -32.2742      2.4970      2.6191
   200.5000    110.5073    -33.8230      2.9542      3.0685
   200.0000    106.9789    -27.4192      3.5759      3.6598
   199.5000    106.3848    -16.8159      4.3406      4.3676
   199.0000    107.6531     -7.2846      5.1387      5.1357
   198.5000    109.7260     -1.8983      5.8062      5.8836
   198.0000    112.3453      3.2223      6.2663      6.4971
   197.5000    115.2708      3.4303      6.5335      6.9352
   197.0000    118.0799     -6.8018      6.7113      7.2344
   196.5000    120.8141    -18.1280      6.8683      7.4618
   196.0000    122.2783    -19.6496      6.9878      7.6493
   195.5000    122.2207    -17.4942      7.0365      7.7619
   195.0000    121.7143    -16.9315      7.0314      7.7544
   194.5000    120.1035    -13.5932      7.0303      7.6447
   194.0000    116.5303     -6.9781      7.0661      7.4970
   193.5000    114.4395     -1.8160      7.1066      7.3581
   193.0000    113.8653     -0.4227      7.0952      7.2242
   192.5000    113.3385     -0.9580      7.0228      7.0759
   192.0000    115.1550     -1.3185      6.9177      6.9166
   191.5000    119.4490     -0.3623      6.7982      6.7639
   191.0000    122.6041      1.4573      6.6784      6.6330
   190.5000    126.2113      2.3982      6.5721      6.5303
   190.0000    130.5788      2.9500      6.4640      6.4548
   189.5000    132.2946      6.3913      6.3372      6.3963
   189.0000    131.9806     10.6948      6.2209      6.3416
   188.5000    130.8172      8.0981      6.1590      6.2940
   188.0000    126.7004     -1.1990      6.1528      6.2735
   187.5000    121.0551     -9.4776      6.1770      6.2827
   187.0000    120.5562    -15.7051      6.2228      6.3083
   186.5000    125.3725    -21.5171      6.2894      6.3535
   186.0000    129.1276    -20.1382      6.3634      6.4197
   185.5000    129.6944     -9.5733      6.4302      6.4801
   185.0000    129.6580     -1.9343      6.4827      6.5102
   184.5000    129.2480     -4.0672      6.5126      6.5166
   184.0000    127.8873    -10.0885      6.5241      6.5244
   183.5000    125.8134    -12.9750      6.5356      6.5497
   183.0000    123.6302    -14.1386      6.5536      6.5883
   182.5000    124.0938    -19.2360      6.5662      6.6304
   182.0000    126.4125    -24.9307      6.5679      6.6739
   181.5000    125.2329    -20.8577      6.5754      6.7122
   181.0000    121.2787     -9.6529      6.6056      6.7344
   180.5000    119.1466     -5.6105      6.6593      6.7540
   180.0000    119.8590     -9.5264      6.7324      6.7893
   179.5000    120.6123    -11.9883      6.8149      6.8399
   179.0000    121.1009    -12.0945      6.8737      6.8909
   178.5000    121.0637    -14.5311      6.8769      6.9310
   178.0000    120.1399    -19.9809      6.8237      6.9306
   177.5000    117.9210    -23.6979      6.7297      6.8469
   177.0000    116.8853    -22.4205      6.6074      6.6777
   176.5000    117.8226    -15.4620      6.4611      6.4686
   176.0000    118.3169     -5.7636      6.2682      6.2535
   175.5000    117.5986     -0.3206      6.0086      6.0354
   175.0000    117.1234     -4.1663      5.7246      5.8267
   174.5000    116.3383    -10.4883      5.4902      5.6447
   174.0000    114.7654    -13.0220      5.3373      5.5055
   173.5000    115.5325    -16.1952      5.2458      5.4043
   173.0000    117.8733    -20.9102      5.1664      5.2812
   172.5000    118.5190    -17.5543      5.0344      5.0290
   172.0000    117.8491     -6.6328      4.7790      4.5806
   171.5000    116.5693      2.6392      4.3900      4.0108
   171.0000    115.4969      2.4955      3.9374      3.4413
   170.5000    121.2362     -8.0322      3.5096      3.0196
   170.0000    133.7931    -20.6195      3.1324      2.7453
   169.5000    141.6288    -24.9295      2.7866      2.5731
   169.0000    138.5382    -22.3525      2.4770      2.4560
   168.5000    131.1383    -20.4792      2.2437      2.3727
   168.0000    127.0707    -19.9931      2.1518      2.3365
   167.5000    128.8217    -20.8333      2.2077      2.3754
   167.0000    130.8660    -23.7586      2.3892      2.5048
   166.5000    128.2670    -24.4262      2.6477      2.7192
   166.0000    124.7066    -21.5080      2.9293      2.9940
   165.5000    123.8320    -18.6453      3.1877      3.2914
   165.0000    125.1311    -15.6566      3.4030      3.5724
   164.5000    126.1525     -9.0503      3.5936      3.8149
   164.0000    124.6888     -2.9118      3.7755      4.0222
   163.5000    120.9445     -3.7045      3.9443      4.1900
   163.0000    118.6490     -9.8033      4.0741      4.2961
   162.5000    115.8369    -14.2847      4.1185      4.2645
   162.0000    110.0373    -16.9305      4.0307      4.0381
   161.5000    105.0815    -21.9896      3.8065      3.6343
   161.0000    105.7876    -26.9275      3.5102      3.2189
   160.5000    112.1039    -26.5460      3.2177      2.9039
   160.0000    121.8121    -17.8626      2.9385      2.6921
   159.5000    131.1305     -6.1793      2.6466      2.5394
   159.0000    135.4112     -0.4804      2.3646      2.4137
   158.5000    132.1014     -1.0730      2.1741      2.3134
   158.0000    125.2595     -1.2295      2.1273      2.2657
   157.5000    118.9989     -0.3456      2.2164      2.3014
   157.0000    114.4448      0.4526      2.4016      2.4250
   156.5000    111.4963      4.3999      2.6155      2.6087
   156.0000    110.6105     11.7956      2.8031      2.8051
   155.5000    111.6029     15.5754      2.9483      2.9592
   155.0000    112.6955      9.7350      3.0633      3.0468
   154.5000    114.4165     -2.6590      3.1741      3.1097
   154.0000    117.8512    -16.9412      3.2897      3.2028
   153.5000    121.8899    -26.1428      3.3780      3.3278
   153.0000    122.6328    -19.6972      3.3941      3.4482
   152.5000    120.2061     -0.9973      3.3545      3.5366
   152.0000    117.7335     15.3955      3.3528      3.6045
   151.5000    116.4822     23.6082      3.4703      3.7028
   151.0000    117.3431     24.5946      3.7058      3.8827
   150.5000    121.7257     17.3624      3.9809      4.1344
   150.0000    127.4883      8.4217      4.2132      4.3974
   149.5000    129.1948      2.8621      4.3858      4.6167
   149.0000    125.5635     -4.7025      4.5331      4.7704
   148.5000    120.3724    -13.4624      4.6773      4.8722
   148.0000    115.8928    -16.2657      4.7968      4.9284
   147.5000    114.1779    -15.4281      4.8627      4.9323
