~Version Information
 VERS.                2.00:   CWLS log ASCII Standard -VERSION 2.00
 WRAP.                  NO:   One line per frame
~Well Information Block
#MNEM.UNIT              Data                Description
#--------- -------------------------------  -------------------------------
 STRT.F                          817.0000:   Starting Depth
 STOP.F                           -6.7500:   Ending Depth
 STEP.F                           -0.5000:   Level Spacing
 NULL.                          -999.2500:   Absent Value
 COMP.     FLUOR DANIEL (NPSOR), INC.    :   Company
 WELL.     26 X 14                       :   Well
 FLD .                                   :   Field
 LOC .                                   :   Location
 PROV.                                   :   Province
 SRVC.                                   :   Service Company
 LIC .                                   :   License Number
 DATE.                                   :   Log Date
 UWI .                                   :   Unique Well ID
~Curve Information Block
#MNEM.UNIT       API Codes    Curve Description
#---------    -------------   -------------------------------
 DEPT.F        0   0  0  0:   Depth
 GR  .API      0   0  0  0:   Gamma ray counts
 TEN .LBF      0   0  0  0:   Differential Tension
 RILM.OHMM     0   0  0  0:   Resistivity from CILM
 RILD.OHMM     0   0  0  0:   Resistivity from CILD
#  Curve Data
~A
# ...
   348.0000    130.1913    -21.0581      9.9623      9.9755
   347.5000    132.7780    -26.0180      9.9011      9.8301
   347.0000    132.4693    -24.5534      9.7382      9.6557
   346.5000    130.6365    -16.4227      9.5065      9.4571
   346.0000    131.5645     -7.4017      9.2636      9.2460
   345.5000    136.0747     -1.9444      9.0388      9.0378
   345.0000    138.6900      0.1162      8.8399      8.8494
   344.5000    135.2069      0.5197      8.6713      8.7001
   344.0000    131.3094      0.5197      8.5357      8.5934
   343.5000    132.4462      0.5877      8.4286      8.5083
   343.0000    135.3750      1.1081      8.3360      8.4225
   342.5000    134.7679      0.2309      8.2472      8.3327
   342.0000    132.3378     -3.4285      8.1711      8.2432
   341.5000    132.2776     -8.8020      8.1157      8.1513
   341.0000    133.2250    -12.5026      8.0633      8.0578
   340.5000    132.9160    -14.3307      7.9852      7.9612
   340.0000    133.0649    -15.8399      7.8714      7.8555
   339.5000    133.9800    -13.2397      7.7354      7.7302
   339.0000    133.0928     -2.0600      7.6010      7.5917
   338.5000    132.1013      7.7937      7.4891      7.4660
   338.0000    132.6135      3.7329      7.4071      7.3753
   337.5000    133.0632     -8.6922      7.3488      7.3188
   337.0000    132.3251    -17.8321      7.3067      7.2890
   336.5000    130.6037    -21.3613      7.2646      7.2666
   336.0000    128.8147    -19.6182      7.2045      7.2205
   335.5000    126.0860    -11.8096      7.1444      7.1487
   335.0000    124.3003     -2.7438      7.1278      7.0871
   334.5000    124.8907      2.9286      7.1581      7.0601
   334.0000    127.2364      6.2644      7.1804      7.0604
   333.5000    128.3388      6.6649      7.1433      7.0597
   333.0000    128.2310      1.0199      7.0619      7.0307
   332.5000    127.8791     -6.4480      6.9884      6.9765
   332.0000    126.9851     -6.9976      6.9446      6.9226
   331.5000    125.6769     -2.0429      6.9215      6.8820
   331.0000    125.0319     -2.4531      6.9082      6.8596
   330.5000    127.9921    -11.8700      6.8923      6.8608
   330.0000    134.7367    -21.9200      6.8625      6.8674
   329.5000    139.3665    -22.1067      6.8265      6.8594
   329.0000    139.5882     -9.6877      6.7984      6.8427
   328.5000    137.1335      1.6839      6.7850      6.8272
   328.0000    134.1838     -0.7302      6.7905      6.8190
   327.5000    130.8647    -10.9217      6.8105      6.8293
   327.0000    128.7047    -16.6216      6.8332      6.8540
   326.5000    125.9528    -14.3384      6.8514      6.8874
   326.0000    122.3846     -6.9711      6.8705      6.9539
   325.5000    120.8990     -3.4599      6.9104      7.0743
   325.0000    123.8528     -6.8408      6.9989      7.2352
   324.5000    128.5964     -9.2256      7.1446      7.4037
   324.0000    129.5720     -5.6934      7.3235      7.5499
   323.5000    125.4961     -2.5464      7.4988      7.6726
   323.0000    120.1340     -5.0871      7.6525      7.7809
   322.5000    119.8965     -8.2939      7.7871      7.8592
   322.0000    124.8825     -8.4031      7.8862      7.8958
   321.5000    127.9138    -10.7043      7.8957      7.8945
   321.0000    124.1509    -13.2455      7.7886      7.8372
   320.5000    119.2311    -10.3078      7.6164      7.7213
   320.0000    119.9415     -8.9026      7.4557      7.5824
   319.5000    124.0347    -11.6876      7.3414      7.4558
   319.0000    126.9871     -8.0413      7.2666      7.3582
   318.5000    128.4729     -0.2797      7.2130      7.2884
   318.0000    128.2549     -0.4413      7.1684      7.2235
   317.5000    126.0815     -8.1234      7.1249      7.1451
   317.0000    125.6971    -10.6497      7.0805      7.0514
   316.5000    128.3332     -4.0833      7.0320      6.9515
   316.0000    130.7826      5.4671      6.9633      6.8546
   315.5000    130.6362      9.6090      6.8558      6.7575
   315.0000    128.9741      4.4524      6.7225      6.6586
   314.5000    126.7663     -5.9933      6.5983      6.5743
   314.0000    124.6379    -13.5942      6.5075      6.5247
   313.5000    123.6423    -13.3157      6.4553      6.5172
   313.0000    125.3420     -6.7673      6.4496      6.5527
   312.5000    128.1778     -2.1536      6.4974      6.6312
   312.0000    130.0118     -5.6578      6.5951      6.7523
   311.5000    128.7528     -9.7850      6.7374      6.9170
   311.0000    125.4440     -9.6536      6.9164      7.1143
   310.5000    123.8865     -9.8317      7.1124      7.3173
   310.0000    125.2650     -6.3931      7.3080      7.4956
   309.5000    125.5170      0.7332      7.4946      7.6374
   309.0000    124.6371     -0.4383      7.6541      7.7392
   308.5000    125.4346    -12.0771      7.7590      7.7902
   308.0000    126.2221    -18.5440      7.7895      7.7776
   307.5000    125.1373    -12.1201      7.7399      7.6932
   307.0000    124.0617     -2.0652      7.6201      7.5518
   306.5000    124.6129     -1.4292      7.4555      7.3867
   306.0000    124.1524    -10.9708      7.2740      7.2245
   305.5000    121.8672    -18.9320      7.0965      7.0713
   305.0000    120.8564    -16.5151      6.9325      6.9307
   304.5000    122.7688     -6.3455      6.7875      6.8128
   304.0000    124.9588      1.2237      6.6726      6.7276
   303.5000    126.3062     -2.4574      6.6051      6.6761
   303.0000    127.7414    -11.8340      6.5935      6.6592
   302.5000    125.8366    -12.6874      6.6251      6.6819
   302.0000    121.6275     -4.6131      6.6778      6.7436
   301.5000    120.4116     -2.3220      6.7419      6.8347
   301.0000    121.2006    -10.9754      6.8267      6.9538
   300.5000    120.4133    -22.3049      6.9396      7.0965
   300.0000    120.1356    -29.1376      7.0749      7.2430
   299.5000    120.3187    -31.0505      7.2173      7.3713
   299.0000    117.7576    -30.6714      7.3520      7.4785
   298.5000    114.8963    -27.3646      7.4772      7.5646
   298.0000    115.6785    -16.1684      7.5875      7.6186
   297.5000    118.6373     -3.1778      7.6442      7.6304
   297.0000    121.1735     -1.8385      7.5962      7.5918
   296.5000    122.9597     -9.8918      7.4441      7.4869
   296.0000    124.1292    -15.9994      7.2474      7.3145
   295.5000    124.2212    -13.7177      7.0686      7.1097
   295.0000    123.5151     -8.4897      6.9281      6.9191
   294.5000    124.1019     -8.0514      6.8102      6.7657
   294.0000    125.7126    -14.3313      6.6901      6.6505
   293.5000    124.7198    -18.9259      6.5587      6.5718
   293.0000    122.3732    -14.6809      6.4354      6.5285
   292.5000    124.1116     -4.4134      6.3490      6.5023
   292.0000    128.5418      0.4264      6.3141      6.4770
   291.5000    130.4315     -2.6669      6.3279      6.4626
   291.0000    130.1102     -4.4753      6.3741      6.4710
   290.5000    130.6956     -2.3027      6.4312      6.4968
   290.0000    132.8350     -2.1121      6.4845      6.5239
   289.5000    134.7949     -5.2530      6.5236      6.5394
   289.0000    134.2094     -8.9902      6.5380      6.5435
   288.5000    131.2670    -12.2927      6.5303      6.5475
   288.0000    128.7208    -14.7690      6.5193      6.5608
   287.5000    129.3545    -18.0603      6.5221      6.5886
   287.0000    130.2732    -18.5114      6.5464      6.6415
   286.5000    129.2021    -12.1780      6.6016      6.7247
   286.0000    127.8497     -2.7627      6.6951      6.8377
   285.5000    128.7842      1.1983      6.8230      6.9771
   285.0000    130.4638     -5.3082      6.9733      7.1328
   284.5000    130.5343    -15.4763      7.1288      7.2717
   284.0000    130.4425    -18.0292      7.2735      7.3655
   283.5000    130.1644     -9.8311      7.3927      7.4078
   283.0000    129.9472      1.6711      7.4662      7.4069
   282.5000    129.6783      5.8246      7.4751      7.3800
   282.0000    129.4614     -0.7302      7.4170      7.3432
   281.5000    127.1641    -10.2983      7.3169      7.2972
