~Version Information
 VERS.                2.00:   CWLS log ASCII Standard -VERSION 2.00
 WRAP.                  NO:   One line per frame
~Well Information Block
#MNEM.UNIT              Data                Description
#--------- -------------------------------  -------------------------------
 STRT.F                          817.0000:   Starting Depth
 STOP.F                           -6.7500:   Ending Depth
 STEP.F                           -0.5000:   Level Spacing
 NULL.                          -999.2500:   Absent Value
 COMP.     FLUOR DANIEL (NPSOR), INC.    :   Company
 WELL.     26 X 14                       :   Well
 FLD .                                   :   Field
 LOC .                                   :   Location
 PROV.                                   :   Province
 SRVC.                                   :   Service Company
 LIC .                                   :   License Number
 DATE.                                   :   Log Date
 UWI .                                   :   Unique Well ID
~Curve Information Block
#MNEM.UNIT       API Codes    Curve Description
#---------    -------------   -------------------------------
 DEPT.F        0   0  0  0:   Depth
 GR  .API      0   0  0  0:   Gamma ray counts
 TEN .LBF      0   0  0  0:   Differential Tension
 RILM.OHMM     0   0  0  0:   Resistivity from CILM
 RILD.OHMM     0   0  0  0:   Resistivity from CILD
#  Curve Data
~A
# ...
   415.0000    133.2737    -22.2006      6.8685      6.9551
   414.5000    134.8107    -19.4566      6.8979      6.9937
   414.0000    137.8444     -9.4336      6.9665      7.0481
   413.5000    138.0836      2.6794      7.0709      7.1151
   413.0000    136.5045      6.5200      7.1902      7.1926
   412.5000    135.4554     -1.4686      7.2958      7.2857
   412.0000    134.4744    -13.4783      7.3815      7.3847
   411.5000    133.9894    -16.3633      7.4589      7.4800
   411.0000    134.9542     -8.3381      7.5247      7.5796
   410.5000    136.4298      0.8375      7.5701      7.6869
   410.0000    137.5721      6.0225      7.6069      7.7844
   409.5000    139.2963      8.5745      7.6550      7.8601
   409.0000    140.2464      4.3392      7.7129      7.9129
   408.5000    139.8907     -6.2144      7.7583      7.9404
   408.0000    139.9213    -14.2026      7.7808      7.9447
   407.5000    139.6459    -14.8559      7.7976      7.9424
   407.0000    137.6631    -11.1639      7.8239      7.9489
   406.5000    136.6074     -5.3058      7.8478      7.9597
   406.0000    137.2809      1.8050      7.8482      7.9495
   405.5000    136.4455      2.8109      7.8244      7.8981
   405.0000    133.0418     -8.6367      7.7945      7.8161
   404.5000    130.5864    -25.4736      7.7682      7.7368
   404.0000    132.6947    -34.4772      7.7311      7.6794
   403.5000    136.9986    -29.9138      7.6648      7.6320
   403.0000    138.4064    -16.6002      7.5709      7.5708
   402.5000    135.6662     -4.0574      7.4690      7.4899
   402.0000    135.5208      3.1037      7.3845      7.4071
   401.5000    141.0599      3.2967      7.3389      7.3441
   401.0000    146.7602     -5.5251      7.3302      7.3117
   400.5000    146.4259    -17.4555      7.3367      7.3123
   400.0000    142.6239    -22.6148      7.3389      7.3345
   399.5000    139.1481    -17.7974      7.3398      7.3543
   399.0000    137.3229     -7.5710      7.3522      7.3596
   398.5000    137.6703      1.1785      7.3832      7.3614
   398.0000    138.7351      3.7021      7.4279      7.3761
   397.5000    139.1841      5.3415      7.4708      7.4132
   397.0000    138.5875      7.5631      7.4986      7.4744
   396.5000    137.1503      3.1537      7.5071      7.5306
   396.0000    135.6881    -10.0040      7.5013      7.5473
   395.5000    133.8424    -18.8484      7.4906      7.5299
   395.0000    132.4635    -14.3329      7.4862      7.5188
   394.5000    133.7469     -4.6412      7.5018      7.5379
   394.0000    137.5492     -1.6415      7.5487      7.5827
   393.5000    139.2709     -9.1460      7.6149      7.6456
   393.0000    138.6309    -19.8695      7.6724      7.7247
   392.5000    139.1071    -25.6834      7.7164      7.8182
   392.0000    140.4841    -24.6184      7.7586      7.9082
   391.5000    138.0465    -18.2835      7.8068      7.9669
   391.0000    131.5469     -9.8747      7.8718      7.9904
   390.5000    127.7939     -1.5637      7.9605      8.0086
   390.0000    131.2642      1.5012      8.0401      8.0544
   389.5000    137.6236     -3.0326      8.0619      8.1216
   389.0000    141.4199    -10.8092      8.0209      8.1567
   388.5000    140.7525    -16.8482      7.9549      8.1214
   388.0000    137.7009    -21.5861      7.9013      8.0415
   387.5000    133.6863    -25.4349      7.8707      7.9630
   387.0000    130.2520    -26.9895      7.8526      7.9022
   386.5000    127.6137    -26.5057      7.8387      7.8674
   386.0000    126.7577    -21.9075      7.8287      7.8705
   385.5000    130.2622    -11.1621      7.8330      7.9128
   385.0000    135.6375      1.5335      7.8772      8.0067
   384.5000    135.6884      9.4333      7.9896      8.1629
   384.0000    129.2353      7.1980      8.1633      8.3480
   383.5000    120.3185     -4.6958      8.3334      8.4846
   383.0000    111.5998    -14.9685      8.4453      8.5261
   382.5000    107.0268    -11.6537      8.5506      8.4894
   382.0000    109.8166      3.3498      8.7300      8.4223
   381.5000    118.3570     17.2773      8.9024      8.3696
   381.0000    127.2509     20.5774      8.8481      8.3182
   380.5000    132.8094      9.7237      8.5093      8.1943
   380.0000    135.0258     -6.3400      8.0825      7.9708
   379.5000    135.1172    -16.6872      7.7568      7.7332
   379.0000    134.4851    -14.8276      7.5740      7.5684
   378.5000    135.2349     -2.9710      7.4952      7.4946
   378.0000    135.7008      8.1154      7.4737      7.4956
   377.5000    133.4254      7.8617      7.4788      7.5501
   377.0000    129.0519      1.8172      7.4998      7.6343
   376.5000    126.3297      3.3617      7.5404      7.7330
   376.0000    126.7677     10.5173      7.6038      7.8327
   375.5000    129.3844     10.5759      7.6831      7.9227
   375.0000    130.3615      4.6220      7.7734      7.9966
   374.5000    129.4229      1.3048      7.8644      8.0485
   374.0000    129.9342     -0.3565      7.9282      8.0706
   373.5000    131.6899     -5.6651      7.9372      8.0481
   373.0000    131.7047    -13.5493      7.8917      7.9592
   372.5000    130.9335    -19.2025      7.8132      7.8081
   372.0000    132.8316    -15.1634      7.7236      7.6343
   371.5000    135.6602     -4.6958      7.6134      7.4661
   371.0000    135.9700      2.6233      7.4524      7.3074
   370.5000    135.4590      6.0539      7.2401      7.1621
   370.0000    136.9974     11.1209      7.0277      7.0445
   369.5000    139.8725     13.9449      6.8790      6.9729
   369.0000    141.5031      5.7895      6.8205      6.9642
   368.5000    143.4105    -10.4899      6.8417      7.0202
   368.0000    145.9287    -21.2606      6.9305      7.1272
   367.5000    146.1725    -20.3767      7.0877      7.2728
   367.0000    143.5396    -13.8055      7.3031      7.4545
   366.5000    140.9127     -6.5636      7.5526      7.6693
   366.0000    139.3756      0.7994      7.8044      7.8946
   365.5000    136.2873      8.2984      8.0175      8.1034
   365.0000    133.3304     11.3713      8.1606      8.2855
   364.5000    133.7094      6.7875      8.2420      8.4306
   364.0000    135.7618     -4.5939      8.2952      8.5135
   363.5000    135.9936    -11.6449      8.3416      8.5429
   363.0000    134.9500     -7.2840      8.3870      8.5595
   362.5000    134.4700      1.0035      8.4365      8.5924
   362.0000    134.5290      1.7653      8.4905      8.6427
   361.5000    135.2763     -5.1087      8.5335      8.6854
   361.0000    137.1668    -17.5790      8.5541      8.6904
   360.5000    137.3966    -30.4854      8.5592      8.6754
   360.0000    133.7368    -34.3955      8.5571      8.6796
   359.5000    128.5793    -30.7577      8.5524      8.6951
   359.0000    124.9098    -26.1327      8.5623      8.7043
   358.5000    121.8872    -18.4110      8.6030      8.7203
   358.0000    122.7813     -6.8683      8.6841      8.7522
   357.5000    128.8635      4.3661      8.8043      8.7963
   357.0000    134.9389      9.4294      8.9231      8.8602
   356.5000    137.4777      5.1981      8.9806      8.9351
   356.0000    137.7378     -2.1838      8.9796      8.9893
   355.5000    137.5049     -6.4886      8.9729      9.0158
   355.0000    138.3838    -10.7778      8.9817      9.0335
   354.5000    139.1149    -14.9612      8.9950      9.0555
   354.0000    137.0103    -11.2658      9.0097      9.0828
   353.5000    133.0532     -2.1384      9.0269      9.1203
   353.0000    129.1250      2.6916      9.0569      9.1764
   352.5000    126.8356      2.8832      9.1164      9.2512
   352.0000    127.2769      5.4324      9.2113      9.3369
   351.5000    128.6213      6.3940      9.3220      9.4473
   351.0000    128.0455     -3.3068      9.4369      9.6087
   350.5000    127.0403    -13.4834      9.5642      9.8106
   350.0000    126.3858    -10.1190      9.7037      9.9905
   349.5000    126.0892     -1.6211      9.8264     10.0883
   349.0000    125.8403     -3.4050      9.9067     10.1101
   348.5000    127.2328    -12.4208      9.9519     10.0709
