~Version Information
 VERS.                2.00:   CWLS log ASCII Standard -VERSION 2.00
 WRAP.                  NO:   One line per frame
~Well Information Block
#MNEM.UNIT              Data                Description
#--------- -------------------------------  -------------------------------
 STRT.F                          817.0000:   Starting Depth
 STOP.F                           -6.7500:   Ending Depth
 STEP.F                           -0.5000:   Level Spacing
 NULL.                          -999.2500:   Absent Value
 COMP.     FLUOR DANIEL (NPSOR), INC.    :   Company
 WELL.     26 X 14                       :   Well
 FLD .                                   :   Field
 LOC .                                   :   Location
 PROV.                                   :   Province
 SRVC.                                   :   Service Company
 LIC .                                   :   License Number
 DATE.                                   :   Log Date
 UWI .                                   :   Unique Well ID
~Curve Information Block
#MNEM.UNIT       API Codes    Curve Description
#---------    -------------   -------------------------------
 DEPT.F        0   0  0  0:   Depth
 GR  .API      0   0  0  0:   Gamma ray counts
 TEN .LBF      0   0  0  0:   Differential Tension
 RILM.OHMM     0   0  0  0:   Resistivity from CILM
 RILD.OHMM     0   0  0  0:   Resistivity from CILD
#  Curve Data
~A
# ...
   683.0000    104.5736     -9.0237     10.3720     10.4881
   682.5000    102.0063     -7.0223     10.3298     10.4333
   682.0000     99.7755     -6.1955     10.3135     10.4175
   681.5000     98.9500     -6.2559     10.3287     10.4350
   681.0000     98.1672     -7.6418     10.3716     10.4764
   680.5000     96.5074    -10.0998     10.4125     10.5177
   680.0000     94.7068    -12.8109     10.4406     10.5469
   679.5000     94.6270    -14.4576     10.4746     10.5773
   679.0000     98.1171    -14.8532     10.5210     10.6171
   678.5000    103.4935    -14.9529     10.5625     10.6628
   678.0000    106.6117    -14.9258     10.5817     10.6998
   677.5000    106.2755    -11.7492     10.5828     10.7071
   677.0000    103.6807     -5.8850     10.5885     10.6995
   676.5000    100.0319     -2.7700     10.6080     10.7119
   676.0000     97.4515     -4.2480     10.6259     10.7419
   675.5000     95.9784     -5.9161     10.6348     10.7643
   675.0000     94.2859     -6.3791     10.6428     10.7757
   674.5000     93.5629     -8.9514     10.6550     10.7929
   674.0000     93.6080    -11.3304     10.6808     10.8356
   673.5000     93.6425    -10.0964     10.7403     10.9037
   673.0000     94.1259     -8.0191     10.8279     10.9830
   672.5000     96.7119     -8.5681     10.9163     11.0555
   672.0000     99.2449     -9.1479     11.0010     11.1134
   671.5000     99.1395     -7.9617     11.0975     11.1580
   671.0000     97.2347     -6.8332     11.2035     11.1932
   670.5000     96.8054     -8.5851     11.2661     11.2209
   670.0000     98.1696    -10.9196     11.2295     11.2330
   669.5000     98.8130    -10.7311     11.1141     11.2038
   669.0000     97.3675     -9.2421     10.9983     11.1343
   668.5000     94.9005     -9.0170     10.9278     11.0677
   668.0000     94.2636     -7.6884     10.9081     11.0389
   667.5000     97.1219     -3.3242     10.9257     11.0537
   667.0000     99.8027      0.0686     10.9585     11.1050
   666.5000     99.8639      0.6460     10.9911     11.1728
   666.0000     99.9150      0.5179     11.0107     11.2173
   665.5000    101.9278     -1.5451     11.0050     11.2090
   665.0000    104.1281     -6.0878     10.9813     11.1666
   664.5000    104.8473     -6.3803     10.9615     11.1294
   664.0000    102.6205     -3.0180     10.9586     11.1154
   663.5000     99.3794     -3.0811     10.9666     11.1207
   663.0000     97.6854     -8.4805     10.9743     11.1454
   662.5000     97.1188    -11.9676     10.9861     11.1965
   662.0000     97.5013    -10.5719     11.0120     11.2770
   661.5000    100.6784     -6.7152     11.0543     11.3626
   661.0000    103.3410     -5.8691     11.1180     11.4435
   660.5000    102.1510     -9.2607     11.2093     11.5376
   660.0000     98.9371    -13.1873     11.3304     11.6682
   659.5000     97.1226    -15.1091     11.5007     11.8713
   659.0000     97.4039    -15.1411     11.7603     12.2102
   658.5000     99.1351    -10.8074     12.1375     12.7241
   658.0000     99.2950     -4.4750     12.6476     13.3997
   657.5000     95.9600     -3.0177     13.3349     14.2106
   657.0000     91.6110     -5.7578     14.3032     15.1515
   656.5000     89.3656     -5.1630     15.6475     16.1964
   656.0000     88.6477     -2.4836     17.2840     17.2283
   655.5000     88.1338     -2.4174     18.7848     18.0089
   655.0000     87.2647     -3.9193     19.5907     18.2772
   654.5000     88.0283     -5.3634     19.5098     17.9464
   654.0000     91.3749     -7.5738     18.7202     17.1678
   653.5000     94.1294     -8.9222     17.4701     16.1661
   653.0000     93.4458     -6.8790     16.0204     15.1198
   652.5000     93.7637     -5.2079     14.6365     14.1608
   652.0000     96.1952     -5.7868     13.5106     13.3572
   651.5000     96.0689     -5.4101     12.7220     12.7386
   651.0000     94.8329     -4.1279     12.2500     12.3088
   650.5000     95.6772     -4.1507     12.0181     12.0460
   650.0000     96.5617     -7.5674     11.9369     11.8951
   649.5000     96.3943    -13.0900     11.9315     11.8085
   649.0000     97.3793    -15.3933     11.9558     11.7734
   648.5000     98.9323    -11.6763     11.9771     11.8057
   648.0000     99.7634     -8.2640     11.9876     11.9153
   647.5000     98.5387     -8.1703     11.9965     12.0404
   647.0000     94.7894     -8.1392     11.9966     12.0951
   646.5000     90.9527     -6.8033     11.9779     12.0853
   646.0000     90.8807     -6.8235     11.9548     12.0871
   645.5000     92.6434     -8.5937     11.9382     12.1247
   645.0000     93.0093     -9.6014     11.9214     12.1689
   644.5000     92.3846     -8.9026     11.8972     12.2196
   644.0000     92.4248     -6.8070     11.8700     12.2826
   643.5000     93.1824     -3.9784     11.8399     12.3262
   643.0000     96.1079     -2.2466     11.8038     12.3165
   642.5000     99.8108     -3.7969     11.7640     12.2635
   642.0000    100.2215     -7.3194     11.7338     12.1821
   641.5000     98.1566    -10.3285     11.7261     12.0743
   641.0000     96.1173    -11.2094     11.7416     11.9797
   640.5000     94.2317    -10.5381     11.7655     11.9536
   640.0000     94.1340     -9.8802     11.7859     11.9985
   639.5000     96.7158     -8.5321     11.8056     12.0732
   639.0000     97.6286     -6.2674     11.8261     12.1545
   638.5000     93.9341     -6.4477     11.8531     12.2423
   638.0000     90.4631    -10.6594     11.9108     12.3353
   637.5000     89.4100    -14.6251     12.0399     12.4494
   637.0000     88.8243    -13.1040     12.2449     12.6078
   636.5000     88.6011     -9.2229     12.4583     12.8138
   636.0000     88.9947     -6.9805     12.6076     13.0352
   635.5000     88.3449     -7.3035     12.6995     13.2308
   635.0000     86.0695     -9.0271     12.7890     13.3711
   634.5000     84.5133    -11.0358     12.9055     13.4820
   634.0000     84.6598    -11.6016     13.0398     13.6315
   633.5000     86.1292    -11.2640     13.1849     13.8710
   633.0000     87.2419    -10.5872     13.3648     14.1808
   632.5000     85.9410    -10.1547     13.6048     14.5055
   632.0000     81.4753    -10.4362     13.9005     14.8117
   631.5000     76.6075    -10.9336     14.2505     15.0845
   631.0000     75.1900    -11.0556     14.6237     15.2590
   630.5000     76.4176    -10.9773     14.9070     15.2706
   630.0000     79.3440    -11.4451     15.0099     15.1634
   629.5000     83.1058    -14.1008     14.9739     14.9984
   629.0000     85.7450    -17.6134     14.7812     14.7756
   628.5000     84.7104    -16.9202     14.2969     14.3998
   628.0000     83.1900    -11.8059     13.5655     13.7548
   627.5000     84.3029     -6.5654     12.8459     12.8729
   627.0000     87.4610     -2.4220     12.2417     11.9546
   626.5000     93.9521     -2.5208     11.6473     11.1518
   626.0000    104.8106     -8.0273     10.9823     10.4975
   625.5000    116.6451    -12.1939     10.2716      9.9710
   625.0000    125.1242    -11.1203      9.5619      9.5248
   624.5000    131.6841     -9.5242      8.9473      9.1515
   624.0000    136.7253    -10.2931      8.5202      8.8340
   623.5000    138.4927    -11.2691      8.2919      8.5901
   623.0000    137.3834    -12.1808      8.1966      8.4477
   622.5000    135.0114    -12.1646      8.1603      8.3864
   622.0000    132.3388    -12.4586      8.1660      8.3752
   621.5000    131.0735    -14.9572      8.2310      8.4028
   621.0000    132.5276    -17.0288      8.3485      8.4595
   620.5000    131.6888    -13.8168      8.4599      8.5039
   620.0000    126.1676     -7.7531      8.4787      8.4435
   619.5000    120.6101     -5.2384      8.3422      8.1470
   619.0000    120.4872     -7.3282      8.0121      7.5412
   618.5000    123.3483    -12.2637      7.4575      6.7223
   618.0000    126.7277    -13.9092      6.7592      5.9261
   617.5000    131.2791     -9.8969      6.1123      5.3615
   617.0000    138.2692     -7.8904      5.6165      5.0740
   616.5000    145.9881    -12.8963      5.1933      4.9767
