~Version Information
 VERS.                2.00:   CWLS log ASCII Standard -VERSION 2.00
 WRAP.                  NO:   One line per frame
~Well Information Block
#MNEM.UNIT              Data                Description
#--------- -------------------------------  -------------------------------
 STRT.F                          817.0000:   Starting Depth
 STOP.F                           -6.7500:   Ending Depth
 STEP.F                           -0.5000:   Level Spacing
 NULL.                          -999.2500:   Absent Value
 COMP.     FLUOR DANIEL (NPSOR), INC.    :   Company
 WELL.     26 X 14                       :   Well
 FLD .                                   :   Field
 LOC .                                   :   Location
 PROV.                                   :   Province
 SRVC.                                   :   Service Company
 LIC .                                   :   License Number
 DATE.                                   :   Log Date
 UWI .                                   :   Unique Well ID
~Curve Information Block
#MNEM.UNIT       API Codes    Curve Description
#---------    -------------   -------------------------------
 DEPT.F        0   0  0  0:   Depth
 GR  .API      0   0  0  0:   Gamma ray counts
 TEN .LBF      0   0  0  0:   Differential Tension
 RILM.OHMM     0   0  0  0:   Resistivity from CILM
 RILD.OHMM     0   0  0  0:   Resistivity from CILD
#  Curve Data
~A
# ...
   549.0000    144.1460     -8.1615      4.2044      4.2818
   548.5000    144.3871    -11.4683      4.1588      4.3152
   548.0000    142.8018     -9.7969      4.1878      4.3959
   547.5000    140.6299     -7.0327      4.2624      4.4994
   547.0000    139.5942     -6.0478      4.3934      4.6078
   546.5000    139.6822     -4.7745      4.6040      4.7418
   546.0000    139.7903     -3.5340      4.8515      4.9179
   545.5000    138.6779     -6.3684      5.0408      5.0746
   545.0000    135.9680    -11.0053      5.1107      5.1070
   544.5000    132.6648    -10.7949      5.0482      4.9501
   544.0000    130.4957    -10.0128      4.8410      4.6093
   543.5000    130.3695    -13.0122      4.5366      4.1872
   543.0000    130.7731    -15.1588      4.2051      3.7776
   542.5000    130.6484    -12.3824      3.8349      3.3959
   542.0000    129.4113     -6.8930      3.3940      3.0355
   541.5000    128.5829     -1.8651      2.9646      2.7289
   541.0000    127.2161      4.5369      2.6607      2.5146
   540.5000    122.2711      9.5868      2.4967      2.4027
   540.0000    118.5024      3.1473      2.4009      2.3833
   539.5000    120.8288     -9.6624      2.3349      2.4266
   539.0000    126.0788    -13.4246      2.3335      2.5072
   538.5000    128.8646    -10.0101      2.4621      2.6406
   538.0000    127.6029    -13.0564      2.7372      2.8672
   537.5000    125.4292    -14.9005      3.1525      3.2119
   537.0000    127.1029    -10.9605      3.6675      3.6778
   536.5000    130.6243    -10.2291      4.2099      4.2266
   536.0000    130.4029    -10.9275      4.7146      4.7793
   535.5000    130.0036     -5.1640      5.1577      5.2867
   535.0000    132.8099     -2.0203      5.5424      5.7252
   534.5000    134.7703     -5.3589      5.8857      6.1152
   534.0000    132.5273     -6.3589      6.1965      6.4685
   533.5000    127.4588     -5.1862      6.4787      6.7861
   533.0000    124.9653     -6.0875      6.7263      7.0644
   532.5000    126.5354     -6.7933      6.9277      7.3002
   532.0000    128.4207     -5.7361      7.0811      7.4900
   531.5000    129.1904     -0.1443      7.1912      7.6181
   531.0000    131.7217      3.9494      7.2663      7.6653
   530.5000    132.9448     -0.0012      7.3199      7.6431
   530.0000    130.0228     -4.7077      7.3738      7.5985
   529.5000    127.6078     -2.5208      7.4438      7.5655
   529.0000    127.0055      0.5161      7.5299      7.5624
   528.5000    125.9433      1.5741      7.6193      7.5990
   528.0000    125.8760      3.5380      7.7033      7.6595
   527.5000    128.3230      3.5502      7.7759      7.7132
   527.0000    131.0360     -1.6607      7.8253      7.7500
   526.5000    132.2316    -10.4597      7.8426      7.7698
   526.0000    130.9108    -17.2365      7.8333      7.7625
   525.5000    128.7087    -14.8346      7.8090      7.7353
   525.0000    129.4494     -8.5083      7.7765      7.7069
   524.5000    132.3235     -6.9204      7.7441      7.6684
   524.0000    134.1127     -6.5078      7.7169      7.6088
   523.5000    133.3209     -3.3486      7.6885      7.5558
   523.0000    130.7486     -3.8390      7.6366      7.5308
   522.5000    128.1052     -7.9355      7.5501      7.5083
   522.0000    126.3056     -7.3099      7.4463      7.4599
   521.5000    125.1813     -5.7127      7.3538      7.3989
   521.0000    125.9520    -10.8324      7.2895      7.3541
   520.5000    129.1848    -15.9896      7.2455      7.3286
   520.0000    131.3116    -14.7031      7.1953      7.2922
   519.5000    129.8083    -15.2110      7.1269      7.2288
   519.0000    129.2564    -19.3486      7.0531      7.1600
   518.5000    132.1573    -14.5836      6.9812      7.1009
   518.0000    133.8932     -3.2370      6.9072      7.0370
   517.5000    131.4765     -0.2330      6.8318      6.9560
   517.0000    126.7611     -4.7104      6.7574      6.8594
   516.5000    122.5850     -6.7680      6.6823      6.7434
   516.0000    120.4300     -3.9629      6.6023      6.5928
   515.5000    120.3968      1.5616      6.4962      6.3818
   515.0000    122.5043      5.0450      6.3236      6.0808
   514.5000    126.2171      3.5722      6.0446      5.6866
   514.0000    127.8751      1.1794      5.6729      5.2587
   513.5000    125.2107     -2.5031      5.2896      4.9013
   513.0000    119.7682    -11.6245      4.9721      4.6829
   512.5000    115.8157    -20.5024      4.7141      4.5886
   512.0000    115.7494    -19.3593      4.4839      4.5579
   511.5000    118.6238    -13.8186      4.3052      4.5508
   511.0000    122.2097    -13.8156      4.2736      4.5824
   510.5000    125.4970    -15.7773      4.4613      4.7042
   510.0000    127.0474    -15.3375      4.8513      4.9516
   509.5000    124.7635    -18.2545      5.3205      5.3000
   509.0000    121.4860    -25.4330      5.7403      5.6806
   508.5000    121.2581    -27.9353      6.0581      6.0279
   508.0000    122.3814    -19.6252      6.2860      6.2952
   507.5000    122.3466     -6.2562      6.4495      6.4662
   507.0000    123.9188     -2.0176      6.5622      6.5796
   506.5000    127.3117    -10.2733      6.6364      6.6844
   506.0000    125.8151    -19.6270      6.6926      6.7901
   505.5000    119.3569    -19.2101      6.7495      6.8893
   505.0000    115.9577    -11.4988      6.8127      6.9774
   504.5000    116.2166     -8.3811      6.8731      7.0442
   504.0000    115.7695    -11.7791      6.9178      7.0735
   503.5000    116.2197    -13.7997      6.9432      7.0639
   503.0000    120.3064     -9.7472      6.9609      7.0295
   502.5000    122.2750     -3.1104      6.9732      6.9947
   502.0000    122.5183     -5.2573      6.9701      6.9681
   501.5000    124.4481    -14.7882      6.9410      6.9332
   501.0000    126.7694    -14.2822      6.8858      6.8738
   500.5000    127.0409     -2.9146      6.8056      6.7713
   500.0000    127.3006      0.6237      6.6952      6.6000
   499.5000    128.1264     -3.0775      6.5475      6.3665
   499.0000    129.3180     -4.9105      6.3765      6.1285
   498.5000    130.0914     -7.5491      6.2124      5.9514
   498.0000    128.2838    -13.0384      6.0564      5.8503
   497.5000    123.5338    -16.8949      5.8773      5.7989
   497.0000    120.2086    -17.8489      5.6841      5.7713
   496.5000    121.7473    -18.2963      5.5597      5.7648
   496.0000    125.8092    -20.7906      5.5845      5.8088
   495.5000    128.5765    -20.4170      5.7641      5.9459
   495.0000    128.6813    -16.5075      6.0431      6.1684
   494.5000    127.4326    -16.2446      6.3605      6.4140
   494.0000    127.4129    -21.3232      6.6678      6.6450
   493.5000    128.1704    -19.1930      6.9142      6.8555
   493.0000    126.0502     -6.7591      7.0716      7.0217
   492.5000    121.0289      2.2738      7.1627      7.1283
   492.0000    117.3909     -3.0805      7.2202      7.2017
   491.5000    118.6497    -13.6308      7.2608      7.2647
   491.0000    122.0888    -18.8954      7.3007      7.3293
   490.5000    123.2264    -17.6382      7.3475      7.4062
   490.0000    123.4251    -13.6332      7.3870      7.4859
   489.5000    126.4727    -11.5995      7.4196      7.5492
   489.0000    130.7071    -13.5301      7.4706      7.5903
   488.5000    131.4510    -12.0765      7.5502      7.6169
   488.0000    127.1030     -6.6874      7.6388      7.6410
   487.5000    121.8025     -5.2222      7.7086      7.6725
   487.0000    121.2122    -12.0039      7.7470      7.7023
   486.5000    123.8910    -22.1820      7.7615      7.7264
   486.0000    125.3299    -25.0872      7.7646      7.7482
   485.5000    125.3588    -15.7474      7.7659      7.7648
   485.0000    126.0603     -0.3700      7.7736      7.7692
   484.5000    126.9740      8.3024      7.7937      7.7678
   484.0000    128.4887      5.7929      7.8154      7.7700
   483.5000    130.2431      0.2138      7.8185      7.7797
   483.0000    129.1888     -0.5121      7.7943      7.8002
   482.5000    126.3790      0.8253      7.7531      7.8330
