~Version Information
 VERS.                2.00:   CWLS log ASCII Standard -VERSION 2.00
 WRAP.                  NO:   One line per frame
~Well Information Block
#MNEM.UNIT              Data                Description
#--------- -------------------------------  -------------------------------
 STRT.F                          817.0000:   Starting Depth
 STOP.F                           -6.7500:   Ending Depth
 STEP.F                           -0.5000:   Level Spacing
 NULL.                          -999.2500:   Absent Value
 COMP.     FLUOR DANIEL (NPSOR), INC.    :   Company
 WELL.     26 X 14                       :   Well
 FLD .                                   :   Field
 LOC .                                   :   Location
 PROV.                                   :   Province
 SRVC.                                   :   Service Company
 LIC .                                   :   License Number
 DATE.                                   :   Log Date
 UWI .                                   :   Unique Well ID
~Curve Information Block
#MNEM.UNIT       API Codes    Curve Description
#---------    -------------   -------------------------------
 DEPT.F        0   0  0  0:   Depth
 GR  .API      0   0  0  0:   Gamma ray counts
 TEN .LBF      0   0  0  0:   Differential Tension
 RILM.OHMM     0   0  0  0:   Resistivity from CILM
 RILD.OHMM     0   0  0  0:   Resistivity from CILD
#  Curve Data
~A
# ...
   616.0000    149.5893    -14.7034      4.7598      4.9562
   615.5000    144.7884     -7.1736      4.4318      4.9517
   615.0000    133.8957      0.9675      4.4120      5.0037
   614.5000    126.3192      1.1517      4.8222      5.2342
   614.0000    126.2288     -5.1478      5.6347      5.7377
   613.5000    129.1909    -10.8983      6.6372      6.4561
   613.0000    128.7033    -12.5090      7.4609      7.1523
   612.5000    127.2873    -11.8895      7.8654      7.6063
   612.0000    129.8666     -9.4571      7.9061      7.7579
   611.5000    133.8813     -6.2961      7.7658      7.6965
   611.0000    134.4404     -4.4118      7.5694      7.5580
   610.5000    134.6680     -2.9417      7.3625      7.4317
   610.0000    136.2187     -2.2564      7.1719      7.3415
   609.5000    135.6922     -3.4395      7.0287      7.2874
   609.0000    133.0864     -4.7235      6.9547      7.2705
   608.5000    133.2824     -5.4217      6.9527      7.2893
   608.0000    136.1068     -6.4041      7.0036      7.3192
   607.5000    138.9185     -5.7770      7.0747      7.3226
   607.0000    139.5161     -5.2564      7.1305      7.2944
   606.5000    138.7760     -6.7460      7.1498      7.2626
   606.0000    138.1657     -8.2082      7.1367      7.2362
   605.5000    137.4319     -8.4436      7.1077      7.2094
   605.0000    136.8836     -8.7797      7.0723      7.1894
   604.5000    138.2438    -11.1334      7.0374      7.1835
   604.0000    137.6118    -14.5000      7.0128      7.1754
   603.5000    133.8348    -16.0750      7.0029      7.1453
   603.0000    132.0464    -16.2901      6.9911      7.0879
   602.5000    134.4879    -17.3862      6.9435      6.9935
   602.0000    138.2533    -19.8308      6.8406      6.8480
   601.5000    141.1186    -20.1721      6.6953      6.6469
   601.0000    141.1778    -16.6576      6.5260      6.4093
   600.5000    139.9340    -11.8675      6.3376      6.1740
   600.0000    140.9674    -12.2067      6.1328      5.9654
   599.5000    144.0851    -16.4596      5.9087      5.7567
   599.0000    145.6185    -17.7803      5.6455      5.4952
   598.5000    146.6436    -13.1373      5.3324      5.1560
   598.0000    148.4248     -7.8818      5.0046      4.7792
   597.5000    148.8920     -4.1242      4.7272      4.4690
   597.0000    148.5627     -1.8443      4.5570      4.3108
   596.5000    152.4508     -5.1990      4.4496      4.2977
   596.0000    156.6535    -13.6326      4.3121      4.3557
   595.5000    153.2715    -19.4261      4.1412      4.4149
   595.0000    142.9998    -15.9286      4.0672      4.4617
   594.5000    136.4211     -7.4780      4.2229      4.5536
   594.0000    138.2090     -3.1998      4.6299      4.7703
   593.5000    143.7506     -4.4997      5.1665      5.1161
   593.0000    145.8163     -5.9725      5.6405      5.5019
   592.5000    143.2983     -5.6358      5.9483      5.8342
   592.0000    139.3632     -4.9736      6.0678      6.0417
   591.5000    141.8188     -4.6775      6.0375      6.0561
   591.0000    149.7676     -6.6450      5.9125      5.8731
   590.5000    152.4656     -9.3534      5.7124      5.5532
   590.0000    147.7910    -10.2224      5.4350      5.1664
   589.5000    143.6227     -9.8875      5.1159      4.8073
   589.0000    141.9764    -10.3648      4.8197      4.5650
   588.5000    142.1606    -10.8745      4.5785      4.4580
   588.0000    145.7240     -9.9811      4.3595      4.4334
   587.5000    148.3532     -6.9915      4.1597      4.4162
   587.0000    147.0193     -2.4787      4.0661      4.3800
   586.5000    146.6102      1.2776      4.1721      4.3695
   586.0000    148.9282      1.4509      4.4739      4.4418
   585.5000    150.4239     -2.2637      4.8490      4.6092
   585.0000    151.6651     -7.2346      5.1411      4.8493
   584.5000    156.5254    -10.0043      5.2907      5.1165
   584.0000    162.6689     -9.5285      5.3064      5.3376
   583.5000    162.9032     -8.7861      5.2410      5.4631
   583.0000    156.7100     -8.8593      5.2113      5.5263
   582.5000    149.7704     -8.3036      5.3326      5.6013
   582.0000    144.8634     -7.0119      5.6250      5.7559
   581.5000    142.8584     -4.9450      5.9836      6.0036
   581.0000    143.9569     -4.0364      6.2646      6.2842
   580.5000    146.1263     -6.5773      6.4164      6.5150
   580.0000    147.5063     -9.7188      6.4757      6.6588
   579.5000    147.0860    -10.5252      6.4907      6.6916
   579.0000    144.4680    -10.6189      6.4968      6.6376
   578.5000    142.4789    -11.0477      6.5009      6.5675
   578.0000    143.2473    -11.0648      6.4994      6.5284
   577.5000    145.0042    -10.4594      6.4969      6.5165
   577.0000    145.8976     -8.6428      6.4924      6.5186
   576.5000    145.4165     -7.0202      6.4818      6.5323
   576.0000    145.6513     -7.2678      6.4774      6.5573
   575.5000    146.9982     -8.0627      6.4932      6.5871
   575.0000    147.3589     -6.8997      6.5252      6.6099
   574.5000    147.6600     -7.9632      6.5602      6.6310
   574.0000    150.7624    -13.1205      6.5919      6.6675
   573.5000    152.0439    -17.6357      6.6184      6.7258
   573.0000    146.8889    -16.0595      6.6391      6.7868
   572.5000    141.0872    -11.5735      6.6569      6.8346
   572.0000    139.1475    -10.3316      6.6750      6.8577
   571.5000    138.1566    -14.2261      6.6834      6.8428
   571.0000    137.7044    -17.9450      6.6652      6.7970
   570.5000    139.0483    -15.2546      6.6220      6.7474
   570.0000    139.4640     -9.8558      6.5716      6.7010
   569.5000    138.6421     -9.4019      6.5256      6.6430
   569.0000    139.3235    -13.0662      6.4723      6.5681
   568.5000    140.9427    -14.4030      6.3892      6.4671
   568.0000    141.7807    -12.1460      6.2639      6.2963
   567.5000    141.8966     -8.9020      6.0957      6.0098
   567.0000    139.7180     -7.3844      5.8691      5.6127
   566.5000    136.1245     -5.7685      5.5538      5.1552
   566.0000    136.2328     -4.5951      5.1757      4.7306
   565.5000    141.7242     -7.4149      4.8099      4.4238
   565.0000    149.0634    -11.6568      4.4923      4.2493
   564.5000    153.8327    -12.0579      4.1908      4.1581
   564.0000    152.5569     -9.6776      3.9118      4.0989
   563.5000    146.4255     -6.9610      3.7491      4.0632
   563.0000    141.4794     -5.9469      3.7946      4.0921
   562.5000    140.5074     -7.9340      4.0616      4.2417
   562.0000    140.4620     -9.3479      4.4762      4.5245
   561.5000    138.8899     -4.5973      4.9180      4.8926
   561.0000    136.5418      1.7330      5.2815      5.2716
   560.5000    135.5950      2.9811      5.5422      5.5974
   560.0000    137.8890     -3.2705      5.7233      5.8336
   559.5000    141.4680    -12.5690      5.8642      6.0051
   559.0000    141.7224    -16.7085      5.9891      6.1579
   558.5000    137.9528    -13.4737      6.1050      6.3119
   558.0000    134.5443     -7.1346      6.2136      6.4651
   557.5000    135.9212     -0.2129      6.3234      6.6144
   557.0000    139.9603      2.2970      6.4446      6.7501
   556.5000    141.1471     -2.1222      6.5649      6.8536
   556.0000    138.1427     -8.7142      6.6551      6.8992
   555.5000    136.3281    -11.1847      6.6980      6.8706
   555.0000    137.1263    -10.0293      6.6900      6.7750
   554.5000    136.7810     -6.0393      6.6255      6.6201
   554.0000    135.3060     -1.9547      6.4957      6.4130
   553.5000    136.3813     -1.4820      6.3058      6.1653
   553.0000    140.2465     -5.4046      6.0807      5.8940
   552.5000    142.9630     -6.9406      5.8340      5.6076
   552.0000    142.5314     -2.4690      5.5471      5.3048
   551.5000    139.0596     -1.2786      5.2246      5.0048
   551.0000    136.1883     -6.6444      4.9232      4.7448
   550.5000    136.9310     -7.7613      4.6857      4.5442
   550.0000    139.9181     -3.0692      4.4996      4.3986
   549.5000    142.3105     -3.2455      4.3318      4.3089
