~Version Information
 VERS.                2.00:   CWLS log ASCII Standard -VERSION 2.00
 WRAP.                  NO:   One line per frame
~Well Information Block
#MNEM.UNIT              Data                Description
#--------- -------------------------------  -------------------------------
 STRT.F                          817.0000:   Starting Depth
 STOP.F                           -6.7500:   Ending Depth
 STEP.F                           -0.5000:   Level Spacing
 NULL.                          -999.2500:   Absent Value
 COMP.     FLUOR DANIEL (NPSOR), INC.    :   Company
 WELL.     26 X 14                       :   Well
 FLD .                                   :   Field
 LOC .                                   :   Location
 PROV.                                   :   Province
 SRVC.                                   :   Service Company
 LIC .                                   :   License Number
 DATE.                                   :   Log Date
 UWI .                                   :   Unique Well ID
~Curve Information Block
#MNEM.UNIT       API Codes    Curve Description
#---------    -------------   -------------------------------
 DEPT.F        0   0  0  0:   Depth
 GR  .API      0   0  0  0:   Gamma ray counts
 TEN .LBF      0   0  0  0:   Differential Tension
 RILM.OHMM     0   0  0  0:   Resistivity from CILM
 RILD.OHMM     0   0  0  0:   Resistivity from CILD
#  Curve Data
~A
   817.0000      0.0000   -250.0000      0.2000      0.2000
   816.5000      0.0000   -250.0000      0.2000      0.2000
   816.0000      0.0000   -250.0000      0.2000      0.2000
   815.5000      0.0000   -250.0000      0.2000      0.2000
   815.0000      0.0000   -250.0000      0.2000      0.2000
   814.5000      0.0000   -250.0000      0.2000      0.2000
   814.0000      0.0000   -250.0000      0.2000      0.2000
   813.5000      0.0000   -250.0000      0.2000      0.2000
   813.0000      0.0000   -250.0000      0.2000      0.2000
   812.5000      0.0000   -250.0000      0.2000      0.2000
   812.0000      0.0000   -250.0000      0.2000      0.2000
   811.5000      0.0000   -250.0000      0.2000      0.2000
   811.0000      0.0000   -250.0000      0.2000      0.2000
   810.5000      0.0000   -250.0000      0.2000      0.2000
   810.0000      0.0000   -250.0000      0.2000      0.2000
   809.5000      0.0000   -250.0000      0.2000      0.2000
   809.0000      0.0000   -250.0000      0.2000      0.2000
   808.5000      0.0000   -250.0000      0.2000      0.2000
   808.0000      0.0000   -250.0000      0.2000      0.2000
   807.5000      0.0000   -250.0000      0.2000      0.2000
   807.0000      0.0000    -18.2808      0.2000      0.2000
   806.5000      0.0000    -15.7749      0.2000      0.2000
   806.0000      0.0000    -10.6472      0.2000      0.2000
   805.5000      0.0000     -8.1246      0.2000      0.2000
   805.0000      0.0000     -6.0469      0.2000      0.2000
   804.5000      0.0000     -3.2391      0.2000      0.2000
   804.0000      0.0000     -0.6737      0.2000      0.2000
   803.5000      0.0000     -0.6573      0.2000      0.2000
   803.0000      0.0000     -2.6727      0.2000      0.2000
   802.5000      0.0000     -4.4987      0.2000      0.2000
   802.0000      0.0000     -4.7659      0.2000      0.2000
   801.5000      0.0000     -3.1305      0.2000      0.2000
   801.0000      0.0000      1.4609     11.0973      0.2000
   800.5000      0.0000      6.4623     11.0835      0.2000
   800.0000      0.0000      6.8445     11.0683      0.2000
   799.5000      0.0000      2.5400     11.0723      0.2000
   799.0000      0.0000     -2.9832     11.0864      0.2000
   798.5000      0.0000     -5.0560     11.0911      0.2000
   798.0000      0.0000     -8.4616     11.0885      0.2000
   797.5000      0.0000    -12.9912     11.0881      0.2000
   797.0000      0.0000    -12.9323     11.0929      0.2000
   796.5000      0.0000     -7.9196     11.1033      0.2000
   796.0000      0.0000     -6.3287     11.1070      0.2000
   795.5000      0.0000    -11.1657     11.1014      0.2000
   795.0000      0.0000    -14.4314     11.0978      0.2000
   794.5000      0.0000     -8.8179     11.0972      0.2000
   794.0000      0.0000     -0.0326     11.0922      0.2000
   793.5000      0.0000      3.6923     11.0800      0.2000
   793.0000      0.0000      1.0236     11.0543      0.2000
   792.5000      0.0000     -7.3621     11.0137      0.2000
   792.0000      0.0000    -16.8220     10.9913      0.2000
   791.5000      0.0000    -16.3642     10.9967      0.2000
   791.0000      0.0000     -6.2434     10.9976     11.2004
   790.5000      0.0000      3.7152     10.9741     11.2025
   790.0000      0.0000      5.9140     10.9529     11.2018
   789.5000      0.0000      5.2439     10.9564     11.2079
   789.0000      0.0000      5.7438     11.0035     11.2219
   788.5000      0.0000      3.0265     11.1027     11.2394
   788.0000      0.0000     -3.3767     11.2245     11.2561
   787.5000      0.0000     -4.9980     11.3109     11.2759
   787.0000      0.0000     -2.5169     11.3386     11.3059
   786.5000      0.0000     -2.6700     11.3102     11.3241
   786.0000      0.0000     -4.8495     11.2288     11.3014
   785.5000      0.0000     -8.1862     11.1223     11.2395
   785.0000      0.0000    -12.6285     11.0256     11.1576
   784.5000      0.0000    -16.4621     10.9492     11.0575
   784.0000      0.0000    -16.3331     10.8903     10.9722
   783.5000    116.0910    -13.7003     10.8376     10.9277
   783.0000    114.7733    -12.2647     10.7722     10.8822
   782.5000    114.5304    -14.2340     10.6839     10.7773
   782.0000    115.3150    -14.4137     10.5703     10.6148
   781.5000    117.1311    -13.5673     10.4380     10.4210
   781.0000    118.1996    -14.8517     10.3129     10.2347
   780.5000    118.2472    -17.4664     10.1962     10.0945
   780.0000    118.5368    -16.8381     10.0528     10.0002
   779.5000    117.3997    -14.5110      9.8650      9.9211
   779.0000    115.2151    -10.5722      9.6645      9.8378
   778.5000    116.1553     -8.5455      9.4786      9.7301
   778.0000    119.4274    -13.6481      9.3112      9.5930
   777.5000    121.4001    -20.8638      9.1470      9.4284
   777.0000    122.7056    -21.2500      8.9700      9.2419
   776.5000    122.6926    -15.0304      8.7902      9.0586
   776.0000    119.9092     -8.6425      8.6428      8.9026
   775.5000    116.2670     -4.9846      8.5475      8.7822
   775.0000    114.9712     -5.6038      8.4924      8.7036
   774.5000    115.0565     -8.1749      8.4302      8.6119
   774.0000    115.3712     -9.2949      8.2966      8.3700
   773.5000    116.6656     -7.9007      8.0401      7.8783
   773.0000    117.2713     -5.4327      7.6189      7.1581
   772.5000    116.3443     -6.0841      7.0519      6.3568
   772.0000    120.1841     -6.2275      6.4529      5.6775
   771.5000    133.6705     -3.1168      5.9161      5.2421
   771.0000    146.9994     -0.9659      5.4233      5.0175
   770.5000    147.9987     -3.3224      4.9371      4.9107
   770.0000    138.2077     -5.8292      4.5235      4.8496
   769.5000    127.0451     -5.3244      4.3434      4.8281
   769.0000    120.2129     -5.8163      4.4924      4.9178
   768.5000    117.5422     -9.9662      4.9845      5.2057
   768.0000    116.6127    -13.0366      5.7086      5.7148
   767.5000    117.1748    -11.4344      6.4994      6.3723
   767.0000    119.9425     -9.2693      7.1672      7.0388
   766.5000    121.7593    -10.2876      7.6261      7.5948
   766.0000    121.0226    -12.3818      7.9025      7.9744
   765.5000    119.4158    -11.3963      8.0754      8.2070
   765.0000    116.8907     -6.7048      8.2127      8.3807
   764.5000    113.3180     -4.1093      8.3499      8.5488
   764.0000    111.5422     -5.7755      8.5075      8.7181
   763.5000    111.7273     -8.2551      8.6814      8.8961
   763.0000    111.3554    -11.0276      8.8395      9.0843
   762.5000    108.8107    -13.0814      8.9622      9.2515
   762.0000    106.6052     -9.6511      9.0662      9.3569
   761.5000    107.1390     -4.8773      9.1736      9.3996
   761.0000    109.6367     -4.6686      9.2833      9.4192
   760.5000    111.6349     -6.2080      9.3805      9.4490
   760.0000    110.9429     -4.5756      9.4661      9.4880
   759.5000    108.1556     -4.0940      9.5453      9.5354
   759.0000    104.6054     -8.0828      9.6130      9.5972
   758.5000    102.7769    -13.7384      9.6670      9.6633
   758.0000    103.1806    -15.3226      9.7110      9.7190
   757.5000    104.9956    -12.6398      9.7503      9.7811
   757.0000    107.5799    -12.1207      9.7959      9.8601
   756.5000    110.2744    -14.4607      9.8516      9.9296
   756.0000    110.9116    -13.2782      9.9048      9.9810
   755.5000    109.7573     -9.2903      9.9464     10.0462
   755.0000    109.0851     -8.6224      9.9814     10.1293
   754.5000    108.0696    -10.2114     10.0212     10.2053
   754.0000    105.4809     -8.9112     10.0599     10.2554
   753.5000    104.3847     -6.9930     10.0856     10.2648
   753.0000    105.0677     -8.7047     10.0937     10.2403
   752.5000    105.8962    -11.7422     10.0887     10.2275
   752.0000    107.0531    -12.6133     10.0674     10.2494
   751.5000    106.4639    -11.7654     10.0243     10.2677
   751.0000    102.8331    -11.0892      9.9743     10.2427
   750.5000    100.6278    -10.2950      9.9446     10.1917
