~Version Information
 VERS.                2.00:   CWLS log ASCII Standard -VERSION 2.00
 WRAP.                  NO:   One line per frame
~Well Information Block
#MNEM.UNIT              Data                Description
#--------- -------------------------------  -------------------------------
 STRT.F                          817.0000:   Starting Depth
 STOP.F                           -6.7500:   Ending Depth
 STEP.F                           -0.5000:   Level Spacing
 NULL.                          -999.2500:   Absent Value
 COMP.     FLUOR DANIEL (NPSOR), INC.    :   Company
 WELL.     26 X 14                       :   Well
 FLD .                                   :   Field
 LOC .                                   :   Location
 PROV.                                   :   Province
 SRVC.                                   :   Service Company
 LIC .                                   :   License Number
 DATE.                                   :   Log Date
 UWI .                                   :   Unique Well ID
~Curve Information Block
#MNEM.UNIT       API Codes    Curve Description
#---------    -------------   -------------------------------
 DEPT.F        0   0  0  0:   Depth
 GR  .API      0   0  0  0:   Gamma ray counts
 TEN .LBF      0   0  0  0:   Differential Tension
 RILM.OHMM     0   0  0  0:   Resistivity from CILM
 RILD.OHMM     0   0  0  0:   Resistivity from CILD
#  Curve Data
~A
# ...
    80.0000    121.2720     -2.7560      4.5088      4.6464
    79.5000    122.7272     -8.4552      4.6201      4.7247
    79.0000    123.1327    -11.8810      4.6846      4.7710
    78.5000    122.0630    -17.0992      4.6923      4.7794
    78.0000    120.9688    -24.3024      4.6650      4.7604
    77.5000    121.2342    -26.9663      4.6273      4.7243
    77.0000    122.2733    -25.0808      4.5867      4.6749
    76.5000    121.6151    -17.6452      4.5505      4.6231
    76.0000    118.9774     -4.0507      4.5311      4.5913
    75.5000    115.1772      8.1905      4.5327      4.5925
    75.0000    114.3408     10.8299      4.5467      4.6209
    74.5000    118.2848      8.3942      4.5703      4.6698
    74.0000    121.3966      6.9845      4.6101      4.7400
    73.5000    120.4915      8.0148      4.6725      4.8270
    73.0000    119.2390      6.4398      4.7631      4.9213
    72.5000    120.1102      0.0214      4.8897      5.0193
    72.0000    120.6234     -1.7949      5.0455      5.1173
    71.5000    122.1975      1.0651      5.1966      5.2093
    71.0000    127.3701     -2.5257      5.3052      5.2869
    70.5000    133.0086     -9.9293      5.3461      5.3283
    70.0000    131.6702     -8.8651      5.3307      5.3244
    69.5000    123.9858     -2.9320      5.2937      5.2998
    69.0000    118.3656     -0.7631      5.2578      5.2756
    68.5000    118.5121     -0.5389      5.2228      5.2492
    68.0000    122.4687     -0.4032      5.1849      5.2217
    67.5000    127.9326     -4.3947      5.1500      5.2006
    67.0000    131.5618    -12.3135      5.1340      5.1897
    66.5000    131.1824    -17.1322      5.1479      5.1963
    66.0000    129.4190    -14.3179      5.1826      5.2210
    65.5000    128.7768     -8.7898      5.2153      5.2540
    65.0000    129.2872     -6.4459      5.2387      5.2945
    64.5000    129.4601     -3.8994      5.2673      5.3497
    64.0000    128.5186     -1.0257      5.3172      5.4215
    63.5000    127.0983     -3.7774      5.3933      5.5117
    63.0000    124.1490    -11.1807      5.4881      5.5938
    62.5000    120.9636    -14.8386      5.5853      5.5622
    62.0000    120.3640    -15.4391      5.6740      5.4281
    61.5000    121.8825    -16.7799      5.7602      5.4363
    61.0000    121.8310    -17.8324      5.8394      5.7251
    60.5000    120.1862    -16.7415      5.8754      6.1683
    60.0000    118.5808    -15.0521      5.8429      6.5965
    59.5000    117.7074    -15.0588      5.8178      6.6250
    59.0000    119.4492    -13.5319      6.1600      5.8562
    58.5000    122.1047     -8.6144      7.1952      5.0289
    58.0000    122.8681     -4.4875      8.0933      4.7682
    57.5000    123.5843     -3.8396      7.6213      4.9814
    57.0000    125.6177     -3.5365      7.0351      5.2782
    56.5000    125.7850     -3.7832      7.4523      5.4148
    56.0000    124.1843     -8.1493      9.0405      6.1153
    55.5000    123.7237    -14.5744     10.1473     10.5530
    55.0000    123.5300    -20.1364      7.7465     28.3645
    54.5000    123.5049    -19.1598      5.2470     12.8672
    54.0000    124.0275     -9.4846      4.1212      4.5801
    53.5000    122.9097      3.8396      3.2379      2.4815
    53.0000    120.0975     12.5026      2.4065      1.7447
    52.5000    117.8096     13.2394      2.5050      2.0248
    52.0000    113.7983      7.0147      8.2506      7.3842
    51.5000    105.0316     -1.9120  10000.0000  10000.0000
    51.0000     93.8190     -9.6511  10000.0000  10000.0000
    50.5000     82.3735    -17.0605  10000.0000  10000.0000
    50.0000     73.8159    -25.1390  10000.0000  10000.0000
    49.5000     70.5860    -32.3724  10000.0000  10000.0000
    49.0000     71.2338    -35.0137  10000.0000  10000.0000
    48.5000     71.3986    -32.5352  10000.0000     34.8811
    48.0000     71.0524    -27.2996  10000.0000      7.4176
    47.5000     70.2321    -21.7142  10000.0000      5.5063
    47.0000     69.4789    -17.2130  10000.0000      5.6563
    46.5000     69.1941    -15.6032  10000.0000      6.0458
    46.0000     68.0555    -15.6965  10000.0000      5.9756
    45.5000     66.0336    -16.3956  10000.0000      5.2288
    45.0000     64.9069    -18.8649  10000.0000      4.4890
    44.5000     63.9502    -23.1724  10000.0000      4.2127
    44.0000     61.7465    -21.8615  10000.0000      4.2469
    43.5000     58.9445    -10.9281  10000.0000      4.3158
    43.0000     56.8986     -2.4345  10000.0000      4.3218
    42.5000     55.2673     -6.1799  10000.0000      4.3179
    42.0000     52.5842    -12.7511  10000.0000      4.3804
    41.5000     49.7506    -13.6128  10000.0000      4.4769
    41.0000     49.4003    -12.8734  10000.0000      4.5797
    40.5000     51.2735    -15.8231  10000.0000      4.9017
    40.0000     52.5772    -19.2772  10000.0000      5.5897
    39.5000     52.0842    -21.9072  10000.0000      6.3055
    39.0000     50.3701    -26.4511  10000.0000      6.2913
    38.5000     48.4261    -32.5755  10000.0000      5.5591
    38.0000     46.1778    -32.1165  10000.0000      4.9826
    37.5000     45.0128    -24.9478  10000.0000      4.9179
    37.0000     47.6384    -21.2582  10000.0000      5.1716
    36.5000     52.0089    -20.7720  10000.0000      5.3987
    36.0000     54.5703    -16.5350  10000.0000      5.5229
    35.5000     55.2385    -10.0690  10000.0000      5.5536
    35.0000     55.9231     -5.2067  10000.0000      5.4741
    34.5000     56.9695      0.3950  10000.0000      5.4164
    34.0000     57.0117      5.4205  10000.0000      5.6015
    33.5000     54.5666      5.9524  10000.0000      6.2103
    33.0000     50.6630      1.6049  10000.0000      7.2283
    32.5000     48.7413     -5.0789  10000.0000      8.4720
    32.0000     49.9233    -10.8269  10000.0000     10.0087
    31.5000     51.9189    -15.2738  10000.0000     12.3181
    31.0000     53.8957    -16.4496  10000.0000     15.1482
    30.5000     56.3719    -10.5384  10000.0000     16.5486
    30.0000     58.5573     -3.7640  10000.0000     15.8199
    29.5000     60.0422     -7.4630  10000.0000     14.4096
    29.0000     60.1810    -16.6405  10000.0000     13.5394
    28.5000     59.2169    -16.7048  10000.0000     14.1280
    28.0000     58.5982     -8.1475  10000.0000     16.9987
    27.5000     58.9354     -0.4078    184.0799     23.0657
    27.0000     58.6566      1.9566    180.9876     31.3149
    26.5000     58.7731     -1.5052    180.3808     37.5312
    26.0000     60.5661     -6.7021    180.7211     47.1123
    25.5000     61.9182     -7.0812    180.7318     84.8163
    25.0000     61.0836     -1.9672    180.3237    305.5613
    24.5000     59.1078     -0.1955    180.0343   5107.6133
    24.0000     57.4303     -6.1146    179.7516  10000.0000
    23.5000     57.1160    -10.6768    180.3310  10000.0000
    23.0000     57.9833     -8.0047    182.6660  10000.0000
    22.5000     59.3863   -250.0000    186.3370  10000.0000
    22.0000     59.7720   -250.0000    189.2687  10000.0000
    21.5000     58.0837   -250.0000    189.7148  10000.0000
    21.0000     56.5238   -250.0000    188.2297  10000.0000
    20.5000     58.9199   -250.0000    186.3419  10000.0000
    20.0000     65.6012   -250.0000    185.0442      0.2000
    19.5000     71.4339   -250.0000    184.8730      0.2000
    19.0000     71.9527   -250.0000    185.0682      0.2000
    18.5000     68.6066   -250.0000    184.2585      0.2000
    18.0000     65.5319   -250.0000    183.3149      0.2000
    17.5000     63.1313   -250.0000    183.7730      0.2000
    17.0000     60.8676   -250.0000    185.1795      0.2000
    16.5000     60.2762   -250.0000      0.2000      0.2000
    16.0000     60.4570   -250.0000      0.2000      0.2000
    15.5000     58.5938   -250.0000      0.2000      0.2000
    15.0000     55.8043   -250.0000      0.2000      0.2000
    14.5000     54.8699   -250.0000      0.2000      0.2000
    14.0000     55.1309   -250.0000      0.2000      0.2000
    13.5000     53.9316   -250.0000      0.2000      0.2000
