~Version Information
 VERS.                2.00:   CWLS log ASCII Standard -VERSION 2.00
 WRAP.                  NO:   One line per frame
~Well Information Block
#MNEM.UNIT              Data                Description
#--------- -------------------------------  -------------------------------
 STRT.F                          817.0000:   Starting Depth
 STOP.F                           -6.7500:   Ending Depth
 STEP.F                           -0.5000:   Level Spacing
 NULL.                          -999.2500:   Absent Value
 COMP.     FLUOR DANIEL (NPSOR), INC.    :   Company
 WELL.     26 X 14                       :   Well
 FLD .                                   :   Field
 LOC .                                   :   Location
 PROV.                                   :   Province
 SRVC.                                   :   Service Company
 LIC .                                   :   License Number
 DATE.                                   :   Log Date
 UWI .                                   :   Unique Well ID
~Curve Information Block
#MNEM.UNIT       API Codes    Curve Description
#---------    -------------   -------------------------------
 DEPT.F        0   0  0  0:   Depth
 GR  .API      0   0  0  0:   Gamma ray counts
 TEN .LBF      0   0  0  0:   Differential Tension
 RILM.OHMM     0   0  0  0:   Resistivity from CILM
 RILD.OHMM     0   0  0  0:   Resistivity from CILD
#  Curve Data
~A
# ...
   281.0000    123.9877    -13.5798      7.2186      7.2488
   280.5000    123.8659     -8.3814      7.1524      7.2157
   280.0000    126.5320     -2.5943      7.1147      7.1907
   279.5000    129.1410     -6.3544      7.0921      7.1574
   279.0000    130.5206    -18.6883      7.0822      7.1108
   278.5000    132.0864    -27.9026      7.0894      7.0572
   278.0000    131.7121    -30.1291      7.1040      7.0163
   277.5000    128.6397    -28.6898      7.1032      7.0104
   277.0000    125.5688    -25.4431      7.0799      7.0496
   276.5000    124.2445    -17.7229      7.0555      7.1343
   276.0000    121.9238     -7.9062      7.0419      7.2240
   275.5000    114.8595     -4.8571      7.0260      7.2455
   275.0000    105.4238    -10.2989      7.0286      7.1955
   274.5000    101.3792    -12.8725      7.1198      7.1423
   274.0000    107.6478     -5.0276      7.3154      7.1360
   273.5000    118.0375      0.9269      7.4908      7.1798
   273.0000    125.1455     -7.0733      7.4840      7.2369
   272.5000    127.6297    -21.2466      7.3073      7.2504
   272.0000    128.0775    -30.0455      7.1287      7.2109
   271.5000    127.2503    -33.9904      7.0666      7.1729
   271.0000    126.5555    -30.3890      7.1178      7.1895
   270.5000    126.3199    -18.1332      7.2260      7.2673
   270.0000    125.7680     -4.9047      7.3457      7.3796
   269.5000    123.1645      4.7446      7.4579      7.4929
   269.0000    119.5842     11.0010      7.5567      7.5866
   268.5000    118.5304     12.9857      7.6406      7.6612
   268.0000    120.8644     11.1444      7.7057      7.7171
   267.5000    122.9139      7.4780      7.7375      7.7426
   267.0000    124.0318      2.7142      7.7217      7.7220
   266.5000    124.8760     -1.2536      7.6621      7.6516
   266.0000    124.1761     -8.1581      7.5831      7.5458
   265.5000    124.7068    -14.8004      7.5053      7.4315
   265.0000    128.5137    -13.9620      7.4286      7.3300
   264.5000    131.3522     -9.3254      7.3392      7.2429
   264.0000    129.1790     -7.8742      7.2248      7.1571
   263.5000    126.0348     -8.9258      7.0916      7.0635
   263.0000    124.8714     -8.2762      6.9613      6.9613
   262.5000    126.2429     -4.5488      6.8593      6.8517
   262.0000    129.3073     -0.7845      6.8018      6.7447
   261.5000    132.7043      0.8220      6.7768      6.6630
   261.0000    134.8922      3.9827      6.7413      6.6146
   260.5000    135.2962      6.6905      6.6576      6.5817
   260.0000    134.5571      1.1010      6.5377      6.5451
   259.5000    134.3966    -11.0611      6.4299      6.5075
   259.0000    135.4460    -19.0229      6.3761      6.4846
   258.5000    136.5432    -16.8021      6.3834      6.4913
   258.0000    135.3348     -9.7679      6.4250      6.5361
   257.5000    132.2379     -4.2859      6.4713      6.6135
   257.0000    130.9944     -1.0343      6.5172      6.7022
   256.5000    132.4179      0.2080      6.5762      6.7843
   256.0000    133.0971     -2.9527      6.6552      6.8579
   255.5000    132.9027    -10.5987      6.7444      6.9246
   255.0000    134.7068    -17.4625      6.8255      6.9671
   254.5000    136.1511    -15.7005      6.8835      6.9658
   254.0000    135.2725     -6.5090      6.9078      6.9227
   253.5000    134.3379      0.0549      6.8887      6.8517
   253.0000    134.7596      1.6754      6.8287      6.7668
   252.5000    135.6273      2.3238      6.7459      6.6842
   252.0000    135.0145     -1.0706      6.6517      6.6192
   251.5000    132.9515    -11.1926      6.5497      6.5736
   251.0000    132.0085    -19.0448      6.4550      6.5408
   250.5000    132.0266    -17.5021      6.3930      6.5184
   250.0000    130.7681    -11.0450      6.3878      6.5182
   249.5000    132.2977     -4.7989      6.4517      6.5596
   249.0000    137.2896      1.3237      6.5744      6.6651
   248.5000    137.4041      6.7826      6.7359      6.8618
   248.0000    129.4386      5.3232      6.9353      7.1722
   247.5000    121.4543     -4.9953      7.1853      7.5917
   247.0000    117.7977    -16.7491      7.5009      8.0893
   246.5000    114.3396    -23.1230      7.9258      8.6514
   246.0000    108.4950    -25.7283      8.5434      9.3074
   245.5000    103.6898    -26.4670      9.4329     10.1095
   245.0000    103.3235    -26.6189     10.5634     11.0645
   244.5000    105.7262    -27.0352     11.7305     12.1561
   244.0000    105.3841    -25.0497     12.6748     13.1981
   243.5000     99.5803    -16.8997     13.3195     14.0136
   243.0000     94.0344     -6.2763     13.8316     14.6229
   242.5000     94.1952      3.9113     14.3847     15.1531
   242.0000     98.4867     11.2801     15.0233     15.7333
   241.5000    102.1621      9.9091     15.6745     16.4724
   241.0000    103.0595     -1.8038     16.2718     17.3387
   240.5000    100.6794    -15.6907     16.8211     18.1231
   240.0000     96.5785    -21.3933     17.3468     18.6503
   239.5000     93.1078    -17.8263     17.9085     18.8952
   239.0000     90.5220    -13.1806     18.5896     18.9293
   238.5000     88.4487    -16.6356     19.2476     18.8677
   238.0000     87.7092    -22.3297     19.4081     18.7335
   237.5000     90.5710    -18.0838     18.7853     18.3915
   237.0000     95.7782     -5.9762     17.7077     17.7648
   236.5000     99.1773     -0.2672     16.6721     17.0064
   236.0000     99.7343     -2.7801     15.9049     16.3267
   235.5000     99.6129     -4.8538     15.4055     15.8244
   235.0000     99.8076     -5.4677     15.1087     15.4779
   234.5000    101.8073     -7.5872     14.9506     15.2346
   234.0000    104.1013     -8.5915     14.8599     15.0801
   233.5000    104.1696     -6.3730     14.7666     14.9935
   233.0000    103.0289     -5.6834     14.6541     14.9049
   232.5000    103.1203     -8.8776     14.5492     14.7725
   232.0000    103.1649     -9.4047     14.4487     14.6033
   231.5000    102.7997     -3.3559     14.3316     14.4207
   231.0000    102.5172      2.6102     14.2035     14.2541
   230.5000    103.1652      2.5998     14.0880     14.1493
   230.0000    103.4913     -1.9438     13.9806     14.1270
   229.5000    102.1741     -5.5476     13.8634     14.1432
   229.0000    100.8693     -4.8391     13.7390     14.1267
   228.5000    101.3168     -2.0484     13.6157     14.0591
   228.0000    102.0971     -1.4311     13.4928     13.9506
   227.5000    103.8066     -1.7156     13.3788     13.7868
   227.0000    106.0486     -1.1584     13.2803     13.5694
   226.5000    106.5664     -0.8000     13.1779     13.3525
   226.0000    105.3271     -2.7099     13.0491     13.1882
   225.5000    106.0299     -6.7603     12.8884     13.0787
   225.0000    107.9759    -10.0528     12.7057     12.9954
   224.5000    108.7027     -8.9307     12.5369     12.9040
   224.0000    107.2988     -5.7697     12.4179     12.7918
   223.5000    105.0145     -3.9092     12.3414     12.7010
   223.0000    102.5942     -2.3430     12.2895     12.6767
   222.5000    100.9060      2.3949     12.2522     12.6946
   222.0000    100.5535      5.3235     12.2137     12.7029
   221.5000    100.3341      0.7793     12.1553     12.6702
   221.0000     98.2508     -9.4791     12.0701     12.5637
   220.5000     94.8569    -17.6568     11.9269     12.3364
   220.0000     92.9023    -21.9036     11.6806     11.9764
   219.5000     94.4632    -23.2404     11.3436     11.5203
   219.0000     99.8255    -19.5032     10.9827     11.0453
   218.5000    104.7980    -11.7449     10.6436     10.6302
   218.0000    105.7281     -7.2602     10.3124     10.2784
   217.5000    104.4525     -8.9197      9.9470      9.9079
   217.0000    102.9583    -13.4468      9.4949      9.3966
   216.5000    101.4743    -18.7627      8.9337      8.6583
   216.0000    101.4733    -24.6251      8.2647      7.7051
   215.5000    102.1252    -27.2807      7.5366      6.7251
   215.0000    104.1579    -21.6272      6.8262      5.9155
   214.5000    111.8535    -10.5536      6.1823      5.3641
