~Version Information
 VERS.                2.00:   CWLS log ASCII Standard -VERSION 2.00
 WRAP.                  NO:   One line per frame
~Well Information Block
#MNEM.UNIT              Data                Description
#--------- -------------------------------  -------------------------------
 STRT.F                          817.0000:   Starting Depth
 STOP.F                           -6.7500:   Ending Depth
 STEP.F                           -0.5000:   Level Spacing
 NULL.                          -999.2500:   Absent Value
 COMP.     FLUOR DANIEL (NPSOR), INC.    :   Company
 WELL.     26 X 14                       :   Well
 FLD .                                   :   Field
 LOC .                                   :   Location
 PROV.                                   :   Province
 SRVC.                                   :   Service Company
 LIC .                                   :   License Number
 DATE.                                   :   Log Date
 UWI .                                   :   Unique Well ID
~Curve Information Block
#MNEM.UNIT       API Codes    Curve Description
#---------    -------------   -------------------------------
 DEPT.F        0   0  0  0:   Depth
 GR  .API      0   0  0  0:   Gamma ray counts
 TEN .LBF      0   0  0  0:   Differential Tension
 RILM.OHMM     0   0  0  0:   Resistivity from CILM
 RILD.OHMM     0   0  0  0:   Resistivity from CILD
#  Curve Data
~A
# ...
   482.0000    124.6649     -5.1213      7.7158      7.8652
   481.5000    124.5892    -18.6803      7.7023      7.8824
   481.0000    126.3973    -26.1266      7.7260      7.8925
   480.5000    130.2796    -18.4000      7.7855      7.9128
   480.0000    131.6763     -6.1552      7.8662      7.9374
   479.5000    129.6108     -2.2045      7.9392      7.9511
   479.0000    127.2337     -7.3718      7.9738      7.9468
   478.5000    124.8816    -16.4471      7.9622      7.9204
   478.0000    122.6862    -20.4140      7.9203      7.8670
   477.5000    122.6737    -15.4989      7.8572      7.7925
   477.0000    125.0751    -10.4618      7.7674      7.7080
   476.5000    125.9329    -12.3388      7.6513      7.6227
   476.0000    125.9208    -17.8684      7.5198      7.5351
   475.5000    127.4410    -21.5647      7.3984      7.4429
   475.0000    128.9886    -24.5778      7.3203      7.3530
   474.5000    128.5351    -22.5389      7.2943      7.2903
   474.0000    127.2059    -12.9921      7.3037      7.2784
   473.5000    126.1506     -5.1209      7.3232      7.3085
   473.0000    128.9723     -5.1075      7.3261      7.3273
   472.5000    134.3499     -8.2847      7.2975      7.2905
   472.0000    132.9312    -11.9264      7.2341      7.1928
   471.5000    122.1188    -16.2940      7.1407      7.0479
   471.0000    114.3276    -17.1090      7.0483      6.8989
   470.5000    117.3417    -15.7914      6.9866      6.8066
   470.0000    123.6090    -15.2930      6.9320      6.7889
   469.5000    124.1025    -15.1954      6.8336      6.8138
   469.0000    121.0817    -11.7083      6.7081      6.8567
   468.5000    119.4923     -5.3625      6.6489      6.9150
   468.0000    118.7219     -3.2467      6.7335      7.0148
   467.5000    118.0377     -8.8334      6.9511      7.1806
   467.0000    119.3002    -12.4230      7.2377      7.3967
   466.5000    121.0630     -9.1149      7.5363      7.6262
   466.0000    121.3973     -6.4633      7.8022      7.8498
   465.5000    121.7364     -6.8082      7.9998      8.0546
   465.0000    121.1791     -7.2505      8.1320      8.2272
   464.5000    118.0523     -8.7855      8.2200      8.3538
   464.0000    117.3931    -12.2418      8.2657      8.4133
   463.5000    122.6491    -14.7757      8.2773      8.4182
   463.0000    125.8474    -13.9919      8.2805      8.4104
   462.5000    122.4753     -8.4784      8.2877      8.4103
   462.0000    117.5300     -4.2849      8.2917      8.4148
   461.5000    116.6686     -8.0859      8.2893      8.4211
   461.0000    118.4237    -14.1724      8.2868      8.4206
   460.5000    118.0103    -13.2288      8.2962      8.4103
   460.0000    114.6416     -5.1124      8.3276      8.4140
   459.5000    113.6907     -1.1343      8.3750      8.4557
   459.0000    116.4534     -8.8404      8.4211      8.5271
   458.5000    117.7118    -21.1383      8.4585      8.6054
   458.0000    118.1987    -23.9538      8.5014      8.6760
   457.5000    121.3165    -15.5898      8.5679      8.7448
   457.0000    125.2241     -4.5003      8.6580      8.8169
   456.5000    125.5681      1.0715      8.7461      8.8704
   456.0000    122.5106     -0.4124      8.8088      8.8857
   455.5000    118.9893     -2.0103      8.8548      8.8924
   455.0000    117.3720      1.8474      8.9128      8.9263
   454.5000    116.9862      7.1135      8.9856      8.9898
   454.0000    116.9186      5.5483      9.0372      9.0695
   453.5000    117.8857     -4.3069      9.0419      9.1492
   453.0000    120.3407    -18.6697      9.0299      9.2144
   452.5000    122.1193    -27.0901      9.0697      9.2773
   452.0000    121.7926    -22.7338      9.1918      9.3594
   451.5000    119.3868    -11.6126      9.3573      9.4637
   451.0000    114.9618     -3.7622      9.5081      9.5747
   450.5000    110.2005     -1.8148      9.6237      9.6695
   450.0000    107.9019     -6.1427      9.7040      9.7265
   449.5000    108.9579    -15.0072      9.7491      9.7483
   449.0000    113.3303    -18.8420      9.7606      9.7573
   448.5000    120.2679    -10.7421      9.7467      9.7632
   448.0000    124.3378      2.2973      9.7302      9.7666
   447.5000    121.9147      8.0444      9.7310      9.7773
   447.0000    115.6541      1.3917      9.7467      9.8023
   446.5000    111.9731    -13.6451      9.7648      9.8427
   446.0000    113.6630    -24.7117      9.7888      9.9060
   445.5000    118.6607    -21.6962      9.8433      9.9956
   445.0000    123.4017     -7.0812      9.9503     10.1104
   444.5000    125.6180      2.8121     10.0869     10.2461
   444.0000    123.4881     -2.6120     10.2117     10.3796
   443.5000    120.3663    -17.4329     10.3249     10.5042
   443.0000    119.4031    -29.8449     10.4495     10.6190
   442.5000    119.7153    -35.8988     10.5783     10.7174
   442.0000    120.2368    -33.9526     10.6929     10.8271
   441.5000    120.4999    -22.8726     10.8009     10.9549
   441.0000    119.1971    -11.8004     10.9075     11.0634
   440.5000    118.3040    -10.0412     10.9892     11.1284
   440.0000    120.5332     -9.2092     11.0245     11.1542
   439.5000    123.1279      0.3974     11.0207     11.1460
   439.0000    122.9710      8.1276     10.9821     11.1015
   438.5000    122.2514      3.7908     10.8849     10.9888
   438.0000    123.2817     -3.7954     10.7101     10.7944
   437.5000    123.5504     -4.1742     10.4869     10.5627
   437.0000    122.9240      2.2518     10.2607     10.3496
   436.5000    123.7858      9.7310     10.0400     10.1723
   436.0000    125.3229     12.3598      9.8120     10.0036
   435.5000    126.1333      6.3940      9.5815      9.8036
   435.0000    127.0058     -4.6452      9.3632      9.5829
   434.5000    127.1719    -12.4336      9.1766      9.3692
   434.0000    125.9938    -12.3302      9.0277      9.1769
   433.5000    127.4239     -5.7386      8.9012      8.9984
   433.0000    131.3786      2.5852      8.7711      8.8097
   432.5000    133.3783      6.6331      8.6223      8.5985
   432.0000    133.8677      1.4954      8.4731      8.3940
   431.5000    137.2362     -9.2433      8.3418      8.2251
   431.0000    140.7002    -16.2843      8.1996      8.0867
   430.5000    138.8449    -17.5683      8.0175      7.9593
   430.0000    135.3951    -18.6544      7.8251      7.8389
   429.5000    136.3425    -18.7721      7.6774      7.7294
   429.0000    137.7368    -12.0704      7.6043      7.6478
   428.5000    136.5338      0.2513      7.5903      7.6130
   428.0000    136.6740      9.7347      7.5951      7.6197
   427.5000    139.3248      7.7424      7.5906      7.6467
   427.0000    139.5670     -0.8513      7.5775      7.6639
   426.5000    136.3180     -4.5152      7.5681      7.6612
   426.0000    133.8349     -0.6771      7.5705      7.6668
   425.5000    135.3596      0.8973      7.5914      7.7105
   425.0000    137.4519     -4.8342      7.6285      7.7706
   424.5000    135.6856    -13.8226      7.6771      7.8114
   424.0000    131.9550    -18.2637      7.7334      7.8479
   423.5000    130.1811    -13.1266      7.7930      7.9088
   423.0000    131.2196     -0.2043      7.8390      7.9723
   422.5000    134.2432      8.5144      7.8614      7.9956
   422.0000    136.1810      3.5401      7.8588      7.9682
   421.5000    135.0028     -6.5279      7.8270      7.9014
   421.0000    133.9774    -10.9089      7.7671      7.8162
   420.5000    135.7145    -13.7872      7.6904      7.7262
   420.0000    137.5404    -17.6989      7.6070      7.6273
   419.5000    134.9162    -17.3206      7.5162      7.5152
   419.0000    130.9779    -14.4417      7.4153      7.4025
   418.5000    130.7988    -13.1912      7.3118      7.2983
   418.0000    131.9319    -10.0397      7.2143      7.2019
   417.5000    130.6227     -2.6352      7.1193      7.1056
   417.0000    130.7211      4.9578      7.0264      7.0129
   416.5000    135.0205      4.4679      6.9500      6.9449
   416.0000    137.8614     -5.8792      6.8997      6.9184
   415.5000    135.8906    -17.2615      6.8721      6.9280
