~Version Information
 VERS.                2.00:   CWLS log ASCII Standard -VERSION 2.00
 WRAP.                  NO:   One line per frame
~Well Information Block
#MNEM.UNIT              Data                Description
#--------- -------------------------------  -------------------------------
 STRT.F                          817.0000:   Starting Depth
 STOP.F                           -6.7500:   Ending Depth
 STEP.F                           -0.5000:   Level Spacing
 NULL.                          -999.2500:   Absent Value
 COMP.     FLUOR DANIEL (NPSOR), INC.    :   Company
 WELL.     26 X 14                       :   Well
 FLD .                                   :   Field
 LOC .                                   :   Location
 PROV.                                   :   Province
 SRVC.                                   :   Service Company
 LIC .                                   :   License Number
 DATE.                                   :   Log Date
 UWI .                                   :   Unique Well ID
~Curve Information Block
#MNEM.UNIT       API Codes    Curve Description
#---------    -------------   -------------------------------
 DEPT.F        0   0  0  0:   Depth
 GR  .API      0   0  0  0:   Gamma ray counts
 TEN .LBF      0   0  0  0:   Differential Tension
 RILM.OHMM     0   0  0  0:   Resistivity from CILM
 RILD.OHMM     0   0  0  0:   Resistivity from CILD
#  Curve Data
~A
# ...
   750.0000    102.9970     -8.4165      9.9458     10.1705
   749.5000    104.7896     -4.5613      9.9794     10.1921
   749.0000    101.6961     -0.8921     10.0385     10.2336
   748.5000     98.2199      0.9126     10.1062     10.2845
   748.0000     99.2783      0.1186     10.1702     10.3458
   747.5000    100.8775     -3.7667     10.2190     10.4113
   747.0000    100.2586     -5.4741     10.2457     10.4734
   746.5000    100.6204     -3.0341     10.2634     10.5227
   746.0000    102.4158     -1.1187     10.2854     10.5394
   745.5000    103.6220     -4.3029     10.3041     10.5206
   745.0000    102.0081     -9.4123     10.3200     10.4945
   744.5000     97.0268     -9.2183     10.3536     10.4749
   744.0000     93.7394     -1.5689     10.4001     10.4581
   743.5000     95.6111      3.0598     10.4256     10.4461
   743.0000     98.6322     -0.1833     10.4012     10.4370
   742.5000     98.1864     -3.8576     10.3362     10.4147
   742.0000     96.7069     -5.5037     10.2547     10.3718
   741.5000     95.7266     -8.0099     10.1781     10.3168
   741.0000     94.1625    -10.5618     10.1192     10.2703
   740.5000     92.7767     -8.4878     10.0838     10.2539
   740.0000     94.4710     -2.2170     10.0792     10.2709
   739.5000     96.5943      3.3157     10.1032     10.3078
   739.0000     96.6707      4.3334     10.1436     10.3632
   738.5000     96.6824      2.2164     10.1909     10.4421
   738.0000     97.2032     -0.7228     10.2441     10.5193
   737.5000     96.5563     -3.1644     10.2952     10.5633
   737.0000     95.4923     -5.1826     10.3319     10.5788
   736.5000     96.5305     -6.9839     10.3448     10.5773
   736.0000     98.7110     -7.9794     10.3292     10.5487
   735.5000     99.7019     -7.0455     10.2865     10.5102
   735.0000     99.7623     -5.2439     10.2383     10.4856
   734.5000     98.5306     -6.4401     10.2081     10.4684
   734.0000     95.2997    -11.9786     10.1995     10.4453
   733.5000     92.8215    -15.2024     10.1997     10.4254
   733.0000     92.3550    -12.2384     10.2052     10.4323
   732.5000     91.1571     -7.0199     10.2247     10.4744
   732.0000     88.6633     -5.5922     10.2530     10.5222
   731.5000     87.6125     -9.4166     10.2799     10.5501
   731.0000     89.3657    -14.7480     10.3079     10.5796
   730.5000     92.7547    -15.5962     10.3402     10.6279
   730.0000     94.5295    -13.0909     10.3652     10.6769
   729.5000     93.2271     -9.8131     10.3898     10.7297
   729.0000     92.4378     -6.3294     10.4464     10.8235
   728.5000     94.3158     -4.5247     10.5678     11.0152
   728.0000     96.1530     -6.2388     10.7822     11.3767
   727.5000     94.7995     -8.7678     11.1126     11.9390
   727.0000     91.9378    -10.4725     11.5639     12.6389
   726.5000     89.0651    -12.5971     12.1165     13.3491
   726.0000     85.7610    -14.9227     12.7509     13.9381
   725.5000     82.7017    -16.4069     13.4714     14.3044
   725.0000     82.3836    -15.3137     14.2443     14.4403
   724.5000     85.5751    -13.8128     14.8636     14.3865
   724.0000     90.7092    -11.4137     14.9564     14.1218
   723.5000     94.5191     -5.7343     14.3380     13.5917
   723.0000     97.3454     -0.9650     13.2556     12.8656
   722.5000    100.8206     -2.4278     12.1415     12.1010
   722.0000    102.7818     -8.1112     11.2799     11.4187
   721.5000    101.9962    -14.2325     10.7208     10.8888
   721.0000    101.2873    -18.7441     10.3787     10.5326
   720.5000     99.2449    -18.6922     10.1681     10.3347
   720.0000     94.2964    -14.7824     10.0468     10.2521
   719.5000     91.5019    -10.9785      9.9867     10.2517
   719.0000     92.8913     -9.9213      9.9792     10.3162
   718.5000     94.4104    -12.5090     10.0347     10.4317
   718.0000     94.4793    -15.3043     10.1444     10.5713
   717.5000     92.6920    -13.8876     10.2815     10.7173
   717.0000     90.1449    -10.2477     10.4402     10.8860
   716.5000     90.0264     -8.6602     10.6437     11.0764
   716.0000     91.0896     -5.9573     10.8931     11.2550
   715.5000     90.0102     -1.6744     11.1434     11.4071
   715.0000     87.8882     -2.8734     11.3453     11.5632
   714.5000     88.1532     -8.0566     11.4880     11.7293
   714.0000     89.2935     -9.3068     11.5926     11.8812
   713.5000     90.2300     -8.0639     11.6739     11.9996
   713.0000     91.7771     -9.1732     11.7373     12.0801
   712.5000     92.5047    -10.9666     11.7858     12.1325
   712.0000     90.5897    -10.1489     11.8293     12.1738
   711.5000     88.7906     -7.9074     11.8679     12.1992
   711.0000     90.6950     -6.4797     11.8948     12.1984
   710.5000     93.3808     -5.4653     11.9028     12.1928
   710.0000     93.7006     -5.9268     11.8973     12.1954
   709.5000     92.7565     -6.0292     11.9009     12.1878
   709.0000     91.6069     -4.2624     11.9343     12.1788
   708.5000     89.9535     -4.0306     11.9889     12.1844
   708.0000     86.6390     -5.8673     12.0465     12.1969
   707.5000     83.8817     -2.1118     12.1054     12.2272
   707.0000     85.4445      6.0445     12.1637     12.2840
   706.5000     90.1101      6.6633     12.2252     12.3403
   706.0000     92.3969      0.6094     12.2929     12.4054
   705.5000     91.5536     -3.3272     12.3549     12.4908
   705.0000     88.7702     -4.9273     12.3996     12.5579
   704.5000     86.0985     -7.0836     12.4440     12.6155
   704.0000     86.0931     -7.1083     12.5288     12.7366
   703.5000     88.5213     -6.0469     12.7152     12.9745
   703.0000     89.7136     -8.7898     13.0276     13.3667
   702.5000     86.8672    -11.0114     13.4158     13.9474
   702.0000     82.0578     -8.6696     13.8300     14.6393
   701.5000     78.8412     -6.5243     14.2717     15.2796
   701.0000     77.5995    -10.8967     14.7396     15.7554
   700.5000     76.5037    -16.8180     15.2435     16.0788
   700.0000     75.2354    -15.8313     15.8459     16.3430
   699.5000     74.8342     -9.7756     16.5258     16.6910
   699.0000     77.2717     -7.1419     17.0370     17.1284
   698.5000     79.7261     -8.4857     17.0732     17.4212
   698.0000     79.0555     -7.9224     16.5995     17.2760
   697.5000     78.8159     -4.0159     15.8846     16.6718
   697.0000     82.2805      0.0793     15.2266     15.7733
   696.5000     86.6749      0.5261     14.7244     14.7640
   696.0000     90.6390     -3.4477     14.2617     13.8172
   695.5000     94.2476     -7.7128     13.6684     13.0236
   695.0000     98.1644     -8.1917     12.8984     12.3379
   694.5000    102.9199     -7.9440     12.0436     11.7046
   694.0000    106.6940    -11.0135     11.2336     11.1465
   693.5000    107.6440    -14.3865     10.5813     10.6967
   693.0000    105.4084    -14.5753     10.1409     10.3378
   692.5000    101.2620    -10.4923      9.8899     10.0599
   692.0000     98.5793     -3.5578      9.7743      9.8797
   691.5000     99.0643     -0.2190      9.7444      9.8027
   691.0000     99.8464     -4.5216      9.7558      9.8024
   690.5000     99.4435     -9.9238      9.7815      9.8495
   690.0000     99.0110    -10.8272      9.8244      9.9251
   689.5000    100.1478     -9.2772      9.8895     10.0238
   689.0000    102.3604     -6.8351      9.9661     10.1255
   688.5000    103.3670     -2.9646     10.0446     10.2111
   688.0000    102.0947      0.2034     10.1353     10.3065
   687.5000    100.3821     -1.4247     10.2423     10.4258
   687.0000     99.8030     -8.4174     10.3455     10.5250
   686.5000    101.4003    -14.0102     10.4214     10.5795
   686.0000    104.7690    -13.4603     10.4874     10.6127
   685.5000    106.7009    -10.3682     10.5777     10.6370
   685.0000    105.4369     -8.4354     10.6684     10.6501
   684.5000    104.0526     -7.1812     10.6822     10.6515
   684.0000    105.0011     -8.0005     10.5903     10.6300
   683.5000    105.8133     -9.7609     10.4616     10.5685
