~Version Information
 VERS.                2.00:   CWLS log ASCII Standard -VERSION 2.00
 WRAP.                  NO:   One line per frame
~Well Information Block
#MNEM.UNIT              Data                Description
#--------- -------------------------------  -------------------------------
 STRT.F                          817.0000:   Starting Depth
 STOP.F                           -6.7500:   Ending Depth
 STEP.F                           -0.5000:   Level Spacing
 NULL.                          -999.2500:   Absent Value
 COMP.     FLUOR DANIEL (NPSOR), INC.    :   Company
 WELL.     26 X 14                       :   Well
 FLD .                                   :   Field
 LOC .                                   :   Location
 PROV.                                   :   Province
 SRVC.                                   :   Service Company
 LIC .                                   :   License Number
 DATE.                                   :   Log Date
 UWI .                                   :   Unique Well ID
~Curve Information Block
#MNEM.UNIT       API Codes    Curve Description
#---------    -------------   -------------------------------
 DEPT.F        0   0  0  0:   Depth
 GR  .API      0   0  0  0:   Gamma ray counts
 TEN .LBF      0   0  0  0:   Differential Tension
 RILM.OHMM     0   0  0  0:   Resistivity from CILM
 RILD.OHMM     0   0  0  0:   Resistivity from CILD
#  Curve Data
~A
# ...
   147.0000    115.7358    -16.4261      4.8719      4.8857
   146.5000    117.8484    -15.3845      4.8355      4.8103
   146.0000    117.1033     -8.1392      4.7580      4.7288
   145.5000    113.8765      3.8918      4.6376      4.6349
   145.0000    109.9961     11.1606      4.4785      4.4930
   144.5000    106.4988      4.0937      4.2910      4.2693
   144.0000    104.9527    -11.9401      4.0735      3.9569
   143.5000    109.1631    -22.6966      3.8289      3.5895
   143.0000    118.8877    -22.9360      3.5948      3.2840
   142.5000    126.7451    -15.3019      3.4078      3.0943
   142.0000    130.0157     -7.1257      3.2454      3.0088
   141.5000    131.0944     -5.3848      3.0611      2.9875
   141.0000    129.9281     -9.5072      2.8803      2.9990
   140.5000    126.8778    -13.6048      2.7984      3.0422
   140.0000    123.9352    -13.8748      2.8897      3.1588
   139.5000    121.6866    -11.6361      3.1662      3.3996
   139.0000    119.7905    -12.6203      3.5901      3.7746
   138.5000    117.9436    -16.8985      4.0939      4.2278
   138.0000    114.2371    -18.5382      4.5885      4.6899
   137.5000    111.3988    -16.9510      4.9690      5.0933
   137.0000    111.4908    -14.5079      5.1785      5.3633
   136.5000    113.3824    -10.2227      5.2769      5.5060
   136.0000    115.9499     -8.2387      5.3402      5.5932
   135.5000    117.3958    -15.1079      5.3779      5.6615
   135.0000    115.4718    -25.0365      5.3387      5.6552
   134.5000    112.4471    -27.2161      5.1877      5.4497
   134.0000    109.2720    -22.0704      4.9201      4.9597
   133.5000    105.4155    -15.0231      4.5261      4.2683
   133.0000    105.2012     -7.6155      4.0445      3.5676
   132.5000    111.2790     -2.1136      3.5622      3.0382
   132.0000    117.8274      0.2376      3.1360      2.7047
   131.5000    121.7061      0.7094      2.7542      2.5053
   131.0000    123.2656     -2.9817      2.4051      2.3777
   130.5000    123.3408    -11.2164      2.1355      2.2880
   130.0000    121.6515    -19.0967      2.0169      2.2417
   129.5000    117.8462    -23.3398      2.0671      2.2700
   129.0000    113.5285    -24.8691      2.2789      2.3999
   128.5000    110.9558    -24.7654      2.6151      2.6371
   128.0000    109.8697    -23.5161      3.0013      2.9609
   127.5000    110.8037    -18.7520      3.3771      3.3269
   127.0000    114.0564     -9.7786      3.6849      3.6797
   126.5000    115.7351     -0.8241      3.9036      3.9802
   126.0000    114.7323      4.0678      4.0556      4.2102
   125.5000    113.4978      4.4719      4.1824      4.4011
   125.0000    113.4535      4.4329      4.3028      4.5557
   124.5000    114.8327      7.7900      4.4101      4.6678
   124.0000    117.5766      9.3004      4.4907      4.7361
   123.5000    119.5341      6.1235      4.5355      4.7713
   123.0000    119.4066      6.1134      4.5569      4.7917
   122.5000    117.6605      9.1366      4.5822      4.8129
   122.0000    115.2275      7.2636      4.6076      4.8338
   121.5000    113.6297      1.9438      4.5956      4.8277
   121.0000    113.7864     -1.2889      4.5297      4.7431
   120.5000    113.4046     -5.5846      4.4252      4.5243
   120.0000    111.6451    -12.3446      4.2772      4.1616
   119.5000    111.2464    -13.9891      4.0521      3.7034
   119.0000    112.2897     -7.3258      3.7484      3.2773
   118.5000    111.5910     -0.0701      3.4184      2.9693
   118.0000    110.7355     -1.9349      3.1052      2.7855
   117.5000    114.4222     -6.6765      2.8160      2.6939
   117.0000    119.9820     -4.8669      2.5670      2.6533
   116.5000    119.5338     -0.2452      2.4062      2.6386
   116.0000    113.8024      0.4941      2.4019      2.6696
   115.5000    110.5430     -0.4209      2.5889      2.7982
   115.0000    110.8617     -1.9877      2.9654      3.0696
   114.5000    110.8331     -1.9114      3.5023      3.4946
   114.0000    110.6652      3.4096      4.0794      4.0305
   113.5000    112.4706      5.5269      4.5322      4.5306
   113.0000    115.0590     -1.5076      4.8045      4.9073
   112.5000    117.4745     -9.0655      4.9545      5.1144
   112.0000    119.2741    -11.4396      5.0400      5.2036
   111.5000    121.0695    -11.6528      5.0846      5.2533
   111.0000    123.1933    -13.9626      5.1103      5.3013
   110.5000    123.6980    -18.7642      5.1399      5.3501
   110.0000    119.0594    -17.3926      5.1707      5.3936
   109.5000    112.3893     -6.0320      5.1661      5.4082
   109.0000    109.0025      2.7969      5.0935      5.3275
   108.5000    108.5270     -0.1501      4.9588      5.0877
   108.0000    107.9184     -8.0029      4.7706      4.7068
   107.5000    107.0892     -9.3403      4.5179      4.2800
   107.0000    108.3602     -1.3734      4.2233      3.9147
   106.5000    113.7919      5.0926      3.9601      3.6824
   106.0000    121.1673     -0.2068      3.7508      3.6022
   105.5000    127.8064    -11.5366      3.5429      3.6050
   105.0000    131.4543    -16.9373      3.3264      3.6173
   104.5000    130.0067    -17.1953      3.1989      3.6234
   104.0000    125.8157    -16.4843      3.2790      3.6810
   103.5000    124.0757    -16.1019      3.6116      3.8715
   103.0000    123.8601    -16.0049      4.1212      4.2138
   102.5000    122.2959    -17.7236      4.6302      4.6511
   102.0000    120.8014    -19.9714      5.0179      5.0918
   101.5000    121.1239    -20.2852      5.2804      5.4484
   101.0000    121.7107    -20.0958      5.4714      5.6924
   100.5000    122.2705    -21.1212      5.6507      5.8739
   100.0000    123.1542    -22.1381      5.8550      6.0586
    99.5000    124.3836    -22.9561      6.0535      6.2483
    99.0000    124.9891    -20.5485      6.2056      6.4038
    98.5000    124.0190    -11.2466      6.3221      6.5174
    98.0000    119.9305     -2.8545      6.4291      6.6130
    97.5000    115.6546     -4.4978      6.5219      6.7068
    97.0000    115.0611    -13.7241      6.5680      6.7724
    96.5000    115.7171    -24.5183      6.5414      6.7634
    96.0000    114.1272    -31.1292      6.4560      6.6780
    95.5000    112.9078    -26.2736      6.3422      6.5515
    95.0000    114.6359    -13.4179      6.2017      6.3946
    94.5000    118.0942     -2.6761      6.0245      6.1985
    94.0000    121.8298      1.9453      5.8310      5.9681
    93.5000    124.3608      4.5116      5.6602      5.7395
    93.0000    124.8977      7.4060      5.5149      5.5622
    92.5000    124.4731      6.8155      5.3555      5.4420
    92.0000    123.5471      0.4593      5.1524      5.3093
    91.5000    121.4202     -5.1075      4.9153      5.0810
    91.0000    117.7715     -7.3859      4.6684      4.7366
    90.5000    113.3841    -13.8296      4.4166      4.3166
    90.0000    111.1211    -22.5529      4.1507      3.8878
    89.5000    114.7086    -21.3625      3.8667      3.4942
    89.0000    122.2281    -10.6113      3.5427      3.1610
    88.5000    128.6497      1.2737      3.1703      2.8754
    88.0000    131.8804      9.1570      2.8123      2.6449
    87.5000    132.7230      6.7622      2.5509      2.4840
    87.0000    131.6868     -6.2653      2.4055      2.4030
    86.5000    128.4972    -18.5736      2.3517      2.4039
    86.0000    124.3782    -19.0848      2.3537      2.4691
    85.5000    120.7465    -13.0058      2.4184      2.5728
    85.0000    117.7903    -12.5660      2.5778      2.7128
    84.5000    114.8020    -17.9843      2.8362      2.9082
    84.0000    113.6738    -15.2070      3.1682      3.1680
    83.5000    116.1167     -2.7227      3.5071      3.4746
    83.0000    118.4551      6.3199      3.7696      3.7831
    82.5000    117.7616      6.6469      3.9239      4.0351
    82.0000    117.4561      3.4050      4.0227      4.2051
    81.5000    118.8901      1.4405      4.1258      4.3345
    81.0000    119.4211      2.2256      4.2472      4.4475
    80.5000    119.6513      2.1060      4.3785      4.5514
