~Version Information
 VERS.                2.00:   CWLS log ASCII Standard -VERSION 2.00
 WRAP.                  NO:   One line per frame
~Well Information Block
#MNEM.UNIT              Data                Description
#--------- -------------------------------  -------------------------------
 STRT.F                          557.0000:   Starting Depth
 STOP.F                           -2.7500:   Ending Depth
 STEP.F                           -0.5000:   Level Spacing
 NULL.                          -999.2500:   Absent Value
 COMP.     FLUOR DANIEL (NPSOR), INC.    :   Company
 WELL.     88-1 X 3                      :   Well
 FLD .                                   :   Field
 LOC .                                   :   Location
 PROV.                                   :   Province
 SRVC.                                   :   Service Company
 LIC .                                   :   License Number
 DATE.                                   :   Log Date
 UWI .                                   :   Unique Well ID
~Curve Information Block
#MNEM.UNIT       API Codes    Curve Description
#---------    -------------   -------------------------------
 DEPT.F        0   0  0  0:   Depth
 CILD.MMHO     0   0  0  0:   Conductivity of Deep Induction
 SP  .MV       0   0  0  0:   Spontaneous Potential
 GR  .API      0   0  0  0:   Gamma ray counts
 TEN .LBF      0   0  0  0:   Differential Tension
 RFOC.OHMM     0   0  0  0:   Resistivity from CFOC
 RILM.OHMM     0   0  0  0:   Resistivity from CILM
 RILD.OHMM     0   0  0  0:   Resistivity from CILD
#  Curve Data
~A
# ...
   263.0000    231.4741      4.8902    116.1593     -7.2453      4.5741      4.0350      4.3201
   262.5000    222.7341      4.8946    116.5191    -12.2662      4.5029      4.0860      4.4897
   262.0000    213.9766      4.8974    116.6310    -22.4849      4.8451      4.1379      4.6734
   261.5000    205.9618      4.8841    116.3962    -26.4667      5.4319      4.2870      4.8553
   261.0000    196.7851      4.8594    117.4573    -21.4589      5.8353      4.6148      5.0817
   260.5000    185.6646      4.8490    120.3414    -14.5031      5.8996      5.0560      5.3861
   260.0000    174.8896      4.8408    123.2704     -9.2525      5.8289      5.4255      5.7179
   259.5000    167.1651      4.8372    124.7683     -9.1482      5.7361      5.6326      5.9821
   259.0000    162.7417      4.8498    122.6018    -13.3560      5.6229      5.6999      6.1447
   258.5000    160.7172      4.8698    117.4199    -18.1768      5.5348      5.6659      6.2221
   258.0000    161.3516      4.8788    114.5282    -23.7482      5.5347      5.5645      6.1976
   257.5000    165.3830      4.8810    115.4310    -27.2576      5.5981      5.4515      6.0466
   257.0000    173.3693      4.8989    115.3188    -22.5063      5.6673      5.3457      5.7680
   256.5000    187.0322      4.9390    113.0536    -12.6926      5.7197      5.1821      5.3467
   256.0000    206.7223      4.9649    110.6530     -6.1317      5.7895      4.9105      4.8374
   255.5000    228.9005      4.9380    109.2016     -3.4627      5.6048      4.5778      4.3687
   255.0000    252.7993      4.8981    109.7147     -2.6312      4.8207      4.2253      3.9557
   254.5000    284.1245      4.8978    112.6955     -3.2492      4.0527      3.7857      3.5196
   254.0000    321.6665      4.9247    111.6812     -6.5813      3.8702      3.2759      3.1088
   253.5000    359.1001      4.9376    104.0793    -11.6431      4.0764      2.8538      2.7847
   253.0000    387.9983      4.9225     95.5554    -15.6349      3.9502      2.6134      2.5773
   252.5000    400.9309      4.8974     91.1693    -13.3517      3.5194      2.5082      2.4942
   252.0000    397.5129      4.8773     92.1014     -6.6783      3.3332      2.4358      2.5156
   251.5000    385.3428      4.8604     96.4418     -7.1483      3.4787      2.3740      2.5951
   251.0000    369.1157      4.8412    100.8257    -17.6802      3.8189      2.3849      2.7092
   250.5000    346.9636      4.8412    103.7262    -24.6223      4.2347      2.5254      2.8821
   250.0000    317.5313      4.8597    107.0278    -21.4833      4.5712      2.7997      3.1493
   249.5000    282.6331      4.8626    109.3265    -16.3172      4.7685      3.2069      3.5382
   249.0000    246.2729      4.8307    107.7373    -11.2411      4.9568      3.7147      4.0605
   248.5000    215.2812      4.7996    105.0063     -9.1399      5.2079      4.2636      4.6451
   248.0000    190.6931      4.8049    105.2862    -14.2112      5.4902      4.7902      5.2440
   247.5000    172.9758      4.7958    107.0654    -21.7434      5.7845      5.2450      5.7812
   247.0000    160.7334      4.7472    106.8120    -25.1436      6.0922      5.6157      6.2215
   246.5000    152.2762      4.7024    105.8940    -25.6081      6.3603      5.9172      6.5670
   246.0000    146.1663      4.6890    107.3423    -23.5198      6.5225      6.1803      6.8415
   245.5000    141.7260      4.6937    109.8950    -16.4593      6.5942      6.4257      7.0559
   245.0000    138.3907      4.7239    110.9181     -7.0354      6.6334      6.6349      7.2259
   244.5000    135.7290      4.7841    110.9800     -2.6032      6.6941      6.7937      7.3676
   244.0000    133.8033      4.8411    110.5594     -3.9321      6.7545      6.9123      7.4737
   243.5000    132.9237      4.8618    107.3240     -6.5160      6.8253      6.9936      7.5231
   243.0000    132.9803      4.8280    102.3463    -10.6671      6.9022      7.0486      7.5199
   242.5000    133.4453      4.7651     99.1874    -15.5312      6.9525      7.1076      7.4937
   242.0000    133.8300      4.7348    100.6140    -14.7684      6.9391      7.1865      7.4722
   241.5000    133.8162      4.7491    106.6142     -9.2805      6.9376      7.2708      7.4729
   241.0000    133.4266      4.7740    110.5386     -4.2117      7.0014      7.3483      7.4948
   240.5000    132.8970      4.8042    106.1476     -1.4500      7.1165      7.4098      7.5246
   240.0000    132.3918      4.8471     99.3499     -5.6318      7.2395      7.4587      7.5533
   239.5000    132.0245      4.8655     98.5887    -11.1176      7.2334      7.5078      7.5743
   239.0000    132.0541      4.8454    101.1523    -12.9607      7.0808      7.5451      7.5727
   238.5000    132.3684      4.8201    101.5137    -13.9949      6.9683      7.5264      7.5547
   238.0000    132.7732      4.8237    101.7244    -15.2558      6.9978      7.4567      7.5316
   237.5000    133.4619      4.8298    104.4802    -12.5218      7.0295      7.3877      7.4928
   237.0000    134.6318      4.8039    107.8582    -13.2016      6.9993      7.3263      7.4277
   236.5000    135.8694      4.7684    109.6605    -22.1430      7.0301      7.2543      7.3600
   236.0000    136.7286      4.7582    109.1635    -31.0987      7.1231      7.1933      7.3138
   235.5000    137.2434      4.7672    106.5648    -31.9548      7.0788      7.1605      7.2863
   235.0000    137.5085      4.7880    104.8227    -23.9340      6.8870      7.1316      7.2723
   234.5000    137.6207      4.8124    106.6775    -15.5965      6.7668      7.0852      7.2663
   234.0000    137.9208      4.8361    108.4493    -15.8014      6.7922      7.0316      7.2505
   233.5000    138.7949      4.8587    106.9741    -18.2228      6.8333      6.9888      7.2049
   233.0000    140.2747      4.8860    105.1898    -17.5274      6.8285      6.9574      7.1289
   232.5000    142.0090      4.9045    105.4879    -18.6044      6.8294      6.9201      7.0418
   232.0000    143.5085      4.9014    106.0817    -22.3656      6.8120      6.8612      6.9682
   231.5000    144.6782      4.8861    106.6345    -23.2480      6.6336      6.7899      6.9119
   231.0000    145.7362      4.8795    106.9658    -21.2582      6.4046      6.7148      6.8617
   230.5000    146.8164      4.8759    106.1782    -15.4486      6.3453      6.6219      6.8112
   230.0000    148.3481      4.8662    104.6748     -7.6192      6.4632      6.5045      6.7409
   229.5000    151.3479      4.8835    102.4315     -5.5083      6.5577      6.3856      6.6073
   229.0000    156.6351      4.9286    100.1296    -10.3243      6.4820      6.2667      6.3843
   228.5000    165.0391      4.9608    101.3613    -15.2476      6.2877      6.1082      6.0592
   228.0000    177.6165      4.9473    106.1504    -18.3104      6.1144      5.8462      5.6301
   227.5000    192.9629      4.9105    108.9024    -20.6335      6.0728      5.4904      5.1823
   227.0000    206.0229      4.8877    106.5672    -20.8291      6.0128      5.1572      4.8538
   226.5000    213.1191      4.8859    102.1331    -18.8908      5.5134      4.9193      4.6922
   226.0000    215.6694      4.8792    100.6239    -17.1779      4.8067      4.6960      4.6367
   225.5000    216.7459      4.8476    102.5489    -17.1572      4.5465      4.4036      4.6137
   225.0000    217.7830      4.8002    103.8324    -17.0535      4.8713      4.1379      4.5917
   224.5000    217.5197      4.7682    102.9355    -11.1551      5.4432      4.0763      4.5973
   224.0000    212.4083      4.7928    103.3094     -2.2945      5.8157      4.2921      4.7079
   223.5000    201.1745      4.8028    105.7627     -4.0940      5.9566      4.7150      4.9708
   223.0000    187.3383      4.7490    107.4118    -16.6554      6.0463      5.1741      5.3379
   222.5000    174.9207      4.7104    107.3876    -25.3644      6.1787      5.5389      5.7169
   222.0000    165.4319      4.7475    108.5673    -25.0530      6.2751      5.7976      6.0448
   221.5000    159.1812      4.7998    109.3290    -19.0954      6.2335      5.9612      6.2822
