~Version Information
 VERS.                2.00:   CWLS log ASCII Standard -VERSION 2.00
 WRAP.                  NO:   One line per frame
~Well Information Block
#MNEM.UNIT              Data                Description
#--------- -------------------------------  -------------------------------
 STRT.F                          557.0000:   Starting Depth
 STOP.F                           -2.7500:   Ending Depth
 STEP.F                           -0.5000:   Level Spacing
 NULL.                          -999.2500:   Absent Value
 COMP.     FLUOR DANIEL (NPSOR), INC.    :   Company
 WELL.     88-1 X 3                      :   Well
 FLD .                                   :   Field
 LOC .                                   :   Location
 PROV.                                   :   Province
 SRVC.                                   :   Service Company
 LIC .                                   :   License Number
 DATE.                                   :   Log Date
 UWI .                                   :   Unique Well ID
~Curve Information Block
#MNEM.UNIT       API Codes    Curve Description
#---------    -------------   -------------------------------
 DEPT.F        0   0  0  0:   Depth
 CILD.MMHO     0   0  0  0:   Conductivity of Deep Induction
 SP  .MV       0   0  0  0:   Spontaneous Potential
 GR  .API      0   0  0  0:   Gamma ray counts
 TEN .LBF      0   0  0  0:   Differential Tension
 RFOC.OHMM     0   0  0  0:   Resistivity from CFOC
 RILM.OHMM     0   0  0  0:   Resistivity from CILM
 RILD.OHMM     0   0  0  0:   Resistivity from CILD
#  Curve Data
~A
# ...
    95.0000     51.3466      4.6643     72.4208     21.3582  10000.0000  10000.0000     19.4755
    94.5000     35.1876      4.5986     71.4042      8.1533  10000.0000  10000.0000     28.4191
    94.0000     42.9023      4.8362     70.8869    -10.0168  10000.0000  10000.0000     23.3088
    93.5000     68.2156      5.0906     72.5794    -27.5799  10000.0000  10000.0000     14.6594
    93.0000     74.9415      5.0034     74.1647    -37.4073  10000.0000  10000.0000     13.3437
    92.5000     58.8550      4.6872     73.7870    -37.5339  10000.0000  10000.0000     16.9909
    92.0000     43.3461      4.4390     73.3868    -34.2314  10000.0000  10000.0000     23.0701
    91.5000     38.1095      4.3952     72.6218    -35.7805  10000.0000  10000.0000     26.2402
    91.0000     35.5050      4.5564     71.7684    -42.7448  10000.0000  10000.0000     28.1651
    90.5000     29.2941      4.7631     73.5538    -44.8881  10000.0000  10000.0000     34.1365
    90.0000     20.3406      4.8325     76.8866    -39.7003  10000.0000  10000.0000     49.1627
    89.5000     13.9945      4.8517     77.8631    -32.3480  10000.0000  10000.0000     71.4568
    89.0000     12.1811      4.8951     76.1527    -26.7369  10000.0000  10000.0000     82.0943
    88.5000     10.7275      4.8883     74.0220    -27.6684  10000.0000  10000.0000     93.2180
    88.0000      8.4435      4.7879     72.2125    -34.4464  10000.0000  10000.0000    118.4343
    87.5000      6.8800      4.6642     71.6753    -36.9736  10000.0000  10000.0000    145.3492
    87.0000      8.2551      4.6698     71.9535    -32.8418  10000.0000  10000.0000    121.1378
    86.5000     10.2317      4.8742     73.0529    -28.7313  10000.0000  10000.0000     97.7354
    86.0000      9.4118      5.1029     74.1945    -23.9486  10000.0000  10000.0000    106.2501
    85.5000      7.2682      5.0806     74.6316    -17.5649  10000.0000  10000.0000    137.5849
    85.0000      7.9460      4.7881     73.4579    -13.0872  10000.0000  10000.0000    125.8492
    84.5000     10.0083      4.5440     71.3641    -10.0693  10000.0000  10000.0000     99.9167
    84.0000      9.1053      4.5844     69.7019     -7.2450  10000.0000  10000.0000    109.8261
    83.5000      6.0432      4.8421     70.0537     -7.5036  10000.0000  10000.0000    165.4764
    83.0000      6.8966      5.0869     71.6605    -10.8415  10000.0000  10000.0000    144.9987
    82.5000     12.9896      5.1952     71.2901    -15.2399  10000.0000  10000.0000     76.9846
    82.0000     16.5746      5.2302     68.8439    -18.5416  10000.0000  10000.0000     60.3332
    81.5000     12.8970      5.2942     68.3135    -18.6328  10000.0000  10000.0000     77.5377
    81.0000      7.8549      5.3306     70.8612    -17.7379  10000.0000  10000.0000    127.3098
    80.5000      8.7064      5.2735     71.0883    -16.8900  10000.0000  10000.0000    114.8581
    80.0000     15.9160      5.2122     68.9305    -15.3470   1685.4395  10000.0000     62.8300
    79.5000     23.6068      5.2049     69.9156    -12.2640    826.8445  10000.0000     42.3607
    79.0000     24.3080      5.2151     74.6057     -8.2902    797.4661  10000.0000     41.1388
    78.5000     18.0822      5.2083     77.1134     -7.5600    784.5129  10000.0000     55.3029
    78.0000     11.0197      5.1650     75.1022    -10.1852    763.6348  10000.0000     90.7462
    77.5000      8.0655      5.0534     72.5507    -11.6580    755.3167  10000.0000    123.9850
    77.0000      9.9918      4.8945     72.8010    -12.9979    768.9678  10000.0000    100.0816
    76.5000     13.9268      4.7697     73.6881    -16.9223    774.6194  10000.0000     71.8038
    76.0000     14.2814      4.7700     72.3892    -15.9222    742.3022  10000.0000     70.0210
    75.5000     11.0685      4.8189     71.9021     -9.0930    718.7798  10000.0000     90.3463
    75.0000      9.9872      4.7410     71.8757     -5.1463    735.8423  10000.0000    100.1282
    74.5000     14.8658      4.5031     68.0187     -9.9159    751.5447  10000.0000     67.2686
    74.0000     20.6294      4.2598     61.6879    -16.3312    745.8621  10000.0000     48.4746
    73.5000     22.2480      4.1207     57.2381    -16.0787    758.8875    775.3823     44.9479
    73.0000     23.0766      4.0589     55.0251    -10.0336    783.2400    422.7175     43.3339
    72.5000     25.1205      4.0161     53.4432     -7.4612    784.2566    416.5586     39.8081
    72.0000     23.0248      4.0083     51.5523     -8.9972    776.8364    418.7544     43.4314
    71.5000     15.2308      4.1068     48.8154     -5.7053    783.6006    424.4531     65.6565
    71.0000      7.9607      4.3038     46.7650      0.8394    793.3540    429.2075    125.6164
    70.5000      4.5642      4.5217     47.3232     -0.1488    787.8853    433.3464    219.0960
    70.0000      3.7224      4.6986     50.0620     -7.0885    771.7808    435.4187    268.6448
    69.5000      3.6283      4.7808     52.1610     -8.4348    764.7754    433.8652    275.6135
    69.0000      3.7695      4.7814     52.1806     -4.6534    764.4500    432.0508    265.2871
    68.5000      3.9169      4.7939     51.3598     -3.0829    753.1948    432.5317    255.3047
    68.0000      3.8358      4.8532     50.2946     -6.1165    745.4839    436.5007    260.6987
    67.5000      3.6092      4.8945     48.1371    -11.1172    761.2996    441.6411    277.0667
    67.0000      3.4422      4.8708     45.9495    -14.9359    785.5925    444.2729    290.5127
    66.5000      3.3835      4.7709     46.4686    -17.3740    790.4927    446.4583    295.5554
    66.0000      3.3826      4.7170     49.7035    -15.3885    786.6912    449.6125    295.6311
    65.5000      3.4250      4.7933     52.2142    -10.8257    787.4988    452.7295    291.9712
    65.0000      3.6365      4.8887     52.9075    -12.3397    788.8484    454.7358    274.9866
    64.5000      3.9781      4.8878     53.5006    -18.1576    792.1272    457.4365    251.3748
    64.0000      4.2536      4.8411     54.7877    -19.0055    796.0547    461.5886    235.0924
    63.5000      4.3792      4.8204     55.3692    -14.4207    788.6135    467.7126    228.3512
    63.0000      4.4156      4.8322     53.6792     -9.5157    778.6296    473.4575    226.4718
    62.5000      4.3882      4.8743     50.4198     -6.4315    784.4031    474.9634    227.8817
    62.0000      4.3335      4.9377     49.0161     -8.3848    798.5098    476.1311    230.7613
    61.5000      4.3288      4.9710     50.6952    -14.1615    805.2490    482.2456    231.0108
    61.0000      4.3678      4.9739     51.8186    -17.3033    799.5686    491.1951    228.9507
    60.5000      4.4009      5.1543     51.2244    -14.6604    784.0447    498.0986    227.2239
    60.0000      4.4076      5.6501     50.7200     -9.5477    771.2351    503.9282    226.8816
    59.5000      4.4303      6.1322     51.1164     -5.0380    768.9153    510.3831    225.7190
    59.0000      4.4840      6.3051     52.3996     -2.1545    770.1838    516.7869    223.0160
    58.5000      4.5012      6.3486     53.8299     -2.8883    774.6777    523.6575    222.1647
    58.0000      4.4474      6.4848     52.5840     -6.2379    785.7192    531.4836    224.8484
    57.5000      4.4130      6.8061     49.3635     -6.9967    796.5693    538.3684    226.6020
    57.0000      4.4396      7.1653     48.7917     -2.5611    801.6753    543.1382    225.2462
    56.5000      4.4439      7.2007     50.3556      2.5684    803.4111    548.4607    225.0253
    56.0000      4.4176      6.9699     50.5435      2.5519    808.0266    554.4480    226.3662
    55.5000      4.4253      7.0140     49.5840     -1.4158    813.8003    558.5518    225.9725
    55.0000      4.4466      7.2969     49.8437     -3.2104    642.4138    561.0688    224.8885
    54.5000      4.4485      7.2063     51.3094     -3.3724    354.4492    564.1221    224.7970
    54.0000      4.4665      6.5979     54.1051     -7.5942    251.7292    566.6809    223.8904
    53.5000      4.4925      5.7257     57.2267    -13.1604    264.6045    564.7573    222.5923
