~Version Information
 VERS.                2.00:   CWLS log ASCII Standard -VERSION 2.00
 WRAP.                  NO:   One line per frame
~Well Information Block
#MNEM.UNIT              Data                Description
#--------- -------------------------------  -------------------------------
 STRT.F                          557.0000:   Starting Depth
 STOP.F                           -2.7500:   Ending Depth
 STEP.F                           -0.5000:   Level Spacing
 NULL.                          -999.2500:   Absent Value
 COMP.     FLUOR DANIEL (NPSOR), INC.    :   Company
 WELL.     88-1 X 3                      :   Well
 FLD .                                   :   Field
 LOC .                                   :   Location
 PROV.                                   :   Province
 SRVC.                                   :   Service Company
 LIC .                                   :   License Number
 DATE.                                   :   Log Date
 UWI .                                   :   Unique Well ID
~Curve Information Block
#MNEM.UNIT       API Codes    Curve Description
#---------    -------------   -------------------------------
 DEPT.F        0   0  0  0:   Depth
 CILD.MMHO     0   0  0  0:   Conductivity of Deep Induction
 SP  .MV       0   0  0  0:   Spontaneous Potential
 GR  .API      0   0  0  0:   Gamma ray counts
 TEN .LBF      0   0  0  0:   Differential Tension
 RFOC.OHMM     0   0  0  0:   Resistivity from CFOC
 RILM.OHMM     0   0  0  0:   Resistivity from CILM
 RILD.OHMM     0   0  0  0:   Resistivity from CILD
#  Curve Data
~A
   557.0000      0.0000      0.0000      0.0000   -250.0000      0.2000      0.2000      0.2000
   556.5000      0.0000      0.0000      0.0000   -250.0000      0.2000      0.2000      0.2000
   556.0000      0.0000      0.0000      0.0000   -250.0000      0.2000      0.2000      0.2000
   555.5000      0.0000      0.0000      0.0000   -250.0000      0.2000      0.2000      0.2000
   555.0000      0.0000      0.0000      0.0000   -250.0000      0.2000      0.2000      0.2000
   554.5000      0.0000      0.0000      0.0000   -250.0000      0.2000      0.2000      0.2000
   554.0000      0.0000      0.0000      0.0000   -250.0000      0.2000      0.2000      0.2000
   553.5000      0.0000      0.0000      0.0000   -250.0000      0.2000      0.2000      0.2000
   553.0000      0.0000      0.0000      0.0000   -250.0000      0.2000      0.2000      0.2000
   552.5000      0.0000      0.0000      0.0000   -250.0000      0.2000      0.2000      0.2000
   552.0000      0.0000      0.0000      0.0000   -250.0000      0.2000      0.2000      0.2000
   551.5000      0.0000      0.0000      0.0000   -250.0000      0.2000      0.2000      0.2000
   551.0000      0.0000      0.0000      0.0000   -250.0000      0.2000      0.2000      0.2000
   550.5000      0.0000      0.0000      0.0000   -250.0000      0.2000      0.2000      0.2000
   550.0000      0.0000      0.0000      0.0000   -250.0000      0.2000      0.2000      0.2000
   549.5000      0.0000      0.0000      0.0000   -250.0000      0.2000      0.2000      0.2000
   549.0000      0.0000      0.0000      0.0000   -250.0000      0.2000      0.2000      0.2000
   548.5000      0.0000      0.0000      0.0000   -250.0000      0.2000      0.2000      0.2000
   548.0000      0.0000      0.0000      0.0000   -250.0000      0.2000      0.2000      0.2000
   547.5000      0.0000      0.0000      0.0000   -250.0000      0.2000      0.2000      0.2000
   547.0000      0.0000      0.0000      0.0000    -37.8432      9.3618      0.2000      0.2000
   546.5000      0.0000      0.0000      0.0000    -30.3466      9.3605      0.2000      0.2000
   546.0000      0.0000      0.0000      0.0000    -18.4604      9.3643      0.2000      0.2000
   545.5000      0.0000      0.0000      0.0000    -16.9739      9.3654      0.2000      0.2000
   545.0000      0.0000      0.0000      0.0000    -24.7254      9.3607      0.2000      0.2000
   544.5000      0.0000      0.0000      0.0000    -23.7232      9.3573      0.2000      0.2000
   544.0000      0.0000      0.0000      0.0000    -13.8723      9.3611      0.2000      0.2000
   543.5000      0.0000      0.0000      0.0000     -9.2525      9.3701      0.2000      0.2000
   543.0000      0.0000      0.0000      0.0000     -7.8419      9.3722      0.2000      0.2000
   542.5000      0.0000      0.0000      0.0000     -2.6212      9.3649      0.2000      0.2000
   542.0000      0.0000      0.0000      0.0000      1.5872      9.3589      0.2000      0.2000
   541.5000      0.0000      0.0000      0.0000      2.9292      9.3581      0.2000      0.2000
   541.0000      0.0000      0.0000      0.0000      9.8527      9.3537      7.0062      0.2000
   540.5000      0.0000      0.0000      0.0000     42.6869      9.3446      7.0062      0.2000
   540.0000      0.0000      0.0000      0.0000    117.2438      9.3235      7.0057      0.2000
   539.5000      0.0000      0.0000      0.0000    209.2934      9.2404      7.0063      0.2000
   539.0000      0.0000      0.0000      0.0000    271.2456      9.0923      7.0081      0.2000
   538.5000      0.0000      0.0000      0.0000    290.9644      8.9847      7.0095      0.2000
   538.0000      0.0000      0.0000      0.0000    294.9893      8.9946      7.0079      0.2000
   537.5000      0.0000      4.8078      0.0000    295.3286      9.0678      7.0052      0.2000
   537.0000      0.0000      4.7960      0.0000    290.6294      9.0980      7.0045      0.2000
   536.5000      0.0000      4.8124      0.0000    283.2229      9.0068      7.0045      0.2000
   536.0000      0.0000      4.8360      0.0000    280.4155      8.7949      7.0041      0.2000
   535.5000      0.0000      4.8508      0.0000    282.6563      8.6026      7.0057      0.2000
   535.0000      0.0000      4.8534      0.0000    286.2112      8.5496      7.0077      0.2000
   534.5000      0.0000      4.8652      0.0000    288.3909      8.2009      7.0061      0.2000
   534.0000      0.0000      4.8837      0.0000    290.0576      6.9736      6.9663      0.2000
   533.5000      0.0000      4.9070      0.0000    290.2971      5.7612      6.7729      0.2000
   533.0000      0.0000      4.9471      0.0000    284.8245      5.5009      6.3904      0.2000
   532.5000      0.0000      4.9659      0.0000    279.0090      6.2778      6.0478      0.2000
   532.0000      0.0000      4.9079      0.0000    283.4009      7.5111      6.0376      0.2000
   531.5000      0.0000      4.8289      0.0000    289.2375      8.1299      6.4324      0.2000
   531.0000    137.0796      4.8128      0.0000    283.2080      8.1075      7.0444      7.2950
   530.5000    135.2981      4.8202      0.0000    272.7463      8.0248      7.5777      7.3911
   530.0000    132.0905      4.7966      0.0000    267.9634      8.0157      7.8964      7.5706
   529.5000    129.0698      4.7832      0.0000    266.6301      8.0461      8.0350      7.7477
   529.0000    127.7466      4.8181      0.0000    266.4084      8.0707      8.0757      7.8280
   528.5000    127.7484      4.8626      0.0000    267.0137      8.0918      8.1016      7.8279
   528.0000    127.7335      4.8781      0.0000    266.9807      8.1473      8.1498      7.8288
   527.5000    127.0237      4.8698      0.0000    264.9331      8.2356      8.2217      7.8725
   527.0000    125.6573      4.8498      0.0000    260.2397      8.3235      8.3183      7.9582
   526.5000    123.7407      4.8372      0.0000    253.3668      8.3920      8.4348      8.0814
   526.0000    121.6158      4.8372      0.0000    248.5200      8.4509      8.5514      8.2226
   525.5000    119.7255      4.8292      0.0000    248.1394      8.5273      8.6624      8.3524
   525.0000    118.0832      4.8100      0.0000    247.5929      8.6514      8.7812      8.4686
   524.5000    116.5120      4.8017      0.0000    245.9971      8.8142      8.9061      8.5828
   524.0000    115.0707      4.8084      0.0000    247.9348      8.9644      9.0220      8.6903
   523.5000    113.9278      4.8120     89.5328    250.7533      9.0581      9.1272      8.7775
   523.0000    113.1001      4.8031     92.6071    247.3800      9.0903      9.2172      8.8417
   522.5000    112.5455      4.7928     95.0051    241.0765      9.0792      9.2815      8.8853
   522.0000    112.2877      4.7952     97.5726    237.8026      9.0423      9.3097      8.9057
   521.5000    112.3093      4.7913     98.9777    237.9338      8.9968      9.2935      8.9040
   521.0000    112.3862      4.7640     98.6360    240.4117      8.9620      9.2520      8.8979
   520.5000    112.2651      4.7500     97.4257    241.2946      8.9328      9.2215      8.9075
   520.0000    111.8833      4.7759     96.8730    238.8165      8.9031      9.2094      8.9379
   519.5000    111.3634      4.7959     97.6174    237.1548      8.8978      9.1972      8.9796
   519.0000    110.7424      4.7797     97.7322    235.6775      8.9467      9.1973      9.0300
   518.5000    109.9009      4.7888     96.1229    226.3371      9.0603      9.2486      9.0991
   518.0000    108.7774      4.8315     94.6863    213.4957      9.2195      9.3661      9.1931
   517.5000    107.4757      4.8555     94.4245    209.9537      9.3502      9.5210      9.3044
   517.0000    106.1758      4.8486     94.3656    215.3278      9.4032      9.6736      9.4183
   516.5000    105.0069      4.8367     94.9337    219.9226      9.4382      9.8081      9.5232
   516.0000    103.9613      4.8117     95.7909    223.1785      9.4913      9.9328      9.6190
   515.5000    102.7935      4.7983     94.9071    224.9954      9.4983     10.0602      9.7282
