~Version Information
 VERS.                2.00:   CWLS log ASCII Standard -VERSION 2.00
 WRAP.                  NO:   One line per frame
~Well Information Block
#MNEM.UNIT              Data                Description
#--------- -------------------------------  -------------------------------
 STRT.F                          555.0000:   Starting Depth
 STOP.F                           83.2500:   Ending Depth
 STEP.F                           -0.5000:   Level Spacing
 NULL.                          -999.2500:   Absent Value
 COMP.     FLUOR DANIEL (NPSOR), INC.    :   Company
 WELL.     88-1 X 3                      :   Well
 FLD .                                   :   Field
 LOC .                                   :   Location
 PROV.                                   :   Province
 SRVC.                                   :   Service Company
 LIC .                                   :   License Number
 DATE.                                   :   Log Date
 UWI .                                   :   Unique Well ID
~Curve Information Block
#MNEM.UNIT       API Codes    Curve Description
#---------    -------------   -------------------------------
 DEPT.F        0   0  0  0:   Depth
 GR  .API      0   0  0  0:   Gamma ray counts
 CAL .IN       0   0  0  0:   Caliper (for 4CAL: from C13 and/or C24)
 TEN .LBF      0   0  0  0:   Differential Tension
 CNC .PU       0   0  0  0:   Corrected Neutron Porosity from CN
 ZDEN.G/C3     0   0  0  0:   ZDL Bulk Density
 ZCOR.G/C3     0   0  0  0:   ZDL Correction
#  Curve Data
~A
# ...
   219.0000    103.1327     10.3240      5.7438     19.6447      2.4306      0.0334
   218.5000    101.6435     10.3240      0.6558     19.7974      2.4241      0.0325
   218.0000     99.4701     10.3240      0.4840     19.9930      2.4183      0.0288
   217.5000     98.6974     10.3240      0.3675     19.9877      2.4166      0.0238
   217.0000    100.5883     10.3240     -2.9643     19.7710      2.4195      0.0216
   216.5000    103.1522     10.3240     -4.9178     19.5313      2.4260      0.0229
   216.0000    103.6669     10.3240     -4.4201     19.5052      2.4332      0.0274
   215.5000    101.9162     10.3240     -5.5202     19.6850      2.4342      0.0301
   215.0000    100.8396     10.3240     -6.4523     19.8717      2.4263      0.0271
   214.5000    102.1267     10.3240     -5.5361     19.8235      2.4188      0.0278
   214.0000    103.3925     10.3240     -5.9777     19.6137      2.4221      0.0359
   213.5000    101.9874     10.3240    -13.8732     19.4427      2.4326      0.0394
   213.0000     99.8333     10.3240    -23.6250     19.5884      2.4349      0.0393
   212.5000    100.3295     10.3240    -23.7433     20.2149      2.4213      0.0565
   212.0000    102.2237     10.3240    -15.1811     20.9692      2.3990      0.0759
   211.5000    102.8887     10.3240     -7.7912     21.3105      2.3823      0.0624
   211.0000    102.4123     10.3240     -1.7083     21.2209      2.3812      0.0305
   210.5000    101.5849     10.3240      6.0326     21.0566      2.3941      0.0183
   210.0000    100.3019     10.3240     11.2530     20.9767      2.4115      0.0228
   209.5000     98.8275     10.3240     10.4594     20.6671      2.4253      0.0228
   209.0000     98.2783     10.3240      9.1158     20.3452      2.4321      0.0219
   208.5000     99.1845     10.3240     10.6271     20.4075      2.4293      0.0235
   208.0000     99.8769     10.3240     10.5872     20.5684      2.4199      0.0253
   207.5000     98.7946     10.3240      5.6187     20.3406      2.4153      0.0259
   207.0000     97.1679     10.3240     -2.3894     19.8572      2.4228      0.0273
   206.5000     96.2035     10.3240     -8.8758     19.5191      2.4305      0.0323
   206.0000     94.0973     10.3240    -14.0413     19.4235      2.4194      0.0422
   205.5000     92.0217     10.3246    -18.7365     19.1744      2.3917      0.0648
   205.0000     92.2691     10.3315    -19.1223     18.5979      2.3679      0.0884
   204.5000     94.2838     10.3414    -18.7224     18.5842      2.3514      0.0990
   204.0000     95.5984     10.3450    -22.8680     18.8588      2.3312      0.1203
   203.5000     95.5450     10.3519    -23.8586     19.0891      2.3155      0.1474
   203.0000     95.2842     10.3611    -12.3806     19.4491      2.3206      0.1271
   202.5000     94.9071     10.3579      1.7583     19.6787      2.3375      0.0617
   202.0000     94.8358     10.3580      7.3532     20.1354      2.3592      0.0170
   201.5000     96.3819     10.3740      7.6033     21.0284      2.3956      0.0156
   201.0000     99.9756     10.3734      6.5334     20.9069      2.4229      0.0241
   200.5000    102.3160     10.3474      0.5005     19.9216      2.4362      0.0284
   200.0000    101.9096     10.3276     -9.1152     19.3252      2.4441      0.0315
   199.5000    100.2806     10.3240    -11.2731     19.1127      2.4441      0.0368
   199.0000    100.7181     10.3240     -4.4496     19.1725      2.4385      0.0411
   198.5000    102.7172     10.3240      4.3164     19.4859      2.4375      0.0412
   198.0000    102.9774     10.3240      8.5870     19.6293      2.4405      0.0398
   197.5000    101.2825     10.3240      6.9177     19.4871      2.4414      0.0394
   197.0000    100.6837     10.3240      4.3130     19.1297      2.4396      0.0365
   196.5000    101.3354     10.3240      3.7887     18.4404      2.4375      0.0284
   196.0000    101.1908     10.3240      0.6515     17.6056      2.4384      0.0214
   195.5000    100.7382     10.3240     -2.6392     17.1147      2.4429      0.0231
   195.0000    100.1706     10.3240     -2.3756     17.3302      2.4468      0.0340
   194.5000     99.2755     10.3240     -3.1747     17.7948      2.4449      0.0463
   194.0000     99.0229     10.3240     -6.7805     18.0294      2.4375      0.0453
   193.5000     99.6042     10.3240     -9.1787     18.2044      2.4310      0.0305
   193.0000     99.7829     10.3240    -11.7751     18.5833      2.4290      0.0203
   192.5000     99.4603     10.3240    -14.7294     19.0884      2.4284      0.0218
   192.0000     98.9595     10.3240    -10.6485     19.2662      2.4273      0.0274
   191.5000     98.6400     10.3240     -0.5304     18.9401      2.4273      0.0329
   191.0000     98.8103     10.3240      4.7940     18.3022      2.4298      0.0373
   190.5000     98.4379     10.3240     -2.5675     17.7367      2.4355      0.0393
   190.0000     98.3784     10.3240    -15.0371     17.6526      2.4424      0.0423
   189.5000    100.7251     10.3240    -20.5335     17.9404      2.4453      0.0459
   189.0000    103.3258     10.3240    -15.8819     18.2039      2.4425      0.0458
   188.5000    103.3936     10.3240     -8.5376     18.3038      2.4381      0.0419
   188.0000    100.8888     10.3240     -1.6342     18.1830      2.4362      0.0385
   187.5000     97.5379     10.3240      3.7128     18.0003      2.4384      0.0403
   187.0000     96.1047     10.3240      4.3566     18.0648      2.4406      0.0426
   186.5000     97.0990     10.3240     -1.3283     18.3069      2.4371      0.0429
   186.0000     98.0016     10.3240     -8.3899     18.4802      2.4282      0.0389
   185.5000     97.5681     10.3240    -10.1608     18.5008      2.4194      0.0299
   185.0000     96.4122     10.3240     -5.1179     18.2090      2.4157      0.0221
   184.5000     94.4566     10.3240      0.3767     17.7365      2.4158      0.0255
   184.0000     92.6396     10.3240      1.8684     17.4325      2.4102      0.0390
   183.5000     92.1532     10.3240      4.2615     17.4372      2.3959      0.0491
   183.0000     93.2160     10.3240      9.8146     17.6604      2.3848      0.0438
   182.5000     95.1634     10.3240     15.4296     17.7749      2.3869      0.0306
   182.0000     96.4224     10.3240     14.5454     17.5423      2.3981      0.0284
   181.5000     96.4154     10.3203      7.4353     17.3007      2.4080      0.0308
   181.0000     95.5513     10.2999      0.7988     17.3455      2.4143      0.0239
   180.5000     94.9422     10.2634      0.7219     17.5915      2.4237      0.0183
   180.0000     95.1930     10.2330      6.2620     17.8860      2.4372      0.0241
   179.5000     95.9184     10.2225     11.9978     18.0628      2.4442      0.0293
   179.0000     96.7238     10.2219     14.9267     17.9636      2.4411      0.0314
   178.5000     98.0002     10.2219     15.3540     17.7945      2.4377      0.0345
   178.0000     98.9195     10.2219     12.4681     17.7011      2.4402      0.0381
   177.5000     98.8320     10.2219      9.3476     17.5643      2.4439      0.0388
   177.0000     99.3301     10.2219      9.4187     17.5053      2.4432      0.0370
   176.5000    100.2593     10.2249      7.1385     17.7562      2.4380      0.0307
   176.0000    100.0003     10.2348      2.7301     18.1305      2.4335      0.0265
   175.5000     98.0571     10.2410      3.5990     18.1975      2.4315      0.0314
   175.0000     95.4382     10.2379      5.4571     17.8757      2.4311      0.0399
   174.5000     94.3517     10.2379      1.3725     17.5542      2.4322      0.0390
   174.0000     96.4383     10.2410     -3.4133     17.6074      2.4343      0.0298
   173.5000     98.3405     10.2348     -5.3384     17.9347      2.4349      0.0240
   173.0000     96.3445     10.2249     -3.5755     18.0745      2.4338      0.0236
   172.5000     93.8212     10.2219      0.6179     17.8993      2.4332      0.0240
   172.0000     93.8238     10.2219     -2.7002     17.7430      2.4333      0.0259
   171.5000     94.0251     10.2219    -13.5423     17.7441      2.4333      0.0299
