~Version Information
 VERS.                2.00:   CWLS log ASCII Standard -VERSION 2.00
 WRAP.                  NO:   One line per frame
~Well Information Block
#MNEM.UNIT              Data                Description
#--------- -------------------------------  -------------------------------
 STRT.F                          557.0000:   Starting Depth
 STOP.F                           -2.7500:   Ending Depth
 STEP.F                           -0.5000:   Level Spacing
 NULL.                          -999.2500:   Absent Value
 COMP.     FLUOR DANIEL (NPSOR), INC.    :   Company
 WELL.     88-1 X 3                      :   Well
 FLD .                                   :   Field
 LOC .                                   :   Location
 PROV.                                   :   Province
 SRVC.                                   :   Service Company
 LIC .                                   :   License Number
 DATE.                                   :   Log Date
 UWI .                                   :   Unique Well ID
~Curve Information Block
#MNEM.UNIT       API Codes    Curve Description
#---------    -------------   -------------------------------
 DEPT.F        0   0  0  0:   Depth
 CILD.MMHO     0   0  0  0:   Conductivity of Deep Induction
 SP  .MV       0   0  0  0:   Spontaneous Potential
 GR  .API      0   0  0  0:   Gamma ray counts
 TEN .LBF      0   0  0  0:   Differential Tension
 RFOC.OHMM     0   0  0  0:   Resistivity from CFOC
 RILM.OHMM     0   0  0  0:   Resistivity from CILM
 RILD.OHMM     0   0  0  0:   Resistivity from CILD
#  Curve Data
~A
# ...
   179.0000    118.2619      4.7941    102.0174    -17.8797      7.7966      8.3476      8.4558
   178.5000    117.5207      4.8369    100.5676    -10.7207      8.0155      8.4091      8.5091
   178.0000    116.7409      4.8396     97.7570     -2.5644      8.3216      8.4918      8.5660
   177.5000    116.1857      4.8358     96.3562     -1.4134      8.4154      8.5701      8.6069
   177.0000    116.1891      4.8565     97.8374     -8.9301      8.2564      8.6268      8.6067
   176.5000    116.4030      4.8931     99.3217    -18.4626      8.1255      8.6594      8.5908
   176.0000    116.2197      4.9211     99.4088    -23.0754      8.1768      8.6691      8.6044
   175.5000    115.7065      4.9225     98.7453    -21.1405      8.2864      8.6802      8.6426
   175.0000    115.2865      4.9154     98.7261    -14.9502      8.2846      8.7117      8.6740
   174.5000    114.8961      4.9240     99.9381    -12.6721      8.2081      8.7531      8.7035
   174.0000    114.3529      4.9238    100.1874    -16.6957      8.2741      8.7752      8.7449
   173.5000    113.8070      4.8639     98.7928    -21.8441      8.4511      8.7873      8.7868
   173.0000    113.4132      4.7815     98.3246    -23.3273      8.5120      8.8311      8.8173
   172.5000    112.7815      4.7424    100.2399    -22.7496      8.4357      8.9277      8.8667
   172.0000    111.5691      4.7531    102.8906    -21.3094      8.2957      9.0316      8.9631
   171.5000    109.8735      4.7863    104.3495    -17.8446      8.2564      9.1010      9.1014
   171.0000    107.7833      4.8300    104.3306    -12.5257      8.3801      9.1676      9.2779
   170.5000    105.0146      4.8662    102.5542     -6.2613      8.4695      9.3096      9.5225
   170.0000    101.7941      4.8723    100.0360     -1.7324      8.4059      9.5509      9.8237
   169.5000     99.1969      4.8275     97.0790     -3.4026      8.4986      9.8307     10.0810
   169.0000     97.8351      4.7594     93.2826    -13.7637      9.1449     10.0854     10.2213
   168.5000     97.1484      4.7224     90.8943    -24.0657     10.1398     10.3497     10.2935
   168.0000     96.4256      4.7304     92.9862    -25.9701     10.2994     10.6956     10.3707
   167.5000     95.5580      4.7670     97.8465    -20.6894      9.4386     11.0196     10.4648
   167.0000     95.3407      4.8210    101.1656    -14.0291      8.8025     11.0106     10.4887
   166.5000     96.6749      4.8655    101.2068     -8.2289      8.8121     10.6051     10.3440
   166.0000     99.4702      4.8788     99.1403     -6.0768      9.1311     10.1152     10.0533
   165.5000    102.4611      4.8795     98.2655     -9.5529      9.3051      9.7912      9.7598
   165.0000    104.1578      4.8788     99.6416    -15.1509      9.1411      9.6943      9.6008
   164.5000    104.2334      4.8669    100.0975    -16.2971      8.8138      9.7481      9.5938
   164.0000    103.3945      4.8542     97.6152    -13.6381      8.6207      9.8014      9.6717
   163.5000    102.3159      4.8785     94.7145    -14.5631      8.6925      9.7725      9.7737
   163.0000    101.3064      4.9076     93.4952    -21.1816      8.9461      9.7398      9.8710
   162.5000    100.3522      4.8889     94.8227    -27.5952      9.1295      9.8113      9.9649
   162.0000     99.2718      4.8409     96.5042    -28.6386      9.1941      9.9981     10.0734
   161.5000     97.9012      4.8041     97.0710    -25.7267      9.2907     10.2264     10.2144
   161.0000     96.3547      4.7637     97.9082    -24.3756      9.4247     10.4189     10.3783
   160.5000     94.9715      4.7483     99.5624    -24.3445      9.4566     10.5330     10.5295
   160.0000     93.9815      4.7884     99.2472    -23.1428      9.4319     10.5949     10.6404
   159.5000     93.2247      4.8439     96.5569    -21.4586      9.4805     10.6557     10.7268
   159.0000     92.6883      4.8522     94.9586    -20.8611      9.4612     10.7156     10.7888
   158.5000     92.7070      4.8269     96.2013    -20.5338      9.3318     10.7402     10.7867
   158.0000     93.2459      4.8225     99.9586    -17.9486      9.3405     10.7097     10.7243
   157.5000     93.9961      4.8425    102.8027    -11.4149      9.4337     10.6531     10.6387
   157.0000     95.0234      4.8544    101.5691     -6.0594      9.2463     10.6054     10.5237
   156.5000     96.4789      4.8559     98.3519     -6.6054      8.9500     10.5370     10.3650
   156.0000     98.3875      4.8713     98.7724    -11.6784      8.8074     10.3644     10.1639
   155.5000    100.7074      4.9068    101.6288    -15.3616      8.7399     10.1101      9.9298
   155.0000    103.2522      4.9253    102.8434    -13.7460      8.6397      9.8410      9.6850
   154.5000    105.6867      4.9097    102.3329    -10.6213      8.5361      9.5837      9.4619
   154.0000    107.9850      4.8764    103.1819    -13.4792      8.4555      9.3447      9.2605
   153.5000    109.9171      4.8401    105.3390    -20.7989      8.4733      9.1460      9.0978
   153.0000    111.4874      4.8045    104.7397    -25.9058      8.6289      8.9913      8.9696
   152.5000    113.1172      4.7927    101.6245    -27.0346      8.7884      8.8611      8.8404
   152.0000    115.0507      4.8136    102.0004    -24.3561      8.7325      8.7342      8.6918
   151.5000    117.2070      4.8346    106.0873    -18.9808      8.4510      8.6069      8.5319
   151.0000    119.6828      4.8187    108.2887    -17.2112      8.1895      8.4705      8.3554
   150.5000    122.4379      4.7640    108.4499    -21.0227      8.0124      8.3131      8.1674
   150.0000    125.1277      4.7453    109.7664    -24.0346      7.8359      8.1480      7.9918
   149.5000    127.5534      4.7890    113.0043    -22.8256      7.5784      7.9909      7.8399
   149.0000    129.6662      4.8316    116.8535    -19.9921      7.3264      7.8280      7.7121
   148.5000    131.5273      4.8372    117.8448    -15.8966      7.2531      7.6425      7.6030
   148.0000    133.3236      4.8364    115.3094    -10.4554      7.3846      7.4560      7.5005
   147.5000    134.9962      4.8210    112.6611     -7.5231      7.4827      7.3259      7.4076
   147.0000    135.9792      4.7989    112.0917     -9.3955      7.4106      7.2900      7.3541
   146.5000    136.0074      4.8071    112.8182    -11.5863      7.3492      7.3117      7.3525
   146.0000    135.6376      4.8220    113.9283    -10.9065      7.3860      7.3200      7.3726
   145.5000    135.4190      4.8064    115.2077    -11.3756      7.4561      7.3052      7.3845
   145.0000    135.0972      4.7906    117.9136    -13.2330      7.4900      7.3117      7.4021
   144.5000    134.2603      4.8063    122.3605    -11.5293      7.5240      7.3608      7.4482
   144.0000    132.9985      4.8292    122.6836     -5.6245      7.5159      7.4329      7.5189
   143.5000    131.5840      4.8380    117.4238     -0.4050      7.5224      7.5012      7.5997
   143.0000    130.3136      4.8382    113.7995     -2.1908      7.5596      7.5538      7.6738
   142.5000    129.4577      4.8234    114.5957    -13.4108      7.6523      7.6018      7.7245
   142.0000    129.0118      4.7960    115.6219    -20.8126      7.7448      7.6600      7.7512
   141.5000    128.7763      4.7895    114.8213    -14.1419      7.7872      7.7214      7.7654
   141.0000    128.6507      4.8008    112.7236     -5.2631      7.7333      7.7694      7.7730
   140.5000    128.7838      4.7977    110.6414     -9.7121      7.6862      7.7791      7.7650
   140.0000    129.5359      4.7859    109.9248    -22.7060      7.6363      7.7456      7.7199
   139.5000    130.9308      4.7970    109.4597    -30.6040      7.4968      7.6831      7.6376
   139.0000    132.4383      4.8196    108.7633    -28.3070      7.3317      7.6047      7.5507
   138.5000    133.7129      4.8389    111.3661    -23.1727      7.2261      7.5174      7.4787
   138.0000    134.9798      4.8551    114.7984    -20.7476      7.2390      7.4271      7.4085
   137.5000    136.6877      4.8705    114.6332    -17.1971      7.3577      7.3210      7.3159
