~Version Information
 VERS.                2.00:   CWLS log ASCII Standard -VERSION 2.00
 WRAP.                  NO:   One line per frame
~Well Information Block
#MNEM.UNIT              Data                Description
#--------- -------------------------------  -------------------------------
 STRT.F                          557.0000:   Starting Depth
 STOP.F                           -2.7500:   Ending Depth
 STEP.F                           -0.5000:   Level Spacing
 NULL.                          -999.2500:   Absent Value
 COMP.     FLUOR DANIEL (NPSOR), INC.    :   Company
 WELL.     88-1 X 3                      :   Well
 FLD .                                   :   Field
 LOC .                                   :   Location
 PROV.                                   :   Province
 SRVC.                                   :   Service Company
 LIC .                                   :   License Number
 DATE.                                   :   Log Date
 UWI .                                   :   Unique Well ID
~Curve Information Block
#MNEM.UNIT       API Codes    Curve Description
#---------    -------------   -------------------------------
 DEPT.F        0   0  0  0:   Depth
 CILD.MMHO     0   0  0  0:   Conductivity of Deep Induction
 SP  .MV       0   0  0  0:   Spontaneous Potential
 GR  .API      0   0  0  0:   Gamma ray counts
 TEN .LBF      0   0  0  0:   Differential Tension
 RFOC.OHMM     0   0  0  0:   Resistivity from CFOC
 RILM.OHMM     0   0  0  0:   Resistivity from CILM
 RILD.OHMM     0   0  0  0:   Resistivity from CILD
#  Curve Data
~A
# ...
   221.0000    155.5494      4.8307    107.4751    -11.3387      6.2194      6.0529      6.4288
   220.5000    153.0956      4.8382    105.9812     -4.7702      6.3498      6.1165      6.5319
   220.0000    151.0606      4.8322    106.6278     -3.2470      6.4774      6.1963      6.6199
   219.5000    149.2281      4.8433    107.0120     -7.8461      6.5148      6.3014      6.7011
   219.0000    147.4684      4.8669    107.0659    -15.2549      6.5433      6.4152      6.7811
   218.5000    145.8863      4.8788    108.3489    -18.6236      6.5867      6.5096      6.8547
   218.0000    144.8294      4.8795    109.4981    -19.1281      6.6266      6.5621      6.9047
   217.5000    144.7600      4.8795    110.1606    -17.1633      6.6803      6.5748      6.9080
   217.0000    145.7005      4.8795    109.9056    -11.6251      6.7101      6.5703      6.8634
   216.5000    146.9396      4.8759    108.8282    -10.1104      6.6636      6.5568      6.8055
   216.0000    148.2448      4.8633    108.6035    -15.3757      6.5292      6.5188      6.7456
   215.5000    150.4602      4.8477    107.9198    -18.0722      6.4170      6.4452      6.6463
   215.0000    154.5581      4.8426    105.3450    -15.9356      6.3854      6.3263      6.4701
   214.5000    161.0196      4.8461    103.1909    -13.0921      6.4230      6.1628      6.2104
   214.0000    168.6425      4.8498    103.3510     -9.1369      6.5851      5.9912      5.9297
   213.5000    174.2697      4.8580    102.8523     -4.7665      6.6663      5.8630      5.7382
   213.0000    176.3088      4.8705    102.4899     -3.0567      6.2713      5.7827      5.6719
   212.5000    175.8969      4.8752    104.2294     -6.4934      5.6568      5.6698      5.6851
   212.0000    174.7689      4.8604    107.7700    -13.7146      5.3983      5.4580      5.7218
   211.5000    174.1261      4.8485    109.1419    -19.0042      5.5813      5.2420      5.7430
   211.0000    173.5113      4.8721    107.7451    -19.3690      5.9744      5.1887      5.7633
   210.5000    170.5617      4.9062    106.0922    -15.1652      6.3899      5.3556      5.8630
   210.0000    164.1089      4.9068    104.5701     -9.2726      6.7235      5.6849      6.0935
   209.5000    155.9843      4.8861    101.4373     -5.5403      6.8421      6.0847      6.4109
   209.0000    148.3322      4.8698     98.7934     -6.8573      6.7711      6.4642      6.7416
   208.5000    142.2774      4.8454    101.1375    -12.2464      6.7004      6.7300      7.0285
   208.0000    138.6429      4.8099    106.0307    -14.6827      6.7429      6.8602      7.2128
   207.5000    137.2008      4.7899    106.5622     -8.2762      6.8605      6.9169      7.2886
   207.0000    136.6572      4.7974    102.0515     -1.2496      6.9166      6.9598      7.3176
   206.5000    136.1909      4.8012     98.1695     -5.4741      6.8216      7.0114      7.3426
   206.0000    135.7698      4.7856     99.5608    -18.2893      6.7490      7.0688      7.3654
   205.5000    135.2490      4.7773    104.4836    -27.5528      6.7288      7.1155      7.3938
   205.0000    134.3840      4.7811    107.4299    -29.4966      6.6850      7.1332      7.4414
   204.5000    133.4059      4.7783    107.2397    -29.4182      6.6557      7.1310      7.4959
   204.0000    132.7659      4.7672    106.6340    -28.6279      6.6990      7.1472      7.5321
   203.5000    132.4708      4.7688    104.9574    -25.4794      6.7865      7.2056      7.5488
   203.0000    132.3864      4.8006    102.8130    -22.2876      6.9417      7.2768      7.5536
   202.5000    132.4219      4.8442    102.3489    -24.0142      7.1167      7.3224      7.5516
   202.0000    132.6109      4.8612    102.2738    -28.3324      7.1491      7.3408      7.5409
   201.5000    132.8277      4.8760    101.0095    -30.1212      7.1030      7.3464      7.5285
   201.0000    132.9003      4.9236     99.9534    -27.8154      7.0903      7.3435      7.5244
   200.5000    132.7666      4.9583     99.4601    -24.0065      7.1073      7.3343      7.5320
   200.0000    132.6113      4.9293    100.6543    -19.1506      7.0893      7.3051      7.5408
   199.5000    132.3697      4.8691    104.1160    -11.5671      7.0732      7.2638      7.5546
   199.0000    132.0532      4.8387    108.1602     -3.6124      7.1470      7.2483      7.5727
   198.5000    131.7252      4.8372    110.6461     -0.2291      7.3239      7.2800      7.5916
   198.0000    131.0900      4.8401    109.7160     -3.8037      7.4767      7.3468      7.6283
   197.5000    129.7986      4.8643    105.5173    -12.7136      7.4755      7.4387      7.7042
   197.0000    128.1534      4.9110    101.6100    -18.5172      7.4016      7.5485      7.8031
   196.5000    126.7835      4.9303    101.0877    -12.9100      7.3844      7.6455      7.8875
   196.0000    126.1031      4.8990    101.6600     -5.4513      7.4722      7.6977      7.9300
   195.5000    126.2182      4.8520    100.6977    -10.2462      7.5429      7.7062      7.9228
   195.0000    127.1641      4.8099     98.8916    -22.9220      7.5373      7.6960      7.8639
   194.5000    128.6819      4.7878     98.2358    -29.1110      7.4981      7.6818      7.7711
   194.0000    130.2142      4.7705     99.3703    -27.8663      7.3921      7.6464      7.6797
   193.5000    131.5112      4.7432    103.5026    -27.0669      7.2204      7.5722      7.6039
   193.0000    132.8855      4.7476    108.2660    -26.1781      7.1049      7.4703      7.5253
   192.5000    134.4195      4.7875    108.6774    -21.7852      7.0798      7.3567      7.4394
   192.0000    135.8578      4.7969    104.4295    -19.9058      7.0612      7.2402      7.3606
   191.5000    137.1469      4.7872    100.9258    -22.8332      7.0473      7.1574      7.2915
   191.0000    138.1514      4.8260    100.2008    -20.4030      7.0781      7.1320      7.2384
   190.5000    138.4815      4.8733     99.8577    -11.0254      7.0676      7.1443      7.2212
   190.0000    138.3229      4.8590     99.4108     -5.2060      6.9565      7.1559      7.2295
   189.5000    138.6817      4.8114    100.4610     -6.9491      6.8749      7.1360      7.2108
   189.0000    140.2310      4.7935    103.8800    -10.1714      6.9525      7.0668      7.1311
   188.5000    142.7837      4.8047    107.4712    -13.6475      7.1611      6.9728      7.0036
   188.0000    145.3249      4.7937    107.8300    -20.5780      7.3378      6.9110      6.8811
   187.5000    146.3326      4.7850    104.4956    -25.0423      7.2283      6.9042      6.8337
   187.0000    145.3767      4.8088    100.6662    -24.3820      6.8055      6.9167      6.8787
   186.5000    143.5817      4.8414     98.9059    -23.0266      6.4887      6.8849      6.9647
   186.0000    141.9152      4.8443     99.5028    -20.9251      6.5795      6.7949      7.0465
   185.5000    140.3863      4.8242    100.4161    -12.3232      6.9553      6.7345      7.1232
   185.0000    138.4203      4.7916     99.3208     -1.1383      7.3073      6.8298      7.2244
   184.5000    135.1726      4.7716     97.2912      4.6897      7.4914      7.1145      7.3979
   184.0000    130.6501      4.7827     97.1826      2.7612      7.5311      7.4927      7.6540
   183.5000    126.1589      4.8085    100.1221     -5.0584      7.5201      7.8451      7.9265
   183.0000    122.7202      4.8290    103.2335    -14.8312      7.6376      8.1066      8.1486
   182.5000    120.4897      4.8410    102.5360    -18.4589      7.9121      8.2559      8.2995
   182.0000    119.4398      4.8425     99.0471    -12.9604      8.0242      8.3207      8.3724
   181.5000    119.2254      4.8206     98.0834     -7.2007      7.8668      8.3454      8.3875
   181.0000    119.1997      4.7787     99.7802     -7.5988      7.7620      8.3297      8.3893
   180.5000    119.1894      4.7544    100.9186    -11.6162      7.7821      8.2905      8.3900
   180.0000    119.1823      4.7487    101.3106    -16.1559      7.7743      8.2778      8.3905
   179.5000    118.9034      4.7580    101.7076    -19.2336      7.7307      8.3043      8.4102
