~Version Information
 VERS.                2.00:   CWLS log ASCII Standard -VERSION 2.00
 WRAP.                  NO:   One line per frame
~Well Information Block
#MNEM.UNIT              Data                Description
#--------- -------------------------------  -------------------------------
 STRT.F                          555.0000:   Starting Depth
 STOP.F                           83.2500:   Ending Depth
 STEP.F                           -0.5000:   Level Spacing
 NULL.                          -999.2500:   Absent Value
 COMP.     FLUOR DANIEL (NPSOR), INC.    :   Company
 WELL.     88-1 X 3                      :   Well
 FLD .                                   :   Field
 LOC .                                   :   Location
 PROV.                                   :   Province
 SRVC.                                   :   Service Company
 LIC .                                   :   License Number
 DATE.                                   :   Log Date
 UWI .                                   :   Unique Well ID
~Curve Information Block
#MNEM.UNIT       API Codes    Curve Description
#---------    -------------   -------------------------------
 DEPT.F        0   0  0  0:   Depth
 GR  .API      0   0  0  0:   Gamma ray counts
 CAL .IN       0   0  0  0:   Caliper (for 4CAL: from C13 and/or C24)
 TEN .LBF      0   0  0  0:   Differential Tension
 CNC .PU       0   0  0  0:   Corrected Neutron Porosity from CN
 ZDEN.G/C3     0   0  0  0:   ZDL Bulk Density
 ZCOR.G/C3     0   0  0  0:   ZDL Correction
#  Curve Data
~A
# ...
   459.0000     73.4202      9.1838     70.2217     28.7164      2.4341      0.0384
   458.5000     72.8515      9.1937     63.2399     28.8961      2.4319      0.0305
   458.0000     73.9418      9.2006     58.5347     28.8611      2.4319      0.0300
   457.5000     76.3545      9.2012     59.2026     28.6853      2.4344      0.0324
   457.0000     77.3026      9.2012     55.9547     28.5184      2.4371      0.0328
   456.5000     76.0138      9.2012     50.0392     28.4887      2.4365      0.0319
   456.0000     73.1978      9.2012     47.5031     28.5605      2.4311      0.0379
   455.5000     70.3462      9.2012     47.2750     28.5913      2.4216      0.0455
   455.0000     69.7212      9.2012     44.4077     28.5054      2.4125      0.0407
   454.5000     71.0873      9.2012     42.3978     28.3127      2.4098      0.0316
   454.0000     71.8766      9.2012     45.1220     28.1593      2.4140      0.0345
   453.5000     72.0340      9.2006     48.2818     28.2316      2.4189      0.0414
   453.0000     72.1446      9.1937     48.0155     28.4153      2.4172      0.0391
   452.5000     72.1292      9.1838     48.9272     28.4773      2.4078      0.0331
   452.0000     72.1691      9.1807     52.9822     28.4919      2.3989      0.0328
   451.5000     72.5340      9.1807     52.4884     28.6217      2.3974      0.0363
   451.0000     72.6470      9.1814     46.8562     28.7324      2.4015      0.0408
   450.5000     72.7904      9.1882     44.0579     28.6490      2.4056      0.0438
   450.0000     73.3746      9.1981     46.0483     28.5248      2.4090      0.0435
   449.5000     73.4136      9.2012     48.6112     28.1250      2.4107      0.0420
   449.0000     73.3937      9.2006     48.1824     27.9075      2.4064      0.0414
   448.5000     74.5694      9.1931     45.4432     28.2117      2.3958      0.0390
   448.0000     75.7194      9.1763     41.6066     28.6642      2.3838      0.0393
   447.5000     75.9347      9.1664     40.5470     28.9067      2.3760      0.0447
   447.0000     77.1703      9.1763     42.5173     29.0090      2.3761      0.0493
   446.5000     79.7540      9.1931     46.5137     28.9077      2.3831      0.0478
   446.0000     80.5778      9.2006     48.0768     28.9204      2.3903      0.0449
   445.5000     77.6363      9.2012     45.9949     29.3905      2.3913      0.0427
   445.0000     73.8046      9.2012     42.3618     30.0380      2.3864      0.0435
   444.5000     72.4909      9.2012     36.5158     30.5436      2.3779      0.0476
   444.0000     73.5601      9.2012     28.6297     30.8155      2.3681      0.0484
   443.5000     75.8765      9.2012     27.7629     30.8540      2.3629      0.0397
   443.0000     77.7920      9.2012     35.8338     30.6776      2.3663      0.0309
   442.5000     76.1337      9.2012     43.2890     30.6039      2.3718      0.0314
   442.0000     71.5196      9.2012     42.8690     30.9261      2.3709      0.0377
   441.5000     68.1141      9.2012     35.0921     31.2798      2.3665      0.0466
   441.0000     67.8295      9.2012     28.7249     31.2311      2.3649      0.0519
   440.5000     69.5666      9.2012     30.0736     31.0370      2.3674      0.0483
   440.0000     71.0140      9.2012     33.6040     31.0716      2.3687      0.0418
   439.5000     71.1550      9.2012     33.1520     31.3457      2.3628      0.0374
   439.0000     70.3744      9.2012     31.0054     31.4672      2.3550      0.0321
   438.5000     69.9909      9.2012     30.4451     31.3484      2.3534      0.0284
   438.0000     70.0577      9.2012     33.4667     31.3789      2.3577      0.0321
   437.5000     70.7065      9.2012     39.3877     31.5066      2.3647      0.0399
   437.0000     71.9279      9.2012     43.1474     31.4676      2.3731      0.0488
   436.5000     72.7571      9.2012     38.7106     31.3816      2.3776      0.0581
   436.0000     71.9866      9.2012     24.4277     30.9486      2.3712      0.0616
   435.5000     69.9497      9.2012     11.0758     30.1863      2.3581      0.0565
   435.0000     68.0252      9.2012      7.4072     30.2090      2.3478      0.0493
   434.5000     67.2788      9.2012      9.0372     30.8713      2.3427      0.0459
   434.0000     68.1504      9.2012      8.6516     30.9140      2.3412      0.0443
   433.5000     69.0230      9.2012     11.2591     30.4970      2.3438      0.0434
   433.0000     68.9678      9.2012     20.4091     30.4351      2.3497      0.0400
   432.5000     67.8855      9.2012     27.4259     30.2442      2.3514      0.0350
   432.0000     66.2236      9.2012     25.7213     29.8757      2.3417      0.0325
   431.5000     65.2867      9.2012     22.8805     29.6894      2.3247      0.0313
   431.0000     66.0066      9.2012     23.5536     29.5861      2.3146      0.0316
   430.5000     66.4953      9.2012     21.3326     29.1774      2.3175      0.0336
   430.0000     65.5135      9.2012     14.0947     28.3925      2.3312      0.0386
   429.5000     63.4833      9.2012      6.5682     26.8852      2.3542      0.0393
   429.0000     60.7491      9.2018      1.6113     24.5712      2.3871      0.0217
   428.5000     58.6885      9.2166      1.6778     22.2298      2.4201      0.0048
   428.0000     58.8747      9.2815      8.4217     21.5073      2.4339      0.0323
   427.5000     60.7862      9.4053     19.9180     23.3224      2.4107      0.0790
   427.0000     62.7572      9.5291     30.6854     26.6652      2.3693      0.0907
   426.5000     64.2190      9.5935     37.4702     29.4818      2.3418      0.0720
   426.0000     65.7675      9.5977     40.1234     30.6572      2.3369      0.0539
   425.5000     67.5405      9.5680     39.9510     30.5687      2.3422      0.0439
   425.0000     67.4939      9.5321     38.5926     30.3205      2.3442      0.0386
   424.5000     64.7036      9.5185     35.1964     30.6575      2.3377      0.0361
   424.0000     61.6012      9.5254     28.2686     31.3737      2.3215      0.0377
   423.5000     59.8202      9.5323     24.3277     31.8915      2.3011      0.0405
   423.0000     58.9357      9.5329     29.0991     32.0704      2.2864      0.0393
   422.5000     58.8935      9.5359     35.6087     32.0929      2.2813      0.0366
   422.0000     60.0273      9.5452     34.2286     31.9493      2.2832      0.0395
   421.5000     61.8967      9.5445     24.8831     31.6141      2.2875      0.0439
   421.0000     63.0781      9.5278     12.6874     31.0939      2.2894      0.0378
   420.5000     62.2717      9.5147      5.1945     30.4860      2.2888      0.0232
   420.0000     60.3771      9.5315      7.9245     30.1749      2.2897      0.0197
   419.5000     58.8608      9.5680     14.9850     30.6944      2.2894      0.0321
   419.0000     57.9157      9.5983     19.6313     31.8044      2.2796      0.0443
   418.5000     57.7984      9.6089     19.8216     32.4955      2.2641      0.0465
   418.0000     58.6817      9.6095     12.9271     32.2778      2.2594      0.0402
   417.5000     60.7661      9.6095     -0.0433     31.5279      2.2788      0.0262
   417.0000     64.9256      9.6095     -9.6173     30.7075      2.3240      0.0139
   416.5000     70.3783      9.6095     -7.6473     29.9831      2.3830      0.0218
   416.0000     75.3060      9.6095      3.4614     29.3999      2.4304      0.0429
   415.5000     78.7949      9.6095     11.8395     28.8772      2.4484      0.0516
   415.0000     80.2666      9.6095      9.8378     28.4607      2.4460      0.0459
   414.5000     79.6543      9.6095      5.2890     27.9460      2.4425      0.0389
   414.0000     79.0365      9.6095      8.9627     27.4365      2.4461      0.0342
   413.5000     79.2455      9.6095     15.3485     27.3961      2.4548      0.0348
   413.0000     78.7796      9.6095     18.3040     27.6845      2.4635      0.0461
   412.5000     77.1814      9.6095     20.1690     27.7460      2.4662      0.0573
   412.0000     75.5072      9.6095     20.2691     27.4801      2.4628      0.0550
   411.5000     74.5835      9.6095     12.5474     27.2769      2.4598      0.0499
