~Version Information
 VERS.                2.00:   CWLS log ASCII Standard -VERSION 2.00
 WRAP.                  NO:   One line per frame
~Well Information Block
#MNEM.UNIT              Data                Description
#--------- -------------------------------  -------------------------------
 STRT.F                          555.0000:   Starting Depth
 STOP.F                           83.2500:   Ending Depth
 STEP.F                           -0.5000:   Level Spacing
 NULL.                          -999.2500:   Absent Value
 COMP.     FLUOR DANIEL (NPSOR), INC.    :   Company
 WELL.     88-1 X 3                      :   Well
 FLD .                                   :   Field
 LOC .                                   :   Location
 PROV.                                   :   Province
 SRVC.                                   :   Service Company
 LIC .                                   :   License Number
 DATE.                                   :   Log Date
 UWI .                                   :   Unique Well ID
~Curve Information Block
#MNEM.UNIT       API Codes    Curve Description
#---------    -------------   -------------------------------
 DEPT.F        0   0  0  0:   Depth
 GR  .API      0   0  0  0:   Gamma ray counts
 CAL .IN       0   0  0  0:   Caliper (for 4CAL: from C13 and/or C24)
 TEN .LBF      0   0  0  0:   Differential Tension
 CNC .PU       0   0  0  0:   Corrected Neutron Porosity from CN
 ZDEN.G/C3     0   0  0  0:   ZDL Bulk Density
 ZCOR.G/C3     0   0  0  0:   ZDL Correction
#  Curve Data
~A
# ...
   171.0000     93.0017     10.2219    -18.0005     17.7511      2.4329      0.0332
   170.5000     92.8503     10.2219    -13.3922     17.5972      2.4327      0.0345
   170.0000     94.8911     10.2219     -8.3055     17.2586      2.4359      0.0369
   169.5000     97.3325     10.2219     -0.6365     16.8598      2.4441      0.0420
   169.0000     97.0333     10.2219     10.4612     16.4423      2.4530      0.0460
   168.5000     92.9723     10.2219     13.2968     15.8112      2.4610      0.0390
   168.0000     89.6508     10.2219      7.3966     15.0091      2.4714      0.0251
   167.5000     90.0322     10.2219      4.0165     14.7058      2.4806      0.0222
   167.0000     91.6212     10.2219      3.3300     15.1026      2.4791      0.0315
   166.5000     91.9881     10.2219     -0.2345     15.7142      2.4678      0.0371
   166.0000     91.8678     10.2219     -5.6538     15.9917      2.4577      0.0345
   165.5000     92.2327     10.2219     -9.1613     15.8900      2.4532      0.0323
   165.0000     93.8207     10.2219    -11.9246     15.7878      2.4500      0.0305
   164.5000     96.6873     10.2219    -16.7195     16.0926      2.4460      0.0290
   164.0000     98.6366     10.2219    -19.2836     16.6006      2.4403      0.0307
   163.5000     98.2966     10.2219    -18.3119     16.7822      2.4313      0.0417
   163.0000     97.5543     10.2219    -21.0547     16.6262      2.4240      0.0497
   162.5000     97.3384     10.2219    -26.8678     16.4291      2.4263      0.0434
   162.0000     95.6086     10.2219    -25.1964     16.3085      2.4353      0.0302
   161.5000     93.2221     10.2219    -18.5458     16.3320      2.4415      0.0236
   161.0000     93.3329     10.2219    -13.8873     16.5415      2.4439      0.0234
   160.5000     95.1172     10.2219    -13.8467     16.7836      2.4457      0.0288
   160.0000     95.1113     10.2219    -17.8489     16.8520      2.4467      0.0378
   159.5000     93.8115     10.2219    -22.1348     16.7827      2.4478      0.0418
   159.0000     93.7982     10.2219    -24.4259     16.7709      2.4504      0.0364
   158.5000     95.0694     10.2219    -26.6414     16.9487      2.4551      0.0317
   158.0000     95.4458     10.2219    -25.8744     17.1833      2.4633      0.0347
   157.5000     94.9888     10.2219    -21.4693     17.3581      2.4757      0.0374
   157.0000     95.5835     10.2219    -20.6695     17.4772      2.4881      0.0338
   156.5000     97.7982     10.2219    -27.0852     17.6705      2.4951      0.0340
   156.0000    100.3139     10.2219    -35.4663     18.0813      2.4935      0.0391
   155.5000    101.1847     10.2219    -40.1789     18.6163      2.4836      0.0408
   155.0000    100.2441     10.2219    -40.4765     19.0647      2.4719      0.0361
   154.5000     98.8877     10.2219    -39.7427     19.4295      2.4667      0.0317
   154.0000     99.5212     10.2219    -39.9278     19.7175      2.4696      0.0315
   153.5000    101.6507     10.2219    -39.6290     20.0475      2.4760      0.0374
   153.0000    103.7255     10.2219    -37.7846     20.6842      2.4803      0.0449
   152.5000    104.6522     10.2219    -41.1597     21.3570      2.4780      0.0466
   152.0000    104.3749     10.2219    -50.8892     22.1402      2.4704      0.0406
   151.5000    103.4503     10.2219    -55.9531     22.5755      2.4642      0.0358
   151.0000    102.5332     10.2219    -49.0782     22.4030      2.4647      0.0377
   150.5000    101.9659     10.2219    -40.3579     22.3609      2.4707      0.0410
   150.0000    101.3552     10.2219    -38.6438     22.8811      2.4770      0.0405
   149.5000    101.0884     10.2219    -43.0523     23.8605      2.4787      0.0399
   149.0000    101.2903     10.2219    -49.0529     25.0367      2.4743      0.0420
   148.5000    101.8784     10.2219    -56.2283     26.5075      2.4663      0.0423
   148.0000    103.1227     10.2219    -64.9510     27.9883      2.4610      0.0399
   147.5000    105.1131     10.2219    -70.4105     28.9871      2.4621      0.0390
   147.0000    106.5005     10.2219    -67.9030     29.5027      2.4645      0.0375
   146.5000    106.5607     10.2219    -59.2947     29.8821      2.4609      0.0294
   146.0000    107.2885     10.2219    -48.9516     30.2640      2.4547      0.0230
   145.5000    110.4661     10.2219    -42.2928     30.4673      2.4546      0.0264
   145.0000    113.0027     10.2219    -42.0601     30.2792      2.4625      0.0341
   144.5000    112.1523     10.2219    -42.7137     29.8981      2.4743      0.0404
   144.0000    109.4874     10.2219    -39.5106     29.9234      2.4830      0.0456
   143.5000    108.5611     10.2219    -35.9863     30.5371      2.4820      0.0468
   143.0000    109.0763     10.2219    -38.4510     31.0963      2.4763      0.0469
   142.5000    108.0181     10.2219    -47.2725     31.1431      2.4761      0.0505
   142.0000    105.0486     10.2219    -56.9514     30.8708      2.4808      0.0504
   141.5000    103.6236     10.2219    -56.8352     30.6973      2.4842      0.0448
   141.0000    104.8538     10.2219    -45.9638     30.8574      2.4847      0.0423
   140.5000    106.3206     10.2219    -34.6544     31.0933      2.4810      0.0405
   140.0000    106.8329     10.2219    -30.0657     31.2552      2.4740      0.0349
   139.5000    106.9554     10.2219    -29.3934     31.1799      2.4689      0.0315
   139.0000    107.3660     10.2219    -30.1313     30.8202      2.4678      0.0343
   138.5000    107.5897     10.2219    -32.3559     30.4059      2.4675      0.0353
   138.0000    107.6151     10.2219    -30.9618     30.0338      2.4663      0.0302
   137.5000    107.7278     10.2219    -25.6255     29.8512      2.4648      0.0247
   137.0000    109.1113     10.2219    -21.1219     30.0657      2.4663      0.0267
   136.5000    110.0101     10.2219    -19.7954     30.6245      2.4734      0.0338
   136.0000    108.7536     10.2219    -18.1862     30.6453      2.4830      0.0383
   135.5000    106.1833     10.2183    -15.8393     29.9777      2.4925      0.0453
   135.0000    103.4015     10.1978    -17.1334     29.2981      2.5047      0.0452
   134.5000    100.8301     10.1613    -25.0744     29.0071      2.5189      0.0368
   134.0000    100.7959     10.1310    -31.8033     29.1140      2.5233      0.0474
   133.5000    104.6430     10.1204    -30.4244     29.4951      2.5078      0.0687
   133.0000    108.8020     10.1198    -29.3681     29.8216      2.4824      0.0595
   132.5000    109.5966     10.1198    -38.3178     29.9738      2.4671      0.0271
   132.0000    107.8677     10.1204    -46.7861     30.0507      2.4662      0.0188
   131.5000    106.8600     10.1273    -44.5288     30.2469      2.4649      0.0318
   131.0000    106.7651     10.1372    -37.4156     30.6035      2.4560      0.0394
   130.5000    106.4056     10.1372    -34.0508     30.6362      2.4510      0.0390
   130.0000    107.0545     10.1279    -33.4545     30.0261      2.4575      0.0430
   129.5000    108.6694     10.1279    -30.9053     29.1204      2.4659      0.0458
   129.0000    108.2713     10.1372    -29.6835     28.4677      2.4702      0.0387
   128.5000    104.4924     10.1372    -32.6557     28.1322      2.4766      0.0230
   128.0000    100.4976     10.1273    -38.3129     27.9116      2.4853      0.0127
   127.5000    100.0557     10.1210    -39.3352     27.8028      2.4872      0.0268
   127.0000    103.2772     10.1273    -33.4503     28.0306      2.4820      0.0515
   126.5000    107.1703     10.1372    -28.8383     28.5185      2.4792      0.0565
   126.0000    109.6086     10.1372    -30.4866     28.9052      2.4821      0.0454
   125.5000    109.8316     10.1273    -34.9631     29.1201      2.4865      0.0455
   125.0000    108.1048     10.1204    -39.4957     28.8685      2.4893      0.0526
   124.5000    105.3965     10.1198    -40.7678     28.3163      2.4885      0.0498
   124.0000    103.2438     10.1198    -36.2596     27.8168      2.4836      0.0393
   123.5000    101.8382     10.1198    -33.8849     27.2882      2.4817      0.0358
