~Version Information
 VERS.                2.00:   CWLS log ASCII Standard -VERSION 2.00
 WRAP.                  NO:   One line per frame
~Well Information Block
#MNEM.UNIT              Data                Description
#--------- -------------------------------  -------------------------------
 STRT.F                          557.0000:   Starting Depth
 STOP.F                           -2.7500:   Ending Depth
 STEP.F                           -0.5000:   Level Spacing
 NULL.                          -999.2500:   Absent Value
 COMP.     FLUOR DANIEL (NPSOR), INC.    :   Company
 WELL.     88-1 X 3                      :   Well
 FLD .                                   :   Field
 LOC .                                   :   Location
 PROV.                                   :   Province
 SRVC.                                   :   Service Company
 LIC .                                   :   License Number
 DATE.                                   :   Log Date
 UWI .                                   :   Unique Well ID
~Curve Information Block
#MNEM.UNIT       API Codes    Curve Description
#---------    -------------   -------------------------------
 DEPT.F        0   0  0  0:   Depth
 CILD.MMHO     0   0  0  0:   Conductivity of Deep Induction
 SP  .MV       0   0  0  0:   Spontaneous Potential
 GR  .API      0   0  0  0:   Gamma ray counts
 TEN .LBF      0   0  0  0:   Differential Tension
 RFOC.OHMM     0   0  0  0:   Resistivity from CFOC
 RILM.OHMM     0   0  0  0:   Resistivity from CILM
 RILD.OHMM     0   0  0  0:   Resistivity from CILD
#  Curve Data
~A
# ...
   431.0000     83.0235      4.8941     63.8287     79.9060     11.0904     12.3618     12.0448
   430.5000     80.5611      4.8795     64.1264     92.1545     10.5601     12.5777     12.4129
   430.0000     78.6520      4.8795     63.7174    102.2396     10.7922     12.5804     12.7142
   429.5000     77.9877      4.8774     60.2059    102.8323     12.1569     12.5056     12.8225
   429.0000     78.1261      4.8483     56.2952     96.6014     14.2413     12.6963     12.7998
   428.5000     78.2228      4.7927     56.6570     88.7766     14.6698     13.3832     12.7840
   428.0000     78.0093      4.7735     61.7577     82.2304     12.8109     14.4082     12.8190
   427.5000     77.6669      4.8164     67.3566     81.1434     11.4187     15.1402     12.8755
   427.0000     77.4107      4.8647     70.3171     84.8083     11.2261     15.0462     12.9181
   426.5000     77.2345      4.8788     70.6401     85.3914     11.3241     14.4630     12.9476
   426.0000     76.7819      4.8795     69.0832     79.4388     11.1324     14.0083     13.0239
   425.5000     75.8592      4.8795     66.6258     73.9909     11.0959     13.8523     13.1823
   425.0000     74.5680      4.8831     64.1571     73.3519     11.6783     13.9123     13.4106
   424.5000     72.8277      4.9022     62.7333     74.2782     12.7887     14.2198     13.7310
   424.0000     70.5256      4.9442     62.4817     74.1497     13.6608     14.8363     14.1792
   423.5000     67.9836      4.9870     63.3651     72.2624     13.7133     15.6430     14.7094
   423.0000     65.7054      4.9827     64.1886     68.6991     13.3194     16.3744     15.2195
   422.5000     63.7706      4.9331     64.0225     67.3510     12.9643     16.8377     15.6812
   422.0000     61.9219      4.8904     62.9097     74.1089     12.8024     17.0046     16.1494
   421.5000     59.9515      4.8795     62.8674     85.6531     12.7663     17.0316     16.6801
   421.0000     57.9385      4.8802     64.9534     91.0468     12.6728     17.1526     17.2597
   420.5000     56.3567      4.8885     66.5201     85.1154     12.5945     17.4200     17.7441
   420.0000     56.2716      4.9039     65.6266     75.3155     12.9099     17.5728     17.7709
   419.5000     58.7750      4.9194     64.8881     69.7648     14.0712     17.4128     17.0140
   419.0000     63.8126      4.9312     66.6451     69.4390     15.8134     17.0187     15.6709
   418.5000     70.3915      4.9517     71.1339     72.0523     15.7250     16.4990     14.2063
   418.0000     77.7500      4.9918     76.8669     75.9407     12.6634     15.6587     12.8617
   417.5000     85.6787      5.0193     81.6814     77.6258      9.7393     14.1900     11.6715
   417.0000     94.3987      5.0081     85.3446     70.6087      8.2336     12.2818     10.5934
   416.5000    104.3733      4.9800     86.8129     61.4612      7.6731     10.5234      9.5810
   416.0000    114.9200      4.9584     85.3301     65.8669      7.5218      9.2429      8.7017
   415.5000    123.9764      4.9456     83.3267     77.9241      7.4835      8.4582      8.0660
   415.0000    130.3517      4.9289     83.4717     76.2982      7.4589      8.0478      7.6716
   414.5000    133.8885      4.8942     85.2764     64.9268      7.4266      7.8663      7.4689
   414.0000    135.0378      4.8513     88.6210     59.6772      7.3651      7.8084      7.4053
   413.5000    134.6215      4.8242     91.4849     60.2680      7.2797      7.8142      7.4282
   413.0000    133.4307      4.8168     90.9724     61.9199      7.2534      7.8497      7.4945
   412.5000    131.9869      4.8359     88.2641     66.4915      7.3382      7.9009      7.5765
   412.0000    130.5087      4.8744     86.7266     68.5384      7.4700      7.9846      7.6623
   411.5000    128.6898      4.8898     86.6287     65.5180      7.5865      8.1207      7.7706
   411.0000    126.2209      4.8742     85.8715     63.9997      7.6567      8.2923      7.9226
   410.5000    123.2810      4.8624     84.3762     65.0748      7.6754      8.4665      8.1116
   410.0000    120.2854      4.8705     83.0017     63.0545      7.7003      8.6279      8.3136
   409.5000    117.6031      4.8788     82.2603     54.6950      7.8058      8.7723      8.5032
   409.0000    115.4209      4.8795     82.3026     42.7451      8.0181      8.9103      8.6639
   408.5000    113.5279      4.8846     82.7748     36.6250      8.2460      9.0725      8.8084
   408.0000    111.6798      4.9129     81.2939     44.3156      8.3003      9.2671      8.9542
   407.5000    110.1305      4.9440     78.6340     62.2477      8.2025      9.4362      9.0801
   407.0000    109.4005      4.9358     77.9386     76.3665      8.2134      9.5095      9.1407
   406.5000    109.6541      4.8994     79.4971     76.8078      8.3886      9.4928      9.1196
   406.0000    110.4348      4.8838     80.9984     67.3663      8.4802      9.4644      9.0551
   405.5000    111.1826      4.8699     80.9886     58.2391      8.3445      9.4650      8.9942
   405.0000    111.8723      4.8402     80.2573     55.3352      8.1549      9.4464      8.9388
   404.5000    112.8049      4.8323     80.3510     58.4349      8.0611      9.3592      8.8649
   404.0000    113.9805      4.8568     80.7330     61.1784      7.9985      9.2227      8.7734
   403.5000    115.0724      4.8752     79.9171     57.2104      7.8801      9.0886      8.6902
   403.0000    115.6478      4.8669     79.3991     50.6974      7.7864      8.9903      8.6469
   402.5000    115.4914      4.8469     80.1989     49.3237      7.7991      8.9420      8.6587
   402.0000    114.7227      4.8477     81.3304     54.5135      7.8338      8.9454      8.7167
   401.5000    113.7032      4.8625     83.0606     61.3523      7.8342      8.9906      8.7948
   401.0000    112.7555      4.8677     85.3909     66.4552      7.9179      9.0608      8.8687
   400.5000    111.9966      4.8633     86.7296     69.6806      8.1869      9.1566      8.9288
   400.0000    111.1591      4.8471     85.9754     67.9753      8.4792      9.2979      8.9961
   399.5000    109.8843      4.8114     84.7404     57.2781      8.5173      9.4835      9.1005
   399.0000    108.1842      4.8011     84.7690     43.0388      8.3040      9.6587      9.2435
   398.5000    106.4663      4.8479     84.6956     39.2260      8.1167      9.7563      9.3926
   398.0000    105.0828      4.8988     81.2857     47.5132      8.1166      9.7738      9.5163
   397.5000    104.0470      4.9017     75.1033     56.8395      8.2818      9.7830      9.6110
   397.0000    102.9333      4.9072     72.3231     59.8160      8.5304      9.8544      9.7150
   396.5000    101.4189      4.9498     74.4631     56.3039      8.7615     10.0076      9.8601
   396.0000     99.6950      4.9604     77.5648     46.1703      8.9023     10.2186     10.0306
   395.5000     98.0902      4.8991     78.1425     37.4043      8.9690     10.4549     10.1947
   395.0000     96.5947      4.8294     76.9174     35.1363      9.0339     10.6691     10.3525
   394.5000     95.3520      4.7914     76.9916     35.3620      9.0789     10.8296     10.4875
   394.0000     94.5001      4.7819     79.5614     37.9975      9.0765     10.9388     10.5820
   393.5000     93.9729      4.7973     81.6926     45.5759      9.0828     11.0202     10.6414
   393.0000     93.5805      4.8099     81.3094     53.1642      9.1498     11.0926     10.6860
   392.5000     92.9373      4.7780     80.1174     56.3561      9.2303     11.1688     10.7599
   392.0000     91.7008      4.7247     78.6487     54.8372      9.2675     11.2864     10.9050
   391.5000     90.0493      4.7329     76.6010     47.9158      9.2839     11.4752     11.1050
   391.0000     88.2225      4.8038     75.2514     41.4099      9.3338     11.7135     11.3350
   390.5000     86.1175      4.8640     74.8941     40.1670      9.4682     11.9574     11.6120
   390.0000     83.7076      4.8802     74.8648     41.3659      9.7793     12.2319     11.9463
   389.5000     81.0555      4.8982     75.4866     45.1434     10.2642     12.6071     12.3372
