~Version Information
 VERS.                2.00:   CWLS log ASCII Standard -VERSION 2.00
 WRAP.                  NO:   One line per frame
~Well Information Block
#MNEM.UNIT              Data                Description
#--------- -------------------------------  -------------------------------
 STRT.F                          557.0000:   Starting Depth
 STOP.F                           -2.7500:   Ending Depth
 STEP.F                           -0.5000:   Level Spacing
 NULL.                          -999.2500:   Absent Value
 COMP.     FLUOR DANIEL (NPSOR), INC.    :   Company
 WELL.     88-1 X 3                      :   Well
 FLD .                                   :   Field
 LOC .                                   :   Location
 PROV.                                   :   Province
 SRVC.                                   :   Service Company
 LIC .                                   :   License Number
 DATE.                                   :   Log Date
 UWI .                                   :   Unique Well ID
~Curve Information Block
#MNEM.UNIT       API Codes    Curve Description
#---------    -------------   -------------------------------
 DEPT.F        0   0  0  0:   Depth
 CILD.MMHO     0   0  0  0:   Conductivity of Deep Induction
 SP  .MV       0   0  0  0:   Spontaneous Potential
 GR  .API      0   0  0  0:   Gamma ray counts
 TEN .LBF      0   0  0  0:   Differential Tension
 RFOC.OHMM     0   0  0  0:   Resistivity from CFOC
 RILM.OHMM     0   0  0  0:   Resistivity from CILM
 RILD.OHMM     0   0  0  0:   Resistivity from CILD
#  Curve Data
~A
# ...
   389.0000     77.8734      4.9301     76.2487     52.6183     10.6100     13.1218     12.8414
   388.5000     73.9688      4.9419     76.9032     57.1286     10.5334     13.7635     13.5192
   388.0000     69.8661      4.9182     77.8333     51.2919     10.3819     14.4638     14.3131
   387.5000     66.4729      4.8899     77.6017     43.0340     10.6985     15.0757     15.0437
   387.0000     64.4200      4.8795     76.3033     41.3983     11.6156     15.5385     15.5231
   386.5000     63.8723      4.8698     75.4099     43.5284     12.7867     15.9835     15.6563
   386.0000     64.5561      4.8461     73.7944     44.8823     13.5799     16.4110     15.4904
   385.5000     65.9427      4.8225     71.1985     47.4778     13.4469     16.6042     15.1647
   385.0000     67.6073      4.8334     71.0372     49.3935     12.3858     16.4750     14.7913
   384.5000     69.4809      4.8690     74.4592     45.5185     11.0678     16.0352     14.3925
   384.0000     71.5824      4.8692     78.4953     39.8147     10.1632     15.2439     13.9699
   383.5000     73.7837      4.8257     79.0915     43.7163      9.8027     14.2627     13.5531
   383.0000     75.7516      4.7653     76.3672     53.9469      9.7535     13.4465     13.2010
   382.5000     77.0910      4.7364     75.4643     52.6988      9.7910     12.9801     12.9717
   382.0000     77.7187      4.7697     77.1543     40.4827      9.9260     12.8190     12.8669
   381.5000     77.8433      4.8228     76.7052     33.6101     10.2058     12.8332     12.8463
   381.0000     77.7443      4.8297     73.4223     32.6936     10.4989     12.9319     12.8627
   380.5000     77.6393      4.8254     72.4354     33.2081     10.5046     13.0501     12.8801
   380.0000     77.5908      4.8498     74.4695     37.5803     10.1713     13.1146     12.8881
   379.5000     77.5722      4.8846     76.5048     42.3828      9.7682     13.0578     12.8912
   379.0000     77.8181      4.8891     77.0608     41.2714      9.4662     12.8536     12.8505
   378.5000     78.5382      4.8587     76.7965     38.8759      9.2563     12.5351     12.7327
   378.0000     79.3696      4.8344     76.2554     42.9031      9.1507     12.1992     12.5993
   377.5000     79.7346      4.8217     75.9319     49.8965      9.1241     11.9667     12.5416
   377.0000     79.5614      4.8107     76.3899     51.0180      9.0639     11.8663     12.5689
   376.5000     79.1294      4.8225     76.0702     43.7138      9.0332     11.8235     12.6375
   376.0000     78.5370      4.8579     75.3693     35.5355      9.2205     11.7731     12.7328
   375.5000     77.8947      4.8781     77.2720     33.1566      9.5970     11.7402     12.8379
   375.0000     77.4135      4.8868     81.7161     35.6179      9.8871     11.7740     12.9176
   374.5000     77.0734      4.9097     84.6977     37.6885     10.0055     11.8733     12.9746
   374.0000     76.6450      4.9163     83.8648     39.4960     10.1331     12.0083     13.0472
   373.5000     76.0843      4.8853     81.8510     39.8348     10.2885     12.2030     13.1433
   373.0000     75.3827      4.8416     81.8177     36.0361     10.3201     12.4599     13.2656
   372.5000     74.5095      4.8378     83.4126     33.7681     10.3054     12.6677     13.4211
   372.0000     73.5801      4.8853     84.6533     38.1332     10.4694     12.7745     13.5906
   371.5000     72.7925      4.9201     85.5523     40.6107     10.7930     12.8902     13.7377
   371.0000     72.2372      4.8986     87.6138     34.9646     11.0287     13.1041     13.8433
   370.5000     71.6552      4.8595     88.8980     29.1705     11.2285     13.3808     13.9557
   370.0000     70.9124      4.8457     88.0065     35.0049     11.5252     13.6767     14.1019
   369.5000     70.1593      4.8332     85.8168     46.5753     11.7095     13.9900     14.2533
   369.0000     69.4847      4.8301     83.7872     50.1408     11.5658     14.2810     14.3917
   368.5000     68.8136      4.8486     81.3720     44.6578     11.3764     14.4988     14.5320
   368.0000     68.1781      4.8722     78.9087     39.7202     11.3969     14.6679     14.6675
   367.5000     67.6612      4.8795     77.7545     41.7545     11.5776     14.8129     14.7795
   367.0000     67.3153      4.8795     77.0105     47.6962     11.7328     14.9004     14.8555
   366.5000     67.0662      4.8781     76.8344     49.4350     11.8917     14.9903     14.9106
   366.0000     66.6846      4.8616     77.6975     42.4981     12.1588     15.1494     14.9960
   365.5000     66.1093      4.8379     78.6912     34.6858     12.3774     15.3936     15.1265
   365.0000     65.4665      4.8379     78.6833     32.0375     12.3391     15.6454     15.2750
   364.5000     64.9032      4.8616     78.3571     32.8445     12.1810     15.7862     15.4076
   364.0000     64.5993      4.8781     78.5002     30.8855     12.1878     15.7258     15.4800
   363.5000     64.6447      4.8795     79.2621     27.8148     12.4366     15.5675     15.4692
   363.0000     64.8437      4.8795     78.9431     31.7978     12.6875     15.4971     15.4217
   362.5000     64.9060      4.8781     76.4665     40.3924     12.6698     15.5912     15.4069
   362.0000     64.7325      4.8616     74.9832     40.7312     12.5562     15.7118     15.4482
   361.5000     64.2849      4.8343     76.7236     29.7817     12.5652     15.7643     15.5558
   361.0000     63.3566      4.8246     78.5791     21.8109     12.7064     15.8454     15.7837
   360.5000     61.7083      4.8678     78.4973     26.9089     12.9101     16.0683     16.2053
   360.0000     59.4690      4.9475     77.7976     34.6788     13.0425     16.4683     16.8155
   359.5000     57.1324      4.9718     78.1297     32.6997     13.0863     16.9913     17.5032
   359.0000     55.2567      4.9000     79.3438     28.0539     13.4556     17.5167     18.0974
   358.5000     53.9617      4.8154     79.8454     29.6680     14.6145     17.9998     18.5317
   358.0000     52.7971      4.7833     78.1911     32.1940     16.1653     18.6595     18.9404
   357.5000     51.0635      4.7730     75.5454     29.7192     16.6682     19.6719     19.5835
   357.0000     48.4057      4.7612     72.9857     24.0630     15.9579     20.8881     20.6587
   356.5000     45.0957      4.7619     71.5215     20.7803     15.3701     21.8921     22.1751
   356.0000     41.8192      4.7819     71.3518     20.7275     15.4365     22.5013     23.9125
   355.5000     39.4162      4.8019     69.9679     20.7000     16.1882     22.9067     25.3703
   355.0000     38.3426      4.8027     65.9736     20.7617     18.5961     23.4597     26.0807
   354.5000     38.0170      4.7909     62.3563     22.0036     23.9950     24.6461     26.3040
   354.0000     37.6316      4.7827     60.0682     23.6591     28.8544     26.9691     26.5734
   353.5000     37.1360      4.7827     58.5646     27.8779     26.1298     30.1347     26.9281
   353.0000     37.0231      4.7944     59.2868     33.2734     22.1990     31.8325     27.0101
   352.5000     37.6585      4.8225     61.7972     35.5435     20.8387     30.4114     26.5545
   352.0000     39.0718      4.8617     65.0526     36.9410     19.7000     27.7905     25.5939
   351.5000     40.9271      4.9060     68.6298     39.7662     17.7914     25.5992     24.4337
   351.0000     42.8073      4.9216     70.3559     38.1546     16.6191     23.7649     23.3605
   350.5000     44.6390      4.8913     67.8383     28.7243     16.5852     22.2705     22.4019
   350.0000     46.4183      4.8412     62.9956     17.2840     17.2392     21.4104     21.5432
   349.5000     47.7952      4.8117     59.0867     12.2210     18.2308     21.1613     20.9226
   349.0000     48.3420      4.8290     57.3658     12.2750     18.7379     21.3165     20.6859
   348.5000     48.0343      4.8711     59.5763     10.5503     17.7993     21.6779     20.8185
   348.0000     47.3423      4.8909     65.3018      6.8747     16.2207     21.9981     21.1227
   347.5000     46.8673      4.8776     70.2400      7.7632     15.5651     21.8510     21.3368
