~Version Information
 VERS.                2.00:   CWLS log ASCII Standard -VERSION 2.00
 WRAP.                  NO:   One line per frame
~Well Information Block
#MNEM.UNIT              Data                Description
#--------- -------------------------------  -------------------------------
 STRT.F                          555.0000:   Starting Depth
 STOP.F                           83.2500:   Ending Depth
 STEP.F                           -0.5000:   Level Spacing
 NULL.                          -999.2500:   Absent Value
 COMP.     FLUOR DANIEL (NPSOR), INC.    :   Company
 WELL.     88-1 X 3                      :   Well
 FLD .                                   :   Field
 LOC .                                   :   Location
 PROV.                                   :   Province
 SRVC.                                   :   Service Company
 LIC .                                   :   License Number
 DATE.                                   :   Log Date
 UWI .                                   :   Unique Well ID
~Curve Information Block
#MNEM.UNIT       API Codes    Curve Description
#---------    -------------   -------------------------------
 DEPT.F        0   0  0  0:   Depth
 GR  .API      0   0  0  0:   Gamma ray counts
 CAL .IN       0   0  0  0:   Caliper (for 4CAL: from C13 and/or C24)
 TEN .LBF      0   0  0  0:   Differential Tension
 CNC .PU       0   0  0  0:   Corrected Neutron Porosity from CN
 ZDEN.G/C3     0   0  0  0:   ZDL Bulk Density
 ZCOR.G/C3     0   0  0  0:   ZDL Correction
#  Curve Data
~A
# ...
   507.0000     87.5332      9.0991    243.1185     27.7043      2.4981      0.0432
   506.5000     86.1089      9.0991    242.4734     26.6834      2.4997      0.0319
   506.0000     85.5478      9.0991    240.0127     25.6050      2.5083      0.0323
   505.5000     84.5691      9.0991    235.2303     24.7622      2.5196      0.0466
   505.0000     84.3075      9.0991    229.4673     24.7567      2.5257      0.0619
   504.5000     86.6503      9.0991    222.2485     25.6122      2.5265      0.0654
   504.0000     89.4615      9.0991    218.7097     26.4830      2.5239      0.0525
   503.5000     89.4660      9.0991    220.0190     26.9326      2.5203      0.0401
   503.0000     86.7552      9.0991    220.0178     27.0127      2.5193      0.0460
   502.5000     82.7005      9.0991    216.8476     26.6468      2.5210      0.0576
   502.0000     79.7656      9.0991    212.8582     25.8078      2.5228      0.0572
   501.5000     80.3756      9.0991    205.7505     24.8591      2.5266      0.0489
   501.0000     83.2888      9.0991    198.1621     24.4318      2.5348      0.0446
   500.5000     85.4816      9.0991    193.3203     24.7995      2.5440      0.0476
   500.0000     86.8994      9.0991    191.3261     25.7400      2.5476      0.0545
   499.5000     88.8510      9.0991    190.8253     26.6259      2.5400      0.0499
   499.0000     90.3188      9.0991    191.7299     27.0233      2.5245      0.0353
   498.5000     90.0522      9.0991    194.5668     27.1143      2.5119      0.0301
   498.0000     89.1882      9.0991    192.9152     27.3817      2.5050      0.0345
   497.5000     89.7285      9.0991    185.4323     28.0898      2.4973      0.0346
   497.0000     91.2864      9.0991    182.2682     28.8744      2.4901      0.0346
   496.5000     92.3836      9.0991    183.0344     29.3801      2.4882      0.0394
   496.0000     93.1719      9.0991    176.4199     29.5921      2.4896      0.0388
   495.5000     93.7800      9.0991    163.3528     29.5116      2.4905      0.0347
   495.0000     93.4475      9.0991    154.1345     29.2458      2.4897      0.0304
   494.5000     92.8658      9.0991    153.2475     28.9361      2.4871      0.0243
   494.0000     93.3964      9.0991    159.2466     28.6936      2.4846      0.0232
   493.5000     93.5524      9.0991    168.0388     28.4185      2.4855      0.0333
   493.0000     91.4004      9.0991    174.5039     28.0473      2.4903      0.0478
   492.5000     89.4117      9.0991    172.0172     27.7207      2.4954      0.0555
   492.0000     89.8902      9.0991    162.6476     27.5921      2.4974      0.0513
   491.5000     90.6683      9.0991    157.2961     27.6093      2.4952      0.0397
   491.0000     90.2557      9.0991    156.8880     27.8260      2.4910      0.0314
   490.5000     89.3367      9.0991    150.0475     28.4950      2.4891      0.0328
   490.0000     88.2864      9.0991    137.7218     29.4805      2.4888      0.0414
   489.5000     90.4633      9.0991    130.2350     30.7842      2.4764      0.0541
   489.0000     98.4961      9.0991    130.5513     33.3367      2.4415      0.0651
   488.5000    107.4539      9.0991    130.9041     37.1059      2.4033      0.0630
   488.0000    110.5110      9.0997    128.7578     39.5372      2.3947      0.0458
   487.5000    106.8811      9.1066    132.9571     38.5408      2.4216      0.0329
   487.0000    100.0724      9.1165    141.0457     35.6744      2.4566      0.0357
   486.5000     93.6571      9.1165    141.1989     33.1302      2.4770      0.0372
   486.0000     90.1077      9.1096    133.9899     31.5316      2.4871      0.0355
   485.5000     89.8682      9.1126    128.1991     30.5669      2.4961      0.0426
   485.0000     91.2103      9.1182    122.0979     30.1087      2.4996      0.0511
   484.5000     91.6075      9.1120    115.7066     29.7523      2.4953      0.0499
   484.0000     90.0378      9.1021    114.8844     29.3954      2.4911      0.0464
   483.5000     87.3576      9.0991    116.5899     29.2958      2.4904      0.0507
   483.0000     85.3869      9.0991    115.8698     29.1752      2.4875      0.0592
   482.5000     84.6164      9.0991    117.5448     28.5544      2.4814      0.0599
   482.0000     84.3419      9.0991    122.4081     27.6963      2.4780      0.0512
   481.5000     85.1005      9.1021    123.2032     26.9507      2.4787      0.0410
   481.0000     86.8866      9.1157    119.1940     26.4980      2.4801      0.0384
   480.5000     88.3731      9.1423    115.8750     26.4658      2.4802      0.0399
   480.0000     88.6236      9.1720    114.0746     26.6882      2.4806      0.0405
   479.5000     87.7796      9.1850    114.5760     26.9496      2.4816      0.0384
   479.0000     85.4980      9.1757    116.1809     27.2299      2.4810      0.0397
   478.5000     83.7692      9.1664    115.4928     27.3817      2.4795      0.0461
   478.0000     84.2388      9.1763    109.6249     27.1950      2.4786      0.0528
   477.5000     85.1619      9.1931     98.1646     26.8895      2.4760      0.0520
   477.0000     84.5616      9.2006     86.3168     26.7035      2.4723      0.0450
   476.5000     83.5150      9.2012     81.8681     26.6045      2.4712      0.0388
   476.0000     83.2677      9.2012     86.7460     26.6413      2.4714      0.0360
   475.5000     82.7554      9.2012     94.6772     26.9144      2.4698      0.0389
   475.0000     80.8087      9.2012     98.6660     26.9316      2.4672      0.0442
   474.5000     78.1567      9.2012     95.3326     26.7145      2.4648      0.0417
   474.0000     76.5414      9.2012     88.9697     26.8882      2.4614      0.0336
   473.5000     76.7180      9.2012     86.2689     27.4501      2.4567      0.0299
   473.0000     78.4442      9.2012     89.5596     27.8907      2.4556      0.0316
   472.5000     79.9471      9.2012     92.0325     28.0728      2.4606      0.0337
   472.0000     79.7715      9.2012     87.6561     28.0764      2.4647      0.0327
   471.5000     79.7183      9.1981     81.6948     27.9622      2.4617      0.0284
   471.0000     80.1590      9.1882     82.8758     27.9331      2.4559      0.0278
   470.5000     79.3391      9.1820     87.5948     28.1873      2.4517      0.0330
   470.0000     78.6205      9.1882     91.4362     28.5243      2.4475      0.0344
   469.5000     80.5273      9.1981     93.2839     28.4786      2.4430      0.0280
   469.0000     82.8834      9.2012     91.1486     28.0568      2.4425      0.0242
   468.5000     82.2592      9.2012     84.3773     27.7380      2.4466      0.0246
   468.0000     80.4588      9.2012     80.7283     27.4554      2.4505      0.0240
   467.5000     79.3398      9.1981     81.7403     27.2425      2.4496      0.0251
   467.0000     78.4697      9.1882     82.3695     27.4487      2.4433      0.0319
   466.5000     78.7284      9.1820     77.6167     27.5678      2.4369      0.0353
   466.0000     81.2973      9.1882     69.4765     26.6167      2.4378      0.0319
   465.5000     83.3145      9.1981     65.5103     26.5145      2.4470      0.0295
   465.0000     82.4767      9.2012     70.8231     28.0988      2.4573      0.0306
   464.5000     80.0153      9.2012     81.0742     27.9301      2.4639      0.0331
   464.0000     76.9309      9.2012     87.6741     27.6445      2.4684      0.0342
   463.5000     74.3698      9.2012     84.5137     27.5935      2.4715      0.0362
   463.0000     73.9746      9.2012     75.0245     27.5144      2.4731      0.0437
   462.5000     75.6124      9.1981     67.6289     27.3921      2.4725      0.0526
   462.0000     76.7576      9.1882     65.4564     27.5455      2.4691      0.0530
   461.5000     76.4766      9.1820     67.5727     28.0417      2.4626      0.0493
   461.0000     75.4843      9.1882     72.7416     28.5902      2.4543      0.0484
   460.5000     74.4265      9.1975     73.4275     28.8226      2.4467      0.0499
   460.0000     73.5959      9.1937     69.8548     28.6864      2.4415      0.0520
   459.5000     73.4854      9.1838     70.2476     28.5670      2.4375      0.0486
