~Version Information
 VERS.                2.00:   CWLS log ASCII Standard -VERSION 2.00
 WRAP.                  NO:   One line per frame
~Well Information Block
#MNEM.UNIT              Data                Description
#--------- -------------------------------  -------------------------------
 STRT.F                          557.0000:   Starting Depth
 STOP.F                           -2.7500:   Ending Depth
 STEP.F                           -0.5000:   Level Spacing
 NULL.                          -999.2500:   Absent Value
 COMP.     FLUOR DANIEL (NPSOR), INC.    :   Company
 WELL.     88-1 X 3                      :   Well
 FLD .                                   :   Field
 LOC .                                   :   Location
 PROV.                                   :   Province
 SRVC.                                   :   Service Company
 LIC .                                   :   License Number
 DATE.                                   :   Log Date
 UWI .                                   :   Unique Well ID
~Curve Information Block
#MNEM.UNIT       API Codes    Curve Description
#---------    -------------   -------------------------------
 DEPT.F        0   0  0  0:   Depth
 CILD.MMHO     0   0  0  0:   Conductivity of Deep Induction
 SP  .MV       0   0  0  0:   Spontaneous Potential
 GR  .API      0   0  0  0:   Gamma ray counts
 TEN .LBF      0   0  0  0:   Differential Tension
 RFOC.OHMM     0   0  0  0:   Resistivity from CFOC
 RILM.OHMM     0   0  0  0:   Resistivity from CILM
 RILD.OHMM     0   0  0  0:   Resistivity from CILD
#  Curve Data
~A
# ...
   137.0000    138.8822      4.8853    112.2380    -12.5992      7.4185      7.2049      7.2003
   136.5000    141.2312      4.9051    110.9688    -10.9779      7.2686      7.1118      7.0806
   136.0000    143.3916      4.9192    110.7808    -14.4125      7.1087      7.0541      6.9739
   135.5000    145.1349      4.9108    111.0674    -17.6958      7.2602      6.9866      6.8901
   135.0000    146.3957      4.8990    111.7371    -15.4138      7.5450      6.8977      6.8308
   134.5000    147.3116      4.8830    111.5292    -10.5753      7.4707      6.8339      6.7883
   134.0000    147.8192      4.8556    111.4714    -11.8395      7.1562      6.8104      6.7650
   133.5000    147.7229      4.8193    112.6087    -14.1435      7.0476      6.7887      6.7694
   133.0000    147.2027      4.7891    114.6622     -7.1815      7.1948      6.7632      6.7934
   132.5000    146.4834      4.8008    116.0249      3.1205      7.3597      6.7741      6.8267
   132.0000    145.2076      4.8681    117.5358      0.6399      7.3861      6.8378      6.8867
   131.5000    143.1344      4.9195    118.2833    -11.8715      7.3013      6.9379      6.9864
   131.0000    140.4498      4.9089    114.5806    -18.1798      7.2360      7.0553      7.1200
   130.5000    137.2853      4.8939    108.8499    -17.1556      7.2456      7.1905      7.2841
   130.0000    134.2071      4.8946    106.3314    -19.1397      7.3158      7.3311      7.4512
   129.5000    132.1710      4.8828    107.0385    -20.0242      7.5035      7.4460      7.5660
   129.0000    130.9930      4.8651    107.6282    -13.4374      7.9355      7.5399      7.6340
   128.5000    129.7401      4.8468    108.8921     -5.8307      8.3866      7.6628      7.7077
   128.0000    128.3102      4.8128    110.8810     -1.3981      8.3715      7.8325      7.7936
   127.5000    127.1092      4.7936    113.2218      2.3979      8.0210      7.9667      7.8673
   127.0000    126.5549      4.8178    115.6947      3.2312      7.8830      7.9711      7.9017
   126.5000    126.8301      4.8575    117.2204      0.2416      7.9676      7.8857      7.8846
   126.0000    127.5966      4.8604    116.0639     -3.5401      7.9673      7.8133      7.8372
   125.5000    128.3368      4.8010    114.4594     -9.7051      7.7963      7.7746      7.7920
   125.0000    128.9962      4.7293    113.8162    -19.9464      7.6381      7.7396      7.7522
   124.5000    129.6470      4.7246    111.9499    -26.3181      7.6680      7.7142      7.7133
   124.0000    130.3234      4.7734    110.8594    -23.1248      7.7602      7.7010      7.6732
   123.5000    131.1138      4.8166    112.7732    -18.0816      7.7237      7.6858      7.6270
   123.0000    132.1802      4.8147    115.2485    -20.3444      7.5409      7.6568      7.5654
   122.5000    133.5302      4.7697    114.2356    -20.5747      7.3975      7.6000      7.4889
   122.0000    135.1385      4.7375    112.9437    -12.3915      7.4084      7.5111      7.3998
   121.5000    136.9879      4.7627    113.9539     -4.3914      7.5258      7.4191      7.2999
   121.0000    138.8281      4.8053    114.9135     -2.6306      7.4922      7.3351      7.2032
   120.5000    140.2759      4.8231    113.6261     -2.7965      7.2804      7.2431      7.1288
   120.0000    141.3554      4.7897    113.7394     -3.9009      7.1420      7.1518      7.0744
   119.5000    141.9918      4.7672    115.9972     -7.1166      7.2571      7.0835      7.0427
   119.0000    141.8748      4.8189    117.8197     -9.8796      7.4492      7.0468      7.0485
   118.5000    141.2772      4.9008    119.5832    -10.6018      7.5341      7.0443      7.0783
   118.0000    140.7945      4.9192    121.8788    -13.5948      7.4799      7.0795      7.1025
   117.5000    140.3938      4.8969    120.9208    -17.3899      7.4100      7.1325      7.1228
   117.0000    139.7524      4.8780    116.6768    -15.5065      7.4097      7.1804      7.1555
   116.5000    138.9576      4.8309    113.9055    -10.5734      7.5112      7.2275      7.1964
   116.0000    138.2306      4.7899    113.7750    -10.6073      7.5689      7.2812      7.2343
   115.5000    137.5133      4.8315    113.0100    -16.1068      7.5839      7.3135      7.2720
   115.0000    136.7358      4.8945    112.5464    -22.1046      7.6638      7.2956      7.3134
   114.5000    136.2497      4.8487    114.1049    -22.4355      7.7925      7.2519      7.3395
   114.0000    136.2619      4.7510    114.8525    -17.8187      8.3719      7.2370      7.3388
   113.5000    136.4951      4.7393    112.4048    -17.6302     11.2644      7.2657      7.3263
   113.0000    136.6238      4.7993    110.0210    -25.0484     22.8026      7.3150      7.3194
   112.5000    136.5905      4.8170    110.9000    -29.1049     85.1137      7.3618      7.3212
   112.0000    136.1900      4.7947    113.6261    -20.7607    628.2217      7.3908      7.3427
   111.5000    135.4519      4.8067    114.5054    -10.7500  10000.0000      7.3824      7.3827
   111.0000    135.4812      4.8083    112.0191    -13.4410  10000.0000      7.3509      7.3811
   110.5000    138.2246      4.7719    109.2801    -20.9886  10000.0000      7.3364      7.2346
   110.0000    140.1528      4.7756    111.2816    -18.6852  10000.0000      7.3582      7.1351
   109.5000    135.0777      4.8361    116.5706    -13.9123  10000.0000      7.4072      7.4031
   109.0000    124.8314      4.9084    118.2417    -16.8677  10000.0000      7.4724      8.0108
   108.5000    115.6463      4.9734    115.7317    -17.7629  10000.0000      7.5288      8.6471
   108.0000    111.2347      4.9965    113.9306     -9.7667  10000.0000      7.5606      8.9900
   107.5000    121.8776      5.0139    113.2827     -4.6854  10000.0000      7.6847      8.2050
   107.0000    148.4522      5.1153    111.4632     -8.3704  10000.0000      8.4847      6.7362
   106.5000    168.7312      5.2501    110.1105    -15.3061  10000.0000     10.1309      5.9266
   106.0000    168.9870      5.2779    111.6785    -18.4119  10000.0000     10.4030      5.9176
   105.5000    161.4122      5.2042    113.7819    -16.8814  10000.0000      8.8748      6.1953
   105.0000    158.9235      5.0526    113.7473    -11.7895  10000.0000      8.1738      6.2923
   104.5000    158.4832      4.7956    112.2810     -5.4006  10000.0000      8.7638      6.3098
   104.0000    134.6596      4.5408    110.9327      2.7096  10000.0000      9.5272      7.4261
   103.5000     86.9179      4.4468    111.1850      8.6205  10000.0000      8.2977     11.5051
   103.0000     96.5178      4.4243    112.0261      6.3690  10000.0000      6.0606     10.3608
   102.5000    204.3583      4.3224    111.9330      0.4127  10000.0000      4.7853      4.8934
   102.0000    347.0876      4.2002    112.1867      2.2677  10000.0000      4.1556      2.8811
   101.5000    487.1985      4.1218    113.7199     13.6753  10000.0000      3.1632      2.0526
   101.0000    529.6892      4.1422    113.4306     21.0416  10000.0000      2.5581      1.8879
   100.5000    280.0125      4.2680    109.7363     15.2256  10000.0000      3.3106      3.5713
   100.0000    -55.7453      4.3976    103.3397      5.7181  10000.0000     13.2579  10000.0000
    99.5000   -190.4162      4.4802     93.1519      4.9566  10000.0000  10000.0000  10000.0000
    99.0000   -148.9500      4.5962     80.9592     11.1398  10000.0000  10000.0000  10000.0000
    98.5000   -101.8553      4.7549     72.5617     15.0783  10000.0000  10000.0000  10000.0000
    98.0000   -108.1788      4.8476     70.9536     12.6477  10000.0000  10000.0000  10000.0000
    97.5000   -133.7871      4.8301     73.3743      9.6170  10000.0000  10000.0000  10000.0000
    97.0000   -108.5331      4.7903     75.0163     10.8415  10000.0000  10000.0000  10000.0000
    96.5000    -27.2875      4.8434     74.0349     15.1466  10000.0000  10000.0000  10000.0000
    96.0000     42.0707      4.9149     72.2784     21.4320  10000.0000  10000.0000     23.7695
    95.5000     62.7464      4.8460     72.0643     25.5813  10000.0000  10000.0000     15.9372
