~Version Information
 VERS.                2.00:   CWLS log ASCII Standard -VERSION 2.00
 WRAP.                  NO:   One line per frame
~Well Information Block
#MNEM.UNIT              Data                Description
#--------- -------------------------------  -------------------------------
 STRT.F                          557.0000:   Starting Depth
 STOP.F                           -2.7500:   Ending Depth
 STEP.F                           -0.5000:   Level Spacing
 NULL.                          -999.2500:   Absent Value
 COMP.     FLUOR DANIEL (NPSOR), INC.    :   Company
 WELL.     88-1 X 3                      :   Well
 FLD .                                   :   Field
 LOC .                                   :   Location
 PROV.                                   :   Province
 SRVC.                                   :   Service Company
 LIC .                                   :   License Number
 DATE.                                   :   Log Date
 UWI .                                   :   Unique Well ID
~Curve Information Block
#MNEM.UNIT       API Codes    Curve Description
#---------    -------------   -------------------------------
 DEPT.F        0   0  0  0:   Depth
 CILD.MMHO     0   0  0  0:   Conductivity of Deep Induction
 SP  .MV       0   0  0  0:   Spontaneous Potential
 GR  .API      0   0  0  0:   Gamma ray counts
 TEN .LBF      0   0  0  0:   Differential Tension
 RFOC.OHMM     0   0  0  0:   Resistivity from CFOC
 RILM.OHMM     0   0  0  0:   Resistivity from CILM
 RILD.OHMM     0   0  0  0:   Resistivity from CILD
#  Curve Data
~A
# ...
    53.0000      4.4818      4.9333     59.3035    -16.9083    313.9009    557.3904    223.1263
    52.5000      4.4509      4.2413     60.1496    -17.8275    275.7131    553.1763    224.6728
    52.0000      4.4366      3.5462     60.8576    -13.4642    242.7964    555.9177    225.3985
    51.5000      4.4336      3.0973     62.2051     -4.9974    305.0664    560.9475    225.5496
    51.0000      4.4182      3.2022     63.4738     -1.0885    485.7976    564.5056    226.3387
    50.5000      4.4184      3.7054     63.4827     -3.8064    641.9312    565.5225    226.3259
    50.0000      4.4733      4.3256     62.9586     -6.7362    630.9031    561.9468    223.5497
    49.5000      4.5222      4.8482     63.0748     -7.4322    515.6741    556.0300    221.1311
    49.0000      4.4973      4.8126     63.4252     -7.4963    347.5874    553.2427    222.3572
    48.5000      4.4537      4.1072     63.4157     -7.9977    294.3252    556.5432    224.5339
    48.0000      4.4463      3.4130     64.0649     -7.6387    350.0769    560.5854    224.9059
    47.5000      4.4397      3.3240     65.5826     -7.2422    515.2468    559.5679    225.2385
    47.0000      4.4285      3.6681     66.6162     -8.5574    686.0630    557.1682    225.8090
    46.5000      4.4468      3.8284     66.0969    -10.7308    755.8469    561.5115    224.8802
    46.0000      4.4760      3.6590     65.2164    -13.1675    780.8208    569.1616    223.4139
    45.5000      4.4676      3.5551     65.4939    -13.2160    724.6335    570.1013    223.8321
    45.0000      4.4475      3.7509     66.1839     -9.5462    545.9626    562.8083    224.8466
    44.5000      4.4652      4.0803     65.1988     -4.2069    440.5098    553.6697    223.9545
    44.0000      4.5078      4.3455     62.6146     -2.4071    454.1819    548.5825    221.8364
    43.5000      4.5071      4.5495     61.5596     -3.3218    554.0449    552.7532    221.8712
    43.0000      4.4490      4.6226     62.7966     -5.8365    586.6008    562.6211    224.7698
    42.5000      4.3985      4.5623     64.2000     -9.1274    547.2612    567.6008    227.3493
    42.0000      4.3992      4.4373     64.8777     -9.9464    561.3416    562.0405    227.3161
    41.5000      4.4252      4.2963     65.7566     -7.5927    641.0984    549.2266    225.9785
    41.0000      4.4459      4.1274     66.0487     -5.4772    725.4529    536.3667    224.9268
    40.5000      4.4428      3.9773     64.4529     -4.5219    779.9712    531.7974    225.0833
    40.0000      4.3932      3.8674     62.7437     -2.2844    824.1443    534.8125    227.6257
    39.5000      4.3320      3.7984     62.5586     -1.2279    831.9451    540.0803    230.8387
    39.0000      4.3200      3.8394     63.2782     -1.4887    801.1631    544.6692    231.4790
    38.5000      4.3857      4.0025     63.4766     -0.6344    770.4617    546.5935    228.0156
    38.0000      4.4761      4.1840     62.5862      8.7974    744.2351    546.8103    223.4104
    37.5000      4.5126      4.3076     60.5728     27.9438    695.0454    543.9587    221.6022
    37.0000      4.4945      4.4272     57.7493     43.1590    650.3579    536.4409    222.4947
    36.5000      4.4825      4.5500     54.6062     47.5791    623.2288    527.5598    223.0917
    36.0000      4.4851      4.6372     52.4158    108.7764    565.6689    521.4763    222.9618
    35.5000      4.4831      4.6603     51.6223    252.7531    536.9888    520.4619    223.0621
    35.0000      4.4557      4.6610     51.3888    306.6094    602.6521    522.0142    224.4312
    34.5000      4.4146      4.6876     51.3733    185.5979    737.8784    519.9670    226.5207
    34.0000      4.4134      4.7612     52.1115     45.8949    794.5750    515.8330    226.5806
    33.5000      4.4722      4.8465     53.4491      7.4237    789.6213    516.1990    223.6016
    33.0000      4.5420      4.8851     54.6695      5.5778    784.3086    519.0347    220.1676
    32.5000      4.5900      4.8586     55.1909      7.7504    784.3157    517.0117    217.8642
    32.0000      4.5912      4.8198     55.2861     10.3212    785.2278    512.4685    217.8062
    31.5000      4.5550      4.8257     56.1554      7.6476    786.1870    512.9956    219.5395
    31.0000      4.5189      4.8444     58.6221      1.3149    785.4543    510.3523    221.2917
    30.5000      4.4941      4.8073     62.3684     -1.3810    782.5474    497.0942    222.5150
    30.0000      4.4686      4.7427     66.2474     -0.3056    777.4089    490.2544    223.7829
    29.5000      4.4400      4.7570     69.2439      1.4341    775.2551    499.0522    225.2252
    29.0000      4.4171      4.8681     70.2451      1.7040    775.6997    505.2102    226.3914
    28.5000      4.4070      4.9884     69.4978      0.0586    775.9741    490.7854    226.9123
    28.0000      4.4219      5.0126     68.9121     -2.8941    778.9629    474.2319    226.1482
    27.5000      4.4395      4.9676     69.4868     -2.4034    788.6853    477.2566    225.2517
    27.0000      4.4353      4.9416     70.2693      4.0757    804.4683    490.7041    225.4631
    26.5000      4.4111      4.8689     70.6785     10.2507    820.5667    484.6396    226.7010
    26.0000      4.3775      4.8029     70.8273      9.1247    827.8184    466.9121    228.4410
    25.5000      4.3422      4.8362     70.4708      2.8094    818.5649    461.4651    230.2954
    25.0000      4.3172      4.8908     68.5212      1.5345    802.3943    464.6616    231.6313
    24.5000      4.3164      4.8671     65.5620      9.6096    789.5974    466.1077    231.6771
    24.0000      4.3325      4.8393     65.6041     21.0914    781.8525    467.0173    230.8128
    23.5000      4.3489      4.8161     69.7546     25.5044    782.9817    470.4021    229.9431
    23.0000      4.3514      4.7875     73.1963     20.5305    791.4216    474.7568    229.8098
    22.5000      4.3582      4.8333     71.9091   -250.0000      0.2000    476.8030    229.4502
    22.0000      4.3823      4.9779     68.1813   -250.0000      0.2000    471.1819    228.1881
    21.5000      4.3949      5.1539     65.2406   -250.0000      0.2000    463.1748    227.5354
    21.0000      4.3738      5.2510     63.9352   -250.0000      0.2000    459.8044    228.6358
    20.5000      4.3391      5.2733     64.0614   -250.0000      0.2000    458.4800    230.4611
    20.0000      0.0000      5.3770     65.9061   -250.0000      0.2000    454.1792      0.2000
    19.5000      0.0000      5.5374     68.9858   -250.0000      0.2000    450.3298      0.2000
    19.0000      0.0000      5.5901     72.0360   -250.0000      0.2000    447.0066      0.2000
    18.5000      0.0000      5.5150     73.8669   -250.0000      0.2000    445.1003      0.2000
    18.0000      0.0000      5.3629     73.7017   -250.0000      0.2000    447.5195      0.2000
    17.5000      0.0000      5.1365     71.3383   -250.0000      0.2000    453.0166      0.2000
    17.0000      0.0000      4.8990     68.7474   -250.0000      0.2000    454.9077      0.2000
    16.5000      0.0000      4.7621     68.8821   -250.0000      0.2000      0.2000      0.2000
    16.0000      0.0000      4.7438     71.1983   -250.0000      0.2000      0.2000      0.2000
    15.5000      0.0000      4.7879     70.9483   -250.0000      0.2000      0.2000      0.2000
    15.0000      0.0000      4.7874     67.3480   -250.0000      0.2000      0.2000      0.2000
    14.5000      0.0000      4.6918     65.6467   -250.0000      0.2000      0.2000      0.2000
    14.0000      0.0000      4.5520     66.9906   -250.0000      0.2000      0.2000      0.2000
    13.5000      0.0000      4.4390     67.0636   -250.0000      0.2000      0.2000      0.2000
    13.0000      0.0000      0.0000     65.0678   -250.0000      0.2000      0.2000      0.2000
    12.5000      0.0000      0.0000     63.6918   -250.0000      0.2000      0.2000      0.2000
    12.0000      0.0000      0.0000     61.1566   -250.0000      0.2000      0.2000      0.2000
    11.5000      0.0000      0.0000     52.9036   -250.0000      0.2000      0.2000      0.2000
