~Version Information
 VERS.                2.00:   CWLS log ASCII Standard -VERSION 2.00
 WRAP.                  NO:   One line per frame
~Well Information Block
#MNEM.UNIT              Data                Description
#--------- -------------------------------  -------------------------------
 STRT.F                          555.0000:   Starting Depth
 STOP.F                           83.2500:   Ending Depth
 STEP.F                           -0.5000:   Level Spacing
 NULL.                          -999.2500:   Absent Value
 COMP.     FLUOR DANIEL (NPSOR), INC.    :   Company
 WELL.     88-1 X 3                      :   Well
 FLD .                                   :   Field
 LOC .                                   :   Location
 PROV.                                   :   Province
 SRVC.                                   :   Service Company
 LIC .                                   :   License Number
 DATE.                                   :   Log Date
 UWI .                                   :   Unique Well ID
~Curve Information Block
#MNEM.UNIT       API Codes    Curve Description
#---------    -------------   -------------------------------
 DEPT.F        0   0  0  0:   Depth
 GR  .API      0   0  0  0:   Gamma ray counts
 CAL .IN       0   0  0  0:   Caliper (for 4CAL: from C13 and/or C24)
 TEN .LBF      0   0  0  0:   Differential Tension
 CNC .PU       0   0  0  0:   Corrected Neutron Porosity from CN
 ZDEN.G/C3     0   0  0  0:   ZDL Bulk Density
 ZCOR.G/C3     0   0  0  0:   ZDL Correction
#  Curve Data
~A
# ...
   315.0000    105.4163     10.4260    -19.7259     21.3992      2.4825      0.0290
   314.5000    106.3673     10.4260    -24.7446     21.4957      2.4834      0.0274
   314.0000    106.4196     10.4260    -35.2873     21.7919      2.4898      0.0249
   313.5000    105.5956     10.4260    -38.4172     22.2526      2.5000      0.0263
   313.0000    107.2861     10.4260    -31.9637     22.4762      2.5034      0.0306
   312.5000    110.6810     10.4260    -26.7168     22.1464      2.4991      0.0345
   312.0000    112.0501     10.4260    -26.6244     21.6812      2.4955      0.0359
   311.5000    110.9918     10.4260    -29.6140     21.9397      2.4958      0.0347
   311.0000    109.3609     10.4260    -31.1134     22.9619      2.4915      0.0324
   310.5000    108.9810     10.4260    -27.0233     24.1193      2.4743      0.0430
   310.0000    109.7111     10.4260    -16.4069     24.9399      2.4489      0.0643
   309.5000    108.7865     10.4260     -0.0107     25.5256      2.4078      0.0622
   309.0000    104.4783     10.4923      7.8629     27.0586      2.2906      0.0641
   308.5000    100.5763     10.7593     -1.1428     29.8425      2.0975      0.1333
   308.0000    101.7652     11.0136    -12.4754     32.4890      1.9603      0.1681
   307.5000    106.6209     10.9623    -13.6231     30.6635      1.9603      0.0779
   307.0000    110.0115     10.7363    -12.4388     29.2203      2.0759     -0.0463
   306.5000    110.4727     10.6344     -9.2296     28.5958      2.3129     -0.0380
   306.0000    110.6759     10.6271     -4.9553     27.4316      2.4410      0.0162
   305.5000    111.4513     10.6173     -4.0422     25.8110      2.4548      0.0251
   305.0000    112.1874     10.6110     -0.4169     25.4002      2.4525      0.0272
   304.5000    112.9337     10.6173      8.4631     24.8431      2.4606      0.0304
   304.0000    113.6812     10.6229     11.4122     24.5801      2.4656      0.0332
   303.5000    113.6558     10.5980      5.2975     24.8219      2.4630      0.0341
   303.0000    111.3878     10.5447     -3.5743     24.5311      2.4637      0.0320
   302.5000    108.1172     10.5008    -11.3978     24.1903      2.4715      0.0305
   302.0000    106.8018     10.4834    -11.4485     24.6194      2.4781      0.0385
   301.5000    107.5448     10.4949      1.4756     26.2149      2.4440      0.0493
   301.0000    106.8287     10.6848      8.5559     29.6819      2.2993      0.0765
   300.5000    104.5591     11.0627     -3.3809     34.6398      2.0895      0.1428
   300.0000    105.1520     11.2196    -20.8544     37.2020      1.9765      0.1526
   299.5000    109.4358     10.9818    -26.1351     34.3550      1.9863      0.0506
   299.0000    114.4441     10.7031    -19.0530     29.3762      2.1108     -0.0525
   298.5000    117.4677     10.6290     -9.9738     26.2501      2.3364     -0.0252
   298.0000    119.0953     10.6167     -8.5287     25.3763      2.4427      0.0226
   297.5000    120.2774     10.6035     -9.4019     25.4362      2.4715      0.0318
   297.0000    119.9968     10.5999     -3.1415     25.5401      2.4670      0.0274
   296.5000    116.8988     10.6110      0.2769     26.2124      2.4222      0.0281
   296.0000    113.5109     10.6310    -11.6190     28.0455      2.3291      0.0772
   295.5000    113.3670     10.6243    -29.3346     29.0462      2.2396      0.1196
   295.0000    116.1997     10.5717    -36.4612     28.8226      2.2202      0.0804
   294.5000    118.4058     10.5147    -30.3082     28.3407      2.2796      0.0024
   294.0000    118.3454     10.4960    -21.2948     26.0711      2.3915     -0.0046
   293.5000    117.2656     10.4971    -16.9421     25.0340      2.4553      0.0304
   293.0000    117.2916     10.4903    -19.5658     24.4955      2.4628      0.0358
   292.5000    119.4084     10.4910    -22.7484     23.8402      2.4582      0.0355
   292.0000    121.0727     10.5077    -19.4535     23.2020      2.4619      0.0413
   291.5000    119.2859     10.5245    -11.6409     22.7363      2.4680      0.0469
   291.0000    116.1553     10.5275     -5.4055     22.3657      2.4685      0.0435
   290.5000    114.5607     10.5170     -4.3950     22.1184      2.4636      0.0336
   290.0000    113.9026     10.4866     -8.9417     21.8347      2.4644      0.0285
   289.5000    112.8819     10.4501    -14.0593     21.6821      2.4751      0.0277
   289.0000    111.5544     10.4309    -13.6475     21.9139      2.4839      0.0235
   288.5000    109.4451     10.4471     -7.7037     22.4674      2.4741      0.0187
   288.0000    107.5567     10.4867     -0.9040     22.9285      2.4211      0.0344
   287.5000    107.1649     10.4991      1.7172     22.9836      2.3264      0.1031
   287.0000    108.5064     10.4669     -1.7968     22.5137      2.2507      0.1471
   286.5000    110.7480     10.4333     -6.1613     21.5031      2.2516      0.1006
   286.0000    112.3516     10.4224     -8.0151     20.4464      2.3124      0.0180
   285.5000    113.6898     10.4020     -8.8380     20.0038      2.3991      0.0030
   285.0000    116.1065     10.3660     -8.2609     20.2333      2.4571      0.0255
   284.5000    118.9284     10.3463     -6.3852     20.6169      2.4702      0.0284
   284.0000    120.6074     10.3660     -3.1229     20.9009      2.4657      0.0237
   283.5000    121.1780     10.4020      1.6153     21.1087      2.4611      0.0243
   283.0000    120.5001     10.4224      4.0260     21.3170      2.4586      0.0321
   282.5000    118.6224     10.4260     -2.8017     21.6731      2.4570      0.0365
   282.0000    117.2520     10.4260    -13.4706     22.0630      2.4533      0.0323
   281.5000    116.0292     10.4224    -15.0548     22.1594      2.4516      0.0238
   281.0000    113.0286     10.4020     -7.9904     21.8789      2.4517      0.0168
   280.5000    109.7232     10.3654     -5.6699     21.7772      2.4464      0.0125
   280.0000    108.6713     10.3357    -14.4747     22.3605      2.4366      0.0143
   279.5000    107.5944     10.3393    -19.9598     23.4298      2.4103      0.0271
   279.0000    104.7511     10.4305    -15.4406     25.2045      2.3147      0.0923
   278.5000    103.5489     10.6137    -10.0687     27.9085      2.1245      0.2039
   278.0000    105.8913     10.7419     -9.0231     26.3262      2.0111      0.2312
   277.5000    109.9842     10.7184     -8.5653     24.6489      2.0522      0.1231
   277.0000    113.8278     10.6282     -9.4394     22.9256      2.1537     -0.0064
   276.5000    116.2148     10.5702     -8.6211     20.9659      2.3225     -0.0046
   276.0000    115.9871     10.5362     -1.2407     20.4039      2.4224      0.0304
   275.5000    114.7725     10.5158      6.2787     21.0986      2.4441      0.0324
   275.0000    114.4072     10.5090      6.9491     21.4314      2.4411      0.0267
   274.5000    114.5733     10.5152      2.9667     20.9929      2.4448      0.0291
   274.0000    114.0661     10.5245     -0.0851     20.3724      2.4487      0.0356
   273.5000    113.4899     10.5170     -3.3480     20.2616      2.4496      0.0398
   273.0000    114.6518     10.4866     -8.6428     20.4122      2.4513      0.0386
   272.5000    116.6196     10.4501    -14.6205     20.5048      2.4499      0.0302
   272.0000    116.7219     10.4297    -18.0658     20.5113      2.4454      0.0203
   271.5000    114.2431     10.4260    -15.5757     20.5817      2.4456      0.0194
   271.0000    111.2065     10.4260     -6.9680     20.7477      2.4520      0.0278
   270.5000    109.9662     10.4260     -2.4906     20.8975      2.4592      0.0362
   270.0000    110.3120     10.4260     -9.0640     20.9303      2.4641      0.0383
   269.5000    110.3134     10.4260    -19.5221     20.9335      2.4675      0.0357
   269.0000    109.9143     10.4260    -21.5214     20.8879      2.4705      0.0335
   268.5000    110.0058     10.4260    -14.3682     20.5173      2.4731      0.0330
   268.0000    109.4201     10.4260     -5.6699     20.0870      2.4736      0.0325
   267.5000    109.6594     10.4260     -3.2736     20.3339      2.4700      0.0308
