~Version Information
 VERS.                2.00:   CWLS log ASCII Standard -VERSION 2.00
 WRAP.                  NO:   One line per frame
~Well Information Block
#MNEM.UNIT              Data                Description
#--------- -------------------------------  -------------------------------
 STRT.F                          557.0000:   Starting Depth
 STOP.F                           -2.7500:   Ending Depth
 STEP.F                           -0.5000:   Level Spacing
 NULL.                          -999.2500:   Absent Value
 COMP.     FLUOR DANIEL (NPSOR), INC.    :   Company
 WELL.     88-1 X 3                      :   Well
 FLD .                                   :   Field
 LOC .                                   :   Location
 PROV.                                   :   Province
 SRVC.                                   :   Service Company
 LIC .                                   :   License Number
 DATE.                                   :   Log Date
 UWI .                                   :   Unique Well ID
~Curve Information Block
#MNEM.UNIT       API Codes    Curve Description
#---------    -------------   -------------------------------
 DEPT.F        0   0  0  0:   Depth
 CILD.MMHO     0   0  0  0:   Conductivity of Deep Induction
 SP  .MV       0   0  0  0:   Spontaneous Potential
 GR  .API      0   0  0  0:   Gamma ray counts
 TEN .LBF      0   0  0  0:   Differential Tension
 RFOC.OHMM     0   0  0  0:   Resistivity from CFOC
 RILM.OHMM     0   0  0  0:   Resistivity from CILM
 RILD.OHMM     0   0  0  0:   Resistivity from CILD
#  Curve Data
~A
# ...
   515.0000    101.4496      4.8163     92.4800    220.1697      9.4604     10.1905      9.8571
   514.5000    100.0931      4.8368     92.2764    213.0842      9.5115     10.3114      9.9907
   514.0000     98.8550      4.8382     95.8199    210.6034      9.7221     10.4170     10.1158
   513.5000     97.4642      4.8217     97.9873    208.9082      9.9824     10.5295     10.2602
   513.0000     95.7063      4.8054     94.8643    203.5213     10.1498     10.6849     10.4486
   512.5000     93.7350      4.8092     91.0335    199.1924     10.2422     10.9016     10.6684
   512.0000     91.9192      4.8217     91.1379    200.9486     10.3683     11.1495     10.8791
   511.5000     90.5620      4.8380     92.3718    209.3736     10.5469     11.3780     11.0422
   511.0000     89.7641      4.8705     91.2868    217.2145     10.6966     11.5623     11.1403
   510.5000     89.3960      4.8980     90.4693    220.1301     10.7841     11.6973     11.1862
   510.0000     89.0837      4.8899     92.8710    216.1748     10.8485     11.7636     11.2254
   509.5000     88.6743      4.8454     93.9216    206.3861     10.8395     11.7797     11.2772
   509.0000     88.1949      4.7899     89.8740    199.0908     10.6844     11.7955     11.3385
   508.5000     87.5833      4.7699     84.1896    201.1157     10.4934     11.7934     11.4177
   508.0000     86.8964      4.8009     82.3925    204.7574     10.4234     11.6975     11.5080
   507.5000     86.5130      4.8418     83.4135    202.7502     10.5212     11.5223     11.5590
   507.0000     86.5551      4.8648     83.5012    201.6544     10.8025     11.4065     11.5533
   506.5000     86.7594      4.8946     81.4582    202.0110     11.2184     11.4893     11.5261
   506.0000     86.8358      4.9257     80.1605    197.1821     11.5203     11.8137     11.5160
   505.5000     86.6012      4.9131     80.4332    188.0907     11.4446     12.2530     11.5472
   505.0000     85.7677      4.8508     80.6633    181.0574     11.0361     12.5596     11.6594
   504.5000     84.5097      4.8154     81.8082    175.4527     10.6248     12.5788     11.8330
   504.0000     83.6817      4.8376     83.2101    173.0741     10.6298     12.4184     11.9500
   503.5000     83.8187      4.8694     82.7162    176.0420     11.3466     12.2694     11.9305
   503.0000     84.4347      4.8762     80.5246    176.1414     12.6309     12.2544     11.8435
   502.5000     84.9143      4.8587     79.0460    169.4208     13.5540     12.4452     11.7766
   502.0000     85.1095      4.8246     79.9943    164.1415     13.2700     12.8109     11.7496
   501.5000     85.2438      4.7884     84.4216    166.2277     12.2169     13.1129     11.7311
   501.0000     85.8984      4.7720     90.3902    172.5034     11.1949     13.0707     11.6417
   500.5000     87.5912      4.7802     94.0902    175.0431     10.5655     12.6819     11.4167
   500.0000     90.1918      4.8092     94.5221    170.8009     10.3593     12.1524     11.0875
   499.5000     93.1569      4.8447     93.2347    167.7991     10.3459     11.6618     10.7346
   499.0000     95.9137      4.8609     92.8505    173.5944     10.2122     11.2961     10.4260
   498.5000     98.0364      4.8580     94.3529    177.4337      9.8910     11.0346     10.2003
   498.0000     99.5028      4.8587     96.4583    169.6711      9.5953     10.7779     10.0500
   497.5000    100.7502      4.8698     97.5700    160.2171      9.4639     10.4772      9.9255
   497.0000    102.1552      4.8698     96.7244    161.7290      9.3810     10.2097      9.7890
   496.5000    103.7872      4.8587     94.8367    164.9876      9.1961     10.0491      9.6351
   496.0000    105.5339      4.8660     92.9104    159.9859      8.9567      9.9424      9.4756
   495.5000    107.3281      4.9087     90.6082    157.7719      8.7512      9.7766      9.3172
   495.0000    109.1776      4.9554     87.7962    165.6689      8.5807      9.5408      9.1594
   494.5000    110.9549      4.9533     86.5533    170.6294      8.4522      9.3298      9.0127
   494.0000    112.1989      4.8811     88.6954    167.2132      8.3900      9.2094      8.9127
   493.5000    112.6641      4.7918     92.6888    159.5879      8.3540      9.1605      8.8759
   493.0000    113.4554      4.7383     94.7603    153.8456      8.2928      9.1089      8.8140
   492.5000    116.7703      4.7218     92.8890    158.5292      8.2012      8.9675      8.5638
   492.0000    124.5573      4.7429     89.4165    168.6216      8.1225      8.6754      8.0284
   491.5000    137.9112      4.7868     88.3740    169.1277      8.1096      8.2108      7.2510
   491.0000    155.7049      4.8006     90.1665    162.3454      8.1976      7.6218      6.4224
   490.5000    173.2760      4.8013     93.1696    157.1393      7.9721      7.0444      5.7711
   490.0000    185.2483      4.8280     98.0506    150.9567      6.5391      6.5853      5.3982
   489.5000    191.1388      4.8449    105.4531    145.0854      4.8112      6.1610      5.2318
   489.0000    194.0876      4.8456    111.9388    142.4856      4.0133      5.6061      5.1523
   488.5000    196.6186      4.8400    113.0066    141.0152      4.2033      5.0088      5.0860
   488.0000    198.3847      4.8128    107.0941    140.4281      5.1891      4.6532      5.0407
   487.5000    195.7174      4.8053     98.0228    140.9734      6.3994      4.7398      5.1094
   487.0000    185.4548      4.8444     92.4595    140.1161      7.0793      5.2554      5.3921
   486.5000    169.5244      4.8752     91.7428    136.2423      7.3024      6.0393      5.8989
   486.0000    153.0421      4.8616     90.8054    133.6064      7.4112      6.8635      6.5341
   485.5000    139.5789      4.8379     88.0899    135.8552      7.5227      7.5280      7.1644
   485.0000    130.4905      4.8372     86.3553    140.4055      7.6491      7.9593      7.6634
   484.5000    125.5890      4.8548     86.5653    137.8673      7.7839      8.2104      7.9625
   484.0000    123.1294      4.8842     87.0473    131.1793      7.8920      8.3653      8.1215
   483.5000    121.3737      4.9211     86.8194    128.8402      7.9682      8.4716      8.2390
   483.0000    119.7147      4.9322     86.2145    127.8941      8.0772      8.5603      8.3532
   482.5000    117.9779      4.8960     85.0697    124.9249      8.2233      8.6572      8.4762
   482.0000    116.0738      4.8512     83.1001    124.4497      8.3232      8.7738      8.6152
   481.5000    114.0744      4.8290     81.3678    130.3164      8.3469      8.8944      8.7662
   481.0000    112.2805      4.8253     80.8876    136.4268      8.3686      8.9969      8.9063
   480.5000    111.1094      4.8336     82.8067    134.7764      8.4335      9.0835      9.0001
   480.0000    110.6655      4.8469     85.6938    127.5861      8.5162      9.1778      9.0362
   479.5000    110.5171      4.8597     85.4739    126.0748      8.5944      9.2826      9.0484
   479.0000    110.2232      4.8604     83.2977    130.2145      8.6679      9.3826      9.0725
   478.5000    109.7742      4.8566     83.6943    130.5028      8.7260      9.4779      9.1096
   478.0000    109.2621      4.8641     84.9589    129.2621      8.7642      9.5874      9.1523
   477.5000    108.7082      4.8759     82.9826    130.5101      8.7896      9.7064      9.1989
   477.0000    108.1035      4.8766     80.7319    132.4429      8.8041      9.7877      9.2504
   476.5000    107.5401      4.8436     82.0690    131.9094      8.8215      9.8071      9.2989
   476.0000    107.1152      4.7964     85.0686    129.4426      8.8406      9.7947      9.3357
   475.5000    106.8995      4.7964     85.2666    129.4859      8.8527      9.7883      9.3546
   475.0000    106.9360      4.8436     82.7843    132.5731      8.8790      9.7876      9.3514
   474.5000    107.1168      4.8803     80.6103    132.2861      8.9412      9.7863      9.3356
   474.0000    107.3115      4.8950     81.0976    126.4384      8.9925      9.7934      9.3187
   473.5000    107.5168      4.9002     83.2097    120.5158      8.9593      9.8194      9.3009
