~Version Information
 VERS.                2.00:   CWLS log ASCII Standard -VERSION 2.00
 WRAP.                  NO:   One line per frame
~Well Information Block
#MNEM.UNIT              Data                Description
#--------- -------------------------------  -------------------------------
 STRT.F                          555.0000:   Starting Depth
 STOP.F                           83.2500:   Ending Depth
 STEP.F                           -0.5000:   Level Spacing
 NULL.                          -999.2500:   Absent Value
 COMP.     FLUOR DANIEL (NPSOR), INC.    :   Company
 WELL.     88-1 X 3                      :   Well
 FLD .                                   :   Field
 LOC .                                   :   Location
 PROV.                                   :   Province
 SRVC.                                   :   Service Company
 LIC .                                   :   License Number
 DATE.                                   :   Log Date
 UWI .                                   :   Unique Well ID
~Curve Information Block
#MNEM.UNIT       API Codes    Curve Description
#---------    -------------   -------------------------------
 DEPT.F        0   0  0  0:   Depth
 GR  .API      0   0  0  0:   Gamma ray counts
 CAL .IN       0   0  0  0:   Caliper (for 4CAL: from C13 and/or C24)
 TEN .LBF      0   0  0  0:   Differential Tension
 CNC .PU       0   0  0  0:   Corrected Neutron Porosity from CN
 ZDEN.G/C3     0   0  0  0:   ZDL Bulk Density
 ZCOR.G/C3     0   0  0  0:   ZDL Correction
#  Curve Data
~A
   555.0000      0.0000      6.0000   -250.0000    -10.0000      2.0000     -1.5000
   554.5000      0.0000      6.0000   -250.0000    -10.0000      2.0000     -1.5000
   554.0000      0.0000      6.0000   -250.0000    -10.0000      2.0000     -1.5000
   553.5000      0.0000      6.0000   -250.0000    -10.0000      2.0000     -1.5000
   553.0000      0.0000      6.0000   -250.0000    -10.0000      2.0000     -1.5000
   552.5000      0.0000      6.0000   -250.0000    -10.0000      2.0000     -1.5000
   552.0000      0.0000      6.0000   -250.0000    -10.0000      2.0000     -1.5000
   551.5000      0.0000      6.0000   -250.0000    -10.0000      2.0000     -1.5000
   551.0000      0.0000      6.0000   -250.0000    -10.0000      2.0000     -1.5000
   550.5000      0.0000      6.0000   -250.0000    -10.0000      2.0000     -1.5000
   550.0000      0.0000      6.0000   -250.0000    -10.0000      2.0000     -1.5000
   549.5000      0.0000      6.0000   -250.0000    -10.0000      2.0000     -1.5000
   549.0000      0.0000      6.0000   -250.0000    -10.0000      2.0000     -1.5000
   548.5000      0.0000      6.0000   -250.0000    -10.0000      2.0000     -1.5000
   548.0000      0.0000      6.0000   -250.0000    -10.0000      2.0000     -1.5000
   547.5000      0.0000      6.0000   -230.2639    -10.0000      2.0000     -1.5000
   547.0000      0.0000      6.0000   -229.4621    -10.0000      2.0000     -1.5000
   546.5000      0.0000      6.0000   -224.0063    -10.0000      2.0000     -1.5000
   546.0000      0.0000      8.9970   -215.0549    -10.0000      2.0000     -1.5000
   545.5000      0.0000      8.9970   -207.7397    -10.0000      2.0000     -1.5000
   545.0000      0.0000      8.9970   -202.7036    -10.0000      2.0000     -1.5000
   544.5000      0.0000      8.9970   -202.9348    -10.0000      2.0000     -1.5000
   544.0000      0.0000      8.9970   -203.4545    -10.0000      2.0000     -1.5000
   543.5000      0.0000      8.9970   -196.1711    -10.0000      2.0000     -1.5000
   543.0000      0.0000      8.9970   -184.4143    -10.0000      2.0000     -1.5000
   542.5000      0.0000      8.9970   -177.5502    -10.0000      2.0000     -1.5000
   542.0000      0.0000      8.9970   -175.6665    -10.0000      2.0000     -1.5000
   541.5000      0.0000      8.9970   -175.8629    -10.0000      2.4715      0.0148
   541.0000      0.0000      8.9970   -175.8261    -10.0000      2.4699      0.0175
   540.5000      0.0000      8.9976   -171.5902    -10.0000      2.4693      0.0174
   540.0000      0.0000      9.0045   -164.5670    -10.0000      2.4678      0.0156
   539.5000      0.0000      9.0144   -146.2359    -10.0000      2.4712      0.0204
   539.0000      0.0000      9.0144    -66.3622    -10.0000      2.4814      0.0317
   538.5000      0.0000      9.0045    135.9345    -10.0000      2.4919      0.0375
   538.0000      0.0000      9.0013    402.3665    -10.0000      2.4996      0.0377
   537.5000      0.0000      9.0211    578.8513    -10.0000      2.5061      0.0375
   537.0000      0.0000      9.0576    605.5435    -10.0000      2.5106      0.0362
   536.5000      0.0000      9.0879    562.7375    -10.0000      2.5125      0.0358
   536.0000      0.0000      9.0985    526.3176    -10.0000      2.5138      0.0389
   535.5000      0.0000      9.0991    509.0393    -10.0000      2.5153      0.0453
   535.0000      0.0000      9.0991    502.5496    -10.0000      2.5134      0.0568
   534.5000      0.0000      9.0991    496.2917    -10.0000      2.5036      0.0657
   534.0000      0.0000      9.0991    486.7710    -10.0000      2.4887      0.0653
   533.5000      0.0000      9.0991    480.1592    -10.0000      2.4726      0.0661
   533.0000      0.0000      9.0991    477.8123    -10.0000      2.4518      0.0764
   532.5000      0.0000      9.0991    471.6772    -10.0000      2.4278      0.0772
   532.0000      0.0000      9.0991    461.5649    -10.0000      2.4180      0.0535
   531.5000      0.0000      9.0991    458.1626    -10.0000      2.4350      0.0249
   531.0000      0.0000      9.0991    461.1184    -10.0000      2.4656      0.0194
   530.5000      0.0000      9.0991    456.5271    -10.0000      2.4858      0.0330
   530.0000      0.0000      9.0991    444.0300    -10.0000      2.4890      0.0415
   529.5000      0.0000      9.0991    433.2026    -10.0000      2.4871      0.0420
   529.0000      0.0000      9.0991    424.9138    -10.0000      2.4909      0.0430
   528.5000      0.0000      9.0991    415.4812    -10.0000      2.4976      0.0459
   528.0000      0.0000      9.0991    405.3359    -10.0000      2.4989      0.0448
   527.5000      0.0000      9.0991    399.6592    -10.0000      2.4953      0.0392
   527.0000      0.0000      9.0991    399.4104    -10.0000      2.4950      0.0368
   526.5000      0.0000      9.0991    396.7024    -10.0000      2.4988      0.0389
   526.0000      0.0000      9.0991    385.9639    -10.0000      2.5007      0.0401
   525.5000      0.0000      9.0991    374.9617    -10.0000      2.4994      0.0373
   525.0000      0.0000      9.0991    372.2563    -10.0000      2.4991      0.0362
   524.5000      0.0000      9.0991    374.0659     33.1536      2.5011      0.0388
   524.0000      0.0000      9.0991    370.8208     32.9809      2.5040      0.0394
   523.5000      0.0000      9.0991    360.9436     32.5830      2.5077      0.0440
   523.0000      0.0000      9.0991    351.6235     32.3874      2.5084      0.0520
   522.5000     99.2502      9.0991    348.5110     32.3403      2.5020      0.0507
   522.0000     99.1926      9.0991    347.7847     32.3285      2.4944      0.0419
   521.5000     99.3623      9.0991    344.7498     32.4785      2.4950      0.0415
   521.0000     99.2292      9.0991    339.6240     32.5735      2.5024      0.0458
   520.5000     98.6444      9.0991    333.7344     32.3690      2.5040      0.0417
   520.0000     99.6924      9.0991    326.9424     32.0809      2.4944      0.0328
   519.5000    102.8048      9.0991    322.2571     31.7767      2.4833      0.0334
   519.0000    104.6026      9.0991    320.3774     31.5376      2.4774      0.0401
   518.5000    103.8128      9.0991    319.3284     31.6392      2.4747      0.0390
   518.0000    102.0804      9.0991    314.2412     31.7684      2.4756      0.0339
   517.5000     99.6706      9.0991    306.7971     31.4931      2.4825      0.0339
   517.0000     98.3763      9.0991    302.4250     30.7702      2.4902      0.0308
   516.5000     99.8380      9.0991    303.3860     29.9502      2.4947      0.0245
   516.0000    101.9753      9.0991    300.8264     29.5211      2.4965      0.0250
   515.5000    101.9515      9.0991    290.7903     29.5524      2.4968      0.0297
   515.0000    101.3464      9.0991    283.6948     29.5343      2.4977      0.0355
   514.5000    101.7097      9.0991    285.0510     29.2574      2.5008      0.0482
   514.0000    101.7683      9.0991    284.9958     28.8870      2.5017      0.0576
   513.5000    100.7475      9.0991    280.7351     28.4962      2.4964      0.0496
   513.0000     98.7116      9.0991    278.1841     28.2579      2.4917      0.0330
   512.5000     96.5353      9.0991    273.5759     28.2793      2.4949      0.0244
   512.0000     95.1271      9.0991    266.3621     28.4760      2.5009      0.0253
   511.5000     94.7124      9.0991    263.0552     28.6830      2.5007      0.0311
   511.0000     93.9912      9.0991    260.8987     28.8356      2.4953      0.0371
   510.5000     92.1604      9.0991    255.6296     28.8889      2.4915      0.0397
   510.0000     90.2379      9.0991    250.5178     28.7976      2.4905      0.0412
   509.5000     89.6078      9.0991    248.0964     28.6979      2.4916      0.0442
   509.0000     89.4505      9.0991    247.3461     28.6360      2.4941      0.0421
   508.5000     89.0525      9.0991    247.3821     28.5773      2.4957      0.0381
   508.0000     89.0574      9.0991    246.8904     28.6001      2.4965      0.0420
   507.5000     88.9452      9.0991    245.1873     28.4209      2.4980      0.0489
