~Version Information
 VERS.                2.00:   CWLS log ASCII Standard -VERSION 2.00
 WRAP.                  NO:   One line per frame
~Well Information Block
#MNEM.UNIT              Data                Description
#--------- -------------------------------  -------------------------------
 STRT.F                          557.0000:   Starting Depth
 STOP.F                           -2.7500:   Ending Depth
 STEP.F                           -0.5000:   Level Spacing
 NULL.                          -999.2500:   Absent Value
 COMP.     FLUOR DANIEL (NPSOR), INC.    :   Company
 WELL.     88-1 X 3                      :   Well
 FLD .                                   :   Field
 LOC .                                   :   Location
 PROV.                                   :   Province
 SRVC.                                   :   Service Company
 LIC .                                   :   License Number
 DATE.                                   :   Log Date
 UWI .                                   :   Unique Well ID
~Curve Information Block
#MNEM.UNIT       API Codes    Curve Description
#---------    -------------   -------------------------------
 DEPT.F        0   0  0  0:   Depth
 CILD.MMHO     0   0  0  0:   Conductivity of Deep Induction
 SP  .MV       0   0  0  0:   Spontaneous Potential
 GR  .API      0   0  0  0:   Gamma ray counts
 TEN .LBF      0   0  0  0:   Differential Tension
 RFOC.OHMM     0   0  0  0:   Resistivity from CFOC
 RILM.OHMM     0   0  0  0:   Resistivity from CILM
 RILD.OHMM     0   0  0  0:   Resistivity from CILD
#  Curve Data
~A
# ...
   473.0000    107.9074      4.8960     83.7219    118.0203      8.8559      9.8443      9.2672
   472.5000    108.6888      4.8839     82.2158    120.6683      8.7667      9.8215      9.2006
   472.0000    109.7570      4.8597     82.1182    123.6900      8.7212      9.7363      9.1110
   471.5000    110.8015      4.8205     82.5919    119.6356      8.6659      9.6330      9.0251
   471.0000    111.6144      4.7994     81.2177    114.2161      8.5734      9.5578      8.9594
   470.5000    112.1478      4.8388     79.6890    114.6037      8.4871      9.5027      8.9168
   470.0000    112.4559      4.8892     80.2902    111.2316      8.4540      9.4489      8.8924
   469.5000    112.7286      4.8943     81.6715    101.5415      8.4648      9.4073      8.8709
   469.0000    112.9003      4.8617     82.5626     99.1573      8.4861      9.3857      8.8574
   468.5000    112.9252      4.8307     83.7472    107.5018      8.5066      9.3609      8.8554
   468.0000    112.9959      4.8151     84.5705    111.5235      8.5484      9.3282      8.8499
   467.5000    113.1677      4.8300     84.1511    107.5418      8.6121      9.3168      8.8364
   467.0000    113.2075      4.8418     83.8169    105.3083      8.6332      9.3346      8.8333
   466.5000    113.0625      4.8351     84.6266    108.3744      8.5648      9.3558      8.8447
   466.0000    112.7245      4.8433     84.1513    109.5959      8.4659      9.3576      8.8712
   465.5000    112.1937      4.8742     83.4854    108.9292      8.4030      9.3365      8.9132
   465.0000    111.8272      4.9097     83.0424    107.4634      8.3797      9.2999      8.9424
   464.5000    112.0310      4.9253     80.4577    102.7533      8.4296      9.2581      8.9261
   464.0000    112.6939      4.9104     77.6479     95.6102      8.6089      9.2325      8.8736
   463.5000    113.5071      4.8868     78.3308     93.8903      8.8317      9.2394      8.8100
   463.0000    114.4016      4.8795     80.2529     99.5230      8.8825      9.2611      8.7411
   462.5000    115.3961      4.8795     79.7238    102.9655      8.6946      9.2550      8.6658
   462.0000    116.6118      4.8817     77.5161    100.0208      8.4301      9.1924      8.5755
   461.5000    118.2486      4.9064     76.4974     95.2384      8.2454      9.0671      8.4568
   461.0000    120.2180      4.9419     77.3456     94.0620      8.1731      8.8951      8.3182
   460.5000    122.1776      4.9419     77.5154     94.2581      8.1500      8.7210      8.1848
   460.0000    124.0343      4.9064     75.3512     94.8047      8.0944      8.5867      8.0623
   459.5000    125.8796      4.8817     73.3288     94.9285      8.0003      8.4955      7.9441
   459.0000    127.6100      4.8642     73.0259     93.1924      7.9320      8.4147      7.8364
   458.5000    128.9501      4.8051     73.6102     90.0107      7.9112      8.3274      7.7549
   458.0000    129.8527      4.7518     74.4497     90.8796      7.8926      8.2524      7.7010
   457.5000    130.4352      4.7741     75.3518     96.5575      7.8580      8.2047      7.6666
   457.0000    130.7556      4.8406     75.3978    100.5765      7.8516      8.1760      7.6479
   456.5000    130.9323      4.8752     74.4700    100.0793      7.8867      8.1531      7.6375
   456.0000    131.0928      4.8752     73.7875     96.2580      7.9100      8.1182      7.6282
   455.5000    131.1931      4.8515     74.5786     91.1462      7.9100      8.0626      7.6223
   455.0000    131.0359      4.8197     76.3007     89.4556      7.9399      8.0181      7.6315
   454.5000    130.5941      4.8180     76.5306     92.4641      8.0003      8.0272      7.6573
   454.0000    129.9571      4.8490     74.3664     98.8709      8.0171      8.0908      7.6948
   453.5000    129.3125      4.8602     71.2632    105.1478      7.9823      8.1723      7.7332
   453.0000    128.8308      4.8380     69.1693    108.8468      7.9823      8.2331      7.7621
   452.5000    128.5095      4.8107     68.3895    110.2767      8.0543      8.2633      7.7815
   452.0000    128.2387      4.7962     69.1415    109.5981      8.1446      8.2828      7.7980
   451.5000    127.9428      4.7953     71.5129    109.0637      8.2071      8.3081      7.8160
   451.0000    127.5331      4.8099     74.7867    108.1643      8.2152      8.3376      7.8411
   450.5000    127.0143      4.8166     75.8293    101.5799      8.1629      8.3718      7.8731
   450.0000    126.4776      4.8179     74.4881     91.1160      8.1166      8.4115      7.9065
   449.5000    126.0200      4.8372     73.0421     84.0354      8.1647      8.4449      7.9353
   449.0000    125.7432      4.8662     71.9422     81.8345      8.3165      8.4754      7.9527
   448.5000    125.5135      4.8788     71.8322     84.2498      8.5041      8.5324      7.9673
   448.0000    124.9272      4.8722     73.6853     88.1517      8.5963      8.6305      8.0047
   447.5000    123.8002      4.8479     76.3923     84.5994      8.4953      8.7490      8.0775
   447.0000    122.2598      4.8204     78.0451     75.2966      8.3382      8.8659      8.1793
   446.5000    120.3771      4.7983     78.4417     73.0374      8.3202      8.9806      8.3072
   446.0000    118.3734      4.7715     77.0996     86.2302      8.4359      9.1083      8.4478
   445.5000    116.6558      4.7597     74.3491    103.3904      8.6184      9.2488      8.5722
   445.0000    115.3194      4.7771     72.3582    105.8902      8.9676      9.3714      8.6716
   444.5000    114.1992      4.7663     72.3230     94.7589      9.4770      9.4773      8.7566
   444.0000    113.1088      4.7175     72.1315     86.8460      9.7594      9.6059      8.8410
   443.5000    111.9469      4.7092     70.5623     87.1342      9.5189      9.7530      8.9328
   443.0000    110.8611      4.7653     70.3279     88.0980      9.0841      9.8356      9.0203
   442.5000    110.0678      4.8130     71.3107     84.6854      8.8801      9.7962      9.0853
   442.0000    109.3795      4.8450     71.6190     77.6078      8.9969      9.6951      9.1425
   441.5000    108.5285      4.8892     72.0223     70.7292      9.2195      9.6567      9.2142
   441.0000    107.4011      4.9204     72.7979     66.6398      9.3147      9.7321      9.3109
   440.5000    105.9366      4.9175     72.7399     70.1454      9.4123      9.8654      9.4396
   440.0000    104.3021      4.9045     71.6236     84.6064      9.7091      9.9911      9.5875
   439.5000    102.8208      4.8950     71.4084     99.6526      9.9720     10.1294      9.7257
   439.0000    101.4349      4.8795     72.3846    105.4876      9.9543     10.3230      9.8585
   438.5000     99.9718      4.8633     73.2709    102.0609      9.8683     10.5290     10.0028
   438.0000     98.6101      4.8477     71.6025     93.3675      9.8734     10.6834     10.1409
   437.5000     97.3793      4.8433     68.5478     85.1142      9.8252     10.7843     10.2691
   437.0000     96.0879      4.8660     66.5850     84.7412      9.7110     10.8264     10.4071
   436.5000     94.6699      4.9169     66.1631     90.4401      9.7306     10.7900     10.5630
   436.0000     93.3092      4.9620     66.7679     93.7908      9.9625     10.7343     10.7171
   435.5000     92.0149      4.9876     67.0546     90.7186     10.3373     10.7597     10.8678
   435.0000     90.5679      4.9819     67.0541     85.4558     10.7495     10.9173     11.0414
   434.5000     88.8525      4.9486     67.1418     85.8230     11.0145     11.2069     11.2546
   434.0000     87.1985      4.9249     68.0172     89.0871     10.9080     11.5721     11.4681
   433.5000     86.0972      4.9253     69.5657     92.0950     10.5825     11.8717     11.6148
   433.0000     85.8024      4.9249     71.6568     95.4424     10.4894     11.9784     11.6547
   432.5000     86.0092      4.9486     72.0150     93.3611     10.8738     11.9389     11.6267
   432.0000     85.9598      4.9710     69.3243     83.5193     11.4842     11.9301     11.6333
   431.5000     85.0026      4.9413     65.6345     76.0301     11.6402     12.0827     11.7643
