~Version Information
 VERS.                2.00:   CWLS log ASCII Standard -VERSION 2.00
 WRAP.                  NO:   One line per frame
~Well Information Block
#MNEM.UNIT              Data                Description
#--------- -------------------------------  -------------------------------
 STRT.F                          555.0000:   Starting Depth
 STOP.F                           83.2500:   Ending Depth
 STEP.F                           -0.5000:   Level Spacing
 NULL.                          -999.2500:   Absent Value
 COMP.     FLUOR DANIEL (NPSOR), INC.    :   Company
 WELL.     88-1 X 3                      :   Well
 FLD .                                   :   Field
 LOC .                                   :   Location
 PROV.                                   :   Province
 SRVC.                                   :   Service Company
 LIC .                                   :   License Number
 DATE.                                   :   Log Date
 UWI .                                   :   Unique Well ID
~Curve Information Block
#MNEM.UNIT       API Codes    Curve Description
#---------    -------------   -------------------------------
 DEPT.F        0   0  0  0:   Depth
 GR  .API      0   0  0  0:   Gamma ray counts
 CAL .IN       0   0  0  0:   Caliper (for 4CAL: from C13 and/or C24)
 TEN .LBF      0   0  0  0:   Differential Tension
 CNC .PU       0   0  0  0:   Corrected Neutron Porosity from CN
 ZDEN.G/C3     0   0  0  0:   ZDL Bulk Density
 ZCOR.G/C3     0   0  0  0:   ZDL Correction
#  Curve Data
~A
# ...
   363.0000     74.8351     10.2219     32.8936     21.2827      2.3547      0.0398
   362.5000     73.9386     10.2219     31.4925     21.4196      2.3536      0.0372
   362.0000     73.6878     10.2219     29.4807     21.1880      2.3521      0.0352
   361.5000     73.5989     10.2219     27.2554     20.5912      2.3522      0.0327
   361.0000     73.6641     10.2219     24.6644     19.9015      2.3564      0.0324
   360.5000     72.9458     10.2219     21.6147     19.2335      2.3647      0.0368
   360.0000     70.7751     10.2219     15.1686     18.6582      2.3748      0.0389
   359.5000     69.0597     10.2219      5.5345     18.3021      2.3822      0.0380
   359.0000     69.1498     10.2219     -0.2721     18.5153      2.3804      0.0430
   358.5000     70.2808     10.2219     -0.9363     19.1978      2.3652      0.0465
   358.0000     70.4041     10.2219      1.3124     19.9334      2.3413      0.0451
   357.5000     68.5001     10.2219      9.5965     20.4642      2.3187      0.0453
   357.0000     66.4134     10.2219     23.3816     20.6629      2.3061      0.0404
   356.5000     66.3744     10.2219     33.3542     20.4348      2.3065      0.0274
   356.0000     67.1778     10.2219     34.0380     19.7801      2.3184      0.0244
   355.5000     67.3468     10.2219     36.4286     18.6638      2.3409      0.0275
   355.0000     66.8000     10.2219     42.4642     17.0123      2.3747      0.0216
   354.5000     64.4773     10.2219     35.2107     15.3028      2.4178      0.0198
   354.0000     60.2844     10.2219     10.6506     14.2770      2.4537      0.0336
   353.5000     57.1198     10.2219    -10.3621     14.3047      2.4560      0.0632
   353.0000     56.3935     10.2219    -13.0879     15.8035      2.4126      0.0898
   352.5000     57.1558     10.2219     -7.4188     16.9962      2.3443      0.0968
   352.0000     59.3946     10.2219     -5.4354     19.1233      2.2871      0.0814
   351.5000     62.6843     10.2219     -9.7569     20.8814      2.2624      0.0585
   351.0000     65.3676     10.2219    -12.8149     21.2310      2.2633      0.0413
   350.5000     66.2274     10.2219     -9.4239     21.0696      2.2732      0.0354
   350.0000     64.7156     10.2219     -1.8803     20.7371      2.2848      0.0389
   349.5000     61.5846     10.2219      2.2866     20.2007      2.2961      0.0399
   349.0000     59.5611     10.2219      0.0467     19.8350      2.3020      0.0385
   348.5000     60.6129     10.2219     -6.0433     19.7836      2.2993      0.0408
   348.0000     62.9847     10.2219     -9.9003     19.7426      2.2954      0.0419
   347.5000     64.6057     10.2219    -10.0497     19.8425      2.2980      0.0383
   347.0000     64.5758     10.2219     -8.5504     20.0665      2.2976      0.0430
   346.5000     63.4327     10.2219     -8.5077     20.1378      2.2860      0.0625
   346.0000     62.3065     10.2219     -9.5538     19.9851      2.2744      0.0688
   345.5000     61.1318     10.2219    -10.1172     19.7915      2.2789      0.0599
   345.0000     60.4034     10.2219    -10.3682     19.2585      2.3011      0.0485
   344.5000     61.8731     10.2219     -8.8334     18.5416      2.3294      0.0466
   344.0000     63.4407     10.2219     -4.8998     18.4193      2.3424      0.0547
   343.5000     61.0671     10.2219      0.3096     19.0057      2.3221      0.0703
   343.0000     56.6611     10.2219      5.6071     19.6911      2.2804      0.0811
   342.5000     55.1269     10.2219      6.9513     19.9651      2.2555      0.0758
   342.0000     56.3052     10.2219      0.2495     20.2238      2.2655      0.0657
   341.5000     56.9899     10.2219     -9.3004     20.7169      2.2853      0.0664
   341.0000     56.1789     10.2219     -7.4536     21.1535      2.2845      0.0729
   340.5000     54.9317     10.2219      5.9469     21.3657      2.2686      0.0686
   340.0000     53.1728     10.2219     17.5040     21.5055      2.2576      0.0535
   339.5000     50.8459     10.2219     18.1264     21.7082      2.2608      0.0372
   339.0000     50.1804     10.2219     14.4777     21.8450      2.2777      0.0269
   338.5000     52.4879     10.2219     14.8044     21.7731      2.2995      0.0276
   338.0000     55.8153     10.2219     19.4852     21.5010      2.3080      0.0437
   337.5000     56.6917     10.2219     25.3647     20.9320      2.3005      0.0627
   337.0000     53.7234     10.2213     27.1243     19.9264      2.3059      0.0578
   336.5000     49.4492     10.2113     21.0035     18.4717      2.3512      0.0319
   336.0000     48.7578     10.1916     10.7567     17.0109      2.4192      0.0273
   335.5000     54.6677     10.1854     -0.3132     16.4588      2.4617      0.0503
   335.0000     64.9254     10.1978    -14.6784     17.2448      2.4647      0.0555
   334.5000     75.9446     10.1972    -28.1820     18.9889      2.4591      0.0352
   334.0000     85.4411     10.1742    -31.5126     20.8598      2.4660      0.0188
   333.5000     93.7769     10.1501    -26.9489     22.1083      2.4796      0.0249
   333.0000    100.8255     10.1333    -20.3844     22.4946      2.4866      0.0390
   332.5000    105.4426     10.1229    -13.4401     22.4388      2.4824      0.0408
   332.0000    106.1750     10.1198     -8.0901     22.3020      2.4762      0.0357
   331.5000    104.3270     10.1198     -6.8607     21.9576      2.4770      0.0354
   331.0000    102.7304     10.1198     -9.3239     21.2702      2.4826      0.0379
   330.5000    102.0624     10.1198    -14.3536     20.5368      2.4845      0.0332
   330.0000    101.7197     10.1198    -22.5770     20.2261      2.4778      0.0253
   329.5000    100.7016     10.1204    -27.5259     20.3225      2.4752      0.0227
   329.0000     98.6110     10.1273    -25.3241     20.5984      2.4853      0.0266
   328.5000     96.2587     10.1372    -24.6169     21.1546      2.4938      0.0249
   328.0000     94.7790     10.1372    -23.9638     21.9876      2.4801      0.0161
   327.5000     94.5333     10.1321    -16.7976     23.2917      2.4200      0.0226
   327.0000     96.7034     10.1987    -10.7827     25.9887      2.2884      0.1045
   326.5000    103.0454     10.3757    -12.2863     29.2453      2.1262      0.1886
   326.0000    110.4937     10.5379     -9.0256     29.5361      2.0707      0.1581
   325.5000    113.0669     10.5739     -0.3996     27.7102      2.1215      0.0293
   325.0000    110.4053     10.5411      3.2498     26.7690      2.2646     -0.0377
   324.5000    107.9089     10.5257      5.8722     24.9470      2.4126      0.0014
   324.0000    106.5775     10.5152     10.6341     23.8774      2.4774      0.0265
   323.5000    104.7253     10.5084      9.7222     23.5902      2.4820      0.0322
   323.0000    103.1221     10.5077      1.0544     23.2137      2.4832      0.0310
   322.5000    103.5428     10.5077     -7.0568     22.7546      2.4882      0.0293
   322.0000    105.1098     10.5107    -12.5544     22.5680      2.4855      0.0332
   321.5000    106.9472     10.5170    -18.1082     22.5202      2.4782      0.0374
   321.0000    107.9108     10.5034    -21.7325     22.2296      2.4710      0.0334
   320.5000    108.4444     10.4675    -21.8801     22.0833      2.4646      0.0268
   320.0000    109.0111     10.4372    -19.6042     22.1095      2.4608      0.0254
   319.5000    108.7357     10.4266    -17.4115     22.0153      2.4623      0.0298
   319.0000    107.4928     10.4260    -16.3721     21.6290      2.4653      0.0323
   318.5000    105.8727     10.4260    -16.9104     21.3366      2.4654      0.0285
   318.0000    105.0401     10.4260    -18.3369     21.4711      2.4656      0.0233
   317.5000    105.7735     10.4260    -19.9705     21.8448      2.4667      0.0203
   317.0000    107.0766     10.4260    -18.9228     21.9634      2.4666      0.0200
   316.5000    107.2696     10.4260    -15.5041     21.7726      2.4672      0.0213
   316.0000    106.5684     10.4260    -16.1955     21.5414      2.4723      0.0238
   315.5000    105.6471     10.4260    -18.8340     21.4185      2.4792      0.0266
