~Version Information
 VERS.                2.00:   CWLS log ASCII Standard -VERSION 2.00
 WRAP.                  NO:   One line per frame
~Well Information Block
#MNEM.UNIT              Data                Description
#--------- -------------------------------  -------------------------------
 STRT.F                          555.0000:   Starting Depth
 STOP.F                           83.2500:   Ending Depth
 STEP.F                           -0.5000:   Level Spacing
 NULL.                          -999.2500:   Absent Value
 COMP.     FLUOR DANIEL (NPSOR), INC.    :   Company
 WELL.     88-1 X 3                      :   Well
 FLD .                                   :   Field
 LOC .                                   :   Location
 PROV.                                   :   Province
 SRVC.                                   :   Service Company
 LIC .                                   :   License Number
 DATE.                                   :   Log Date
 UWI .                                   :   Unique Well ID
~Curve Information Block
#MNEM.UNIT       API Codes    Curve Description
#---------    -------------   -------------------------------
 DEPT.F        0   0  0  0:   Depth
 GR  .API      0   0  0  0:   Gamma ray counts
 CAL .IN       0   0  0  0:   Caliper (for 4CAL: from C13 and/or C24)
 TEN .LBF      0   0  0  0:   Differential Tension
 CNC .PU       0   0  0  0:   Corrected Neutron Porosity from CN
 ZDEN.G/C3     0   0  0  0:   ZDL Bulk Density
 ZCOR.G/C3     0   0  0  0:   ZDL Correction
#  Curve Data
~A
# ...
   411.0000     74.4336      9.6095      3.0210     27.2803      2.4595      0.0503
   410.5000     75.1257      9.6095      4.8776     27.2868      2.4561      0.0443
   410.0000     75.6951      9.6095     12.6011     27.1627      2.4487      0.0309
   409.5000     75.5474      9.6095     12.1177     26.9761      2.4422      0.0279
   409.0000     75.2215      9.6095      2.9924     26.9128      2.4360      0.0368
   408.5000     75.0594      9.6095     -6.0475     27.0719      2.4268      0.0425
   408.0000     75.5424      9.6095    -12.3412     27.3036      2.4177      0.0395
   407.5000     76.4372      9.6095    -17.0175     27.4553      2.4143      0.0351
   407.0000     76.5218      9.6095    -18.0920     27.5695      2.4182      0.0407
   406.5000     75.4955      9.6095    -12.8228     27.6094      2.4236      0.0543
   406.0000     74.8148      9.6095     -6.2461     27.5208      2.4222      0.0600
   405.5000     74.8899      9.6095     -9.1692     27.4560      2.4131      0.0491
   405.0000     75.8924      9.6095    -18.2869     27.5871      2.4055      0.0323
   404.5000     77.2001      9.6095    -23.7217     27.8273      2.4056      0.0194
   404.0000     76.8415      9.6095    -25.7731     27.9314      2.4108      0.0151
   403.5000     75.8344      9.6095    -27.2704     27.8907      2.4158      0.0218
   403.0000     77.2456      9.6095    -23.2117     27.8785      2.4196      0.0288
   402.5000     79.2967      9.6095    -10.7381     27.9143      2.4245      0.0297
   402.0000     78.6035      9.6095      1.7663     27.9876      2.4322      0.0318
   401.5000     76.5092      9.6095      7.6787     28.2220      2.4403      0.0347
   401.0000     75.5651      9.6095      9.5099     28.2813      2.4434      0.0319
   400.5000     75.3952      9.6095     10.3300     28.2326      2.4396      0.0313
   400.0000     75.0925      9.6095      6.7268     28.0029      2.4322      0.0379
   399.5000     75.6313      9.6095     -1.8983     27.6228      2.4253      0.0431
   399.0000     76.8349      9.6095     -9.4077     27.5521      2.4226      0.0430
   398.5000     76.8070      9.6125    -10.9468     27.5759      2.4254      0.0415
   398.0000     74.9114      9.6224     -8.5488     27.2310      2.4281      0.0450
   397.5000     73.5378      9.6286    -11.1984     26.7422      2.4222      0.0543
   397.0000     74.0155      9.6224    -18.5894     26.5765      2.4093      0.0585
   396.5000     74.1583      9.6125    -23.6320     26.8087      2.4014      0.0521
   396.0000     72.4800      9.6095    -23.3819     27.1296      2.4031      0.0455
   395.5000     71.5384      9.6095    -18.2722     27.3295      2.4051      0.0430
   395.0000     73.5163      9.6095     -5.8514     27.5323      2.4013      0.0409
   394.5000     74.7342      9.6095      6.1494     27.7708      2.3974      0.0397
   394.0000     72.4269      9.6095      4.3722     27.7991      2.3995      0.0409
   393.5000     70.5031      9.6095     -4.1218     27.7108      2.4034      0.0393
   393.0000     72.3550      9.6095     -6.3785     27.7176      2.4035      0.0353
   392.5000     74.6996      9.6095     -5.9298     27.6744      2.4018      0.0306
   392.0000     75.1017      9.6095     -7.2117     27.4274      2.4026      0.0264
   391.5000     74.5902      9.6095     -8.3902     27.1174      2.4049      0.0241
   391.0000     73.8161      9.6095     -9.5627     26.8117      2.4081      0.0279
   390.5000     72.7352      9.6095     -5.8709     26.6051      2.4132      0.0385
   390.0000     71.7946      9.6101      6.4105     26.4809      2.4161      0.0452
   389.5000     71.7606      9.6170     15.7969     26.5027      2.4114      0.0439
   389.0000     72.7597      9.6299     14.6052     26.7112      2.3996      0.0405
   388.5000     73.8660      9.6398     13.2221     26.7785      2.3867      0.0393
   388.0000     73.2749      9.6361     17.7138     26.1808      2.3829      0.0410
   387.5000     71.4306      9.6230     21.3689     24.6527      2.3964      0.0463
   387.0000     70.2855      9.6125     23.5323     22.7245      2.4265      0.0535
   386.5000     70.3380      9.6095     28.0554     20.8243      2.4604      0.0522
   386.0000     70.5882      9.6095     30.8904     19.4136      2.4817      0.0474
   385.5000     69.6872      9.6125     26.9040     18.6913      2.4863      0.0504
   385.0000     68.4765      9.6224     16.7231     18.5139      2.4837      0.0507
   384.5000     69.1404      9.6286      3.8942     19.4059      2.4764      0.0438
   384.0000     71.3961      9.6230     -6.5090     21.6005      2.4536      0.0496
   383.5000     72.4486      9.6236    -12.1478     24.4327      2.4139      0.0693
   383.0000     71.7893      9.6546    -12.2021     26.8833      2.3714      0.0775
   382.5000     70.7996      9.7115     -5.8429     28.3884      2.3387      0.0723
   382.0000     69.3484      9.7685      1.9758     28.9180      2.3192      0.0649
   381.5000     68.0087      9.8061      4.3389     28.8202      2.3122      0.0563
   381.0000     68.1325      9.8407      5.1713     28.6037      2.3152      0.0473
   380.5000     68.0274      9.8989      9.9168     28.4411      2.3242      0.0404
   380.0000     65.8273      9.9763     17.8889     28.2275      2.3373      0.0361
   379.5000     64.1244     10.0475     25.3074     27.8216      2.3528      0.0349
   379.0000     66.1537     10.0951     29.5990     27.3090      2.3648      0.0420
   378.5000     69.3141     10.1162     31.0447     27.0673      2.3682      0.0500
   378.0000     69.7752     10.1265     33.9377     27.2563      2.3649      0.0476
   377.5000     68.5865     10.1568     44.2369     27.6104      2.3591      0.0371
   377.0000     68.4210     10.2129     62.4686     28.0130      2.3520      0.0297
   376.5000     70.0598     10.2940     85.1779     28.6512      2.3441      0.0312
   376.0000     72.2167     10.3592     96.9476     29.4724      2.3335      0.0469
   375.5000     72.8297     10.3578     87.3901     29.8220      2.3153      0.0769
   375.0000     72.5164     10.2985     67.9143     29.0836      2.2969      0.1017
   374.5000     73.4313     10.2466     51.6682     27.7494      2.2935      0.0994
   374.0000     74.9427     10.2255     35.7012     26.3563      2.3037      0.0737
   373.5000     74.9905     10.2219     20.8443     25.1953      2.3130      0.0458
   373.0000     74.5358     10.2219     13.8885     24.5261      2.3178      0.0302
   372.5000     74.6977     10.2219     12.3461     24.0922      2.3259      0.0254
   372.0000     75.2025     10.2219     11.7980     23.5160      2.3381      0.0303
   371.5000     75.6720     10.2219      7.8830     22.8851      2.3509      0.0402
   371.0000     76.2249     10.2219      1.6830     22.3466      2.3598      0.0441
   370.5000     76.7098     10.2219      3.0753     22.1160      2.3617      0.0380
   370.0000     76.5193     10.2219     12.7520     22.1395      2.3600      0.0340
   369.5000     75.2305     10.2219     20.1873     22.0902      2.3581      0.0358
   369.0000     73.9983     10.2219     26.6009     21.9533      2.3569      0.0394
   368.5000     74.6208     10.2219     34.7807     21.8647      2.3570      0.0399
   368.0000     76.3636     10.2219     36.7717     21.8025      2.3559      0.0357
   367.5000     76.8712     10.2219     30.1746     21.7261      2.3494      0.0299
   367.0000     75.6933     10.2219     26.6957     21.5929      2.3402      0.0288
   366.5000     73.6574     10.2219     30.3914     21.2812      2.3367      0.0367
   366.0000     71.7282     10.2219     30.4314     20.6943      2.3407      0.0477
   365.5000     71.5045     10.2219     21.1801     20.4270      2.3460      0.0536
   365.0000     72.1693     10.2219     12.3821     20.9922      2.3496      0.0515
   364.5000     72.9523     10.2219     13.1159     21.6994      2.3532      0.0484
   364.0000     74.5306     10.2219     20.5686     21.7417      2.3555      0.0455
   363.5000     75.7415     10.2219     29.2916     21.3774      2.3555      0.0429
