~Version Information
 VERS.                2.00:   CWLS log ASCII Standard -VERSION 2.00
 WRAP.                  NO:   One line per frame
~Well Information Block
#MNEM.UNIT              Data                Description
#--------- -------------------------------  -------------------------------
 STRT.F                          555.0000:   Starting Depth
 STOP.F                           83.2500:   Ending Depth
 STEP.F                           -0.5000:   Level Spacing
 NULL.                          -999.2500:   Absent Value
 COMP.     FLUOR DANIEL (NPSOR), INC.    :   Company
 WELL.     88-1 X 3                      :   Well
 FLD .                                   :   Field
 LOC .                                   :   Location
 PROV.                                   :   Province
 SRVC.                                   :   Service Company
 LIC .                                   :   License Number
 DATE.                                   :   Log Date
 UWI .                                   :   Unique Well ID
~Curve Information Block
#MNEM.UNIT       API Codes    Curve Description
#---------    -------------   -------------------------------
 DEPT.F        0   0  0  0:   Depth
 GR  .API      0   0  0  0:   Gamma ray counts
 CAL .IN       0   0  0  0:   Caliper (for 4CAL: from C13 and/or C24)
 TEN .LBF      0   0  0  0:   Differential Tension
 CNC .PU       0   0  0  0:   Corrected Neutron Porosity from CN
 ZDEN.G/C3     0   0  0  0:   ZDL Bulk Density
 ZCOR.G/C3     0   0  0  0:   ZDL Correction
#  Curve Data
~A
# ...
   123.0000    102.4839     10.1198    -36.0803     26.6559      2.4881      0.0460
   122.5000    104.4097     10.1198    -35.6938     26.7053      2.4943      0.0581
   122.0000    104.5777     10.1198    -34.8764     27.3728      2.4906      0.0576
   121.5000    104.1650     10.1198    -39.6704     27.7822      2.4820      0.0479
   121.0000    106.7210     10.1198    -44.5721     28.4914      2.4754      0.0423
   120.5000    109.7691     10.1198    -43.6604     29.3504      2.4687      0.0413
   120.0000    110.4664     10.1198    -41.5916     29.8794      2.4632      0.0436
   119.5000    110.8865     10.1198    -40.4701     29.5624      2.4625      0.0474
   119.0000    111.4811     10.1229    -37.3753     28.9293      2.4625      0.0453
   118.5000    111.0869     10.1327    -32.3712     28.5982      2.4592      0.0333
   118.0000    110.2359     10.1390    -31.6395     28.5757      2.4566      0.0218
   117.5000    110.6431     10.1327    -35.2400     28.5722      2.4596      0.0234
   117.0000    111.3960     10.1229    -38.8634     28.3034      2.4658      0.0316
   116.5000    110.5007     10.1198    -39.8016     27.8422      2.4682      0.0325
   116.0000    108.5976     10.1198    -40.4204     27.3190      2.4655      0.0276
   115.5000    108.2149     10.1198    -37.8706     26.6842      2.4625      0.0249
   115.0000    109.3773     10.1198    -29.1617     26.2884      2.4633      0.0272
   114.5000    109.4939     10.1198    -19.2632     26.5989      2.4666      0.0347
   114.0000    107.3512     10.1198    -15.2881     27.6838      2.4683      0.0415
   113.5000    105.4175     10.1198    -19.8000     28.5802      2.4651      0.0405
   113.0000    105.7936     10.1198    -32.6707     28.8402      2.4568      0.0316
   112.5000    107.0282     10.1198    -44.8387     29.1262      2.4507      0.0223
   112.0000    107.2191     10.1198    -47.0615     29.3090      2.4553      0.0199
   111.5000    107.4338     10.1198    -41.7408     29.3474      2.4677      0.0248
   111.0000    109.4383     10.1198    -35.5419     29.4918      2.4752      0.0316
   110.5000    112.4571     10.1198    -29.3581     29.5358      2.4734      0.0391
   110.0000    113.9277     10.1198    -22.1979     29.0115      2.4695      0.0448
   109.5000    113.4566     10.1198    -16.9967     28.1892      2.4686      0.0434
   109.0000    112.5810     10.1198    -19.7695     27.6458      2.4700      0.0390
   108.5000    110.5834     10.1198    -28.3912     27.5865      2.4710      0.0406
   108.0000    108.4017     10.1198    -31.0039     27.9321      2.4693      0.0456
   107.5000    107.5638     10.1198    -26.4542     28.3261      2.4670      0.0463
   107.0000    107.6575     10.1198    -22.5029     28.1718      2.4675      0.0435
   106.5000    108.1406     10.1229    -20.9181     27.3798      2.4686      0.0412
   106.0000    109.3961     10.1327    -18.7267     26.6566      2.4674      0.0380
   105.5000    109.8108     10.1390    -17.1236     26.4542      2.4671      0.0353
   105.0000    108.3577     10.1327    -16.7079     26.5277      2.4673      0.0321
   104.5000    107.0587     10.1229    -19.2211     26.5764      2.4659      0.0305
   104.0000    107.0512     10.1198    -25.0271     26.6940      2.4667      0.0367
   103.5000    106.7719     10.1198    -28.1600     26.9823      2.4716      0.0463
   103.0000    106.0319     10.1198    -27.1730     27.3809      2.4746      0.0464
   102.5000    106.9400     10.1198    -26.8769     27.5516      2.4681      0.0384
   102.0000    108.5714     10.1198    -26.6274     27.0501      2.4606      0.0329
   101.5000    108.8305     10.1198    -24.0764     26.2385      2.4652      0.0327
   101.0000    107.6427     10.1198    -22.9580     25.8554      2.4706      0.0370
   100.5000    106.7650     10.1198    -22.3547     25.7925      2.4755      0.0472
   100.0000    107.1868     10.1198    -16.9543     26.1059      2.4895      0.0606
    99.5000    107.6588     10.1198     -9.8210     27.6372      2.5020      0.0740
    99.0000    102.3645     10.1198     -8.1170     30.4070      2.4963      0.0576
    98.5000     89.0363     10.1198    -14.6793     33.0585      2.3960     -0.0847
    98.0000     75.3009     10.1198    -23.6750     35.0202      2.2209     -0.3376
    97.5000     69.2733     10.1198    -28.7728     36.9807      2.1370     -0.4547
    97.0000     69.3629     10.1198    -27.3262     39.0201      2.1645     -0.3601
    96.5000     69.9530     10.1198    -23.7879     40.3842      2.1433     -0.3097
    96.0000     69.1612     10.1198    -26.2181     40.6285      2.1014     -0.3289
    95.5000     68.6493     10.1198    -33.1004     40.2521      2.1028     -0.3399
    95.0000     69.9064     10.1198    -35.6856     40.1194      2.1201     -0.3316
    94.5000     71.3531     10.1198    -32.9025     39.5013      2.1356     -0.3337
    94.0000     71.2863     10.1198    -31.0768     37.0052      2.1672     -0.3602
    93.5000     71.1700     10.1198    -30.9593     34.2172      2.2129     -0.3768
    93.0000     71.5505     10.1198    -33.3957     33.6607      2.2393     -0.3655
    92.5000     71.1676     10.1198    -35.4898     35.0702      2.2393     -0.3564
    92.0000     70.0562     10.1198    -30.6333     36.7116      2.2309     -0.3634
    91.5000     69.7730     10.1198    -25.7094     37.6221      2.2245     -0.3677
    91.0000     71.0143     10.1198    -29.5810     38.1959      2.2140     -0.3569
    90.5000     71.8332     10.1198    -31.7429     38.7620      2.2050     -0.3463
    90.0000     71.8332     10.1198    -31.7429     38.7620      2.2050     -0.3463
    89.5000     71.8332     10.1198    -31.7429     38.7620      2.2050     -0.3463
    89.0000     71.8332     10.1198    -31.7429     38.7620      2.2050     -0.3463
    88.5000     71.8332     10.1198    -31.7429     38.7620      2.2050     -0.3463
    88.0000     71.8332     10.1198    -31.7429     38.7620      2.2050     -0.3463
    87.5000     71.8332     10.1198    -31.7429     38.7620      2.2050     -0.3463
    87.0000     71.8332     10.1198    -31.7429     38.7620      2.2050     -0.3463
    86.5000     71.8332     10.1198    -31.7429     38.7620      2.2050     -0.3463
    86.0000     71.8332     10.1198    -31.7429     38.7620      2.2050     -0.3463
    85.5000     71.8332     10.1198    -31.7429     38.7620      2.2050     -0.3463
    85.0000     71.8332     10.1198    -31.7429     38.7620      2.2050     -0.3463
    84.5000     71.8332     10.1198    -31.7429     38.7620      2.2050     -0.3463
    84.0000     71.8332     10.1198    -31.7429     38.7620      2.2050     -0.3463
    83.5000     71.8332     10.1198    -31.7429     38.7620      2.2050     -0.3463
