~Version Information
 VERS.                2.00:   CWLS log ASCII Standard -VERSION 2.00
 WRAP.                  NO:   One line per frame
~Well Information Block
#MNEM.UNIT              Data                Description
#--------- -------------------------------  -------------------------------
 STRT.F                          557.0000:   Starting Depth
 STOP.F                           -2.7500:   Ending Depth
 STEP.F                           -0.5000:   Level Spacing
 NULL.                          -999.2500:   Absent Value
 COMP.     FLUOR DANIEL (NPSOR), INC.    :   Company
 WELL.     88-1 X 3                      :   Well
 FLD .                                   :   Field
 LOC .                                   :   Location
 PROV.                                   :   Province
 SRVC.                                   :   Service Company
 LIC .                                   :   License Number
 DATE.                                   :   Log Date
 UWI .                                   :   Unique Well ID
~Curve Information Block
#MNEM.UNIT       API Codes    Curve Description
#---------    -------------   -------------------------------
 DEPT.F        0   0  0  0:   Depth
 CILD.MMHO     0   0  0  0:   Conductivity of Deep Induction
 SP  .MV       0   0  0  0:   Spontaneous Potential
 GR  .API      0   0  0  0:   Gamma ray counts
 TEN .LBF      0   0  0  0:   Differential Tension
 RFOC.OHMM     0   0  0  0:   Resistivity from CFOC
 RILM.OHMM     0   0  0  0:   Resistivity from CILM
 RILD.OHMM     0   0  0  0:   Resistivity from CILD
#  Curve Data
~A
# ...
   305.0000    152.5613      4.8841    125.2999     -3.6996      6.0107      6.1733      6.5547
   304.5000    150.0948      4.8752    124.2556      1.1868      5.9063      6.1774      6.6625
   304.0000    153.2048      4.8324    121.6085      6.4788      5.8562      6.0828      6.5272
   303.5000    160.6360      4.7564    119.2551      7.4789      6.0296      5.9452      6.2253
   303.0000    171.3898      4.7094    118.3696      2.0557      6.2556      5.7622      5.8347
   302.5000    183.2310      4.7419    118.6282     -4.3987      6.1958      5.5399      5.4576
   302.0000    191.9156      4.8255    118.4717     -8.9493      5.7697      5.3236      5.2106
   301.5000    195.3755      4.8757    116.8018    -11.0880      5.1158      5.1360      5.1183
   301.0000    195.6437      4.8778    114.9931     -6.1665      4.6063      4.9152      5.1113
   300.5000    195.6928      4.8779    114.5018      2.5437      4.5554      4.6175      5.1100
   300.0000    197.4073      4.9031    114.9212      7.8681      4.9831      4.3638      5.0657
   299.5000    199.8423      4.9098    116.5706      7.0577      5.6389      4.3308      5.0039
   299.0000    198.9335      4.8868    119.8030      4.6689      6.0974      4.5770      5.0268
   298.5000    192.9491      4.8624    121.7544      1.5152      6.1375      4.9959      5.1827
   298.0000    185.0832      4.8435    122.0125     -5.0298      5.9649      5.3670      5.4030
   297.5000    178.1633      4.7991    122.9324    -13.0537      5.8746      5.5730      5.6128
   297.0000    172.6627      4.7531    123.6549    -17.4472      5.7790      5.6300      5.7916
   296.5000    169.2822      4.7344    122.4456    -17.9971      5.5460      5.5986      5.9073
   296.0000    168.1697      4.7189    122.6262    -16.1684      5.4354      5.5053      5.9464
   295.5000    167.9695      4.7185    125.7359    -11.6397      5.6768      5.4044      5.9535
   295.0000    167.3134      4.7718    127.6625     -5.8069      6.0917      5.4050      5.9768
   294.5000    164.8856      4.8213    125.3829     -1.3695      6.3151      5.5791      6.0648
   294.0000    159.9558      4.8067    121.1536      0.8079      6.3489      5.8773      6.2517
   293.5000    154.0726      4.7961    119.2202      1.6028      6.3690      6.1609      6.4904
   293.0000    149.3262      4.8303    121.4460     -1.1636      6.4070      6.3352      6.6967
   292.5000    146.5384      4.8401    124.2354     -7.7885      6.4509      6.4183      6.8242
   292.0000    145.5793      4.8179    122.9921     -7.8602      6.4641      6.4634      6.8691
   291.5000    145.7839      4.8334    119.7505      3.2605      6.4226      6.4995      6.8595
   291.0000    146.1689      4.8755    119.2260     13.7247      6.3628      6.5260      6.8414
   290.5000    146.3008      4.8649    120.6482     14.2978      6.3825      6.5316      6.8352
   290.0000    146.2766      4.8088    120.6807     10.1284      6.5376      6.5257      6.8364
   289.5000    146.0375      4.7723    120.0607      5.5495      6.6518      6.5417      6.8476
   289.0000    145.3495      4.7737    121.9459      1.6427      6.5218      6.5998      6.8800
   288.5000    144.0563      4.7840    123.9846      1.3569      6.3226      6.6719      6.9417
   288.0000    142.3519      4.7928    121.3344     -0.3800      6.2951      6.7015      7.0248
   287.5000    140.9134      4.8092    117.1171     -8.5315      6.3878      6.6817      7.0966
   287.0000    140.3008      4.8300    116.0171    -15.2469      6.5013      6.6701      7.1275
   286.5000    140.4045      4.8462    117.1859    -14.4482      6.6339      6.7086      7.1223
   286.0000    140.8427      4.8544    119.8952    -12.0762      6.7414      6.7760      7.1001
   285.5000    141.5305      4.8515    123.4561    -11.5052      6.7323      6.8091      7.0656
   285.0000    142.5092      4.8360    124.5239     -9.4401      6.6609      6.7717      7.0171
   284.5000    143.5827      4.8168    123.5840     -8.6837      6.6257      6.6926      6.9646
   284.0000    144.4234      4.8103    122.2427    -11.8804      6.5133      6.6243      6.9241
   283.5000    144.9263      4.8134    120.5898    -14.0504      6.2521      6.5745      6.9001
   283.0000    145.6898      4.8168    120.0946    -12.1478      6.0531      6.4988      6.8639
   282.5000    148.1591      4.8167    122.9191     -8.8291      6.0864      6.3609      6.7495
   282.0000    153.8809      4.8332    123.3026     -4.8260      6.2025      6.1809      6.4985
   281.5000    163.9356      4.8699    117.7369     -1.8998      6.2359      5.9891      6.1000
   281.0000    178.5851      4.9139    112.6103     -5.7203      6.1864      5.7446      5.5996
   280.5000    195.4482      4.9310    113.9579    -15.2036      6.0388      5.4245      5.1164
   280.0000    209.5409      4.9071    116.3968    -20.7007      5.6028      5.0954      4.7723
   279.5000    217.7025      4.8746    114.0053    -18.5141      4.8945      4.7934      4.5934
   279.0000    221.6178      4.8655    112.6122     -8.7209      4.3052      4.4715      4.5123
   278.5000    224.6089      4.8694    116.7867      2.0978      4.1557      4.1200      4.4522
   278.0000    227.7675      4.8238    122.1964      8.1057      4.4411      3.8502      4.3904
   277.5000    228.7257      4.7483    123.5484      9.9775      4.9163      3.7939      4.3720
   277.0000    223.4401      4.7276    122.2681      9.7319      5.3088      3.9948      4.4755
   276.5000    210.9148      4.7740    119.5171      8.5629      5.5189      4.3957      4.7413
   276.0000    195.1361      4.8217    116.6288     10.4758      5.6084      4.8626      5.1246
   275.5000    180.7348      4.8401    115.5442     16.1562      5.7030      5.2596      5.5330
   275.0000    169.9063      4.8483    116.4859     18.7261      5.8386      5.5416      5.8856
   274.5000    162.8392      4.8563    118.1537     14.2889      5.9319      5.7351      6.1410
   274.0000    158.3280      4.8778    120.6938      5.7294      5.9899      5.8852      6.3160
   273.5000    154.8134      4.8744    121.9528     -3.9257      6.0679      6.0178      6.4594
   273.0000    151.5642      4.8475    120.1565    -11.4729      6.1369      6.1354      6.5979
   272.5000    148.4182      4.8544    117.0547    -14.4363      6.1900      6.2475      6.7377
   272.0000    145.1927      4.8736    115.0257     -9.7219      6.2723      6.3686      6.8874
   271.5000    142.0050      4.8435    114.7666     -1.8666      6.3811      6.5016      7.0420
   271.0000    139.5056      4.7956    118.1759      1.1749      6.4366      6.6234      7.1682
   270.5000    138.6223      4.7855    121.1215      0.0531      6.4412      6.7031      7.2138
   270.0000    139.8912      4.8010    117.9045      0.8238      6.4304      6.7237      7.1484
   269.5000    143.0931      4.8196    112.9979      2.7328      6.4144      6.6861      6.9885
   269.0000    147.9425      4.8421    113.7286      2.3735      6.3813      6.5820      6.7594
   268.5000    154.1677      4.8828    118.3783      1.1849      6.3076      6.4020      6.4864
   268.0000    161.1553      4.9160    121.0229      1.6708      6.1137      6.1692      6.2052
   267.5000    168.7111      4.8916    120.4635     -0.3721      5.7876      5.9210      5.9273
   267.0000    177.7427      4.8239    118.8419     -9.4035      5.4425      5.6395      5.6261
   266.5000    188.9794      4.7914    118.3814    -18.7737      5.2675      5.3001      5.2916
   266.0000    201.2863      4.8099    118.6476    -19.7009      5.2756      4.9626      4.9680
   265.5000    213.1764      4.8390    115.9579    -16.8137      5.1991      4.7054      4.6910
   265.0000    224.0057      4.8435    110.3612    -14.0202      4.9474      4.5124      4.4642
   264.5000    232.9357      4.8300    107.9621     -9.6340      4.8312      4.3028      4.2930
   264.0000    237.8954      4.8376    111.1812     -7.3377      4.9161      4.1035      4.2035
   263.5000    237.3170      4.8701    115.1857     -7.5326      4.8519      4.0115      4.2138
