~Version Information
 VERS.                2.00:   CWLS log ASCII Standard -VERSION 2.00
 WRAP.                  NO:   One line per frame
~Well Information Block
#MNEM.UNIT              Data                Description
#--------- -------------------------------  -------------------------------
 STRT.F                          557.0000:   Starting Depth
 STOP.F                           -2.7500:   Ending Depth
 STEP.F                           -0.5000:   Level Spacing
 NULL.                          -999.2500:   Absent Value
 COMP.     FLUOR DANIEL (NPSOR), INC.    :   Company
 WELL.     88-1 X 3                      :   Well
 FLD .                                   :   Field
 LOC .                                   :   Location
 PROV.                                   :   Province
 SRVC.                                   :   Service Company
 LIC .                                   :   License Number
 DATE.                                   :   Log Date
 UWI .                                   :   Unique Well ID
~Curve Information Block
#MNEM.UNIT       API Codes    Curve Description
#---------    -------------   -------------------------------
 DEPT.F        0   0  0  0:   Depth
 CILD.MMHO     0   0  0  0:   Conductivity of Deep Induction
 SP  .MV       0   0  0  0:   Spontaneous Potential
 GR  .API      0   0  0  0:   Gamma ray counts
 TEN .LBF      0   0  0  0:   Differential Tension
 RFOC.OHMM     0   0  0  0:   Resistivity from CFOC
 RILM.OHMM     0   0  0  0:   Resistivity from CILM
 RILD.OHMM     0   0  0  0:   Resistivity from CILD
#  Curve Data
~A
# ...
   347.0000     46.9083      4.8485     70.3131     12.4754     16.1626     21.2543     21.3182
   346.5000     47.3922      4.8114     68.3440     13.3642     17.0607     20.7879     21.1005
   346.0000     47.8941      4.7960     66.7570      8.8581     17.5862     20.8473     20.8794
   345.5000     47.9575      4.8145     65.3927      3.5362     17.7999     21.3222     20.8518
   345.0000     47.7301      4.8300     63.9573      0.8830     17.1206     21.8976     20.9511
   344.5000     47.9810      4.8159     61.5558      3.5447     15.8988     22.1293     20.8416
   344.0000     49.1100      4.8059     57.7278     10.3886     15.8652     21.5872     20.3625
   343.5000     50.7125      4.8095     55.2839     19.2129     17.3664     20.5665     19.7190
   343.0000     52.0063      4.8096     57.6636     24.9865     17.9333     19.8497     19.2285
   342.5000     52.5077      4.8059     62.1697     25.8143     15.9767     19.8085     19.0448
   342.0000     52.3051      4.8087     63.7883     24.6782     14.1540     20.0108     19.1186
   341.5000     52.1523      4.8027     62.5354     23.7296     13.8731     19.7784     19.1746
   341.0000     52.7247      4.7827     61.7511     24.4598     14.5931     19.1699     18.9664
   340.5000     53.9045      4.7556     60.2791     25.8262     15.5864     18.7316     18.5513
   340.0000     54.7594      4.7126     56.5798     23.5295     16.7243     18.7923     18.2617
   339.5000     54.3362      4.6986     54.6783     14.2453     17.1554     19.4711     18.4040
   339.0000     52.5069      4.7453     57.0166      7.2852     15.8745     20.5967     19.0451
   338.5000     50.2813      4.8170     59.9394     11.3060     14.2754     21.3849     19.8881
   338.0000     49.3737      4.8524     59.4639     20.2502     13.8664     21.0108     20.2537
   337.5000     51.1837      4.8297     55.0378     25.8616     14.6760     19.7995     19.5375
   337.0000     55.6098      4.7630     49.8859     31.9646     15.9912     18.6738     17.9825
   336.5000     61.4682      4.7400     49.7147     38.8045     16.5154     17.8741     16.2686
   336.0000     67.7734      4.8051     57.7996     35.3946     15.0950     17.0209     14.7551
   335.5000     74.0228      4.8789     72.0685     21.0063     12.5108     15.7852     13.5094
   335.0000     80.1634      4.8942     86.0711      9.5236     10.0932     14.1580     12.4745
   334.5000     86.8074      4.8941     94.6768      6.8168      8.4103     12.3757     11.5198
   334.0000     94.3569      4.9258     99.8006      9.1927      7.5747     10.7625     10.5981
   333.5000    102.2750      4.9481    104.8577     11.1252      7.3394      9.5085      9.7776
   333.0000    109.3444      4.9186    110.2854      7.6735      7.3577      8.6727      9.1454
   332.5000    113.9167      4.8602    113.8204      1.7660      7.4584      8.2427      8.7783
   332.0000    115.4225      4.8427    113.8900      0.1305      7.6163      8.1580      8.6638
   331.5000    114.0780      4.8694    110.2397      2.5089      7.7163      8.3112      8.7659
   331.0000    111.1620      4.9039    106.5842      3.3803      7.6924      8.5102      8.9959
   330.5000    110.0072      4.9348    105.8714      4.4841      7.6240      8.5591      9.0903
   330.0000    114.7256      4.9489    105.1320      9.0408      7.5288      8.3729      8.7164
   329.5000    127.6238      4.9258    103.1983     14.4594      7.4332      7.9449      7.8355
   329.0000    148.6854      4.8941    103.4711     13.9882      7.4094      7.2884      6.7256
   328.5000    173.9819      4.8950    106.2966      6.8893      7.4602      6.5298      5.7477
   328.0000    194.0173      4.9024    108.8007      0.9620      7.0237      5.8896      5.1542
   327.5000    201.9856      4.8986    111.9156      2.9314      5.6834      5.4443      4.9508
   327.0000    201.2553      4.8986    116.9166     13.8927      4.4253      5.0224      4.9688
   326.5000    199.7948      4.9031    119.8802     26.0144      3.9940      4.4716      5.0051
   326.0000    201.2346      4.9039    116.0369     30.4689      4.4911      4.0164      4.9693
   325.5000    202.0275      4.9047    107.8010     27.4308      5.7988      3.9458      4.9498
   325.0000    194.5938      4.9093    102.3219     23.8540      7.0151      4.3994      5.1389
   324.5000    176.4709      4.9085    103.1115     18.2774      7.1811      5.3559      5.6667
   324.0000    154.7573      4.8891    106.7626      9.9997      6.9529      6.5018      6.4617
   323.5000    138.2036      4.8569    108.7802      3.9534      6.8469      7.3611      7.2357
   323.0000    129.5778      4.8322    108.7590      3.8162      6.7710      7.6785      7.7174
   322.5000    127.9048      4.8225    109.2155      8.4156      6.6058      7.5868      7.8183
   322.0000    130.3635      4.8123    111.5320     13.6570      6.4021      7.3511      7.6709
   321.5000    133.6247      4.7786    115.4454     14.3246      6.2787      7.1156      7.4836
   321.0000    135.8823      4.7297    118.0957     10.4932      6.3095      6.9188      7.3593
   320.5000    137.1795      4.7164    117.4863      8.1093      6.4915      6.8003      7.2897
   320.0000    137.7249      4.7729    115.2694      7.9971      6.7447      6.7923      7.2609
   319.5000    137.2472      4.8537    114.8359     11.1603      6.9501      6.8791      7.2861
   319.0000    135.9266      4.8909    116.0369     18.5251      6.9746      6.9997      7.3569
   318.5000    134.7862      4.8534    116.6519     23.0775      6.8384      7.0912      7.4192
   318.0000    134.6716      4.7629    116.0144     18.5175      6.7144      7.1262      7.4255
   317.5000    135.4731      4.7155    115.0720     10.2831      6.6229      7.1063      7.3815
   317.0000    136.8434      4.7615    115.6941      4.6708      6.5117      7.0355      7.3076
   316.5000    138.4328      4.8398    116.5787      1.0617      6.4407      6.9434      7.2237
   316.0000    139.8446      4.8752    116.4034     -2.7374      6.4339      6.8749      7.1508
   315.5000    141.0470      4.8788    116.6421     -5.2963      6.4452      6.8469      7.0898
   315.0000    142.0650      4.8669    118.2386     -3.2669      6.4868      6.8298      7.0390
   314.5000    142.7248      4.8433    118.5483      3.6957      6.5493      6.7888      7.0065
   314.0000    143.2854      4.8358    118.5198      9.5233      6.5385      6.7242      6.9791
   313.5000    144.4529      4.8515    119.8708      8.0422      6.4438      6.6602      6.9227
   313.0000    146.8362      4.8590    119.9889     -0.3636      6.3616      6.5827      6.8103
   312.5000    151.5716      4.8404    116.8917     -7.2547      6.3417      6.4376      6.5975
   312.0000    159.3790      4.8088    114.7330     -6.8790      6.3145      6.2206      6.2744
   311.5000    169.7460      4.7939    116.3515     -2.0099      6.1019      5.9772      5.8912
   311.0000    182.5662      4.8226    118.9932      4.0388      5.6668      5.6985      5.4775
   310.5000    197.1227      4.8977    118.6274     10.5682      5.3539      5.3399      5.0730
   310.0000    208.7455      4.9594    115.8703     16.9675      5.3219      4.9537      4.7905
   309.5000    213.5450      4.9674    112.6670     18.8234      5.1340      4.6507      4.6829
   309.0000    212.9937      4.9350    110.8097     15.2442      4.6266      4.4612      4.6950
   308.5000    210.2773      4.9036    112.3587     10.3398      4.3882      4.3028      4.7556
   308.0000    207.5558      4.8861    114.5006      7.2288      4.7310      4.1718      4.8180
   307.5000    205.0892      4.8795    114.3622      3.2800      5.4262      4.2034      4.8759
   307.0000    199.1890      4.8795    113.9471     -1.9770      5.9422      4.5062      5.0204
   306.5000    187.1375      4.8795    115.8098     -8.3924      6.0870      5.0357      5.3437
   306.0000    172.5222      4.8795    119.4637    -12.2479      6.0627      5.5852      5.7964
   305.5000    160.3202      4.8802    123.2870     -9.1896      6.0421      5.9874      6.2375
