~Version Information
 VERS.                2.00:   CWLS log ASCII Standard -VERSION 2.00
 WRAP.                  NO:   One line per frame
~Well Information Block
#MNEM.UNIT              Data                Description
#--------- -------------------------------  -------------------------------
 STRT.F                          555.0000:   Starting Depth
 STOP.F                           83.2500:   Ending Depth
 STEP.F                           -0.5000:   Level Spacing
 NULL.                          -999.2500:   Absent Value
 COMP.     FLUOR DANIEL (NPSOR), INC.    :   Company
 WELL.     88-1 X 3                      :   Well
 FLD .                                   :   Field
 LOC .                                   :   Location
 PROV.                                   :   Province
 SRVC.                                   :   Service Company
 LIC .                                   :   License Number
 DATE.                                   :   Log Date
 UWI .                                   :   Unique Well ID
~Curve Information Block
#MNEM.UNIT       API Codes    Curve Description
#---------    -------------   -------------------------------
 DEPT.F        0   0  0  0:   Depth
 GR  .API      0   0  0  0:   Gamma ray counts
 CAL .IN       0   0  0  0:   Caliper (for 4CAL: from C13 and/or C24)
 TEN .LBF      0   0  0  0:   Differential Tension
 CNC .PU       0   0  0  0:   Corrected Neutron Porosity from CN
 ZDEN.G/C3     0   0  0  0:   ZDL Bulk Density
 ZCOR.G/C3     0   0  0  0:   ZDL Correction
#  Curve Data
~A
# ...
   267.0000    112.2153     10.4260     -6.3443     21.1918      2.4650      0.0291
   266.5000    114.6157     10.4260    -12.9015     22.0824      2.4614      0.0323
   266.0000    114.2306     10.4260    -23.5600     22.5565      2.4557      0.0368
   265.5000    111.5715     10.4260    -31.8768     22.9077      2.4475      0.0328
   265.0000    108.4828     10.4260    -33.4829     23.4218      2.4404      0.0336
   264.5000    106.5417     10.4260    -29.8253     23.2921      2.4297      0.0519
   264.0000    107.0116     10.4260    -19.8531     23.3354      2.4113      0.0554
   263.5000    107.5742     10.4260     -4.3042     23.7144      2.3889      0.0353
   263.0000    106.2271     10.4485      4.9810     24.0422      2.3421      0.0605
   262.5000    106.1676     10.5352      3.8281     25.1621      2.2638      0.1582
   262.0000    110.6825     10.6152      1.4881     25.6932      2.2148      0.1939
   261.5000    115.0131     10.5878      1.2322     25.3588      2.2486      0.1123
   261.0000    115.6435     10.4927     -1.9627     24.3406      2.2982      0.0063
   260.5000    114.7729     10.4378     -4.8870     23.1222      2.3878     -0.0067
   260.0000    113.6342     10.4266      0.4008     22.7562      2.4415      0.0127
   259.5000    111.8301     10.4260      6.8939     22.5672      2.4578      0.0209
   259.0000    111.1569     10.4260      3.8418     22.2938      2.4585      0.0314
   258.5000    111.5979     10.4260     -3.8448     22.1192      2.4608      0.0392
   258.0000    111.7765     10.4260     -3.9549     22.1263      2.4566      0.0376
   257.5000    111.1651     10.4260      2.6184     22.1541      2.4494      0.0340
   257.0000    110.2207     10.4260      6.0140     22.1022      2.4487      0.0359
   256.5000    109.9873     10.4260      3.2476     21.9000      2.4523      0.0402
   256.0000    109.6606     10.4260     -1.3673     21.7142      2.4505      0.0379
   255.5000    106.9814     10.4260     -5.6382     21.9885      2.4380      0.0307
   255.0000    103.2954     10.4266     -8.4064     22.9399      2.4159      0.0321
   254.5000    102.4534     10.4366     -9.4672     24.5672      2.3842      0.0838
   254.0000    102.8231     10.4564     -6.4642     26.5461      2.3076      0.1551
   253.5000    101.1034     10.4650      5.6501     27.8189      2.2344      0.1450
   253.0000     98.1856     10.4868     15.5513     28.1630      2.2122      0.0606
   252.5000     95.4442     10.5609      8.3186     28.1104      2.1974      0.0568
   252.0000     92.4646     10.6441     -3.8317     27.7368      2.1178      0.1637
   251.5000     91.2355     10.6867     -1.8035     28.0226      1.9413      0.2264
   251.0000     93.6670     10.7378      6.6734     26.6711      1.8169      0.2231
   250.5000     97.5497     10.8049      7.3057     24.5861      1.8154      0.1867
   250.0000    100.2568     10.7875      0.9156     22.7566      1.9113      0.1327
   249.5000    101.9277     10.6575     -3.8116     21.5900      2.0511      0.0642
   249.0000    103.1180     10.5145     -1.9151     21.3004      2.2064      0.0189
   248.5000    103.4145     10.4384      4.2657     21.1801      2.3361      0.0182
   248.0000    103.4260     10.4026      4.4881     20.9181      2.4006      0.0343
   247.5000    104.0583     10.3654     -4.5948     20.5862      2.4197      0.0372
   247.0000    104.3064     10.3351    -10.0522     19.9778      2.4301      0.0345
   246.5000    103.7122     10.3246     -3.7649     19.5743      2.4398      0.0328
   246.0000    103.4101     10.3240      7.3151     19.3187      2.4411      0.0248
   245.5000    103.4215     10.3240      9.0063     19.3373      2.4364      0.0125
   245.0000    103.8974     10.3240      4.7004     19.1417      2.4344      0.0085
   244.5000    104.0877     10.3240      5.3433     18.9414      2.4392      0.0167
   244.0000    102.9716     10.3240      9.4910     19.1992      2.4469      0.0251
   243.5000    101.4213     10.3240      9.8268     19.5635      2.4534      0.0297
   243.0000    100.8718     10.3240     10.2483     19.5078      2.4572      0.0308
   242.5000    100.3107     10.3240     12.9652     19.1428      2.4592      0.0292
   242.0000     98.7894     10.3240     12.7490     18.7299      2.4596      0.0293
   241.5000     97.0837     10.3240     11.6693     18.4822      2.4581      0.0329
   241.0000     96.4762     10.3240     16.4694     18.5742      2.4561      0.0342
   240.5000     97.0482     10.3240     23.8836     18.8399      2.4561      0.0317
   240.0000     97.8458     10.3240     21.2002     19.0171      2.4576      0.0306
   239.5000     98.5301     10.3240      9.5224     19.1086      2.4580      0.0316
   239.0000     99.0197     10.3240      4.5506     19.2906      2.4588      0.0369
   238.5000     99.1098     10.3240      9.4873     19.5404      2.4625      0.0436
   238.0000     99.8804     10.3240      9.7261     19.7292      2.4688      0.0445
   237.5000    102.5473     10.3240      1.1904     19.7655      2.4742      0.0402
   237.0000    105.2038     10.3240     -6.8131     19.5387      2.4737      0.0394
   236.5000    105.8239     10.3240     -7.0119     19.2806      2.4674      0.0425
   236.0000    105.3555     10.3240     -1.6269     19.3671      2.4633      0.0451
   235.5000    104.4118     10.3240      4.0199     19.6766      2.4657      0.0423
   235.0000    102.2440     10.3240      7.6677     19.9110      2.4697      0.0393
   234.5000     99.5975     10.3240     10.1888     20.0168      2.4699      0.0402
   234.0000     97.7544     10.3240      9.3970     19.9887      2.4672      0.0384
   233.5000     97.5852     10.3240      2.9149     19.7574      2.4648      0.0331
   233.0000     99.0900     10.3240     -4.9556     19.3496      2.4631      0.0337
   232.5000    101.0027     10.3240     -8.7468     18.9515      2.4603      0.0392
   232.0000    102.6139     10.3240    -10.0254     18.7917      2.4553      0.0381
   231.5000    104.2378     10.3240    -11.9682     18.9754      2.4506      0.0320
   231.0000    105.3196     10.3240    -14.7623     19.3240      2.4500      0.0304
   230.5000    104.0891     10.3240    -17.3225     19.5656      2.4523      0.0344
   230.0000    100.6382     10.3240    -16.8668     19.6310      2.4519      0.0369
   229.5000     98.6875     10.3240    -12.7191     19.5755      2.4489      0.0376
   229.0000    100.4894     10.3240     -8.3994     19.3735      2.4466      0.0368
   228.5000    104.0103     10.3240     -5.6678     19.2514      2.4427      0.0304
   228.0000    106.3964     10.3240     -3.1793     19.5062      2.4352      0.0199
   227.5000    106.3730     10.3240     -2.9173     19.9084      2.4274      0.0162
   227.0000    103.5977     10.3240     -7.9434     20.1236      2.4220      0.0230
   226.5000     98.1447     10.3240    -15.5913     20.3830      2.4142      0.0295
   226.0000     92.3525     10.3240    -19.6246     20.9021      2.3939      0.0364
   225.5000     89.7619     10.3240    -17.5814     21.7020      2.3621      0.0509
   225.0000     91.1435     10.3240    -13.6655     22.3217      2.3399      0.0586
   224.5000     94.5244     10.3240    -13.2593     22.1340      2.3450      0.0544
   224.0000     98.3438     10.3240    -12.5142     21.3654      2.3677      0.0501
   223.5000    101.7947     10.3240     -4.9788     20.8730      2.3876      0.0427
   223.0000    104.0226     10.3240      4.5820     20.9092      2.3995      0.0267
   222.5000    104.5211     10.3240      6.1888     20.9720      2.4101      0.0186
   222.0000    103.7878     10.3240     -1.5165     20.8201      2.4213      0.0237
   221.5000    102.3265     10.3240    -10.2953     20.6198      2.4307      0.0317
   221.0000    100.6984     10.3240    -14.3503     20.4211      2.4358      0.0379
   220.5000    100.1172     10.3240    -11.7010     20.2751      2.4364      0.0397
   220.0000    101.2352     10.3240     -3.0805     20.0858      2.4353      0.0374
   219.5000    102.7881     10.3240      6.0777     19.7795      2.4340      0.0344
