~Version Information
 VERS.                2.00:   CWLS log ASCII Standard -VERSION 2.00
 WRAP.                  NO:   One line per frame
~Well Information Block
#MNEM.UNIT              Data                Description
#--------- -------------------------------  -------------------------------
 STRT.F                          780.0000:   Starting Depth
 STOP.F                           -3.7500:   Ending Depth
 STEP.F                           -0.5000:   Level Spacing
 NULL.                          -999.2500:   Absent Value
 COMP.     FLUOR DANIEL (NPSOR), INC.    :   Company
 WELL.     36-1 X 11                     :   Well
 FLD .                                   :   Field
 LOC .                                   :   Location
 PROV.                                   :   Province
 SRVC.                                   :   Service Company
 LIC .                                   :   License Number
 DATE.                                   :   Log Date
 UWI .                                   :   Unique Well ID
~Curve Information Block
#MNEM.UNIT       API Codes    Curve Description
#---------    -------------   -------------------------------
 DEPT.F        0   0  0  0:   Depth
 CILD.MMHO     0   0  0  0:   Conductivity of Deep Induction
 GR  .API      0   0  0  0:   Gamma ray counts
 TEN .LBF      0   0  0  0:   Differential Tension
 RILM.OHMM     0   0  0  0:   Resistivity from CILM
 RILD.OHMM     0   0  0  0:   Resistivity from CILD
#  Curve Data
~A
# ...
   500.0000    171.6131    117.5769     17.6876      6.5418      5.8271
   499.5000    184.8538    117.8818     20.9264      6.1220      5.4097
   499.0000    197.8804    115.8463     26.7244      5.6794      5.0536
   498.5000    206.7136    113.6765     32.7268      5.3238      4.8376
   498.0000    209.7434    115.6689     36.7809      5.1071      4.7677
   497.5000    208.6737    119.1422     36.8602      4.9516      4.7922
   497.0000    206.2144    119.1512     35.2690      4.7938      4.8493
   496.5000    204.0340    117.4234     32.8540      4.7385      4.9011
   496.0000    200.4403    117.8864     29.8061      4.9416      4.9890
   495.5000    192.2520    118.5062     28.5382      5.4102      5.2015
   495.0000    180.3070    116.0359     28.0097      5.9930      5.5461
   494.5000    168.9250    113.9261     26.6906      6.4830      5.9198
   494.0000    160.9259    113.7286     26.2425      6.7671      6.2140
   493.5000    157.3524    112.3966     26.9678      6.8358      6.3552
   493.0000    158.7257    111.8232     28.1103      6.7521      6.3002
   492.5000    164.7152    115.2063     30.2819      6.5856      6.0711
   492.0000    174.4090    118.5512     31.7163      6.3470      5.7336
   491.5000    186.3615    118.2773     33.6485      6.0363      5.3659
   491.0000    197.3970    116.2772     37.0819      5.7064      5.0659
   490.5000    204.2526    115.3000     37.2957      5.4208      4.8959
   490.0000    206.6931    115.5382     32.8930      5.1860      4.8381
   489.5000    207.0014    115.7477     28.9003      4.9746      4.8309
   489.0000    207.0514    114.3149     27.7333      4.8130      4.8297
   488.5000    206.5867    113.3661     25.7664      4.8020      4.8406
   488.0000    203.7216    115.0220     24.1472      5.0166      4.9087
   487.5000    197.1978    116.4661     25.0402      5.4169      5.0711
   487.0000    188.1179    115.5761     26.0799      5.8606      5.3158
   486.5000    178.7775    116.6851     23.2126      6.1887      5.5935
   486.0000    170.9621    123.3741     20.2429      6.3766      5.8492
   485.5000    165.4330    130.1785     18.5934      6.4681      6.0447
   485.0000    162.0715    131.3206     15.2524      6.4844      6.1701
   484.5000    159.9171    128.2885     12.0249      6.4837      6.2532
   484.0000    157.9667    125.5933     12.9174      6.5577      6.3304
   483.5000    155.3669    124.3128     16.2321      6.7456      6.4364
   483.0000    151.8181    121.0602     19.6063      6.9856      6.5868
   482.5000    147.9064    116.9724     21.6184      7.1861      6.7610
   482.0000    144.8457    116.1658     22.5962      7.3094      6.9039
   481.5000    143.3197    118.3852     23.7662      7.3698      6.9774
   481.0000    143.0732    119.2126     24.9267      7.3907      6.9894
   480.5000    143.4509    119.1122     25.4669      7.3985      6.9710
   480.0000    143.9596    118.7457     25.9775      7.4045      6.9464
   479.5000    144.2445    117.5869     25.5605      7.3975      6.9327
   479.0000    144.2306    116.4085     24.6196      7.3757      6.9333
   478.5000    144.2548    116.8383     26.2593      7.3520      6.9322
   478.0000    144.4357    117.9997     30.1712      7.3378      6.9235
   477.5000    144.3210    118.1566     32.8098      7.3401      6.9290
   477.0000    143.6812    116.9637     31.3220      7.3639      6.9599
   476.5000    142.8145    115.5026     26.6704      7.4029      7.0021
   476.0000    141.9348    114.8862     22.8515      7.4421      7.0455
   475.5000    141.0357    114.3958     21.5656      7.4754      7.0904
   475.0000    140.3610    114.9127     21.1109      7.5034      7.1245
   474.5000    140.2135    115.6886     21.4933      7.5219      7.1320
   474.0000    140.6046    114.1238     23.1769      7.5208      7.1121
   473.5000    141.4417    110.8124     25.1985      7.4888      7.0701
   473.0000    142.6283    109.4901     24.6129      7.4278      7.0112
   472.5000    143.9611    111.0356     20.5116      7.3613      6.9463
   472.0000    145.1353    113.0142     17.5720      7.3128      6.8901
   471.5000    146.0841    113.5305     18.0542      7.2653      6.8454
   471.0000    147.6038    114.0453     19.0192      7.1713      6.7749
   470.5000    151.2827    116.8012     19.4306      7.0130      6.6101
   470.0000    158.4035    120.8340     21.3515      6.8069      6.3130
   469.5000    169.5153    123.1366     21.4500      6.5448      5.8992
   469.0000    183.8191    120.3422     19.1497      6.2038      5.4401
   468.5000    198.5229    113.9265     16.4044      5.8175      5.0372
   468.0000    209.9544    111.6604     14.7748      5.4544      4.7629
   467.5000    216.8842    115.4111     15.3912      5.1258      4.6108
   467.0000    220.9674    120.3891     17.4439      4.7898      4.5256
   466.5000    224.0829    121.9394     20.0300      4.4832      4.4626
   466.0000    226.1991    118.6967     22.8210      4.3334      4.4209
   465.5000    224.5825    115.0182     23.2404      4.4373      4.4527
   465.0000    216.4326    114.9338     21.5138      4.7855      4.6204
   464.5000    203.1581    115.2171     21.2457      5.2543      4.9223
   464.0000    189.3280    112.6861     18.8822      5.6967      5.2818
   463.5000    177.8837    109.8125     12.7380      6.0407      5.6216
   463.0000    169.3696    109.6750      8.6425      6.2824      5.9042
   462.5000    163.4478    111.2708      9.5050      6.4604      6.1182
   462.0000    159.1561    109.7468     12.9707      6.6106      6.2831
   461.5000    155.4637    105.8809     17.4402      6.7495      6.4324
   461.0000    151.9112    105.7437     21.8465      6.8821      6.5828
   460.5000    148.5298    110.2849     23.1461      7.0113      6.7327
   460.0000    145.4461    115.7062     19.6112      7.1389      6.8754
   459.5000    142.7566    118.6546     15.5587      7.2637      7.0049
   459.0000    140.5966    118.4407     15.7450      7.3731      7.1125
   458.5000    139.3596    116.4011     17.8019      7.4502      7.1757
   458.0000    139.5345    113.1847     18.3461      7.4869      7.1667
   457.5000    141.4243    109.6040     15.7017      7.4794      7.0709
   457.0000    144.9670    108.0037      8.8535      7.4091      6.8981
   456.5000    149.8371    110.0547      3.8567      7.2532      6.6739
   456.0000    155.6932    112.5668      5.9884      7.0228      6.4229
   455.5000    162.4026    113.4751     12.4592      6.7568      6.1575
   455.0000    170.0860    112.6761     17.9465      6.4710      5.8794
   454.5000    179.3182    111.6974     19.9445      6.1468      5.5767
   454.0000    190.0830    112.1674     16.9833      5.7901      5.2609
   453.5000    200.9605    113.1072      9.9555      5.4602      4.9761
   453.0000    210.5641    110.2714      4.8123      5.2025      4.7491
   452.5000    218.5371    105.8509      5.8517      4.9907      4.5759
   452.0000    224.2981    106.1850     12.0740      4.7857      4.4584
   451.5000    226.7279    111.1584     16.3309      4.6365      4.4106
   451.0000    225.1855    116.3481     17.0672      4.6062      4.4408
   450.5000    219.9660    118.7662     17.7504      4.6747      4.5462
   450.0000    212.5710    118.4682     18.7011      4.7714      4.7043
   449.5000    204.9152    115.6127     16.6951      4.8992      4.8801
   449.0000    197.4110    112.5038     13.7052      5.1274      5.0656
   448.5000    189.2491    111.6608     12.3543      5.4589      5.2840
   448.0000    180.9838    112.6543     13.3370      5.7941      5.5254
   447.5000    174.1318    112.9081     15.0780      6.0136      5.7428
   447.0000    169.9186    113.0085     14.7766      6.0764      5.8852
   446.5000    169.5900    113.8912     12.6758      6.0170      5.8966
   446.0000    174.3151    114.0874     10.7134      5.8966      5.7367
   445.5000    184.7405    112.8465      9.5837      5.7358      5.4130
   445.0000    201.2715    112.2766      8.8008      5.4927      4.9684
   444.5000    222.6824    111.7642      8.2237      5.1478      4.4907
