~Version Information
 VERS.                2.00:   CWLS log ASCII Standard -VERSION 2.00
 WRAP.                  NO:   One line per frame
~Well Information Block
#MNEM.UNIT              Data                Description
#--------- -------------------------------  -------------------------------
 STRT.F                          780.0000:   Starting Depth
 STOP.F                           -3.7500:   Ending Depth
 STEP.F                           -0.5000:   Level Spacing
 NULL.                          -999.2500:   Absent Value
 COMP.     FLUOR DANIEL (NPSOR), INC.    :   Company
 WELL.     36-1 X 11                     :   Well
 FLD .                                   :   Field
 LOC .                                   :   Location
 PROV.                                   :   Province
 SRVC.                                   :   Service Company
 LIC .                                   :   License Number
 DATE.                                   :   Log Date
 UWI .                                   :   Unique Well ID
~Curve Information Block
#MNEM.UNIT       API Codes    Curve Description
#---------    -------------   -------------------------------
 DEPT.F        0   0  0  0:   Depth
 CILD.MMHO     0   0  0  0:   Conductivity of Deep Induction
 GR  .API      0   0  0  0:   Gamma ray counts
 TEN .LBF      0   0  0  0:   Differential Tension
 RILM.OHMM     0   0  0  0:   Resistivity from CILM
 RILD.OHMM     0   0  0  0:   Resistivity from CILD
#  Curve Data
~A
# ...
   220.0000    136.7979     97.9534    -12.7478      7.5298      7.3101
   219.5000    140.0108     95.5578    -10.3816      7.3737      7.1423
   219.0000    143.3581     95.1980    -14.2621      7.2161      6.9755
   218.5000    146.5082     98.0169    -17.3853      7.0631      6.8256
   218.0000    149.2238    103.0869    -15.4501      6.9144      6.7013
   217.5000    151.5536    107.8591    -11.0569      6.7749      6.5983
   217.0000    153.6640    109.9403     -9.7612      6.6643      6.5077
   216.5000    155.3155    109.1739    -15.3708      6.6036      6.4385
   216.0000    156.0761    108.0588    -23.6890      6.5912      6.4071
   215.5000    155.8214    106.5006    -24.8956      6.6121      6.4176
   215.0000    154.8492    102.9865    -18.2750      6.6563      6.4579
   214.5000    153.2919    100.8190    -11.6842      6.7239      6.5235
   214.0000    151.0273    104.1159    -10.8357      6.8152      6.6213
   213.5000    148.1200    108.6160    -17.1361      6.9277      6.7513
   213.0000    144.7614    108.0066    -24.7742      7.0587      6.9079
   212.5000    140.9215    104.0087    -23.1757      7.2175      7.0961
   212.0000    137.1069    100.6296    -14.3124      7.4019      7.2936
   211.5000    134.4690     98.3285    -10.7064      7.5725      7.4367
   211.0000    133.4383     96.3310    -14.2615      7.6963      7.4941
   210.5000    133.3065     94.8950    -18.4742      7.8011      7.5015
   210.0000    133.3696     94.8902    -19.2681      7.9097      7.4980
   209.5000    133.7328     97.4454    -15.1835      7.9372      7.4776
   209.0000    135.3959    102.1095    -10.1291      7.7624      7.3857
   208.5000    139.3443    106.4500     -8.8362      7.4350      7.1765
   208.0000    144.8987    107.5645    -11.1362      7.1245      6.9014
   207.5000    150.2339    106.0130    -13.2654      6.9105      6.6563
   207.0000    154.4233    106.4451    -14.6836      6.7561      6.4757
   206.5000    157.6562    109.2258    -15.3281      6.6105      6.3429
   206.0000    160.1182    109.2917    -15.5077      6.4651      6.2454
   205.5000    161.8200    107.1112    -13.6277      6.3471      6.1797
   205.0000    162.7568    108.3514    -11.9468      6.2882      6.1441
   204.5000    162.7817    110.6542    -12.0774      6.2957      6.1432
   204.0000    161.6936    109.4690    -11.6031      6.3590      6.1845
   203.5000    159.7433    107.3993    -10.4060      6.4592      6.2600
   203.0000    157.8965    106.4682    -10.1376      6.5678      6.3333
   202.5000    156.8763    103.4341     -9.0890      6.6585      6.3744
   202.0000    156.5887     99.4413     -7.1889      6.7335      6.3862
   201.5000    156.4326     99.1194     -7.6348      6.8091      6.3925
   201.0000    155.9748    101.0098    -10.4697      6.8663      6.4113
   200.5000    155.2472    103.6846    -11.5113      6.8579      6.4413
   200.0000    154.6078    107.0418     -9.7002      6.7869      6.4680
   199.5000    154.0303    107.5965     -7.0934      6.7266      6.4922
   199.0000    153.0252    104.8668     -5.4137      6.7363      6.5349
   198.5000    151.2185    103.9561     -4.1724      6.8152      6.6129
   198.0000    148.6758    105.4071     -4.3713      6.9354      6.7260
   197.5000    145.9692    106.0629     -5.9060      7.0739      6.8508
   197.0000    143.8485    105.8190     -8.2881      7.2159      6.9518
   196.5000    142.5914    105.4915    -11.0434      7.3437      7.0130
   196.0000    142.0552    104.7462    -13.6728      7.4306      7.0395
   195.5000    142.1851    104.5639    -14.4216      7.4521      7.0331
   195.0000    142.7997    106.2191    -11.8773      7.4037      7.0028
   194.5000    143.7207    107.3969     -8.0511      7.2989      6.9579
   194.0000    144.8053    105.7306     -6.3769      7.1756      6.9058
   193.5000    145.6893    101.8881     -8.3546      7.0785      6.8639
   193.0000    146.1270     99.5426    -14.5522      7.0224      6.8434
   192.5000    146.2317    100.3161    -21.1585      6.9995      6.8385
   192.0000    146.1535    101.9894    -21.8648      7.0054      6.8421
   191.5000    146.0885    103.7885    -16.1055      7.0350      6.8452
   191.0000    146.2431    106.2099     -9.6505      7.0721      6.8379
   190.5000    146.5268    109.6830     -6.7862      7.0929      6.8247
   190.0000    146.8920    111.3824     -8.2606      7.0789      6.8077
   189.5000    147.3441    108.5627    -11.1240      7.0349      6.7868
   189.0000    147.7116    103.0102    -12.2735      6.9792      6.7699
   188.5000    148.1077     99.4516    -12.2720      6.9250      6.7518
   188.0000    148.8865     98.2707    -13.5103      6.8780      6.7165
   187.5000    149.8282     98.7027    -16.6201      6.8479      6.6743
   187.0000    150.3120    102.2051    -18.5065      6.8469      6.6528
   186.5000    150.1783    107.0296    -15.8414      6.8707      6.6588
   186.0000    149.6807    109.1291     -9.7774      6.8903      6.6809
   185.5000    149.1884    106.0709     -6.1522      6.8793      6.7029
   185.0000    148.9289    100.3867     -8.4302      6.8504      6.7146
   184.5000    148.6198     97.9843    -10.6838      6.8446      6.7286
   184.0000    147.6207     99.7890     -8.2966      6.8932      6.7741
   183.5000    145.7384    102.6102     -8.2130      6.9977      6.8616
   183.0000    143.3975    104.4944    -14.6369      7.1345      6.9736
   182.5000    141.0956    104.8182    -19.4803      7.2726      7.0874
   182.0000    139.0937    104.2686    -18.1493      7.3866      7.1894
   181.5000    137.4617    103.3275    -14.9843      7.4706      7.2748
   181.0000    136.2193    101.7474    -14.2642      7.5381      7.3411
   180.5000    135.3063    101.3012    -14.0349      7.5986      7.3906
   180.0000    134.5134    103.3775    -11.6815      7.6382      7.4342
   179.5000    134.1400    105.7732     -8.5431      7.6373      7.4549
   179.0000    134.8104    106.8157     -7.1309      7.5957      7.4178
   178.5000    136.5785    107.8636     -5.9283      7.5287      7.3218
   178.0000    138.7907    106.7633     -1.4762      7.4589      7.2051
   177.5000    140.9101    103.2581      3.8226      7.3923      7.0967
   177.0000    142.7209    102.8384      3.9906      7.3077      7.0067
   176.5000    144.2226    106.4196     -2.3064      7.1905      6.9337
   176.0000    145.6847    107.5974     -9.4083      7.0605      6.8641
   175.5000    147.6734    107.0423    -11.4930      6.9414      6.7717
   175.0000    150.2237    107.7142     -8.8758      6.8464      6.6567
   174.5000    152.5861    107.7419     -7.2523      6.7883      6.5537
   174.0000    154.2199    106.6506    -11.2457      6.7636      6.4842
   173.5000    155.1940    106.2081    -15.6993      6.7352      6.4435
   173.0000    155.9155    106.9149    -14.6174      6.6667      6.4137
   172.5000    156.8778    107.6481     -9.8716      6.5649      6.3744
   172.0000    158.2484    106.7278     -6.4465      6.4659      6.3192
   171.5000    159.5798    105.3059     -7.1754      6.3971      6.2665
   171.0000    160.4785    105.6880    -10.3203      6.3631      6.2314
   170.5000    160.5425    105.3383    -13.1202      6.3472      6.2289
   170.0000    159.6832    103.0017    -17.2514      6.3344      6.2624
   169.5000    158.3445    101.4496    -21.8078      6.3497      6.3153
   169.0000    156.9324    102.4650    -20.9489      6.4284      6.3722
   168.5000    155.2215    105.0145    -15.1576      6.5481      6.4424
   168.0000    153.1805    108.0754    -11.4036      6.6513      6.5282
   167.5000    151.2917    111.6166    -11.3402      6.7277      6.6097
   167.0000    150.0796    113.8706    -13.7729      6.7894      6.6631
   166.5000    149.7931    110.3750    -16.0967      6.8304      6.6759
   166.0000    150.5418    103.4132    -12.8213      6.8408      6.6427
   165.5000    152.0772    100.8003     -5.9082      6.8213      6.5756
   165.0000    153.8755    103.9213     -2.2045      6.7608      6.4988
   164.5000    155.4892    108.0581     -3.0817      6.6654      6.4313
