~Version Information
 VERS.                2.00:   CWLS log ASCII Standard -VERSION 2.00
 WRAP.                  NO:   One line per frame
~Well Information Block
#MNEM.UNIT              Data                Description
#--------- -------------------------------  -------------------------------
 STRT.F                          780.0000:   Starting Depth
 STOP.F                           -3.7500:   Ending Depth
 STEP.F                           -0.5000:   Level Spacing
 NULL.                          -999.2500:   Absent Value
 COMP.     FLUOR DANIEL (NPSOR), INC.    :   Company
 WELL.     36-1 X 11                     :   Well
 FLD .                                   :   Field
 LOC .                                   :   Location
 PROV.                                   :   Province
 SRVC.                                   :   Service Company
 LIC .                                   :   License Number
 DATE.                                   :   Log Date
 UWI .                                   :   Unique Well ID
~Curve Information Block
#MNEM.UNIT       API Codes    Curve Description
#---------    -------------   -------------------------------
 DEPT.F        0   0  0  0:   Depth
 CILD.MMHO     0   0  0  0:   Conductivity of Deep Induction
 GR  .API      0   0  0  0:   Gamma ray counts
 TEN .LBF      0   0  0  0:   Differential Tension
 RILM.OHMM     0   0  0  0:   Resistivity from CILM
 RILD.OHMM     0   0  0  0:   Resistivity from CILD
#  Curve Data
~A
# ...
   276.0000    121.9831    103.7507     -8.0282      8.3876      8.1979
   275.5000    124.2794    106.0398     -8.9097      8.2825      8.0464
   275.0000    126.7961    112.1672     -8.7257      8.1931      7.8867
   274.5000    129.0757    118.9031     -7.5375      8.0867      7.7474
   274.0000    131.0131    121.9634     -5.6211      7.9184      7.6328
   273.5000    132.7117    122.9498     -5.3796      7.7181      7.5351
   273.0000    134.0912    124.2968     -6.9857      7.5635      7.4576
   272.5000    134.6673    122.5940     -7.8379      7.5027      7.4257
   272.0000    133.8711    118.5046     -8.5068      7.5299      7.4699
   271.5000    131.6421    116.8622     -9.7417      7.6259      7.5964
   271.0000    128.3975    118.6971    -10.1470      7.7830      7.7883
   270.5000    124.6969    119.5826     -9.8927      7.9999      8.0194
   270.0000    121.0656    117.2211    -10.2517      8.2669      8.2600
   269.5000    117.5401    114.0566    -11.5589      8.5805      8.5077
   269.0000    113.9111    113.0170    -12.9354      8.9198      8.7788
   268.5000    110.2340    114.5379    -12.8679      9.2377      9.0716
   268.0000    106.7467    115.7308    -11.1816      9.4963      9.3680
   267.5000    103.6887    113.9536     -9.7536      9.6918      9.6443
   267.0000    101.3821    110.1512     -9.7679      9.8447      9.8637
   266.5000    100.0613    106.6654    -11.0428      9.9824      9.9939
   266.0000     99.5607    103.2845    -12.6325     10.1155     10.0441
   265.5000     99.5182     99.7852    -13.2925     10.2331     10.0484
   265.0000     99.8864     98.4735    -12.4010     10.3026     10.0114
   264.5000    100.8662    101.1913    -10.4807     10.2708      9.9141
   264.0000    102.5008    107.0047     -9.5761     10.1130      9.7560
   263.5000    104.7074    112.1102    -10.9160      9.8725      9.5504
   263.0000    107.3657    112.8661    -12.5108      9.6190      9.3140
   262.5000    110.1985    110.0812    -14.6043      9.3882      9.0745
   262.0000    112.9018    107.7209    -18.3604      9.1886      8.8573
   261.5000    115.3156    108.1053    -20.4701      9.0222      8.6719
   261.0000    117.5080    109.3593    -18.1643      8.8743      8.5101
   260.5000    119.6469    110.4608    -13.8656      8.7270      8.3579
   260.0000    121.7411    112.0940    -12.6157      8.5816      8.2141
   259.5000    123.5986    114.0769    -13.8690      8.4457      8.0907
   259.0000    125.1161    114.0575    -13.6112      8.3076      7.9926
   258.5000    126.3838    111.9997    -10.5341      8.1646      7.9124
   258.0000    127.4485    109.6906     -9.2665      8.0471      7.8463
   257.5000    128.2103    109.2225    -11.6556      7.9779      7.7997
   257.0000    128.6931    111.0876    -15.9854      7.9498      7.7704
   256.5000    129.1240    112.0999    -20.6204      7.9436      7.7445
   256.0000    129.6160    111.4150    -21.1005      7.9399      7.7151
   255.5000    130.1887    109.9554    -17.3694      7.9282      7.6812
   255.0000    130.9413    107.1946    -16.3709      7.9110      7.6370
   254.5000    132.0148    105.4723    -18.5208      7.8872      7.5749
   254.0000    133.3397    107.4672    -17.0702      7.8378      7.4996
   253.5000    134.6969    110.3247    -12.3171      7.7411      7.4241
   253.0000    136.0182    111.6765     -9.3275      7.6108      7.3520
   252.5000    137.4566    111.5946     -9.4959      7.4834      7.2750
   252.0000    138.9678    109.2814    -11.4140      7.3850      7.1959
   251.5000    140.3193    106.2815    -11.9429      7.3204      7.1266
   251.0000    141.2253    105.3960    -10.3978      7.3014      7.0809
   250.5000    141.5795    106.4318     -7.5536      7.3107      7.0632
   250.0000    141.6487    108.2207     -5.5275      7.2986      7.0597
   249.5000    141.9767    109.8514     -5.9353      7.2465      7.0434
   249.0000    142.7797    110.8195     -9.4041      7.1944      7.0038
   248.5000    143.8214    111.2112    -14.2926      7.1761      6.9531
   248.0000    144.7146    111.0035    -16.9400      7.1756      6.9102
   247.5000    145.3029    109.3661    -15.5138      7.1619      6.8822
   247.0000    145.8146    106.5938    -11.9752      7.1374      6.8580
   246.5000    146.4033    104.1719    -10.8421      7.1229      6.8304
   246.0000    146.9164    103.2477    -11.9365      7.1171      6.8066
   245.5000    147.3726    103.6599    -12.2583      7.0977      6.7855
   245.0000    148.0620    105.6749     -9.0371      7.0550      6.7539
   244.5000    149.0150    108.3535     -5.8810      6.9922      6.7107
   244.0000    149.8098    108.8452     -6.7603      6.9353      6.6751
   243.5000    150.1404    106.0463     -9.6060      6.9024      6.6604
   243.0000    150.2028    103.3833    -10.8238      6.8806      6.6577
   242.5000    150.1790    102.6561    -11.9191      6.8619      6.6587
   242.0000    149.9528    103.4134    -13.2391      6.8707      6.6688
   241.5000    149.6243    105.3492    -12.4806      6.9059      6.6834
   241.0000    149.2914    107.0365    -11.0697      6.9355      6.6983
   240.5000    148.7331    107.8303    -13.7799      6.9507      6.7235
   240.0000    148.0045    109.7449    -18.5480      6.9643      6.7565
   239.5000    147.2684    110.1099    -22.0182      6.9781      6.7903
   239.0000    146.2249    105.9233    -23.3484      7.0014      6.8388
   238.5000    144.8500    102.4070    -20.3597      7.0536      6.9037
   238.0000    143.5517    102.7890    -14.3536      7.1396      6.9661
   237.5000    142.3839    102.7582    -10.1742      7.2422      7.0233
   237.0000    141.1965    100.6574     -9.8957      7.3410      7.0823
   236.5000    140.1236     99.2485    -13.2010      7.4265      7.1366
   236.0000    139.2323     99.2728    -17.1636      7.4904      7.1822
   235.5000    138.3374    101.3484    -15.8746      7.5196      7.2287
   235.0000    137.1961    104.9046    -12.0621      7.5281      7.2888
   234.5000    135.4349    107.6928    -12.6709      7.5574      7.3836
   234.0000    132.9069    108.3115    -15.0688      7.6358      7.5241
   233.5000    130.2355    105.8086    -14.3243      7.7544      7.6784
   233.0000    128.8118     98.8821    -12.6005      7.8632      7.7633
   232.5000    129.3951     88.6245    -12.5007      7.9426      7.7283
   232.0000    131.0627     80.8326    -13.5060      8.0672      7.6299
   231.5000    132.2950     81.9252    -14.7388      8.2859      7.5589
   231.0000    132.8525     90.3309    -15.4745      8.4368      7.5271
   230.5000    134.2367     98.3416    -15.8316      8.2783      7.4495
   230.0000    137.9493    101.5950    -15.7334      7.8413      7.2490
   229.5000    143.4829    102.4337    -14.3228      7.3848      6.9695
   229.0000    148.9503    104.4508    -11.2432      7.0670      6.7136
   228.5000    153.3035    107.1105     -9.3074      6.8722      6.5230
   228.0000    156.5507    109.1910    -10.1800      6.7312      6.3877
   227.5000    158.5623    110.1815    -13.4853      6.6184      6.3067
   227.0000    159.2343    109.8146    -16.9394      6.5423      6.2801
   226.5000    158.8891    108.3109    -16.5768      6.5092      6.2937
   226.0000    157.6623    107.5718    -14.0651      6.5212      6.3427
   225.5000    155.4200    108.3460    -12.5257      6.5782      6.4342
   225.0000    152.3712    108.3442    -11.0977      6.6813      6.5629
   224.5000    148.9386    104.8205     -8.2219      6.8303      6.7142
   224.0000    145.1774     99.0757     -7.4902      7.0203      6.8881
   223.5000    141.1995     96.3948     -9.6432      7.2376      7.0822
   223.0000    137.4561     97.9370    -12.4897      7.4541      7.2751
   222.5000    134.5223    101.6564    -12.6666      7.6283      7.4337
   222.0000    132.7345    105.0369    -13.3197      7.7351      7.5338
   221.5000    132.1308    105.2704    -19.1699      7.7758      7.5683
   221.0000    132.6012    102.6354    -24.3899      7.7520      7.5414
   220.5000    134.1900    100.1520    -20.7925      7.6644      7.4521
