~Version Information
 VERS.                2.00:   CWLS log ASCII Standard -VERSION 2.00
 WRAP.                  NO:   One line per frame
~Well Information Block
#MNEM.UNIT              Data                Description
#--------- -------------------------------  -------------------------------
 STRT.F                          780.0000:   Starting Depth
 STOP.F                           -3.7500:   Ending Depth
 STEP.F                           -0.5000:   Level Spacing
 NULL.                          -999.2500:   Absent Value
 COMP.     FLUOR DANIEL (NPSOR), INC.    :   Company
 WELL.     36-1 X 11                     :   Well
 FLD .                                   :   Field
 LOC .                                   :   Location
 PROV.                                   :   Province
 SRVC.                                   :   Service Company
 LIC .                                   :   License Number
 DATE.                                   :   Log Date
 UWI .                                   :   Unique Well ID
~Curve Information Block
#MNEM.UNIT       API Codes    Curve Description
#---------    -------------   -------------------------------
 DEPT.F        0   0  0  0:   Depth
 CILD.MMHO     0   0  0  0:   Conductivity of Deep Induction
 GR  .API      0   0  0  0:   Gamma ray counts
 TEN .LBF      0   0  0  0:   Differential Tension
 RILM.OHMM     0   0  0  0:   Resistivity from CILM
 RILD.OHMM     0   0  0  0:   Resistivity from CILD
#  Curve Data
~A
   780.0000      0.0000      0.0000   -250.0000      0.2000      0.2000
   779.5000      0.0000      0.0000   -250.0000      0.2000      0.2000
   779.0000      0.0000      0.0000   -250.0000      0.2000      0.2000
   778.5000      0.0000      0.0000   -250.0000      0.2000      0.2000
   778.0000      0.0000      0.0000   -250.0000      0.2000      0.2000
   777.5000      0.0000      0.0000   -250.0000      0.2000      0.2000
   777.0000      0.0000      0.0000   -250.0000      0.2000      0.2000
   776.5000      0.0000      0.0000   -250.0000      0.2000      0.2000
   776.0000      0.0000      0.0000   -250.0000      0.2000      0.2000
   775.5000      0.0000      0.0000   -250.0000      0.2000      0.2000
   775.0000      0.0000      0.0000   -250.0000      0.2000      0.2000
   774.5000      0.0000      0.0000   -250.0000      0.2000      0.2000
   774.0000      0.0000      0.0000   -250.0000      0.2000      0.2000
   773.5000      0.0000      0.0000   -250.0000      0.2000      0.2000
   773.0000      0.0000      0.0000   -250.0000      0.2000      0.2000
   772.5000      0.0000      0.0000   -250.0000      0.2000      0.2000
   772.0000      0.0000      0.0000   -250.0000      0.2000      0.2000
   771.5000      0.0000      0.0000   -250.0000      0.2000      0.2000
   771.0000      0.0000      0.0000   -250.0000      0.2000      0.2000
   770.5000      0.0000      0.0000   -250.0000      0.2000      0.2000
   770.0000      0.0000      0.0000   -224.3650      0.2000      0.2000
   769.5000      0.0000      0.0000   -218.2649      0.2000      0.2000
   769.0000      0.0000      0.0000   -207.0788      0.2000      0.2000
   768.5000      0.0000      0.0000   -196.9964      0.2000      0.2000
   768.0000      0.0000      0.0000   -189.2921      0.2000      0.2000
   767.5000      0.0000      0.0000   -184.0827      0.2000      0.2000
   767.0000      0.0000      0.0000   -181.7818      0.2000      0.2000
   766.5000      0.0000      0.0000   -179.1405      0.2000      0.2000
   766.0000      0.0000      0.0000   -174.0699      0.2000      0.2000
   765.5000      0.0000      0.0000   -169.1371      0.2000      0.2000
   765.0000      0.0000      0.0000   -166.7151      0.2000      0.2000
   764.5000      0.0000      0.0000   -165.0711      0.2000      0.2000
   764.0000      0.0000      0.0000   -162.2701      7.6957      0.2000
   763.5000      0.0000      0.0000   -157.1424      7.6971      0.2000
   763.0000      0.0000      0.0000   -149.7181      7.6944      0.2000
   762.5000      0.0000      0.0000   -143.0846      7.6908      0.2000
   762.0000      0.0000      0.0000   -139.5085      7.6927      0.2000
   761.5000      0.0000      0.0000   -137.0743      7.6984      0.2000
   761.0000      0.0000      0.0000   -135.0750      7.6989      0.2000
   760.5000      0.0000      0.0000   -132.6024      7.6952      0.2000
   760.0000      0.0000      0.0000   -126.2666      7.6923      0.2000
   759.5000      0.0000      0.0000   -116.3529      7.6930      0.2000
   759.0000      0.0000      0.0000   -109.7298      7.6940      0.2000
   758.5000      0.0000      0.0000   -107.9273      7.6935      0.2000
   758.0000      0.0000      0.0000   -107.2218      7.6940      0.2000
   757.5000      0.0000      0.0000   -106.3041      7.6956      0.2000
   757.0000      0.0000      0.0000   -103.9181      7.6933      0.2000
   756.5000      0.0000      0.0000    -98.9310      7.6894      0.2000
   756.0000      0.0000      0.0000    -93.2074      7.6878      0.2000
   755.5000      0.0000      0.0000    -80.7957      7.6874      0.2000
   755.0000      0.0000      0.0000    -29.4880      7.6879      0.2000
   754.5000      0.0000      0.0000     72.7425      7.6896      0.2000
   754.0000    248.4006      0.0000    180.5993      7.6905      4.0258
   753.5000    248.5949      0.0000    243.9085      7.6887      4.0226
   753.0000    248.5844      0.0000    263.6172      7.6859      4.0228
   752.5000    248.2431      0.0000    262.7346      7.6853      4.0283
   752.0000    247.2734      0.0000    254.6918      7.6871      4.0441
   751.5000    245.3476      0.0000    247.3772      7.6895      4.0759
   751.0000    242.9797      0.0000    243.4376      7.6929      4.1156
   750.5000    241.0437      0.0000    241.4212      7.6945      4.1486
   750.0000    239.8228      0.0000    240.4150      7.6924      4.1697
   749.5000    239.4621      0.0000    241.7408      7.6894      4.1760
   749.0000    240.0585      0.0000    245.7147      7.6753      4.1657
   748.5000    241.2966      0.0000    247.2275      7.6158      4.1443
   748.0000    243.0990      0.0000    241.9666      7.4918      4.1136
   747.5000    245.6077      0.0000    234.1991      7.2828      4.0715
   747.0000    248.4169      0.0000    227.0953      6.9117      4.0255
   746.5000    251.0099     86.6398    220.4793      6.3241      3.9839
   746.0000    254.5051     85.1485    214.2856      5.6083      3.9292
   745.5000    264.9670     82.0654    210.2038      4.9056      3.7741
   745.0000    289.5183     80.3418    209.0472      4.2683      3.4540
   744.5000    325.4917     81.6946    208.6627      3.7033      3.0723
   744.0000    360.3174     83.7640    205.9557      3.2109      2.7753
   743.5000    384.7720     86.2011    203.0507      2.8351      2.5989
   743.0000    397.1445     88.3454    202.6755      2.5969      2.5180
   742.5000    396.9641     88.3413    200.8852      2.4685      2.5191
   742.0000    384.4426     85.5535    196.3760      2.4414      2.6012
   741.5000    360.9055     83.1277    192.5029      2.5649      2.7708
   741.0000    326.5886     84.2280    188.9701      2.8935      3.0620
   740.5000    283.6663     88.3059    183.8192      3.4575      3.5253
   740.0000    240.4214     90.1225    180.7125      4.2081      4.1594
   739.5000    205.4581     86.7901    182.3051      5.0147      4.8672
   739.0000    179.1105     81.5771    183.3055      5.6867      5.5831
   738.5000    161.0601     78.1513    180.9537      6.1767      6.2089
   738.0000    149.3061     77.3103    179.5962      6.5419      6.6976
   737.5000    140.8293     78.7243    179.6721      6.8645      7.1008
   737.0000    133.7645     81.9268    178.5433      7.1727      7.4758
   736.5000    127.2196     85.7126    175.9005      7.4533      7.8604
   736.0000    121.0454     87.2867    173.5059      7.7001      8.2614
   735.5000    115.7075     85.4257    173.2009      7.9240      8.6425
   735.0000    111.6576     83.8900    175.2959      8.1106      8.9559
   734.5000    109.1554     84.9317    175.6702      8.2431      9.1612
   734.0000    108.3605     85.0514    173.5907      8.3398      9.2285
   733.5000    109.2231     82.9840    172.1633      8.4413      9.1556
   733.0000    111.1951     82.5948    172.4915      8.5808      8.9932
   732.5000    113.1397     85.5196    174.2541      8.7365      8.8386
   732.0000    114.1656     87.7352    174.4801      8.8296      8.7592
   731.5000    114.3781     86.9957    170.5840      8.8278      8.7429
   731.0000    114.0358     85.1245    164.6237      8.7851      8.7692
   730.5000    113.1707     83.8798    161.1647      8.7650      8.8362
   730.0000    112.2513     83.1096    158.2761      8.7994      8.9086
   729.5000    111.7910     82.2621    153.2704      8.8741      8.9453
   729.0000    111.6464     81.5945    149.5259      8.9377      8.9569
   728.5000    111.5585     81.4242    148.6637      8.9626      8.9639
   728.0000    111.5444     83.5660    151.8085      8.9645      8.9650
   727.5000    111.6834     88.2180    155.8803      8.9487      8.9539
   727.0000    112.1490     91.7372    157.6929      8.9081      8.9167
   726.5000    112.9998     91.4638    157.8442      8.8414      8.8496
   726.0000    114.4338     90.9364    157.3586      8.7322      8.7387
   725.5000    117.1412     91.1442    152.6570      8.5549      8.5367
   725.0000    121.7988     89.3734    146.3207      8.3164      8.2103
   724.5000    128.5776     86.6319    144.9140      8.0347      7.7774
