~Version Information
 VERS.                2.00:   CWLS log ASCII Standard -VERSION 2.00
 WRAP.                  NO:   One line per frame
~Well Information Block
#MNEM.UNIT              Data                Description
#--------- -------------------------------  -------------------------------
 STRT.F                          780.0000:   Starting Depth
 STOP.F                           -3.7500:   Ending Depth
 STEP.F                           -0.5000:   Level Spacing
 NULL.                          -999.2500:   Absent Value
 COMP.     FLUOR DANIEL (NPSOR), INC.    :   Company
 WELL.     36-1 X 11                     :   Well
 FLD .                                   :   Field
 LOC .                                   :   Location
 PROV.                                   :   Province
 SRVC.                                   :   Service Company
 LIC .                                   :   License Number
 DATE.                                   :   Log Date
 UWI .                                   :   Unique Well ID
~Curve Information Block
#MNEM.UNIT       API Codes    Curve Description
#---------    -------------   -------------------------------
 DEPT.F        0   0  0  0:   Depth
 CILD.MMHO     0   0  0  0:   Conductivity of Deep Induction
 GR  .API      0   0  0  0:   Gamma ray counts
 TEN .LBF      0   0  0  0:   Differential Tension
 RILM.OHMM     0   0  0  0:   Resistivity from CILM
 RILD.OHMM     0   0  0  0:   Resistivity from CILD
#  Curve Data
~A
# ...
   724.0000    137.3636     84.3403    144.6176      7.7018      7.2799
   723.5000    146.6146     82.9392    142.8391      7.3336      6.8206
   723.0000    153.5945     83.5569    143.1420      6.9986      6.5106
   722.5000    157.3129     86.3020    144.7350      6.7211      6.3568
   722.0000    159.2495     88.1811    144.5749      6.4067      6.2795
   721.5000    160.8766     86.8551    144.6956      6.0175      6.2159
   721.0000    162.4040     84.0957    147.6880      5.7138      6.1575
   720.5000    162.5674     82.5688    151.0482      5.6925      6.1513
   720.0000    159.3581     82.3856    151.1580      5.9854      6.2752
   719.5000    152.9024     83.0781    147.5697      6.4412      6.5401
   719.0000    145.7617     85.4259    143.6367      6.8451      6.8605
   718.5000    140.1227     86.7657    141.8356      7.0934      7.1366
   718.0000    136.5037     85.5207    141.0097      7.2133      7.3258
   717.5000    134.7284     83.8969    141.3269      7.2738      7.4223
   717.0000    133.9750     84.6116    142.9471      7.3252      7.4641
   716.5000    133.1824     86.9922    143.9395      7.3810      7.5085
   716.0000    131.9353     88.4572    140.7194      7.4475      7.5795
   715.5000    130.3642     88.1529    134.1295      7.5290      7.6708
   715.0000    128.4564     86.9410    129.1418      7.6060      7.7847
   714.5000    126.2164     86.4028    128.0027      7.6596      7.9229
   714.0000    123.8617     87.6695    129.1330      7.7197      8.0735
   713.5000    121.6609     90.5417    130.6049      7.8167      8.2196
   713.0000    119.8382     94.2943    130.3731      7.9321      8.3446
   712.5000    118.5586     97.5957    126.6485      8.0393      8.4346
   712.0000    117.7683     99.0672    123.6061      8.1467      8.4912
   711.5000    117.2149     97.3342    126.2874      8.2618      8.5313
   711.0000    116.7054     93.9624    132.1559      8.3745      8.5686
   710.5000    116.1950     91.2202    136.7812      8.4721      8.6062
   710.0000    115.7661     89.9691    140.4470      8.5475      8.6381
   709.5000    115.5597     89.1477    141.3620      8.5902      8.6535
   709.0000    115.5251     89.2107    135.3199      8.5864      8.6561
   708.5000    115.4739     90.7104    125.8927      8.5404      8.6600
   708.0000    115.2070     90.4796    122.2873      8.4940      8.6800
   707.5000    114.5664     86.8368    123.9785      8.4987      8.7286
   707.0000    113.4819     84.3506    123.8303      8.5827      8.8120
   706.5000    112.1480     86.5991    122.1476      8.7290      8.9168
   706.0000    110.8217     88.7521    121.7905      8.8817      9.0235
   705.5000    109.5271     86.2675    121.1689      8.9827      9.1302
   705.0000    108.2420     83.7202    120.5448      9.0437      9.2386
   704.5000    107.0186     86.0099    123.5262      9.1474      9.3442
   704.0000    105.8131     87.9939    128.4391      9.3445      9.4506
   703.5000    104.4968     85.7776    130.0075      9.5705      9.5697
   703.0000    103.1582     82.5638    126.6079      9.7076      9.6938
   702.5000    101.9172     80.8868    121.1451      9.7462      9.8119
   702.0000    100.6688     81.0544    118.4873      9.7881      9.9336
   701.5000     99.2525     82.9974    119.7863      9.9047     10.0753
   701.0000     97.7021     83.0286    122.1601     10.0712     10.2352
   700.5000     96.2629     81.1795    123.2056     10.2244     10.3882
   700.0000     95.0362     79.8404    123.3066     10.3459     10.5223
   699.5000     93.9513     79.6919    123.3566     10.4463     10.6438
   699.0000     93.1141     79.7432    121.9286     10.5132     10.7395
   698.5000     92.6509     80.0281    119.5350     10.5232     10.7932
   698.0000     92.4258     79.4874    118.4992     10.5001     10.8195
   697.5000     92.2022     78.8836    119.9800     10.4953     10.8457
   697.0000     91.8583     81.3929    122.5243     10.5262     10.8863
   696.5000     91.3087     84.8408    125.1293     10.5676     10.9519
   696.0000     90.6695     85.0717    124.4772     10.5882     11.0291
   695.5000     90.2664     82.6290    119.4722     10.5776     11.0783
   695.0000     90.2572     82.6620    114.6495     10.5660     11.0794
   694.5000     90.4919     85.2625    114.7632     10.5971     11.0507
   694.0000     90.6597     86.9353    118.9768     10.6899     11.0303
   693.5000     90.5539     86.0750    123.3075     10.8279     11.0431
   693.0000     90.1924     84.4981    124.1225     10.9623     11.0874
   692.5000     89.8300     83.6604    120.9105     11.0089     11.1321
   692.0000     89.6961     83.2092    117.7047     10.9164     11.1488
   691.5000     89.8067     83.8485    116.7546     10.7367     11.1350
   691.0000     90.1503     85.5177    115.5413     10.5607     11.0926
   690.5000     90.7193     87.7866    115.1970     10.4491     11.0230
   690.0000     91.2944     88.4537    116.2041     10.4313     10.9536
   689.5000     91.7046     86.1959    116.3117     10.5005     10.9046
   689.0000     92.1177     83.2678    115.2674     10.5882     10.8557
   688.5000     92.7663     82.9130    116.6680     10.6002     10.7798
   688.0000     93.8060     83.7092    118.5962     10.5000     10.6603
   687.5000     95.2870     83.9453    118.5437     10.3478     10.4946
   687.0000     96.9810     85.8805    116.7149     10.2211     10.3113
   686.5000     98.6141     88.4189    115.8555     10.1290     10.1405
   686.0000    100.0621     88.2931    116.9211     10.0190      9.9938
   685.5000    101.3345     87.7750    119.1470      9.8471      9.8683
   685.0000    102.4839     89.2712    121.2113      9.6386      9.7576
   684.5000    103.8672     88.5526    121.9765      9.4508      9.6277
   684.0000    105.6446     84.7327    120.7074      9.3206      9.4657
   683.5000    107.7400     82.4436    117.8425      9.2344      9.2816
   683.0000    110.0260     83.3011    117.2523      9.1380      9.0888
   682.5000    112.2879     85.4172    118.5062      8.9972      8.9057
   682.0000    114.2677     88.0954    117.9255      8.8482      8.7514
   681.5000    115.6460     88.3241    114.8535      8.7501      8.6471
   681.0000    116.1665     83.7980    114.1709      8.7036      8.6083
   680.5000    116.5547     78.3826    115.2574      8.6511      8.5797
   680.0000    118.6308     76.7556    113.9278      8.5322      8.4295
   679.5000    124.2253     78.0462    112.1888      8.3160      8.0499
   679.0000    134.8090     78.8538    113.7775      7.9793      7.4179
   678.5000    150.6809     78.8080    117.6827      7.5087      6.6365
   678.0000    168.8277     80.9120    121.0072      6.9573      5.9232
   677.5000    183.8384     88.1871    123.1050      6.4471      5.4396
   677.0000    192.7958     98.3261    122.9397      6.0312      5.1868
   676.5000    197.1362    103.0865    121.6965      5.6057      5.0726
   676.0000    199.5502     98.8545    121.4668      5.0971      5.0113
   675.5000    201.2989     91.2625    121.1713      4.6516      4.9677
   675.0000    200.6824     85.8639    119.3413      4.5118      4.9830
   674.5000    194.1444     83.5647    117.8041      4.7755      5.1508
   674.0000    180.6483     82.7584    118.7636      5.3942      5.5356
   673.5000    163.5082     81.7017    119.9909      6.2125      6.1159
   673.0000    147.3933     80.4332    117.9856      7.0184      6.7846
   672.5000    134.8758     80.4107    113.3971      7.6208      7.4142
   672.0000    126.6722     79.4615    111.8490      7.9681      7.8944
   671.5000    121.9738     77.7687    114.6230      8.1548      8.1985
   671.0000    119.2253     77.4652    119.6975      8.2927      8.3875
   670.5000    117.0768     77.8059    123.1928      8.4344      8.5414
   670.0000    114.7541     77.9816    122.2577      8.5972      8.7143
   669.5000    112.1521     80.0688    116.9977      8.7936      8.9165
   669.0000    109.5858     82.6875    112.7640      9.0042      9.1253
   668.5000    107.3163     82.8363    112.9400      9.1777      9.3182
