~Version Information
 VERS.                2.00:   CWLS log ASCII Standard -VERSION 2.00
 WRAP.                  NO:   One line per frame
~Well Information Block
#MNEM.UNIT              Data                Description
#--------- -------------------------------  -------------------------------
 STRT.F                          780.0000:   Starting Depth
 STOP.F                           -3.7500:   Ending Depth
 STEP.F                           -0.5000:   Level Spacing
 NULL.                          -999.2500:   Absent Value
 COMP.     FLUOR DANIEL (NPSOR), INC.    :   Company
 WELL.     36-1 X 11                     :   Well
 FLD .                                   :   Field
 LOC .                                   :   Location
 PROV.                                   :   Province
 SRVC.                                   :   Service Company
 LIC .                                   :   License Number
 DATE.                                   :   Log Date
 UWI .                                   :   Unique Well ID
~Curve Information Block
#MNEM.UNIT       API Codes    Curve Description
#---------    -------------   -------------------------------
 DEPT.F        0   0  0  0:   Depth
 CILD.MMHO     0   0  0  0:   Conductivity of Deep Induction
 GR  .API      0   0  0  0:   Gamma ray counts
 TEN .LBF      0   0  0  0:   Differential Tension
 RILM.OHMM     0   0  0  0:   Resistivity from CILM
 RILD.OHMM     0   0  0  0:   Resistivity from CILD
#  Curve Data
~A
# ...
   444.0000    246.9794    110.0084      5.8136      4.7321      4.0489
   443.5000    277.4807    107.9961      4.6180      4.2582      3.6039
   443.0000    315.7764    106.5876      7.8635      3.7164      3.1668
   442.5000    359.5063    103.5569     13.1519      3.1888      2.7816
   442.0000    401.2239     98.4151     14.0669      2.7962      2.4924
   441.5000    432.0979     92.9539     10.2895      2.5636      2.3143
   441.0000    446.4695     90.1272      6.6539      2.4258      2.2398
   440.5000    446.1863     90.8022      7.4557      2.3288      2.2412
   440.0000    436.8025     92.8450     11.5717      2.2812      2.2894
   439.5000    419.8604     95.4551     16.2669      2.3260      2.3817
   439.0000    393.6819     97.9688     18.8093      2.5001      2.5401
   438.5000    358.4060    100.1551     16.0918      2.8049      2.7901
   438.0000    317.0298    104.1133      8.6949      3.2525      3.1543
   437.5000    274.7305    108.2691      4.9858      3.8122      3.6399
   437.0000    237.9402    109.1184      7.5057      4.4184      4.2027
   436.5000    209.9301    108.1938      9.2381      4.9984      4.7635
   436.0000    188.8526    108.9739      6.7533      5.4920      5.2951
   435.5000    173.2750    109.5689      4.5177      5.9173      5.7712
   435.0000    161.6304    110.3585      5.4436      6.2853      6.1870
   434.5000    152.9361    111.8657      8.4991      6.6073      6.5387
   434.0000    146.4336    111.3729     11.6098      6.9022      6.8290
   433.5000    141.3810    107.2624     13.5725      7.1745      7.0731
   433.0000    137.2839    103.3126     13.2410      7.4038      7.2842
   432.5000    134.5192    101.5203     10.0537      7.5742      7.4339
   432.0000    133.3654    100.5220      6.8094      7.6941      7.4982
   431.5000    133.1433    101.0191      5.9506      7.7824      7.5107
   431.0000    132.9590    103.0054      7.3484      7.8614      7.5211
   430.5000    132.2882    104.5476      8.9853      7.9548      7.5593
   430.0000    131.0554    105.7527      8.5772      8.0705      7.6304
   429.5000    129.6029    107.4695      7.6137      8.1897      7.7159
   429.0000    128.4012    107.6985      8.9966      8.2906      7.7881
   428.5000    127.5781    104.7424      9.3775      8.3608      7.8383
   428.0000    127.1092    103.4571      4.9745      8.3963      7.8673
   427.5000    126.9998    105.4571      1.3820      8.3979      7.8740
   427.0000    127.2554    107.0425      2.7981      8.3748      7.8582
   426.5000    127.7274    105.1172      5.4095      8.3387      7.8292
   426.0000    128.2413    102.1909      4.5509      8.2950      7.7978
   425.5000    128.9439    101.1840      0.9220      8.2464      7.7553
   425.0000    129.9329    102.6147     -0.7625      8.1974      7.6963
   424.5000    130.8195    105.2461      1.5747      8.1568      7.6441
   424.0000    131.2467    106.1551      4.2599      8.1299      7.6192
   423.5000    131.3658    103.7219      4.2261      8.1033      7.6123
   423.0000    131.5651    102.1157      3.7277      8.0578      7.6008
   422.5000    132.0770    105.6635      4.7299      7.9975      7.5713
   422.0000    132.8849    109.0414      5.8435      7.9445      7.5253
   421.5000    133.9687    106.2560      7.4502      7.9064      7.4644
   421.0000    135.4066    101.8156     10.1141      7.8646      7.3852
   420.5000    137.1304    100.9607     10.9147      7.7864      7.2923
   420.0000    138.8903    102.0802      7.8693      7.6686      7.1999
   419.5000    140.7006    105.6609      5.6937      7.5443      7.1073
   419.0000    142.7844    111.6263      7.6491      7.4261      7.0036
   418.5000    145.3675    113.4348      9.9552      7.2985      6.8791
   418.0000    148.7571    106.7476      7.5707      7.1542      6.7224
   417.5000    153.5277     98.7891      2.3073      6.9866      6.5135
   417.0000    160.4303     96.4329      0.8137      6.7764      6.2332
   416.5000    170.0144     97.4350      3.1198      6.5067      5.8819
   416.0000    181.3034     98.4571      3.8262      6.1877      5.5156
   415.5000    191.7119     98.1941      3.2415      5.8682      5.2162
   415.0000    198.8178     96.4689      1.6101      5.5912      5.0297
   414.5000    202.4270     95.1354     -0.5280      5.3422      4.9401
   414.0000    204.0513     96.7064      1.8876      5.0996      4.9007
   413.5000    204.8101     98.4723      7.3383      4.9190      4.8826
   413.0000    204.0031     97.6778      7.9471      4.9115      4.9019
   412.5000    199.5857     97.2280      5.3424      5.1282      5.0104
   412.0000    190.9606     99.8477      4.9538      5.5081      5.2367
   411.5000    180.3122    102.8061      5.3064      5.9301      5.5459
   411.0000    170.4210    103.4658      4.4567      6.2915      5.8678
   410.5000    162.6021    105.0489      3.7573      6.5623      6.1500
   410.0000    157.0181    108.3314      3.9360      6.7542      6.3687
   409.5000    153.0554    109.7794      2.4244      6.8897      6.5336
   409.0000    149.8264    108.8146     -0.5371      6.9911      6.6744
   408.5000    146.9027    107.5841     -1.7788      7.0790      6.8072
   408.0000    144.3180    106.0159     -1.0275      7.1734      6.9291
   407.5000    142.1079    104.8331     -1.7336      7.2808      7.0369
   407.0000    140.1031    104.0661     -4.1032      7.3850      7.1376
   406.5000    138.4755    103.8902     -4.3865      7.4639      7.2215
   406.0000    137.7042    104.2390     -1.8169      7.5129      7.2619
   405.5000    137.9682    102.4378      0.7350      7.5382      7.2480
   405.0000    138.9260     98.4095      2.1045      7.5426      7.1981
   404.5000    139.9754     97.0038      2.8255      7.5228      7.1441
   404.0000    140.8431    100.1012      2.9338      7.4770      7.1001
   403.5000    141.9324    105.5698      4.6622      7.4092      7.0456
   403.0000    144.0046    111.5184      5.2396      7.3188      6.9442
   402.5000    147.6412    114.7013      1.9422      7.1916      6.7732
   402.0000    152.8757    111.0332     -0.9214      7.0209      6.5413
   401.5000    158.3840    105.5508      0.3913      6.8361      6.3138
   401.0000    162.5303    104.5867      1.6818      6.6782      6.1527
   400.5000    164.9169    106.9203      1.8330      6.5332      6.0637
   400.0000    166.1407    107.0816      1.8251      6.3477      6.0190
   399.5000    166.6493    104.5681      0.8991      6.1360      6.0006
   399.0000    166.5128    102.0659     -1.1556      6.0059      6.0055
   398.5000    165.0464    100.0758     -1.6937      6.0448      6.0589
   398.0000    161.5583     97.8754      2.1045      6.2492      6.1897
   397.5000    156.5944     95.5596      9.0192      6.5608      6.3859
   397.0000    151.0067     94.1880     11.4232      6.9149      6.6222
   396.5000    145.1533     94.1709      6.3565      7.2401      6.8893
   396.0000    139.8585     96.3443      0.9461      7.4724      7.1501
   395.5000    136.2092    100.0181      2.4577      7.6023      7.3416
   395.0000    134.2572    103.1032      9.9329      7.6727      7.4484
   394.5000    133.1635    105.4116     14.8626      7.7309      7.5096
   394.0000    132.1862    106.4284      9.7728      7.7960      7.5651
   393.5000    131.0028    105.5791      2.3259      7.8644      7.6334
   393.0000    129.7406    104.4093      2.8402      7.9374      7.7077
   392.5000    128.7356    105.6393      8.4982      8.0119      7.7679
   392.0000    128.0692    108.2320     10.1443      8.0742      7.8083
   391.5000    127.5691    108.2049      5.2466      8.1200      7.8389
   391.0000    127.0400    105.7081     -0.4487      8.1622      7.8715
   390.5000    126.3960    104.0327     -2.4668      8.2035      7.9116
   390.0000    125.7822    103.4782     -2.4482      8.2242      7.9502
   389.5000    125.4496    102.3703     -2.7185      8.2233      7.9713
   389.0000    125.4768    102.4798     -2.2424      8.2325      7.9696
   388.5000    125.7771    103.7753     -2.1262      8.2666      7.9506
