~Version Information
 VERS.                2.00:   CWLS log ASCII Standard -VERSION 2.00
 WRAP.                  NO:   One line per frame
~Well Information Block
#MNEM.UNIT              Data                Description
#--------- -------------------------------  -------------------------------
 STRT.F                          780.0000:   Starting Depth
 STOP.F                           -3.7500:   Ending Depth
 STEP.F                           -0.5000:   Level Spacing
 NULL.                          -999.2500:   Absent Value
 COMP.     FLUOR DANIEL (NPSOR), INC.    :   Company
 WELL.     36-1 X 11                     :   Well
 FLD .                                   :   Field
 LOC .                                   :   Location
 PROV.                                   :   Province
 SRVC.                                   :   Service Company
 LIC .                                   :   License Number
 DATE.                                   :   Log Date
 UWI .                                   :   Unique Well ID
~Curve Information Block
#MNEM.UNIT       API Codes    Curve Description
#---------    -------------   -------------------------------
 DEPT.F        0   0  0  0:   Depth
 CILD.MMHO     0   0  0  0:   Conductivity of Deep Induction
 GR  .API      0   0  0  0:   Gamma ray counts
 TEN .LBF      0   0  0  0:   Differential Tension
 RILM.OHMM     0   0  0  0:   Resistivity from CILM
 RILD.OHMM     0   0  0  0:   Resistivity from CILD
#  Curve Data
~A
# ...
    52.0000     -4.3681     60.5796    -10.2773  10000.0000  10000.0000
    51.5000     20.5839     60.2459    -12.5120  10000.0000     48.5816
    51.0000     32.1309     60.7950    -13.0424  10000.0000     31.1227
    50.5000     28.3413     59.3660    -14.4899  10000.0000     35.2842
    50.0000     22.1363     57.5578    -18.3061  10000.0000     45.1746
    49.5000     18.0107     57.4852    -18.7432  10000.0000     55.5225
    49.0000     19.5994     59.9554    -15.4964  10000.0000     51.0220
    48.5000     23.7171     63.8294    -14.3198  10000.0000     42.1636
    48.0000     26.3705     65.1376    -17.8855  10000.0000     37.9212
    47.5000     29.2637     62.2625    -23.6537  10000.0000     34.1720
    47.0000     34.6130     58.8012    -25.0606  10000.0000     28.8909
    46.5000     41.9470     58.8458    -18.7328  10000.0000     23.8396
    46.0000     47.2289     60.6210    -10.3627  10000.0000     21.1735
    45.5000     44.4719     61.6338     -6.2559  10000.0000     22.4861
    45.0000     36.2853     62.3748     -6.7033  10000.0000     27.5594
    44.5000     32.6285     62.1046    -10.8830  10000.0000     30.6481
    44.0000     37.1964     58.5820    -15.5394  10000.0000     26.8843
    43.5000     47.3149     54.5746    -17.5232  10000.0000     21.1350
    43.0000     58.2582     53.4780    -17.0403  10000.0000     17.1649
    42.5000     64.7240     54.9074    -14.1230  10000.0000     15.4502
    42.0000     64.1528     57.4471     -9.4767  10000.0000     15.5878
    41.5000     59.3542     58.7274     -8.0755  10000.0000     16.8480
    41.0000     54.6775     56.9015    -11.4265  10000.0000     18.2891
    40.5000     50.3203     54.1314    -16.1348  10000.0000     19.8727
    40.0000     44.6759     54.0058    -17.9572  10000.0000     22.3834
    39.5000     42.1689     56.3923    -16.0122  10000.0000     23.7141
    39.0000     46.7489     58.6342    -13.3248  10000.0000     21.3909
    38.5000     54.3149     58.6104    -12.0734  10000.0000     18.4112
    38.0000     59.5358     57.2714    -11.7352  10000.0000     16.7966
    37.5000     62.4827     55.7846    -12.2284  10000.0000     16.0044
    37.0000     64.3026     54.0730    -13.3846  10000.0000     15.5515
    36.5000     64.3834     52.8002    -11.1310  10000.0000     15.5319
    36.0000     63.3347     53.1360     -6.2452  10000.0000     15.7891
    35.5000     62.3398     54.0518     -2.8835  10000.0000     16.0411
    35.0000     61.3842     54.1888     -4.2328  10000.0000     16.2908
    34.5000     59.3695     53.3958     -9.0387  10000.0000     16.8437
    34.0000     57.2686     52.5270    -13.6149  10000.0000     17.4616
    33.5000     56.4529     52.8317    -17.5332  10000.0000     17.7139
    33.0000     56.5272     54.1148    -21.1890  10000.0000     17.6906
    32.5000     55.5926     55.6521    -21.4150  10000.0000     17.9880
    32.0000     53.5452     56.8886    -16.2159  10000.0000     18.6758
    31.5000     52.0744     56.5314    -12.5617  10000.0000     19.2033
    31.0000     51.6482     54.1751    -12.6072  10000.0000     19.3618
    30.5000     51.2251     51.4278    -11.8669  10000.0000     19.5217
    30.0000     50.8366     50.4096     -8.5418  10000.0000     19.6709
    29.5000     51.7364     51.1243     -7.9517  10000.0000     19.3288
    29.0000     53.7736     52.0828    -12.0255  10000.0000     18.5965
    28.5000     55.2357     52.0025    -15.4635  10000.0000     18.1042
    28.0000     54.7320     51.4868    -12.3162  10000.0000     18.2709
    27.5000     52.8185     51.7059     -6.2223  10000.0000     18.9327
    27.0000     51.0301     51.8232     -3.9619  10000.0000     19.5963
    26.5000     50.2023     52.0748     -3.7963  10000.0000     19.9194
    26.0000     49.8783     53.6999     -0.5551  10000.0000     20.0488
    25.5000     47.3515     56.3408      3.7536  10000.0000     21.1186
    25.0000     37.5799     59.0521      6.7594  10000.0000     26.6099
    24.5000     21.6928     61.3323      9.0588  10000.0000     46.0982
    24.0000      8.2059     61.3752      8.2066  10000.0000    121.8640
    23.5000      3.0968     59.9045      3.1787  10000.0000    322.9092
    23.0000      2.5670     60.4265     -1.6095  10000.0000    389.5586
    22.5000      2.5690     63.8066   -250.0000  10000.0000    389.2639
    22.0000      2.5556     66.0541   -250.0000  10000.0000    391.2905
    21.5000      2.5534     64.0299   -250.0000  10000.0000    391.6328
    21.0000      2.5556     59.1192   -250.0000  10000.0000    391.3035
    20.5000      2.5564     54.8965   -250.0000  10000.0000    391.1694
    20.0000      0.0000     53.6215   -250.0000  10000.0000      0.2000
    19.5000      0.0000     54.8483   -250.0000  10000.0000      0.2000
    19.0000      0.0000     55.0992   -250.0000  10000.0000      0.2000
    18.5000      0.0000     53.5896   -250.0000  10000.0000      0.2000
    18.0000      0.0000     53.4322   -250.0000  10000.0000      0.2000
    17.5000      0.0000     54.0415   -250.0000  10000.0000      0.2000
    17.0000      0.0000     52.9025   -250.0000  10000.0000      0.2000
    16.5000      0.0000     52.7265   -250.0000      0.2000      0.2000
    16.0000      0.0000     54.9437   -250.0000      0.2000      0.2000
    15.5000      0.0000     57.2066   -250.0000      0.2000      0.2000
    15.0000      0.0000     58.7803   -250.0000      0.2000      0.2000
    14.5000      0.0000     59.3492   -250.0000      0.2000      0.2000
    14.0000      0.0000     57.9021   -250.0000      0.2000      0.2000
    13.5000      0.0000     55.4028   -250.0000      0.2000      0.2000
    13.0000      0.0000     52.1071   -250.0000      0.2000      0.2000
    12.5000      0.0000     46.0053   -250.0000      0.2000      0.2000
    12.0000      0.0000     36.9988   -250.0000      0.2000      0.2000
    11.5000      0.0000     26.7991   -250.0000      0.2000      0.2000
    11.0000      0.0000     17.2323   -250.0000      0.2000      0.2000
    10.5000      0.0000     10.5087   -250.0000      0.2000      0.2000
    10.0000      0.0000      9.0258   -250.0000      0.2000      0.2000
     9.5000      0.0000     11.6830   -250.0000      0.2000      0.2000
     9.0000      0.0000     14.1005   -250.0000      0.2000      0.2000
     8.5000      0.0000     13.5957   -250.0000      0.2000      0.2000
     8.0000      0.0000     11.6702   -250.0000      0.2000      0.2000
     7.5000      0.0000     10.4376   -250.0000      0.2000      0.2000
     7.0000      0.0000     10.4485   -250.0000      0.2000      0.2000
     6.5000      0.0000     11.8939   -250.0000      0.2000      0.2000
     6.0000      0.0000     15.1320   -250.0000      0.2000      0.2000
     5.5000      0.0000     20.3453   -250.0000      0.2000      0.2000
     5.0000      0.0000     27.2377   -250.0000      0.2000      0.2000
     4.5000      0.0000     33.8268   -250.0000      0.2000      0.2000
     4.0000      0.0000     37.5931   -250.0000      0.2000      0.2000
     3.5000      0.0000     36.4321   -250.0000      0.2000      0.2000
     3.0000      0.0000     29.4684   -250.0000      0.2000      0.2000
     2.5000      0.0000     20.1934   -250.0000      0.2000      0.2000
     2.0000      0.0000     14.2463   -250.0000      0.2000      0.2000
     1.5000      0.0000     13.4187   -250.0000      0.2000      0.2000
     1.0000      0.0000     14.8645   -250.0000      0.2000      0.2000
     0.5000      0.0000     16.7310   -250.0000      0.2000      0.2000
     0.0000      0.0000     18.6943   -250.0000      0.2000      0.2000
    -0.5000      0.0000     20.0483   -250.0000      0.2000      0.2000
    -1.0000      0.0000     20.5227   -250.0000      0.2000      0.2000
    -1.5000      0.0000     20.5227   -250.0000      0.2000      0.2000
    -2.0000      0.0000     20.5227   -250.0000      0.2000      0.2000
    -2.5000      0.0000     20.5227   -250.0000      0.2000      0.2000
    -3.0000      0.0000     20.5227   -250.0000      0.2000      0.2000
    -3.5000      0.0000     20.5227   -250.0000      0.2000      0.2000
