~Version Information
 VERS.                2.00:   CWLS log ASCII Standard -VERSION 2.00
 WRAP.                  NO:   One line per frame
~Well Information Block
#MNEM.UNIT              Data                Description
#--------- -------------------------------  -------------------------------
 STRT.F                          780.0000:   Starting Depth
 STOP.F                           -3.7500:   Ending Depth
 STEP.F                           -0.5000:   Level Spacing
 NULL.                          -999.2500:   Absent Value
 COMP.     FLUOR DANIEL (NPSOR), INC.    :   Company
 WELL.     36-1 X 11                     :   Well
 FLD .                                   :   Field
 LOC .                                   :   Location
 PROV.                                   :   Province
 SRVC.                                   :   Service Company
 LIC .                                   :   License Number
 DATE.                                   :   Log Date
 UWI .                                   :   Unique Well ID
~Curve Information Block
#MNEM.UNIT       API Codes    Curve Description
#---------    -------------   -------------------------------
 DEPT.F        0   0  0  0:   Depth
 CILD.MMHO     0   0  0  0:   Conductivity of Deep Induction
 GR  .API      0   0  0  0:   Gamma ray counts
 TEN .LBF      0   0  0  0:   Differential Tension
 RILM.OHMM     0   0  0  0:   Resistivity from CILM
 RILD.OHMM     0   0  0  0:   Resistivity from CILD
#  Curve Data
~A
# ...
   108.0000    429.6948     94.9724    -18.9152      2.2409      2.3272
   107.5000    368.6646     88.6104    -19.5432      2.7087      2.7125
   107.0000    306.2646     86.0585    -15.9167      3.4149      3.2652
   106.5000    248.8781     87.2840    -12.9622      4.3488      4.0180
   106.0000    206.7704     90.8434    -15.6840      5.2764      4.8363
   105.5000    178.9870     92.9611    -20.5335      5.9083      5.5870
   105.0000    163.4289     93.9268    -22.9799      6.2286      6.1189
   104.5000    155.5540     95.6488    -23.3776      6.3732      6.4286
   104.0000    150.9881     98.0571    -22.4111      6.4545      6.6230
   103.5000    147.6621    100.2590    -18.9551      6.5041      6.7722
   103.0000    145.7624    100.4668    -15.2778      6.5236      6.8605
   102.5000    145.6205     98.7874    -14.1776      6.5323      6.8672
   102.0000    146.5992     97.5388    -14.5827      6.5555      6.8213
   101.5000    148.1403     96.7546    -13.7711      6.5939      6.7504
   101.0000    150.2058     95.3908    -11.9136      6.6146      6.6575
   100.5000    153.0349     95.0556    -12.0777      6.5906      6.5345
   100.0000    156.8593     95.0596    -14.9450      6.5326      6.3751
    99.5000    161.4604     94.7834    -19.3355      6.4551      6.1935
    99.0000    165.9980     96.8275    -23.7067      6.3570      6.0242
    98.5000    169.7525    100.3014    -25.5907      6.2520      5.8909
    98.0000    172.7275    102.4231    -21.6940      6.1471      5.7895
    97.5000    175.2076    102.9348    -14.5592      6.0320      5.7075
    97.0000    177.3683    102.8139    -10.2697      5.9089      5.6380
    96.5000    179.1790    102.1091    -10.2526      5.8046      5.5810
    96.0000    180.4384    102.2224    -11.9896      5.7392      5.5421
    95.5000    180.9892    102.6287    -14.5817      5.7172      5.5252
    95.0000    180.7373    101.2189    -18.5391      5.7343      5.5329
    94.5000    179.7265    100.1106    -22.5877      5.7764      5.5640
    94.0000    178.2407    100.8809    -24.6144      5.8182      5.6104
    93.5000    176.7440    102.1081    -22.5169      5.8514      5.6579
    93.0000    175.5679    102.6474    -17.9700      5.8895      5.6958
    92.5000    174.7307    103.5634    -17.2648      5.9291      5.7231
    92.0000    174.0953    104.0411    -20.2294      5.9557      5.7440
    91.5000    173.6037    103.2063    -22.8735      5.9750      5.7602
    91.0000    173.2259    101.7339    -25.0542      5.9952      5.7728
    90.5000    172.7540    100.6149    -25.1375      6.0077      5.7886
    90.0000    171.9838    100.5766    -18.4391      6.0034      5.8145
    89.5000    171.0941     99.1316    -11.2386      5.9867      5.8447
    89.0000    170.4160     95.6086    -11.4256      5.9735      5.8680
    88.5000    169.9641     93.6834    -14.7294      5.9814      5.8836
    88.0000    169.4621     95.6972    -14.2947      6.0175      5.9010
    87.5000    168.6833     98.3384    -10.6171      6.0696      5.9283
    87.0000    167.8686     98.7448     -7.9388      6.1103      5.9570
    86.5000    167.7503     96.6019     -9.9494      6.1136      5.9612
    86.0000    169.2319     95.2152    -14.9493      6.0663      5.9091
    85.5000    172.8712     97.0685    -19.4538      5.9700      5.7847
    85.0000    178.3783     99.1450    -21.5177      5.8332      5.6061
    84.5000    185.0122     99.5573    -19.7060      5.6547      5.4050
    84.0000    192.3486    100.8813    -14.9856      5.4267      5.1989
    83.5000    200.3345    101.3329    -13.0946      5.1645      4.9917
    83.0000    208.5439     97.7817    -15.6608      4.9121      4.7952
    82.5000    215.9719     94.6170    -18.0578      4.7142      4.6302
    82.0000    221.8665     95.2663    -16.5755      4.5841      4.5072
    81.5000    227.1735     96.4509    -12.3159      4.4901      4.4019
    81.0000    234.4868     94.5747    -10.0470      4.3894      4.2646
    80.5000    246.9538     91.3250    -11.7297      4.2506      4.0493
    80.0000    268.6282     89.9060    -12.7203      4.0507      3.7226
    79.5000    298.7603     92.2943    -10.5417      3.7865      3.3472
    79.0000    331.8652     97.6017     -9.5706      3.4949      3.0133
    78.5000    361.5623    102.5920    -12.1387      3.2169      2.7658
    78.0000    385.7446    107.7259    -15.3970      2.9490      2.5924
    77.5000    406.1135    112.3190    -16.6997      2.6794      2.4624
    77.0000    424.1746    111.5275    -15.4781      2.4421      2.3575
    76.5000    437.8628    105.0020    -13.0186      2.2961      2.2838
    76.0000    441.7378    100.2377    -11.8797      2.2762      2.2638
    75.5000    432.5000     99.5619    -12.8432      2.3590      2.3121
    75.0000    413.2256    100.1664    -14.1242      2.5015      2.4200
    74.5000    390.1782    100.9549    -16.2507      2.6551      2.5629
    74.0000    368.1089    101.2944    -20.4036      2.8013      2.7166
    73.5000    349.5183    100.3070    -21.9283      2.9254      2.8611
    73.0000    334.7500    100.0167    -17.7480      3.0343      2.9873
    72.5000    322.2729    100.8226    -10.9763      3.1429      3.1030
    72.0000    310.0891    100.9673     -7.7125      3.2578      3.2249
    71.5000    297.8831     98.7465    -10.9840      3.3721      3.3570
    71.0000    288.0569     96.1747    -17.1068      3.4660      3.4715
    70.5000    285.1299     93.8113    -16.6417      3.5097      3.5072
    70.0000    294.0598     91.1698     -9.0155      3.4762      3.4007
    69.5000    317.5566     89.4596     -3.7335      3.3561      3.1490
    69.0000    351.9558     90.8023     -2.3171      3.1758      2.8413
    68.5000    387.9546     92.6579     -1.9429      2.9784      2.5776
    68.0000    418.3486     92.9366     -5.2542      2.7727      2.3904
    67.5000    442.8550     95.4873    -12.1823      2.5342      2.2581
    67.0000    466.4663    100.2225    -15.0630      2.2627      2.1438
    66.5000    491.0222    101.8257    -13.3794      2.0429      2.0366
    66.0000    513.7969     99.1051    -13.5396      1.9311      1.9463
    65.5000    527.9524     96.4715    -14.2426      1.9321      1.8941
    65.0000    522.8650     94.1476    -13.7079      2.0227      1.9125
    64.5000    495.3474     91.5278    -16.2040      2.1674      2.0188
    64.0000    455.7993     89.0164    -21.6922      2.3220      2.1939
    63.5000    417.9565     86.6897    -24.0813      2.4462      2.3926
    63.0000    391.6411     87.2809    -20.7928      2.5366      2.5534
    62.5000    390.9128     90.1673    -14.0602      2.6599      2.5581
    62.0000    405.4719     89.7985     -9.6249      2.9104      2.4663
    61.5000    408.6243     87.9057    -12.3912      3.1962      2.4472
    61.0000    395.5706     88.9397    -16.1470      3.2715      2.5280
    60.5000    381.3484     90.8548    -13.4060      3.1916      2.6223
    60.0000    374.2300     92.4791     -9.9122      3.1704      2.6722
    59.5000    361.4922     96.3391    -11.5016      3.2346      2.7663
    59.0000    294.0503    100.1772    -12.7560      3.2831      3.4008
    58.5000    186.9646    100.0761    -10.5503      3.2135      5.3486
    58.0000    132.5142     96.6180     -9.8655      3.1017      7.5464
    57.5000    163.3489     92.6033    -10.8113      3.0774      6.1219
    57.0000    258.4504     91.6244    -10.0086      2.8180      3.8692
    56.5000    411.6477     94.3386     -8.1459      2.3341      2.4293
    56.0000    438.8438     96.9484     -8.5638      2.4932      2.2787
    55.5000    236.4063     94.5277    -11.3378      4.8304      4.2300
    55.0000     50.2811     86.4863    -14.3252  10000.0000     19.8882
    54.5000     43.5661     76.3863    -16.4432  10000.0000     22.9536
    54.0000    113.0155     69.0263    -16.1924  10000.0000      8.8483
    53.5000    135.1999     66.9980    -13.0372  10000.0000      7.3965
    53.0000     80.9480     66.9712     -9.2866  10000.0000     12.3536
    52.5000      9.7767     64.0463     -8.2868  10000.0000    102.2836
