~Version Information
 VERS.                2.00:   CWLS log ASCII Standard -VERSION 2.00
 WRAP.                  NO:   One line per frame
~Well Information Block
#MNEM.UNIT              Data                Description
#--------- -------------------------------  -------------------------------
 STRT.F                          780.0000:   Starting Depth
 STOP.F                           -3.7500:   Ending Depth
 STEP.F                           -0.5000:   Level Spacing
 NULL.                          -999.2500:   Absent Value
 COMP.     FLUOR DANIEL (NPSOR), INC.    :   Company
 WELL.     36-1 X 11                     :   Well
 FLD .                                   :   Field
 LOC .                                   :   Location
 PROV.                                   :   Province
 SRVC.                                   :   Service Company
 LIC .                                   :   License Number
 DATE.                                   :   Log Date
 UWI .                                   :   Unique Well ID
~Curve Information Block
#MNEM.UNIT       API Codes    Curve Description
#---------    -------------   -------------------------------
 DEPT.F        0   0  0  0:   Depth
 CILD.MMHO     0   0  0  0:   Conductivity of Deep Induction
 GR  .API      0   0  0  0:   Gamma ray counts
 TEN .LBF      0   0  0  0:   Differential Tension
 RILM.OHMM     0   0  0  0:   Resistivity from CILM
 RILD.OHMM     0   0  0  0:   Resistivity from CILD
#  Curve Data
~A
# ...
   668.0000    105.5659     81.0486    113.1272      9.2898      9.4728
   667.5000    104.3826     80.5531    110.9001      9.3699      9.5801
   667.0000    103.6976     81.4431    109.5865      9.4639      9.6434
   666.5000    103.3902     81.5059    110.5783      9.6021      9.6721
   666.0000    103.1526     80.1165    110.9495      9.7755      9.6944
   665.5000    102.5986     78.8874    111.0209      9.9492      9.7467
   665.0000    101.7542     77.7244    110.0415     10.0890      9.8276
   664.5000    100.8855     76.8420    107.1495     10.1859      9.9122
   664.0000    100.1297     77.2979    106.8943     10.2540      9.9870
   663.5000     99.5087     77.9900    108.9256     10.3189     10.0494
   663.0000     98.9118     78.0856    110.2224     10.3892     10.1100
   662.5000     98.2350     77.6332    111.2100     10.4660     10.1797
   662.0000     97.4290     77.5356    112.7606     10.5527     10.2639
   661.5000     96.5276     77.4522    113.7162     10.6393     10.3597
   661.0000     95.7791     76.7062    115.6349     10.7077     10.4407
   660.5000     95.4185     75.7504    116.3752     10.7674     10.4801
   660.0000     95.4439     75.6700    112.6792     10.8417     10.4774
   659.5000     95.6591     76.6121    108.3939     10.9425     10.4538
   659.0000     95.8751     77.2023    108.5117     11.0586     10.4302
   658.5000     95.9802     78.0193    109.4968     11.1305     10.4188
   658.0000     96.1000     79.1403    106.2422     11.0809     10.4058
   657.5000     96.4329     81.0440    102.1320     10.9165     10.3699
   657.0000     96.9372     81.9513    100.9583     10.7329     10.3160
   656.5000     97.3717     80.0477    100.3959     10.6160     10.2699
   656.0000     97.5316     76.8954     99.3665     10.5823     10.2531
   655.5000     97.3623     76.7296    100.7760     10.6041     10.2709
   655.0000     96.9411     79.5369    103.0366     10.6532     10.3155
   654.5000     96.4011     80.5624    101.9048     10.7105     10.3733
   654.0000     95.7952     78.3129     98.9411     10.7701     10.4389
   653.5000     95.1424     75.2019     98.6541     10.8322     10.5106
   653.0000     94.4659     72.9197     99.4583     10.8793     10.5858
   652.5000     93.8725     71.4107     98.9585     10.8927     10.6527
   652.0000     93.4083     72.6188     98.9551     10.9042     10.7057
   651.5000     93.0335     75.2382     99.6975     10.9569     10.7488
   651.0000     92.6614     75.4138     98.6891     11.0533     10.7920
   650.5000     92.2693     73.3065     97.8742     11.1631     10.8378
   650.0000     91.8583     71.5447     99.3452     11.2529     10.8863
   649.5000     91.4660     71.4074    100.5182     11.3154     10.9330
   649.0000     91.2255     72.9567     98.6040     11.3648     10.9618
   648.5000     91.1857     75.9606     94.6238     11.4019     10.9666
   648.0000     91.2815     79.0964     90.9406     11.4157     10.9551
   647.5000     91.3774     78.9508     89.5199     11.4059     10.9436
   647.0000     91.4526     75.4280     90.5758     11.3796     10.9346
   646.5000     91.6871     73.5337     89.9792     11.3466     10.9067
   646.0000     92.0889     75.7865     88.2042     11.3305     10.8591
   645.5000     92.3069     78.0339     89.1152     11.3644     10.8334
   645.0000     92.1658     76.5864     91.8050     11.4559     10.8500
   644.5000     91.8555     73.9320     92.7959     11.5789     10.8867
   644.0000     91.4914     73.2348     94.1898     11.6876     10.9300
   643.5000     91.1154     74.0916     95.6059     11.7355     10.9751
   643.0000     90.7580     73.4763     94.0229     11.7236     11.0183
   642.5000     90.3462     72.5063     91.1184     11.7029     11.0685
   642.0000     89.8540     71.7602     89.6038     11.7073     11.1292
   641.5000     89.3711     70.5516     89.0164     11.7491     11.1893
   641.0000     88.8973     68.2500     88.2194     11.8449     11.2489
   640.5000     88.2601     66.7450     87.3224     11.9743     11.3302
   640.0000     87.3786     68.6678     85.2191     12.0755     11.4445
   639.5000     86.4900     72.6773     82.9655     12.1374     11.5620
   639.0000     85.8435     75.8011     83.8518     12.2058     11.6491
   638.5000     85.3152     78.2838     85.3347     12.2945     11.7212
   638.0000     84.7493     79.9953     85.2606     12.3782     11.7995
   637.5000     84.1761     77.6079     84.1922     12.4549     11.8799
   637.0000     83.6942     71.7188     81.5332     12.5395     11.9483
   636.5000     83.3738     67.5146     77.3257     12.6331     11.9942
   636.0000     83.0524     68.4893     75.6964     12.7362     12.0406
   635.5000     82.3610     71.7165     75.8382     12.8668     12.1417
   635.0000     81.0565     71.8067     74.2870     13.0610     12.3371
   634.5000     79.0416     69.0246     74.0592     13.3380     12.6516
   634.0000     76.1873     66.6778     78.3664     13.6730     13.1255
   633.5000     72.6609     63.8504     81.1086     14.0690     13.7626
   633.0000     68.9071     59.8608     77.3629     14.6320     14.5123
   632.5000     65.2809     58.8031     69.8014     15.5113     15.3184
   632.0000     62.1267     62.2320     65.1355     16.7270     16.0961
   631.5000     60.0680     66.0929     66.8185     17.9546     16.6478
   631.0000     59.5803     67.5383     73.1079     18.5096     16.7841
   630.5000     60.5316     67.4006     77.0982     18.1521     16.5203
   630.0000     62.3259     68.8032     76.4995     17.5479     16.0447
   629.5000     64.3865     71.1945     75.6311     17.1489     15.5312
   629.0000     66.4739     72.2544     75.1215     16.6008     15.0435
   628.5000     68.6625     72.9351     74.4438     15.6016     14.5640
   628.0000     70.7889     75.1734     76.6971     14.5850     14.1265
   627.5000     72.3672     77.1630     80.7024     14.0413     13.8184
   627.0000     73.1570     76.7935     81.1959     14.0208     13.6692
   626.5000     73.2943     75.6881     80.9485     14.2934     13.6436
   626.0000     72.8682     74.9662     84.3654     14.6439     13.7234
   625.5000     71.9939     72.6320     87.1226     15.0046     13.8901
   625.0000     70.9157     68.3681     85.3860     15.3403     14.1013
   624.5000     69.9496     65.1409     83.7069     15.4920     14.2960
   624.0000     69.3138     64.9117     85.7138     15.3635     14.4271
   623.5000     68.7905     67.3936     89.5648     15.1662     14.5369
   623.0000     67.9603     71.0752     92.4351     15.1994     14.7145
   622.5000     66.7726     74.4320     93.3654     15.4900     14.9762
   622.0000     65.5021     76.0393     95.0901     15.8228     15.2667
   621.5000     64.3043     75.3445     98.4753     16.0519     15.5511
   621.0000     63.2452     73.6084    100.2931     16.2491     15.8115
   620.5000     62.2997     71.5019     98.9954     16.4897     16.0514
   620.0000     61.4361     69.4913     96.8475     16.7234     16.2771
   619.5000     60.6801     68.7867     96.0097     16.9097     16.4799
   619.0000     60.0474     69.6907     96.2165     17.0658     16.6535
   618.5000     59.4316     69.4385     96.7658     17.2086     16.8261
   618.0000     58.7274     68.1484     96.7533     17.3735     17.0278
   617.5000     57.9290     68.6225     95.1023     17.6177     17.2625
   617.0000     57.1512     69.5475     93.9174     17.9417     17.4975
   616.5000     56.4506     68.1638     97.3206     18.3028     17.7146
   616.0000     55.7253     66.4548    104.7763     18.6432     17.9452
   615.5000     54.9292     66.8793    110.7635     18.9337     18.2053
   615.0000     54.2863     67.0763    111.6224     19.1970     18.4209
   614.5000     53.9729     65.2791    108.1389     19.3541     18.5278
   614.0000     53.9265     64.2584    101.5479     19.2708     18.5437
   613.5000     53.8876     65.8366     96.8195     19.0117     18.5571
   613.0000     53.4062     67.1049     99.3568     18.7913     18.7244
   612.5000     52.1501     64.9954    107.5158     18.7734     19.1754
