~Version Information
 VERS.                2.00:   CWLS log ASCII Standard -VERSION 2.00
 WRAP.                  NO:   One line per frame
~Well Information Block
#MNEM.UNIT              Data                Description
#--------- -------------------------------  -------------------------------
 STRT.F                          780.0000:   Starting Depth
 STOP.F                           -3.7500:   Ending Depth
 STEP.F                           -0.5000:   Level Spacing
 NULL.                          -999.2500:   Absent Value
 COMP.     FLUOR DANIEL (NPSOR), INC.    :   Company
 WELL.     36-1 X 11                     :   Well
 FLD .                                   :   Field
 LOC .                                   :   Location
 PROV.                                   :   Province
 SRVC.                                   :   Service Company
 LIC .                                   :   License Number
 DATE.                                   :   Log Date
 UWI .                                   :   Unique Well ID
~Curve Information Block
#MNEM.UNIT       API Codes    Curve Description
#---------    -------------   -------------------------------
 DEPT.F        0   0  0  0:   Depth
 CILD.MMHO     0   0  0  0:   Conductivity of Deep Induction
 GR  .API      0   0  0  0:   Gamma ray counts
 TEN .LBF      0   0  0  0:   Differential Tension
 RILM.OHMM     0   0  0  0:   Resistivity from CILM
 RILD.OHMM     0   0  0  0:   Resistivity from CILD
#  Curve Data
~A
# ...
   388.0000    126.2566    102.8163     -2.9991      8.3075      7.9204
   387.5000    126.6247    100.1646     -5.0609      8.3361      7.8974
   387.0000    126.6375     99.3802     -4.0370      8.3368      7.8966
   386.5000    126.3664    101.1110      1.0535      8.3071      7.9135
   386.0000    126.0910    102.5977      4.2023      8.2716      7.9308
   385.5000    125.9557    103.1031      1.4823      8.2595      7.9393
   385.0000    125.8102    102.3474     -3.3565      8.2697      7.9485
   384.5000    125.3498    101.8071     -6.6652      8.2851      7.9777
   384.0000    124.5006    102.1914     -6.3193      8.3158      8.0321
   383.5000    123.5322    102.4366     -3.0683      8.3854      8.0951
   383.0000    122.6474    102.0419     -2.5620      8.4831      8.1535
   382.5000    121.7076    102.0875     -4.1751      8.5729      8.2164
   382.0000    120.6228    102.0784     -1.0068      8.6410      8.2903
   381.5000    119.7496     99.2331      4.5637      8.6845      8.3508
   381.0000    119.6138     95.6484      3.1760      8.6925      8.3602
   380.5000    120.1667     96.2598     -2.5184      8.6675      8.3218
   380.0000    121.0625     99.4128     -2.8493      8.6227      8.2602
   379.5000    122.1798     99.7285      1.6266      8.5658      8.1847
   379.0000    123.4098     97.0501      3.5639      8.4894      8.1031
   378.5000    124.5930     95.8402      3.3587      8.3828      8.0261
   378.0000    125.8212     98.0636      3.7402      8.2575      7.9478
   377.5000    127.2428    101.0779      2.8469      8.1405      7.8590
   377.0000    128.7705    101.8006     -1.0931      8.0570      7.7658
   376.5000    130.1387    101.6308     -4.2852      8.0036      7.6841
   376.0000    131.1323    101.5592     -4.0522      7.9634      7.6259
   375.5000    131.9708     99.4167     -0.7338      7.9205      7.5774
   375.0000    133.3448     98.2711      4.0751      7.8626      7.4994
   374.5000    135.7003    100.1252      5.7618      7.7790      7.3692
   374.0000    138.6325    100.5917      2.6392      7.6747      7.2133
   373.5000    140.9665     98.4060     -1.2285      7.5749      7.0939
   373.0000    141.8830     96.7241     -2.1368      7.4990      7.0481
   372.5000    141.6772     96.4465     -0.8354      7.4298      7.0583
   372.0000    141.0785     97.8080     -1.0757      7.3449      7.0883
   371.5000    140.2454    100.3889     -3.9812      7.2741      7.1304
   371.0000    138.8658    102.1018     -5.0563      7.2918      7.2012
   370.5000    136.4179    102.9265     -1.0196      7.4461      7.3304
   370.0000    132.7791    103.8605      2.2131      7.7164      7.5313
   369.5000    128.6505    102.7020      0.9394      8.0363      7.7730
   369.0000    124.9040     98.7459     -2.7325      8.3361      8.0061
   368.5000    121.8420     94.6382     -6.3910      8.5697      8.2074
   368.0000    119.5164     93.2803     -7.7034      8.7236      8.3671
   367.5000    117.8218     93.9235     -6.2656      8.8226      8.4874
   367.0000    116.6255     93.7838     -5.6986      8.8900      8.5745
   366.5000    115.9008     92.8502     -6.9217      8.9322      8.6281
   366.0000    115.4502     93.7803     -6.7472      8.9551      8.6617
   365.5000    114.9547     97.2485     -4.7931      8.9719      8.6991
   365.0000    114.3406     99.8533     -2.8209      8.9913      8.7458
   364.5000    113.6933     99.6825     -3.4303      9.0094      8.7956
   364.0000    113.2555     96.3719     -5.6922      9.0214      8.8296
   363.5000    113.3571     91.5102     -6.1817      9.0352      8.8217
   363.0000    113.7566     86.9132     -3.9208      9.0621      8.7907
   362.5000    113.7775     87.0925     -3.5304      9.1073      8.7891
   362.0000    113.2313     91.0427     -7.6869      9.1662      8.8315
   361.5000    112.4498     94.0389    -11.8343      9.2213      8.8929
   361.0000    111.7171     95.5428    -10.6000      9.2528      8.9512
   360.5000    111.0056     97.8361     -7.3633      9.2670      9.0086
   360.0000    110.2795     98.2993     -6.5371      9.2925      9.0679
   359.5000    109.7311     97.1090     -7.9889      9.3435      9.1132
   359.0000    109.4814     98.2762     -8.2878      9.4112      9.1340
   358.5000    109.1719     99.9799     -5.7776      9.4899      9.1599
   358.0000    108.3372     98.7967     -3.7265      9.5874      9.2304
   357.5000    106.8370     97.2564     -6.7716      9.7118      9.3601
   357.0000    104.6355     97.0554    -11.3201      9.8675      9.5570
   356.5000    102.0250     96.6636    -12.6218     10.0309      9.8015
   356.0000     99.7760     94.0726    -11.7199     10.1683     10.0225
   355.5000     98.5711     89.3574    -10.1864     10.3161     10.1450
   355.0000     98.2738     85.8861     -7.2816     10.5583     10.1756
   354.5000     98.1327     86.1060     -4.3926     10.9104     10.1903
   354.0000     97.4143     87.1703     -3.7985     11.2352     10.2654
   353.5000     96.3300     88.7583     -4.8809     11.3259     10.3810
   353.0000     95.8175     92.1267     -5.4845     11.1456     10.4365
   352.5000     96.2477     94.5607     -4.6814     10.8754     10.3899
   352.0000     97.2531     94.2582     -3.7335     10.6687     10.2825
   351.5000     98.4928     94.7183     -4.6543     10.5295     10.1530
   351.0000     99.6310     96.4549     -7.0293     10.4261     10.0370
   350.5000    100.2297     96.9956     -8.0688     10.3729      9.9771
   350.0000    100.0670     96.1266     -6.6926     10.3930      9.9933
   349.5000     99.2781     95.9645     -4.0043     10.4557     10.0727
   349.0000     98.1519     97.7889     -2.9954     10.5114     10.1883
   348.5000     97.0367     99.1728     -5.0020     10.5791     10.3054
   348.0000     96.0875     98.5333     -7.5430     10.6912     10.4072
   347.5000     95.2423     97.8793     -6.6517     10.8148     10.4995
   347.0000     94.5046     98.3981     -4.6564     10.9282     10.5815
   346.5000     93.7303     97.3948     -5.1011     11.0611     10.6689
   346.0000     92.7320     94.8737     -5.2381     11.2123     10.7838
   345.5000     91.4265     94.5631     -3.1625     11.3544     10.9377
   345.0000     89.8629     96.9450     -3.7149     11.4896     11.1281
   344.5000     88.2639     96.4701     -5.4342     11.6367     11.3297
   344.0000     86.7796     91.2953     -2.3037     11.8086     11.5234
   343.5000     85.4955     88.1725      2.1887     11.9735     11.6965
   343.0000     84.7172     90.7206      2.6462     12.0911     11.8040
   342.5000     84.7418     92.1642      0.1211     12.1594     11.8006
   342.0000     85.3721     90.4451     -2.9015     12.2073     11.7134
   341.5000     86.3180     91.6982     -6.4263     12.2276     11.5851
   341.0000     87.4948     97.3836     -7.6369     12.1206     11.4292
   340.5000     89.1400    101.8680     -5.9472     11.7742     11.2183
   340.0000     91.6843    102.2215     -3.2684     11.2632     10.9070
   339.5000     95.0034    100.9207     -2.3814     10.7914     10.5259
   339.0000     98.3349    100.3145     -4.4817     10.4429     10.1693
   338.5000    101.2449    100.3420    -10.1409     10.1810      9.8770
   338.0000    103.7899    100.2795    -14.8959      9.9608      9.6349
   337.5000    105.9766    101.0625    -13.1787      9.7653      9.4360
   337.0000    107.8913    101.8706     -7.5985      9.6060      9.2686
   336.5000    109.6520    100.6654     -6.8152      9.4984      9.1198
   336.0000    111.4220     99.1979    -10.1431      9.4108      8.9749
   335.5000    113.4693    100.7626    -10.0092      9.2846      8.8130
   335.0000    115.8755    103.7625     -5.5800      9.1076      8.6299
   334.5000    118.3128    104.3579     -2.5876      8.9076      8.4522
   334.0000    120.4613    103.8835     -3.6978      8.7218      8.3014
   333.5000    122.3619    106.0031     -7.6756      8.5674      8.1725
   333.0000    124.0816    108.8394    -13.6866      8.4233      8.0592
   332.5000    125.6246    108.3804    -16.3999      8.2729      7.9602
