~Version Information
 VERS.                2.00:   CWLS log ASCII Standard -VERSION 2.00
 WRAP.                  NO:   One line per frame
~Well Information Block
#MNEM.UNIT              Data                Description
#--------- -------------------------------  -------------------------------
 STRT.F                          780.0000:   Starting Depth
 STOP.F                           -3.7500:   Ending Depth
 STEP.F                           -0.5000:   Level Spacing
 NULL.                          -999.2500:   Absent Value
 COMP.     FLUOR DANIEL (NPSOR), INC.    :   Company
 WELL.     36-1 X 11                     :   Well
 FLD .                                   :   Field
 LOC .                                   :   Location
 PROV.                                   :   Province
 SRVC.                                   :   Service Company
 LIC .                                   :   License Number
 DATE.                                   :   Log Date
 UWI .                                   :   Unique Well ID
~Curve Information Block
#MNEM.UNIT       API Codes    Curve Description
#---------    -------------   -------------------------------
 DEPT.F        0   0  0  0:   Depth
 CILD.MMHO     0   0  0  0:   Conductivity of Deep Induction
 GR  .API      0   0  0  0:   Gamma ray counts
 TEN .LBF      0   0  0  0:   Differential Tension
 RILM.OHMM     0   0  0  0:   Resistivity from CILM
 RILD.OHMM     0   0  0  0:   Resistivity from CILD
#  Curve Data
~A
# ...
   164.0000    156.7708    112.0671     -6.8006      6.5604      6.3787
   163.5000    157.9737    115.6288    -13.1028      6.4699      6.3302
   163.0000    159.2365    115.2556    -16.5036      6.4085      6.2800
   162.5000    160.1025    110.2263    -16.1522      6.3848      6.2460
   162.0000    160.1856    107.1936    -18.2183      6.4051      6.2428
   161.5000    159.7005    109.7523    -22.2186      6.4699      6.2617
   161.0000    159.2056    113.1963    -21.9307      6.5585      6.2812
   160.5000    159.0700    112.2211    -19.3050      6.6341      6.2865
   160.0000    159.1646    109.7627    -17.5954      6.6752      6.2828
   159.5000    158.7554    109.5699    -15.1314      6.6841      6.2990
   159.0000    156.7625    110.5152    -12.7319      6.6827      6.3791
   158.5000    152.2953    111.5247    -12.5123      6.7164      6.5662
   158.0000    145.3616    112.5684    -13.2047      6.8302      6.8794
   157.5000    137.0479    110.8589    -14.2203      7.0475      7.2967
   157.0000    128.2823    103.8647    -14.2270      7.4096      7.7953
   156.5000    119.0837     96.3472    -12.2985      8.0226      8.3975
   156.0000    109.1763     93.0304    -11.6577      9.0037      9.1595
   155.5000     98.9205     91.7793    -14.6601     10.3277     10.1091
   155.0000     89.8249     91.5100    -17.7104     11.6885     11.1328
   154.5000     82.8363     91.2076    -17.1983     12.7164     12.0720
   154.0000     78.5323     89.2599    -14.3283     13.2548     12.7336
   153.5000     76.4120     86.2253    -14.2029     13.4691     13.0869
   153.0000     75.5386     85.9514    -18.5977     13.5742     13.2383
   152.5000     75.0631     87.7237    -23.6591     13.6479     13.3221
   152.0000     74.4324     88.9845    -24.8773     13.7014     13.4350
   151.5000     73.5387     87.8993    -22.2982     13.7813     13.5983
   151.0000     72.5081     85.8687    -18.1237     13.9240     13.7916
   150.5000     71.3999     84.5252    -12.4025     14.1181     14.0056
   150.0000     70.0498     83.4558     -4.5948     14.3950     14.2756
   149.5000     68.4505     82.3131     -1.8254     14.7824     14.6091
   149.0000     66.9028     81.1333     -7.0492     15.1927     14.9471
   148.5000     65.6182     81.4524    -11.4219     15.5128     15.2397
   148.0000     64.3504     85.2415    -10.1284     15.7744     15.5399
   147.5000     62.7868     90.8839     -9.3141     16.0765     15.9269
   147.0000     61.0545     93.1358    -11.8962     16.4174     16.3788
   146.5000     59.5810     89.9651    -14.4915     16.6793     16.7839
   146.0000     58.6486     85.7440    -14.7785     16.7919     17.0507
   145.5000     58.2819     84.9626    -14.7105     16.8334     17.1580
   145.0000     58.3676     85.7622    -13.8705     16.8746     17.1328
   144.5000     58.8254     85.1189    -10.7732     16.8193     16.9995
   144.0000     59.7198     84.7819     -8.4878     16.5570     16.7449
   143.5000     61.1369     85.3447    -10.8937     16.1440     16.3567
   143.0000     62.8825     84.8333    -16.6338     15.6999     15.9027
   142.5000     64.6302     82.6057    -19.9955     15.2855     15.4726
   142.0000     66.2543     81.5102    -17.2325     14.9094     15.0934
   141.5000     67.8573     83.6270     -8.2631     14.5983     14.7368
   141.0000     69.3986     87.1013     -0.0378     14.3906     14.4095
   140.5000     70.7342     88.2475      1.1941     14.2768     14.1374
   140.0000     71.8199     87.1225     -5.9024     14.1969     13.9237
   139.5000     72.7438     85.4705    -14.4631     14.1007     13.7469
   139.0000     73.6046     84.0772    -16.1937     13.9702     13.5861
   138.5000     74.5249     82.8122    -12.0130     13.7989     13.4183
   138.0000     75.5189     82.3432    -11.0090     13.6054     13.2417
   137.5000     76.4528     84.3112    -16.4874     13.4220     13.0800
   137.0000     77.2161     87.3802    -21.0093     13.2771     12.9507
   136.5000     77.8002     88.1602    -18.0078     13.1875     12.8534
   136.0000     78.1477     87.4773    -11.1840     13.1377     12.7963
   135.5000     78.3663     86.5472     -7.8458     13.0802     12.7606
   135.0000     78.7486     84.2039     -7.7473     12.9876     12.6986
   134.5000     79.3947     82.4661     -7.4051     12.8758     12.5953
   134.0000     80.1800     83.5039     -7.1867     12.7659     12.4719
   133.5000     81.0235     85.8633     -7.0598     12.6614     12.3421
   133.0000     81.9631     87.4009     -6.0567     12.5389     12.2006
   132.5000     82.8738     86.7786     -6.4071     12.3794     12.0665
   132.0000     83.6029     84.6571     -9.8908     12.2054     11.9613
   131.5000     84.2733     84.1177    -14.4015     12.0504     11.8662
   131.0000     84.9894     84.7829    -15.3656     11.9366     11.7662
   130.5000     85.4430     85.1776    -12.6782     11.8581     11.7037
   130.0000     85.4027     85.1917     -9.6282     11.7988     11.7092
   129.5000     85.0457     83.2729     -9.1097     11.7644     11.7584
   129.0000     84.6209     79.4960    -10.9657     11.7642     11.8174
   128.5000     84.4758     77.3957    -13.8805     11.7637     11.8377
   128.0000     85.1873     78.3212    -15.9863     11.7056     11.7388
   127.5000     87.0516     80.0244    -16.2644     11.5512     11.4874
   127.0000     89.7917     81.1362    -14.5253     11.2961     11.1369
   126.5000     92.9340     81.5235    -11.5015     10.9757     10.7603
   126.0000     96.1258     80.4231     -8.2710     10.6474     10.4030
   125.5000     99.1768     79.2010     -5.5132     10.3499     10.0830
   125.0000    102.3832     80.2069     -6.4142     10.0718      9.7672
   124.5000    106.4384     84.1366    -10.5887      9.7473      9.3951
   124.0000    112.8329     88.0451    -10.5063      9.3091      8.8627
   123.5000    123.9815     89.3374     -5.4839      8.7151      8.0657
   123.0000    141.4567     86.5655     -3.6158      7.9921      7.0693
   122.5000    163.5342     82.5651     -6.2296      7.2192      6.1149
   122.0000    185.5258     82.6734     -8.1182      6.4794      5.3901
   121.5000    201.6483     89.3855     -8.4153      5.8256      4.9591
   121.0000    209.1502     99.5151     -9.0478      5.2664      4.7813
   120.5000    209.8643    106.9102     -9.8768      4.7906      4.7650
   120.0000    207.3640    106.1305    -11.2957      4.4577      4.8224
   119.5000    201.9877     97.3956    -14.9160      4.3917      4.9508
   119.0000    190.6635     87.3724    -18.7978      4.7148      5.2448
   118.5000    171.2868     81.1627    -19.4072      5.5012      5.8382
   118.0000    146.7003     78.6964    -18.1326      6.7039      6.8166
   117.5000    123.5399     78.4004    -17.0943      8.0636      8.0945
   117.0000    107.2570     79.8310    -13.3163      9.2142      9.3234
   116.5000     98.8592     80.5694     -6.1628      9.9614     10.1154
   116.0000     96.5294     79.9261     -3.3547     10.2267     10.3595
   115.5000     99.1884     80.0050     -7.3166     10.0160     10.0818
   115.0000    108.8377     82.4571    -12.9189      9.3599      9.1880
   114.5000    128.8235     86.1483    -15.0810      8.3501      7.7626
   114.0000    162.4470     88.5714    -13.2214      7.1120      6.1559
   113.5000    210.3981     88.4621     -9.5434      5.8422      4.7529
   113.0000    268.6362     88.8455     -8.5037      4.7266      3.7225
   112.5000    333.2075     94.4766    -10.8278      3.8198      3.0011
   112.0000    398.3083    102.9149    -11.4985      3.0960      2.5106
   111.5000    463.6025    109.1930    -10.5704      2.5178      2.1570
   111.0000    526.7971    113.1206    -11.9883      2.0794      1.8983
   110.5000    573.8879    114.8488    -16.4673      1.8225      1.7425
   110.0000    593.5635    111.8478    -19.7936      1.7136      1.6847
   109.5000    580.9026    108.1569    -20.1977      1.7176      1.7215
   109.0000    542.2253    106.9659    -18.2372      1.8011      1.8443
   108.5000    488.9463    102.8391    -17.1547      1.9611      2.0452
