~Version Information
 VERS.                2.00:   CWLS log ASCII Standard -VERSION 2.00
 WRAP.                  NO:   One line per frame
~Well Information Block
#MNEM.UNIT              Data                Description
#--------- -------------------------------  -------------------------------
 STRT.F                          780.0000:   Starting Depth
 STOP.F                           -3.7500:   Ending Depth
 STEP.F                           -0.5000:   Level Spacing
 NULL.                          -999.2500:   Absent Value
 COMP.     FLUOR DANIEL (NPSOR), INC.    :   Company
 WELL.     36-1 X 11                     :   Well
 FLD .                                   :   Field
 LOC .                                   :   Location
 PROV.                                   :   Province
 SRVC.                                   :   Service Company
 LIC .                                   :   License Number
 DATE.                                   :   Log Date
 UWI .                                   :   Unique Well ID
~Curve Information Block
#MNEM.UNIT       API Codes    Curve Description
#---------    -------------   -------------------------------
 DEPT.F        0   0  0  0:   Depth
 CILD.MMHO     0   0  0  0:   Conductivity of Deep Induction
 GR  .API      0   0  0  0:   Gamma ray counts
 TEN .LBF      0   0  0  0:   Differential Tension
 RILM.OHMM     0   0  0  0:   Resistivity from CILM
 RILD.OHMM     0   0  0  0:   Resistivity from CILD
#  Curve Data
~A
# ...
   332.0000    126.7156    106.3892    -13.2196      8.1571      7.8917
   331.5000    126.9163    106.6382     -7.3773      8.1069      7.8792
   331.0000    126.4648    107.4073     -2.0115      8.1019      7.9073
   330.5000    126.1860    105.0176     -0.2434      8.1068      7.9248
   330.0000    126.2500    101.5531     -4.8312      8.1098      7.9208
   329.5000    126.1420    100.7545    -11.9539      8.1297      7.9276
   329.0000    125.5493    103.6775    -13.6704      8.1818      7.9650
   328.5000    124.4662    107.7359     -9.7472      8.2528      8.0343
   328.0000    123.2135    108.9129     -7.0449      8.3009      8.1160
   327.5000    122.1100    107.9037    -10.0574      8.3235      8.1893
   327.0000    121.1958    109.5975    -13.4112      8.3676      8.2511
   326.5000    120.2760    110.7515    -12.6853      8.4605      8.3142
   326.0000    119.3336    108.0472    -11.2618      8.5585      8.3799
   325.5000    118.5693    106.4095    -11.8334      8.6092      8.4339
   325.0000    118.2292    106.7732    -11.0959      8.6132      8.4581
   324.5000    118.5107    104.3180     -7.1108      8.5984      8.4381
   324.0000    119.5351    102.1562     -6.1869      8.5774      8.3657
   323.5000    121.0798    104.7372     -9.1052      8.5321      8.2590
   323.0000    122.6687    107.7066    -11.0062      8.4384      8.1520
   322.5000    124.2670    109.3306    -10.8424      8.3137      8.0472
   322.0000    126.1697    111.5387    -12.7789      8.1980      7.9258
   321.5000    128.5016    112.2231    -16.7896      8.0921      7.7820
   321.0000    131.0056    110.5245    -20.7690      7.9746      7.6333
   320.5000    133.2393    111.5635    -21.2823      7.8482      7.5053
   320.0000    134.7947    114.1282    -15.5715      7.7317      7.4187
   319.5000    135.7628    114.3973     -7.5082      7.6320      7.3658
   319.0000    136.4744    113.9367     -2.2631      7.5505      7.3274
   318.5000    137.0018    112.3708     -1.4643      7.4913      7.2992
   318.0000    137.1884    107.7575     -3.7771      7.4591      7.2892
   317.5000    136.8367    105.7520     -7.4685      7.4613      7.3080
   317.0000    135.8277    110.4919    -10.9294      7.5016      7.3623
   316.5000    134.2198    115.7475    -12.8161      7.5756      7.4505
   316.0000    132.2881    115.5489    -11.7123      7.6707      7.5593
   315.5000    130.2154    111.5858     -8.1002      7.7805      7.6796
   315.0000    128.0660    108.7560     -5.5855      7.9117      7.8085
   314.5000    125.8639    107.9518     -4.3170      8.0638      7.9451
   314.0000    123.7824    107.4097     -2.4333      8.2174      8.0787
   313.5000    121.9935    108.4463     -1.0184      8.3524      8.1972
   313.0000    120.4873    111.5084     -1.2792      8.4724      8.2996
   312.5000    119.2001    115.2174     -2.2719      8.5822      8.3893
   312.0000    118.0717    116.2191     -3.8747      8.6556      8.4694
   311.5000    117.2266    112.9525     -4.8663      8.6699      8.5305
   311.0000    116.8908    108.4081     -4.1215      8.6633      8.5550
   310.5000    116.8976    108.1584     -6.1555      8.6986      8.5545
   310.0000    116.9102    110.5287    -11.2377      8.7848      8.5536
   309.5000    116.8059    110.4914    -14.4253      8.8698      8.5612
   309.0000    116.7343    108.5591    -15.5599      8.8978      8.5665
   308.5000    116.9617    106.9167    -16.7765      8.8574      8.5498
   308.0000    117.6893    105.4118    -15.8167      8.7743      8.4969
   307.5000    118.9642    105.1851    -13.4429      8.6719      8.4059
   307.0000    120.7044    109.3223    -12.6127      8.5653      8.2847
   306.5000    122.6977    113.3941    -12.8079      8.4638      8.1501
   306.0000    124.5438    113.9878    -13.8626      8.3673      8.0293
   305.5000    125.9902    112.5809    -15.2924      8.2709      7.9371
   305.0000    126.9931    110.9171    -15.9960      8.1744      7.8744
   304.5000    127.6821    109.3062    -15.9289      8.0840      7.8320
   304.0000    128.2030    109.8845    -14.5909      8.0070      7.8001
   303.5000    128.6809    112.0396    -10.2590      7.9545      7.7712
   303.0000    129.1252    113.2142     -5.7364      7.9564      7.7444
   302.5000    129.2332    113.6033     -6.0948      8.0281      7.7379
   302.0000    128.7596    114.9157     -9.9705      8.1245      7.7664
   301.5000    128.0450    117.2163    -12.4599      8.1726      7.8098
   301.0000    127.6177    118.3951    -12.4040      8.1602      7.8359
   300.5000    127.5848    117.1232    -12.4352      8.1356      7.8379
   300.0000    127.6982    113.9902    -13.4282      8.1277      7.8310
   299.5000    127.7771    111.0858    -15.7417      8.1235      7.8261
   299.0000    127.7647    110.1329    -18.8450      8.1095      7.8269
   298.5000    127.4819    109.4548    -18.8923      8.0929      7.8442
   298.0000    126.8373    107.4678    -13.7043      8.0896      7.8841
   297.5000    126.1160    105.6499     -7.1224      8.1163      7.9292
   297.0000    125.5804    106.2362     -5.0758      8.1661      7.9630
   296.5000    124.8608    107.8961     -8.8981      8.2127      8.0089
   296.0000    123.4192    108.5406    -12.9997      8.2527      8.1025
   295.5000    121.4862    108.1342    -14.2362      8.3098      8.2314
   295.0000    120.0546    107.8834    -15.3455      8.3867      8.3295
   294.5000    119.6288    109.6871    -17.0047      8.4608      8.3592
   294.0000    119.6317    112.7137    -15.9390      8.5180      8.3590
   293.5000    119.4511    113.6246    -13.7915      8.5642      8.3716
   293.0000    119.0186    111.9515    -13.2248      8.6069      8.4020
   292.5000    118.6345    109.8779    -11.3143      8.6358      8.4293
   292.0000    118.7072    108.6301     -7.6564      8.6297      8.4241
   291.5000    119.3974    108.9590     -5.5467      8.5791      8.3754
   291.0000    120.4214    110.7390     -5.4848      8.5064      8.3042
   290.5000    121.2631    111.7925     -4.8410      8.4571      8.2465
   290.0000    121.5371    111.9282     -3.8683      8.4525      8.2279
   289.5000    121.3194    111.8426     -3.2409      8.4716      8.2427
   289.0000    121.0088    110.2518     -3.9571      8.4856      8.2639
   288.5000    120.5972    108.1170     -9.1826      8.4941      8.2921
   288.0000    120.0030    108.7547    -15.5748      8.5128      8.3331
   287.5000    119.3354    110.4652    -15.4415      8.5622      8.3797
   287.0000    118.6198    110.7101    -10.7116      8.6484      8.4303
   286.5000    117.8275    109.6606     -9.6255      8.7478      8.4870
   286.0000    117.4105    107.7108    -11.1709      8.8146      8.5171
   285.5000    117.7262    105.0140    -10.6781      8.8232      8.4943
   285.0000    118.5141    104.8554     -9.5532      8.7845      8.4378
   284.5000    119.5009    107.7184     -7.7260      8.7189      8.3681
   284.0000    120.7058    110.0209     -3.8540      8.6240      8.2846
   283.5000    122.0445    108.0784     -1.1669      8.4911      8.1937
   283.0000    123.3497    102.3138     -1.6043      8.3432      8.1070
   282.5000    124.5422     98.7285     -3.8930      8.2301      8.0294
   282.0000    125.4052    100.6237     -8.7312      8.1710      7.9742
   281.5000    125.6852    106.1245    -16.5338      8.1448      7.9564
   281.0000    125.4825    109.5745    -21.7813      8.1340      7.9692
   280.5000    124.9940    107.5435    -18.8847      8.1425      8.0004
   280.0000    124.2205    103.2625    -12.1503      8.1696      8.0502
   279.5000    123.3294    101.8670    -10.1428      8.2090      8.1084
   279.0000    122.7397    103.1933    -12.4178      8.2552      8.1473
   278.5000    122.4092    103.4186    -13.2510      8.3039      8.1693
   278.0000    121.8456    103.1509    -11.2917      8.3566      8.2071
   277.5000    120.9460    104.0019     -7.2300      8.4195      8.2682
   277.0000    120.2784    104.8159     -4.2651      8.4730      8.3140
   276.5000    120.5449    104.2128     -5.2463      8.4674      8.2957
