~Version Information
 VERS.                2.00:   CWLS log ASCII Standard -VERSION 2.00
 WRAP.                  NO:   One line per frame
~Well Information Block
#MNEM.UNIT              Data                Description
#--------- -------------------------------  -------------------------------
 STRT.F                          780.0000:   Starting Depth
 STOP.F                           -3.7500:   Ending Depth
 STEP.F                           -0.5000:   Level Spacing
 NULL.                          -999.2500:   Absent Value
 COMP.     FLUOR DANIEL (NPSOR), INC.    :   Company
 WELL.     36-1 X 11                     :   Well
 FLD .                                   :   Field
 LOC .                                   :   Location
 PROV.                                   :   Province
 SRVC.                                   :   Service Company
 LIC .                                   :   License Number
 DATE.                                   :   Log Date
 UWI .                                   :   Unique Well ID
~Curve Information Block
#MNEM.UNIT       API Codes    Curve Description
#---------    -------------   -------------------------------
 DEPT.F        0   0  0  0:   Depth
 CILD.MMHO     0   0  0  0:   Conductivity of Deep Induction
 GR  .API      0   0  0  0:   Gamma ray counts
 TEN .LBF      0   0  0  0:   Differential Tension
 RILM.OHMM     0   0  0  0:   Resistivity from CILM
 RILD.OHMM     0   0  0  0:   Resistivity from CILD
#  Curve Data
~A
# ...
   556.0000     63.9926     70.7985     73.5953     16.1413     15.6268
   555.5000     64.2584     73.7820     71.7125     16.0766     15.5622
   555.0000     64.5768     76.5882     68.2535     16.0276     15.4854
   554.5000     64.7991     74.9388     66.1255     15.9980     15.4323
   554.0000     64.9503     71.8415     65.5719     15.9763     15.3964
   553.5000     65.1792     71.5663     66.1106     15.9377     15.3423
   553.0000     65.5575     74.0015     68.1382     15.8680     15.2538
   552.5000     66.0033     77.4646     71.7625     15.7884     15.1507
   552.0000     66.3880     79.1043     74.7625     15.7313     15.0630
   551.5000     66.6175     78.4557     74.8192     15.7180     15.0111
   551.0000     66.4313     78.5566     73.8573     15.7614     15.0531
   550.5000     65.5063     80.4660     72.4311     15.8733     15.2657
   550.0000     63.9718     80.9792     70.7051     16.0751     15.6319
   549.5000     62.3761     78.6535     72.0184     16.3752     16.0318
   549.0000     61.0495     76.0777     73.5767     16.7532     16.3801
   548.5000     59.9336     74.3455     70.4352     17.2120     16.6851
   548.0000     58.8253     71.9930     65.6119     17.7793     16.9995
   547.5000     57.6934     69.9250     62.9566     18.3793     17.3330
   547.0000     56.6168     70.3878     60.8542     18.8033     17.6626
   546.5000     55.5770     72.4741     60.2003     18.9157     17.9931
   546.0000     54.6666     75.8825     61.4801     18.8107     18.2927
   545.5000     54.1594     79.3760     63.5028     18.6800     18.4640
   545.0000     54.0142     79.0960     64.9641     18.6344     18.5137
   544.5000     53.9472     74.6076     64.9415     18.7054     18.5366
   544.0000     53.9344     70.6112     64.0475     18.8892     18.5410
   543.5000     54.0420     68.7314     63.7221     19.1653     18.5041
   543.0000     54.0315     66.8018     63.6324     19.4573     18.5077
   542.5000     53.7073     65.9680     62.2670     19.6798     18.6194
   542.0000     53.3513     67.7148     59.6690     19.7773     18.7437
   541.5000     53.5855     68.9328     58.9376     19.6484     18.6617
   541.0000     54.7401     66.9820     62.7254     19.2051     18.2681
   540.5000     56.5394     64.8089     68.3725     18.6864     17.6868
   540.0000     58.3016     65.7600     69.5174     18.4717     17.1522
   539.5000     59.5483     69.0238     64.6628     18.5614     16.7931
   539.0000     60.3113     72.1358     58.2559     18.5339     16.5807
   538.5000     61.0195     74.6113     53.6312     18.0524     16.3882
   538.0000     62.0154     77.2440     49.6259     17.2978     16.1250
   537.5000     63.1937     77.6497     48.3892     16.6751     15.8244
   537.0000     64.1084     75.4377     50.0590     16.3718     15.5986
   536.5000     64.3573     73.4960     50.6300     16.3618     15.5383
   536.0000     63.7962     72.6993     47.8743     16.5569     15.6749
   535.5000     62.5444     72.1568     46.5784     16.8912     15.9886
   535.0000     60.6922     71.9591     49.9450     17.3672     16.4766
   534.5000     58.3655     71.1148     56.0919     18.0225     17.1334
   534.0000     55.8650     68.8885     59.0019     18.8246     17.9003
   533.5000     53.4704     66.5031     56.9618     19.6658     18.7019
   533.0000     51.2028     63.8843     53.5309     20.4944     19.5302
   532.5000     49.2177     61.4750     51.7993     21.3309     20.3179
   532.0000     47.8252     60.3795     48.4834     22.1120     20.9095
   531.5000     47.0765     59.7638     45.3858     22.6376     21.2420
   531.0000     46.7800     58.9158     47.1216     22.8346     21.3767
   530.5000     46.6541     58.7255     50.7261     22.8105     21.4343
   530.0000     46.2690     59.2075     52.2553     22.6671     21.6127
   529.5000     45.3102     61.2537     53.7227     22.5076     22.0701
   529.0000     43.9749     64.7407     54.5270     22.5168     22.7403
   528.5000     42.8961     64.8204     52.5433     22.6633     23.3121
   528.0000     42.8898     58.4633     51.7512     22.7572     23.3155
   527.5000     44.5845     50.6947     53.6672     22.8813     22.4293
   527.0000     47.8811     48.2288     54.1326     23.2293     20.8851
   526.5000     52.2567     52.3182     51.7115     23.3210     19.1363
   526.0000     57.4779     60.2736     48.4066     22.1210     17.3980
   525.5000     63.6069     69.7126     45.2571     19.5089     15.7216
   525.0000     70.5267     79.9379     44.4144     16.5515     14.1790
   524.5000     77.8485     91.0915     46.5592     14.0935     12.8455
   524.0000     85.2210    101.2896     48.5801     12.3184     11.7342
   523.5000     92.3450    106.1037     48.1086     11.1383     10.8290
   523.0000     98.5563    107.1705     47.0255     10.4253     10.1465
   522.5000    103.0764    110.1937     46.5766     10.0428      9.7015
   522.0000    105.4463    112.8301     46.9191      9.8610      9.4835
   521.5000    106.1388    110.8869     47.1521      9.8251      9.4216
   521.0000    105.7402    108.0870     45.5731      9.9220      9.4571
   520.5000    104.5469    106.5961     42.5957     10.0994      9.5651
   520.0000    103.5472    105.4421     39.9767     10.2321      9.6574
   519.5000    105.1011    104.7831     38.1207     10.1742      9.5146
   519.0000    111.8943    104.7520     38.1271      9.8321      8.9370
   518.5000    125.7010    103.6809     39.6119      9.1847      7.9554
   518.0000    146.2151    101.4751     39.8391      8.2858      6.8392
   517.5000    168.7936     99.9509     40.8544      7.3172      5.9244
   517.0000    185.6829    102.7923     43.9679      6.5039      5.3855
   516.5000    193.0956    112.2051     45.7850      5.8844      5.1788
   516.0000    194.6429    122.5039     43.9636      5.3250      5.1376
   515.5000    195.3517    124.4779     42.6048      4.8063      5.1190
   515.0000    196.1885    117.1914     43.1236      4.5371      5.0971
   514.5000    193.1579    109.0794     44.1109      4.7345      5.1771
   514.0000    181.5487    105.2951     43.6083      5.4751      5.5082
   513.5000    162.4541    104.3094     42.4926      6.6543      6.1556
   513.0000    143.1884    102.0618     42.0415      7.8999      6.9838
   512.5000    129.6342     99.3501     41.1097      8.7392      7.7140
   512.0000    123.2983    100.8657     40.3457      9.0130      8.1104
   511.5000    122.5730    105.2431     41.3833      8.9050      8.1584
   511.0000    124.5772    108.3758     42.0732      8.6567      8.0272
   510.5000    126.9266    110.6236     40.7581      8.3828      7.8786
   510.0000    128.6563    112.1309     40.5946      8.1287      7.7726
   509.5000    129.7595    112.5789     42.0113      7.9524      7.7066
   509.0000    130.3678    114.7394     42.1315      7.8951      7.6706
   508.5000    130.4269    115.2530     40.0630      7.9375      7.6671
   508.0000    129.7808    110.6334     37.6608      8.0276      7.7053
   507.5000    128.7735    105.6711     36.3926      8.1173      7.7656
   507.0000    128.2781    105.8403     35.3736      8.1761      7.7956
   506.5000    128.7437    108.0904     33.5954      8.1886      7.7674
   506.0000    129.6443    107.7563     33.9694      8.1622      7.7134
   505.5000    130.3990    105.8924     36.3197      8.1182      7.6688
   505.0000    130.9667    105.5925     37.3003      8.0791      7.6355
   504.5000    131.6102    106.4201     35.8107      8.0527      7.5982
   504.0000    132.4491    105.8535     34.8365      8.0220      7.5501
   503.5000    133.5089    104.5454     35.1415      7.9632      7.4901
   503.0000    135.0207    105.0827     35.3077      7.8804      7.4063
   502.5000    137.3226    107.4339     35.3904      7.7932      7.2821
   502.0000    140.5376    110.2818     34.9295      7.6867      7.1155
   501.5000    145.0377    113.4619     31.7191      7.5083      6.8948
   501.0000    151.5946    116.3641     25.7402      7.2356      6.5965
   500.5000    160.4340    117.2009     19.4346      6.9057      6.2331
