~Version Information
 VERS.                2.00:   CWLS log ASCII Standard -VERSION 2.00
 WRAP.                  NO:   One line per frame
~Well Information Block
#MNEM.UNIT              Data                Description
#--------- -------------------------------  -------------------------------
 STRT.F                          780.0000:   Starting Depth
 STOP.F                           -3.7500:   Ending Depth
 STEP.F                           -0.5000:   Level Spacing
 NULL.                          -999.2500:   Absent Value
 COMP.     FLUOR DANIEL (NPSOR), INC.    :   Company
 WELL.     36-1 X 11                     :   Well
 FLD .                                   :   Field
 LOC .                                   :   Location
 PROV.                                   :   Province
 SRVC.                                   :   Service Company
 LIC .                                   :   License Number
 DATE.                                   :   Log Date
 UWI .                                   :   Unique Well ID
~Curve Information Block
#MNEM.UNIT       API Codes    Curve Description
#---------    -------------   -------------------------------
 DEPT.F        0   0  0  0:   Depth
 CILD.MMHO     0   0  0  0:   Conductivity of Deep Induction
 GR  .API      0   0  0  0:   Gamma ray counts
 TEN .LBF      0   0  0  0:   Differential Tension
 RILM.OHMM     0   0  0  0:   Resistivity from CILM
 RILD.OHMM     0   0  0  0:   Resistivity from CILD
#  Curve Data
~A
# ...
   612.0000     50.2698     62.0740    115.0173     19.0807     19.8927
   611.5000     48.2294     61.4286    120.8675     19.7908     20.7342
   611.0000     46.5995     60.7854    123.7232     20.7607     21.4594
   610.5000     45.6390     58.4833    120.8730     21.7215     21.9111
   610.0000     44.8865     56.5342    116.2035     22.7098     22.2784
   609.5000     43.6992     56.4415    115.7929     24.2485     22.8837
   609.0000     41.9137     56.4803    118.2951     26.3565     23.8585
   608.5000     39.7830     55.0878    118.7466     27.5387     25.1363
   608.0000     38.0119     51.8927    117.2676     26.5594     26.3076
   607.5000     37.1252     49.4068    118.9927     24.7698     26.9359
   607.0000     37.2472     49.3357    125.1491     23.7096     26.8477
   606.5000     38.3906     50.0349    129.4697     23.5356     26.0480
   606.0000     40.9701     51.4684    128.2677     23.7720     24.4080
   605.5000     45.0923     55.0444    123.9935     23.7815     22.1767
   605.0000     50.2578     59.9532    123.0501     22.9639     19.8974
   604.5000     56.2380     64.8532    126.0909     21.2330     17.7816
   604.0000     62.8329     70.5291    127.8020     18.9419     15.9152
   603.5000     69.7286     75.3590    127.1002     16.3275     14.3413
   603.0000     77.0279     77.7105    127.4979     13.7515     12.9823
   602.5000     84.5757     77.5098    129.5447     11.7855     11.8237
   602.0000     91.2742     75.7472    130.7413     10.7147     10.9560
   601.5000     95.9613     74.5991    131.8051     10.4216     10.4209
   601.0000     98.1945     77.0933    133.3954     10.5598     10.1839
   600.5000     98.3344     82.9523    133.8209     10.7548     10.1694
   600.0000     97.5966     87.3322    130.9166     10.8251     10.2463
   599.5000     97.1844     87.9303    127.9737     10.8059     10.2897
   599.0000     97.3134     88.3794    128.4577     10.7700     10.2761
   598.5000     97.5180     89.0979    129.8656     10.7427     10.2545
   598.0000     97.3529     87.3508    131.0966     10.7216     10.2719
   597.5000     96.6830     84.3369    130.2136     10.7283     10.3431
   597.0000     95.6703     83.1652    123.1096     10.7982     10.4526
   596.5000     94.4024     84.6015    115.2329     10.9366     10.5929
   596.0000     92.9066     87.2160    114.7202     11.1147     10.7635
   595.5000     91.3592     87.4044    117.8349     11.3066     10.9458
   595.0000     90.0702     84.9076    118.8256     11.4924     11.1024
   594.5000     89.2235     83.1698    117.7035     11.6529     11.2078
   594.0000     88.8476     83.7919    117.1508     11.7789     11.2552
   593.5000     88.8557     84.3693    119.3456     11.8658     11.2542
   593.0000     89.1160     83.4323    124.3171     11.9095     11.2213
   592.5000     89.5186     82.7688    126.0379     11.9070     11.1709
   592.0000     89.9589     83.9218    120.0538     11.8658     11.1162
   591.5000     90.3842     86.2205    112.2824     11.7988     11.0639
   591.0000     90.8658     89.2119    111.0603     11.7229     11.0052
   590.5000     91.4224     89.9919    113.7717     11.6522     10.9382
   590.0000     91.9019     87.0347    114.6474     11.5931     10.8812
   589.5000     92.1275     83.9806    113.7330     11.5474     10.8545
   589.0000     92.1535     83.4958    111.2170     11.5160     10.8515
   588.5000     92.0966     83.3492    108.5098     11.5155     10.8582
   588.0000     91.9391     81.9652    109.0308     11.5528     10.8768
   587.5000     91.6390     79.2152    111.4857     11.6127     10.9124
   587.0000     91.2878     77.4502    112.0414     11.6786     10.9544
   586.5000     90.9207     78.4136    109.5453     11.7375     10.9986
   586.0000     90.4574     80.2582    105.1988     11.7781     11.0549
   585.5000     89.8539     81.3291    103.1339     11.8105     11.1292
   585.0000     89.1633     83.3144    104.6604     11.8613     11.2154
   584.5000     88.4312     85.2227    105.8710     11.9436     11.3082
   584.0000     87.6871     84.5295    104.2292     12.0600     11.4042
   583.5000     86.8748     82.9728    103.1498     12.1988     11.5108
   583.0000     86.0111     83.6143    102.3687     12.3469     11.6264
   582.5000     85.1874     84.7303    100.5204     12.5021     11.7388
   582.0000     84.4492     84.3111     99.0423     12.6434     11.8414
   581.5000     83.8458     83.8206     99.1277     12.7281     11.9267
   581.0000     83.4989     83.6638    100.5594     12.7520     11.9762
   580.5000     83.4102     82.1719    102.0374     12.7542     11.9889
   580.0000     83.3486     79.9314    100.5252     12.7618     11.9978
   579.5000     83.0984     78.2255     95.9079     12.7669     12.0339
   579.0000     82.6893     78.2610     93.4962     12.7621     12.0935
   578.5000     82.2003     80.7553     93.0360     12.7747     12.1654
   578.0000     81.5525     84.0474     89.4046     12.8351     12.2620
   577.5000     80.6511     82.8365     86.4089     12.9366     12.3991
   577.0000     79.5837     77.7928     90.7280     13.0604     12.5654
   576.5000     78.4415     75.9838     96.7344     13.2070     12.7484
   576.0000     77.2626     78.5799     99.2622     13.3851     12.9429
   575.5000     76.0848     80.2789    100.1315     13.5861     13.1432
   575.0000     74.9543     80.5926     99.1280     13.7732     13.3415
   574.5000     74.0086     82.4031     94.6906     13.8936     13.5119
   574.0000     73.4032     83.7664     90.2245     13.9353     13.6234
   573.5000     73.0820     83.4486     88.3722     13.9396     13.6833
   573.0000     72.9377     84.1564     88.8776     13.9397     13.7103
   572.5000     72.9504     85.4922     91.1581     13.9362     13.7079
   572.0000     73.0287     83.3788     92.4293     13.9383     13.6933
   571.5000     72.9990     80.2380     90.2763     13.9791     13.6988
   571.0000     72.8303     80.1889     86.3705     14.0648     13.7306
   570.5000     72.5768     79.8815     84.8272     14.1694     13.7785
   570.0000     72.2760     77.3708     85.5952     14.2820     13.8359
   569.5000     72.0779     77.3713     84.6390     14.3986     13.8739
   569.0000     72.2605     80.0351     82.0779     14.4814     13.8388
   568.5000     72.8416     81.8660     80.5935     14.5078     13.7284
   568.0000     73.4376     82.1648     80.8323     14.5015     13.6170
   567.5000     73.7575     81.6425     82.0462     14.4784     13.5579
   567.0000     73.8624     79.9870     84.3386     14.4033     13.5387
   566.5000     73.8450     78.1237     85.6678     14.2562     13.5419
   566.0000     73.6264     77.8335     84.8068     14.1035     13.5821
   565.5000     73.2459     78.4257     81.8403     14.0505     13.6526
   565.0000     72.8450     77.5179     78.5839     14.1363     13.7278
   564.5000     72.4914     76.9627     78.5671     14.3168     13.7947
   564.0000     72.0582     78.8149     80.7350     14.5371     13.8777
   563.5000     71.3198     80.4076     79.3811     14.7728     14.0213
   563.0000     70.2832     79.9837     75.2398     14.9903     14.2281
   562.5000     69.2811     80.3023     73.8463     15.1803     14.4340
   562.0000     68.4843     81.6053     75.3142     15.3873     14.6019
   561.5000     67.8258     81.8490     76.3604     15.6130     14.7437
   561.0000     67.3157     81.0146     77.7039     15.7692     14.8554
   560.5000     66.8625     81.4025     80.9323     15.8133     14.9561
   560.0000     66.3536     81.3338     83.0774     15.8140     15.0708
   559.5000     65.9137     77.9020     82.4546     15.8609     15.1713
   559.0000     65.5266     72.3682     79.8707     15.9854     15.2610
   558.5000     65.0032     70.0206     76.9972     16.1381     15.3839
   558.0000     64.4312     71.2458     74.4810     16.2480     15.5204
   557.5000     64.0570     72.7973     72.4884     16.2888     15.6111
   557.0000     63.8961     72.6927     71.4487     16.2696     15.6504
   556.5000     63.8775     71.1518     72.6812     16.2121     15.6550
