~Version Information
 VERS.                2.00:   CWLS log ASCII Standard -VERSION 2.00
 WRAP.                  NO:   One line per frame
~Well Information Block
#MNEM.UNIT              Data                Description
#--------- -------------------------------  -------------------------------
 STRT.F                          863.0000:   Starting Depth
 STOP.F                           -8.7500:   Ending Depth
 STEP.F                           -0.5000:   Level Spacing
 NULL.                          -999.2500:   Absent Value
 COMP.     FLUOR DANIEL (NPSOR), INC.    :   Company
 WELL.     47-1 X 11                     :   Well
 FLD .                                   :   Field
 LOC .                                   :   Location
 PROV.                                   :   Province
 SRVC.                                   :   Service Company
 LIC .                                   :   License Number
 DATE.                                   :   Log Date
 UWI .                                   :   Unique Well ID
~Curve Information Block
#MNEM.UNIT       API Codes    Curve Description
#---------    -------------   -------------------------------
 DEPT.F        0   0  0  0:   Depth
 CILD.MMHO     0   0  0  0:   Conductivity of Deep Induction
 GR  .API      0   0  0  0:   Gamma ray counts
 TEN .LBF      0   0  0  0:   Differential Tension
 RILM.OHMM     0   0  0  0:   Resistivity from CILM
 RILD.OHMM     0   0  0  0:   Resistivity from CILD
#  Curve Data
~A
# ...
   471.0000    126.8482    135.4651    -24.5744      7.9957      7.8834
   470.5000    126.7353    134.4190    -26.9382      8.0371      7.8905
   470.0000    126.5942    136.6027    -34.0435      8.0629      7.8993
   469.5000    126.5557    138.2971    -33.9087      8.0566      7.9017
   469.0000    126.7730    137.6734    -27.9917      8.0253      7.8881
   468.5000    127.1507    137.5614    -28.8923      7.9861      7.8647
   468.0000    127.3049    138.7565    -34.4250      7.9549      7.8552
   467.5000    127.0718    137.9706    -31.4839      7.9397      7.8696
   467.0000    126.6209    134.2705    -25.5782      7.9544      7.8976
   466.5000    125.9717    132.2151    -28.1201      8.0113      7.9383
   466.0000    124.9918    134.8872    -34.3473      8.0994      8.0005
   465.5000    123.9470    139.1761    -36.7751      8.1886      8.0680
   465.0000    123.2674    139.7469    -36.1953      8.2545      8.1124
   464.5000    123.1620    135.0096    -31.1182      8.2868      8.1194
   464.0000    123.6198    128.5497    -25.9165      8.2870      8.0893
   463.5000    124.4287    126.0822    -26.5051      8.2597      8.0367
   463.0000    125.5206    127.9639    -32.3791      8.2047      7.9668
   462.5000    126.8212    129.2162    -35.9839      8.1207      7.8851
   462.0000    128.1853    128.5859    -34.0404      8.0103      7.8012
   461.5000    129.5930    127.9452    -32.9510      7.8822      7.7165
   461.0000    131.2651    127.8283    -33.1593      7.7578      7.6182
   460.5000    133.1023    128.8581    -26.3682      7.6622      7.5130
   460.0000    134.6938    128.8292    -15.0231      7.6100      7.4242
   459.5000    135.6775    125.9992    -15.5989      7.5967      7.3704
   459.0000    136.0750    123.5852    -27.1602      7.5995      7.3489
   458.5000    136.4722    124.1006    -32.9488      7.5873      7.3275
   458.0000    137.5064    124.7424    -29.6411      7.5337      7.2724
   457.5000    139.4995    123.3676    -28.1985      7.4302      7.1685
   457.0000    142.2629    121.7064    -28.1652      7.2982      7.0292
   456.5000    144.8795    122.4388    -28.9765      7.1861      6.9023
   456.0000    146.2585    125.0301    -38.2854      7.1222      6.8372
   455.5000    146.2162    126.5654    -48.9440      7.0813      6.8392
   455.0000    145.1576    128.1071    -45.7274      7.0227      6.8891
   454.5000    143.4579    132.2721    -32.8207      6.9639      6.9707
   454.0000    141.3394    135.0318    -22.9235      6.9806      7.0752
   453.5000    138.6127    132.7503    -20.8736      7.1268      7.2143
   453.0000    134.9546    128.8218    -21.5037      7.3878      7.4099
   452.5000    130.6891    124.9263    -23.6442      7.7117      7.6517
   452.0000    126.6160    120.6547    -27.8035      8.0452      7.8979
   451.5000    123.3568    117.3549    -32.4505      8.3239      8.1066
   451.0000    121.2272    116.5271    -36.8053      8.4976      8.2490
   450.5000    119.9182    117.1606    -40.5613      8.5810      8.3390
   450.0000    118.8420    117.4075    -36.2953      8.6219      8.4145
   449.5000    117.7422    115.4640    -23.4039      8.6457      8.4931
   449.0000    116.6401    115.3891    -18.4357      8.6539      8.5734
   448.5000    115.5917    120.4862    -29.0610      8.6496      8.6511
   448.0000    114.8770    126.1566    -39.9678      8.6484      8.7050
   447.5000    114.7962    126.2797    -37.8154      8.6645      8.7111
   447.0000    115.2719    121.4483    -33.9352      8.6924      8.6751
   446.5000    115.8739    117.5350    -36.3026      8.7271      8.6301
   446.0000    116.1551    119.4241    -33.5046      8.7740      8.6092
   445.5000    115.9434    125.1065    -23.9370      8.8293      8.6249
   445.0000    115.4940    127.5274    -21.8819      8.8719      8.6585
   444.5000    115.1154    122.9616    -29.8601      8.8903      8.6869
   444.0000    114.8431    118.1960    -37.7849      8.8951      8.7075
   443.5000    114.5467    120.2065    -37.6220      8.9138      8.7301
   443.0000    114.0425    123.6990    -32.8580      8.9582      8.7687
   442.5000    113.2025    122.5410    -30.2990      9.0139      8.8337
   442.0000    112.2400    120.7081    -32.2214      9.0691      8.9095
   441.5000    111.3668    123.7275    -33.0498      9.1345      8.9793
   441.0000    110.3387    126.9171    -32.8186      9.2267      9.0630
   440.5000    108.8422    125.5381    -36.3359      9.3401      9.1876
   440.0000    106.9154    122.5271    -41.0585      9.4527      9.3532
   439.5000    104.8721    123.2936    -38.3635      9.5475      9.5354
   439.0000    103.0173    124.8916    -28.2750      9.6185      9.7071
   438.5000    101.3968    121.9653    -21.1115      9.6917      9.8622
   438.0000     99.8607    116.8820    -23.4710      9.8242     10.0139
   437.5000     98.6038    115.3507    -32.2855     10.0373     10.1416
   437.0000     97.8810    117.8655    -37.6583     10.2654     10.2165
   436.5000     97.6533    121.4812    -33.1873     10.4477     10.2403
   436.0000     97.4700    122.9153    -26.6588     10.5869     10.2596
   435.5000     97.1169    122.7932    -27.8730     10.7110     10.2969
   435.0000     96.6919    124.5242    -32.9562     10.7724     10.3421
   434.5000     96.3831    128.6064    -32.8805     10.6990     10.3753
   434.0000     96.5783    130.9973    -29.3199     10.5181     10.3543
   433.5000     97.5128    130.0034    -27.4665     10.3431     10.2551
   433.0000     98.6698    126.5332    -28.7783     10.2500     10.1348
   432.5000     99.1672    123.5222    -34.2594     10.2440     10.0840
   432.0000     98.6428    122.6877    -38.8744     10.2892     10.1376
   431.5000     97.4467    122.0921    -37.9405     10.3425     10.2620
   431.0000     96.1870    120.3267    -32.3431     10.3815     10.3964
   430.5000     95.1708    120.2513    -26.7180     10.4254     10.5074
   430.0000     94.3667    122.1462    -22.8414     10.4980     10.5970
   429.5000     93.6286    124.0653    -26.0659     10.6061     10.6805
   429.0000     92.7038    123.6947    -38.5401     10.7516     10.7870
   428.5000     91.3343    122.2585    -45.9556     10.9210     10.9488
   428.0000     89.7026    123.3137    -40.1465     11.0864     11.1480
   427.5000     88.1680    127.7726    -35.4157     11.2362     11.3420
   427.0000     86.8425    132.8151    -37.4424     11.3841     11.5151
   426.5000     85.6657    135.6748    -35.3931     11.5373     11.6733
   426.0000     84.7905    132.9095    -32.9382     11.6741     11.7938
   425.5000     84.5470    124.1020    -33.8486     11.7543     11.8277
   425.0000     85.1050    117.0224    -32.1970     11.7763     11.7502
   424.5000     86.3021    116.5950    -30.9404     11.7701     11.5872
   424.0000     87.7800    119.2224    -38.0439     11.7220     11.3921
   423.5000     89.4654    123.2951    -49.0974     11.5546     11.1775
   423.0000     91.5983    127.9617    -55.6628     11.2287     10.9172
   422.5000     94.3090    129.7715    -49.0095     10.8202     10.6034
   422.0000     97.2904    128.1391    -33.7720     10.4484     10.2785
   421.5000    100.1322    127.3105    -27.9200     10.1567      9.9868
   421.0000    102.7542    128.0333    -32.8851      9.9171      9.7320
   420.5000    104.9655    129.4848    -35.3001      9.7096      9.5269
   420.0000    106.8200    131.7299    -30.9322      9.5455      9.3615
   419.5000    108.4711    134.3353    -29.2995      9.4209      9.2190
   419.0000    110.2178    135.0840    -29.2672      9.2948      9.0729
   418.5000    112.4830    133.9387    -25.2555      9.1336      8.8902
   418.0000    115.3195    132.5213    -21.9341      8.9492      8.6716
   417.5000    118.2298    132.9641    -27.0547      8.7699      8.4581
   417.0000    120.8314    136.1824    -32.3916      8.6059      8.2760
   416.5000    123.1376    140.0166    -29.1537      8.4503      8.1210
   416.0000    125.2133    143.1528    -26.4441      8.2939      7.9864
   415.5000    127.1106    145.2837    -30.7443      8.1404      7.8672
