~Version Information
 VERS.                2.00:   CWLS log ASCII Standard -VERSION 2.00
 WRAP.                  NO:   One line per frame
~Well Information Block
#MNEM.UNIT              Data                Description
#--------- -------------------------------  -------------------------------
 STRT.F                          863.0000:   Starting Depth
 STOP.F                           -8.7500:   Ending Depth
 STEP.F                           -0.5000:   Level Spacing
 NULL.                          -999.2500:   Absent Value
 COMP.     FLUOR DANIEL (NPSOR), INC.    :   Company
 WELL.     47-1 X 11                     :   Well
 FLD .                                   :   Field
 LOC .                                   :   Location
 PROV.                                   :   Province
 SRVC.                                   :   Service Company
 LIC .                                   :   License Number
 DATE.                                   :   Log Date
 UWI .                                   :   Unique Well ID
~Curve Information Block
#MNEM.UNIT       API Codes    Curve Description
#---------    -------------   -------------------------------
 DEPT.F        0   0  0  0:   Depth
 CILD.MMHO     0   0  0  0:   Conductivity of Deep Induction
 GR  .API      0   0  0  0:   Gamma ray counts
 TEN .LBF      0   0  0  0:   Differential Tension
 RILM.OHMM     0   0  0  0:   Resistivity from CILM
 RILD.OHMM     0   0  0  0:   Resistivity from CILD
#  Curve Data
~A
# ...
   527.0000    295.9668    142.0666    -15.9149      3.9263      3.3788
   526.5000    336.1650    135.7842    -17.0275      3.4158      2.9747
   526.0000    378.5198    127.8482    -19.7549      2.9709      2.6419
   525.5000    414.9292    120.5170    -21.7715      2.6613      2.4100
   525.0000    437.1013    118.3342    -24.0157      2.4787      2.2878
   524.5000    442.8792    123.8274    -28.9405      2.3749      2.2580
   524.0000    436.2739    130.5150    -36.3822      2.3292      2.2921
   523.5000    421.0417    134.6707    -33.8306      2.3478      2.3751
   523.0000    397.8438    138.0405    -21.8633      2.4647      2.5135
   522.5000    366.1665    141.5465    -16.3754      2.7056      2.7310
   522.0000    327.0945    143.3810    -21.6849      3.0914      3.0572
   521.5000    284.9319    141.2308    -25.7008      3.6023      3.5096
   521.0000    245.8724    137.6792    -25.2302      4.1799      4.0672
   520.5000    215.3500    136.9887    -22.9695      4.7553      4.6436
   520.0000    191.6847    136.2864    -17.1529      5.2707      5.2169
   519.5000    174.1513    133.1004    -12.2165      5.7143      5.7421
   519.0000    161.4397    131.2360    -18.2478      6.1026      6.1943
   518.5000    152.1311    131.3837    -30.1343      6.4369      6.5733
   518.0000    144.9936    131.6453    -30.9517      6.7137      6.8969
   517.5000    139.5869    134.1081    -19.5828      6.9378      7.1640
   517.0000    135.6111    138.3411    -12.2110      7.1199      7.3740
   516.5000    132.9009    140.1526    -15.5013      7.2681      7.5244
   516.0000    131.5157    137.2397    -23.3212      7.3891      7.6037
   515.5000    131.2367    132.9342    -31.6221      7.4788      7.6198
   515.0000    131.6629    129.4662    -36.3148      7.5390      7.5952
   514.5000    132.4565    126.3197    -32.7445      7.6002      7.5496
   514.0000    133.0565    124.5999    -25.1948      7.6920      7.5156
   513.5000    132.9540    126.9223    -22.1662      7.7924      7.5214
   513.0000    132.3803    132.0236    -25.5868      7.8630      7.5540
   512.5000    131.7453    136.6906    -29.1656      7.9011      7.5904
   512.0000    131.2342    138.1660    -25.3790      7.9180      7.6200
   511.5000    130.9797    135.4639    -19.8500      7.9184      7.6348
   511.0000    130.9821    131.4907    -22.2141      7.9156      7.6346
   510.5000    131.1392    130.9371    -28.3040      7.9159      7.6255
   510.0000    131.3362    134.4129    -32.3160      7.8981      7.6140
   509.5000    131.5704    138.2375    -34.6090      7.8515      7.6005
   509.0000    131.9817    138.9427    -36.2569      7.7986      7.5768
   508.5000    132.5860    137.1540    -34.0441      7.7674      7.5423
   508.0000    133.0823    135.6182    -28.3116      7.7619      7.5141
   507.5000    133.1622    133.6436    -23.9529      7.7569      7.5096
   507.0000    133.0063    129.7568    -25.6911      7.7297      7.5184
   506.5000    133.0052    127.1896    -28.6630      7.6790      7.5185
   506.0000    133.3609    129.9455    -27.2356      7.6193      7.4985
   505.5000    134.3612    135.8760    -29.4819      7.5612      7.4426
   505.0000    136.1772    138.7871    -36.8602      7.5125      7.3434
   504.5000    138.4165    137.6276    -38.1967      7.4610      7.2246
   504.0000    140.5451    135.0461    -29.3526      7.3819      7.1152
   503.5000    142.6511    132.0928    -22.1244      7.2721      7.0101
   503.0000    144.9895    128.6238    -24.4250      7.1539      6.8971
   502.5000    147.4417    126.8678    -31.5724      7.0388      6.7823
   502.0000    149.9082    128.1725    -33.5030      6.9170      6.6707
   501.5000    153.0169    130.4373    -31.0652      6.7820      6.5352
   501.0000    158.0094    131.1910    -32.6136      6.6266      6.3287
   500.5000    166.0040    131.5374    -36.1785      6.4243      6.0239
   500.0000    177.4491    134.2899    -33.9602      6.1403      5.6354
   499.5000    191.1511    137.4656    -28.6203      5.7883      5.2315
   499.0000    203.5205    136.1644    -25.2750      5.4430      4.9135
   498.5000    211.2394    130.8378    -22.5014      5.1606      4.7340
   498.0000    214.5012    128.1908    -19.3605      4.9084      4.6620
   497.5000    215.5998    130.4732    -21.0111      4.6432      4.6382
   497.0000    216.0338    133.4997    -30.3158      4.4368      4.6289
   496.5000    214.9775    135.0089    -37.9124      4.4211      4.6516
   496.0000    209.7919    135.2926    -36.8114      4.6574      4.7666
   495.5000    199.4466    134.6494    -34.3348      5.0815      5.0139
   495.0000    186.8485    134.6248    -36.0598      5.5360      5.3519
   494.5000    175.4928    135.2850    -36.5381      5.9178      5.6982
   494.0000    166.5027    134.7044    -32.6420      6.1936      6.0059
   493.5000    159.9134    134.0869    -27.4296      6.3784      6.2534
   493.0000    155.5367    133.9785    -26.1501      6.5004      6.4293
   492.5000    152.3267    132.3776    -31.6578      6.5842      6.5648
   492.0000    149.4461    130.1988    -36.5140      6.6552      6.6914
   491.5000    146.8492    129.1093    -32.3398      6.7390      6.8097
   491.0000    144.6007    127.7300    -25.4184      6.8451      6.9156
   490.5000    142.6613    128.4927    -28.6301      6.9632      7.0096
   490.0000    141.1352    132.5666    -36.3435      7.0685      7.0854
   489.5000    140.3840    135.5763    -37.5443      7.1402      7.1233
   489.0000    140.5572    135.5040    -38.9348      7.1754      7.1145
   488.5000    141.3962    136.1429    -40.4311      7.1798      7.0723
   488.0000    142.5010    137.9199    -32.2223      7.1593      7.0175
   487.5000    143.7315    138.3810    -24.1182      7.1249      6.9574
   487.0000    145.1815    136.0962    -29.4386      7.0809      6.8879
   486.5000    147.2171    132.2368    -39.6354      7.0097      6.7927
   486.0000    150.6574    131.0760    -43.7178      6.8912      6.6376
   485.5000    156.2101    132.8087    -40.8929      6.7204      6.4016
   485.0000    163.1654    133.6357    -33.3426      6.5186      6.1287
   484.5000    169.5368    131.9915    -27.7962      6.3240      5.8984
   484.0000    173.9501    131.0416    -27.6068      6.1491      5.7488
   483.5000    176.2235    132.5917    -29.7900      5.9696      5.6746
   483.0000    176.8339    135.5212    -34.3933      5.7777      5.6550
   482.5000    176.4796    137.3723    -40.9456      5.6317      5.6664
   482.0000    175.1241    135.9265    -41.2839      5.6170      5.7102
   481.5000    171.7765    132.2391    -30.7254      5.7720      5.8215
   481.0000    166.1780    128.8827    -21.6343      6.0673      6.0176
   480.5000    159.2935    127.4256    -24.9999      6.4382      6.2777
   480.0000    152.4271    127.2301    -32.8296      6.8164      6.5605
   479.5000    146.3692    127.6699    -31.1338      7.1362      6.8320
   479.0000    141.8318    127.5689    -24.6965      7.3539      7.0506
   478.5000    139.0121    125.8575    -26.0125      7.4676      7.1936
   478.0000    137.4769    124.6263    -26.4813      7.5116      7.2739
   477.5000    136.4859    125.4011    -21.8612      7.5304      7.3268
   477.0000    135.4350    127.1735    -23.6216      7.5471      7.3836
   476.5000    134.1238    127.7905    -32.3901      7.5635      7.4558
   476.0000    132.8570    127.5346    -36.4149      7.5869      7.5269
   475.5000    131.9129    126.9487    -32.8156      7.6296      7.5808
   475.0000    131.2474    124.9091    -26.7665      7.6888      7.6192
   474.5000    130.6981    121.1288    -24.8691      7.7501      7.6512
   474.0000    130.1575    118.7662    -27.3722      7.8046      7.6830
   473.5000    129.4819    121.3487    -31.7044      7.8532      7.7231
   473.0000    128.6460    127.6377    -36.8821      7.8954      7.7733
   472.5000    127.7674    134.5869    -40.6528      7.9286      7.8267
   472.0000    127.1291    138.6372    -38.3974      7.9484      7.8660
   471.5000    126.8903    138.2583    -30.8425      7.9648      7.8808
