~Version Information
 VERS.                2.00:   CWLS log ASCII Standard -VERSION 2.00
 WRAP.                  NO:   One line per frame
~Well Information Block
#MNEM.UNIT              Data                Description
#--------- -------------------------------  -------------------------------
 STRT.F                          863.0000:   Starting Depth
 STOP.F                           -8.7500:   Ending Depth
 STEP.F                           -0.5000:   Level Spacing
 NULL.                          -999.2500:   Absent Value
 COMP.     FLUOR DANIEL (NPSOR), INC.    :   Company
 WELL.     47-1 X 11                     :   Well
 FLD .                                   :   Field
 LOC .                                   :   Location
 PROV.                                   :   Province
 SRVC.                                   :   Service Company
 LIC .                                   :   License Number
 DATE.                                   :   Log Date
 UWI .                                   :   Unique Well ID
~Curve Information Block
#MNEM.UNIT       API Codes    Curve Description
#---------    -------------   -------------------------------
 DEPT.F        0   0  0  0:   Depth
 CILD.MMHO     0   0  0  0:   Conductivity of Deep Induction
 GR  .API      0   0  0  0:   Gamma ray counts
 TEN .LBF      0   0  0  0:   Differential Tension
 RILM.OHMM     0   0  0  0:   Resistivity from CILM
 RILD.OHMM     0   0  0  0:   Resistivity from CILD
#  Curve Data
~A
# ...
    79.0000    209.0874    123.8337    -34.1432      5.0513      4.7827
    78.5000    216.2336    131.2918    -31.7551      4.9061      4.6246
    78.0000    226.2726    137.1262    -36.4164      4.6963      4.4194
    77.5000    242.1329    135.5204    -43.5647      4.4155      4.1300
    77.0000    264.7158    129.0822    -44.5541      4.1097      3.7776
    76.5000    288.9307    125.0122    -35.2720      3.8378      3.4610
    76.0000    307.0969    128.5584    -23.9697      3.6317      3.2563
    75.5000    315.9126    137.3963    -22.1125      3.4714      3.1654
    75.0000    317.9092    141.6201    -31.8460      3.3071      3.1456
    74.5000    317.9258    136.0566    -42.7637      3.1312      3.1454
    74.0000    318.0178    127.1942    -45.7003      3.0153      3.1445
    73.5000    315.4915    122.1202    -41.0933      3.0477      3.1697
    73.0000    306.0859    120.0635    -36.0632      3.2599      3.2671
    72.5000    289.6409    120.5413    -36.7244      3.5910      3.4526
    72.0000    271.2432    124.0881    -41.9134      3.9039      3.6867
    71.5000    256.5291    129.2513    -41.3123      4.0947      3.8982
    71.0000    247.8710    132.2018    -32.8351      4.1669      4.0344
    70.5000    244.3670    131.5411    -27.2829      4.1674      4.0922
    70.0000    243.5362    130.2219    -27.6745      4.1398      4.1062
    69.5000    243.0257    131.2906    -27.7147      4.1257      4.1148
    69.0000    241.4171    133.9336    -26.7927      4.1447      4.1422
    68.5000    238.8883    135.4417    -27.5821      4.1856      4.1861
    68.0000    236.1309    135.3766    -28.7109      4.2305      4.2349
    67.5000    233.2387    136.1176    -26.5506      4.2734      4.2875
    67.0000    230.4215    136.5167    -21.7575      4.3178      4.3399
    66.5000    228.5114    137.0211    -20.1129      4.3668      4.3761
    66.0000    229.0981    139.5394    -25.7893      4.4143      4.3649
    65.5000    230.5136    141.6447    -34.0737      4.4534      4.3381
    65.0000    227.0065    137.6484    -39.8309      4.4846      4.4052
    64.5000    218.2891    128.5688    -40.8340      4.5098      4.5811
    64.0000    210.0939    121.0445    -38.4657      4.5318      4.7598
    63.5000    205.3349    120.3383    -35.8982      4.5558      4.8701
    63.0000    213.3809    124.6555    -34.4693      4.5938      4.6865
    62.5000    240.5158    128.1548    -32.5954      4.7468      4.1577
    62.0000    268.2617    128.5796    -33.8419      5.0170      3.7277
    61.5000    274.9216    126.4458    -39.0174      4.9416      3.6374
    61.0000    268.3381    126.1303    -36.8498      4.5439      3.7266
    60.5000    263.3555    129.6922    -28.6349      4.4537      3.7971
    60.0000    260.8582    132.0742    -29.0882      4.7838      3.8335
    59.5000    243.9331    129.3806    -35.7109      5.0930      4.0995
    59.0000    196.0429    126.1500    -34.6965      4.7858      5.1009
    58.5000    180.3008    126.0128    -27.1801      3.9786      5.5463
    58.0000    261.8945    125.7622    -20.8102      3.3476      3.8183
    57.5000    394.3472    124.7494    -15.8695      3.0395      2.5358
    57.0000    505.6089    126.0333    -11.3506      2.5794      1.9778
    56.5000    528.8611    127.7637    -11.1319      2.1333      1.8909
    56.0000    303.1641    126.3190    -19.1522      2.5184      3.2985
    55.5000    -35.2123    122.2674    -34.1521      6.6528  10000.0000
    55.0000   -198.9885    114.4227    -47.2250  10000.0000  10000.0000
    54.5000   -171.7267     99.6335    -49.4261  10000.0000  10000.0000
    54.0000   -104.8302     85.0955    -39.1489  10000.0000  10000.0000
    53.5000    -69.8251     80.6754    -23.5237  10000.0000  10000.0000
    53.0000    -57.4160     82.7493    -12.3217  10000.0000  10000.0000
    52.5000    -23.2111     83.7015     -9.7765  10000.0000  10000.0000
    52.0000     52.3967     83.8647    -14.2011  10000.0000     19.0852
    51.5000    116.4729     84.8145    -23.3987  10000.0000      8.5857
    51.0000    125.2284     84.9272    -32.8165  10000.0000      7.9854
    50.5000    108.9220     81.5799    -33.5369  10000.0000      9.1809
    50.0000     91.0599     76.1008    -28.1436  10000.0000     10.9818
    49.5000     84.9026     71.4078    -26.3392  10000.0000     11.7782
    49.0000     97.5231     68.7922    -31.4034  10000.0000     10.2540
    48.5000    112.2065     66.2053    -38.6203  10000.0000      8.9121
    48.0000    110.3154     63.4783    -44.6380  10000.0000      9.0649
    47.5000     96.7451     62.8980    -44.4937  10000.0000     10.3364
    47.0000     82.3005     65.9416    -37.7633  10000.0000     12.1506
    46.5000     68.3490     69.6120    -30.9508  10000.0000     14.6308
    46.0000     54.5547     70.1382    -31.9625  10000.0000     18.3302
    45.5000     41.5455     68.3878    -40.7901  10000.0000     24.0700
    45.0000     33.9961     67.2560    -48.2400  10000.0000     29.4151
    44.5000     34.7528     66.3205    -44.4089  10000.0000     28.7747
    44.0000     40.7962     64.7433    -31.7651  10000.0000     24.5121
    43.5000     48.6277     62.7984    -22.9311  10000.0000     20.5644
    43.0000     55.8203     62.0792    -25.9320  10000.0000     17.9146
    42.5000     57.6293     63.5501    -38.1189  10000.0000     17.3523
    42.0000     51.7855     65.2460    -48.3367  10000.0000     19.3104
    41.5000     43.8514     64.4650    -50.9017  10000.0000     22.8043
    41.0000     41.6959     62.8202    -46.6873  10000.0000     23.9832
    40.5000     45.7553     63.8232    -38.9726  10000.0000     21.8554
    40.0000     49.8418     64.1558    -32.1729  10000.0000     20.0635
    39.5000     50.4047     60.8167    -33.0937  10000.0000     19.8394
    39.0000     51.6092     58.0974    -39.8001  10000.0000     19.3764
    38.5000     57.9310     59.3280    -41.7801  10000.0000     17.2619
    38.0000     65.2727     61.1927    -37.5132  10000.0000     15.3203
    37.5000     67.4422     60.1938    -35.9970  10000.0000     14.8275
    37.0000     65.8998     58.5864    -41.8048  10000.0000     15.1746
    36.5000     64.5872     59.2018    -47.5721  10000.0000     15.4829
    36.0000     61.5306     60.7963    -49.0477  10000.0000     16.2521
    35.5000     54.1349     60.7867    -49.8471  10000.0000     18.4724
    35.0000     44.7720     60.2018    -51.6030  10000.0000     22.3354
    34.5000     38.2206     61.6434    -49.5228  10000.0000     26.1639
    34.0000     36.9865     63.9159    -41.7765  10000.0000     27.0369
    33.5000     40.2232     64.6555    -33.7464  10000.0000     24.8613
    33.0000     46.3689     64.4636    -30.5012  10000.0000     21.5662
    32.5000     52.9732     64.6052    -34.1789  10000.0000     18.8775
    32.0000     56.7622     63.3059    -43.1947  10000.0000     17.6174
    31.5000     56.6158     59.9320    -49.4143  10000.0000     17.6629
    31.0000     58.1468     56.7424    -44.0438  10000.0000     17.1979
    30.5000     69.1564     57.1148    -35.8079  10000.0000     14.4600
    30.0000     89.5052     60.0402    -34.0844  10000.0000     11.1725
    29.5000    104.3474     61.6287    -39.5289  10000.0000      9.5834
    29.0000     96.5695     61.4036    -48.7829  10000.0000     10.3552
    28.5000     72.8811     61.4163    -53.6757  10000.0000     13.7210
    28.0000     56.7391     61.2764    -44.4653  10000.0000     17.6245
    27.5000     57.9404     61.4035    -29.8406  10000.0000     17.2591
    27.0000     65.5475     63.3181    -25.7560  10000.0000     15.2561
    26.5000     66.8666     65.2290    -35.6844  10000.0000     14.9551
    26.0000     62.0564     65.4852    -45.2004  10000.0000     16.1144
    25.5000     61.8276     66.0491    -42.0738  10000.0000     16.1740
    25.0000     73.1220     68.3257    -32.5664  10000.0000     13.6758
    24.5000     90.6712     72.1026    -29.9675  10000.0000     11.0289
    24.0000    106.0559     74.9801    -31.1716  10000.0000      9.4290
    23.5000    108.4775     75.0704    -25.7374  10000.0000      9.2185
