~Version Information
 VERS.                2.00:   CWLS log ASCII Standard -VERSION 2.00
 WRAP.                  NO:   One line per frame
~Well Information Block
#MNEM.UNIT              Data                Description
#--------- -------------------------------  -------------------------------
 STRT.F                          863.0000:   Starting Depth
 STOP.F                           -8.7500:   Ending Depth
 STEP.F                           -0.5000:   Level Spacing
 NULL.                          -999.2500:   Absent Value
 COMP.     FLUOR DANIEL (NPSOR), INC.    :   Company
 WELL.     47-1 X 11                     :   Well
 FLD .                                   :   Field
 LOC .                                   :   Location
 PROV.                                   :   Province
 SRVC.                                   :   Service Company
 LIC .                                   :   License Number
 DATE.                                   :   Log Date
 UWI .                                   :   Unique Well ID
~Curve Information Block
#MNEM.UNIT       API Codes    Curve Description
#---------    -------------   -------------------------------
 DEPT.F        0   0  0  0:   Depth
 CILD.MMHO     0   0  0  0:   Conductivity of Deep Induction
 GR  .API      0   0  0  0:   Gamma ray counts
 TEN .LBF      0   0  0  0:   Differential Tension
 RILM.OHMM     0   0  0  0:   Resistivity from CILM
 RILD.OHMM     0   0  0  0:   Resistivity from CILD
#  Curve Data
~A
# ...
   247.0000    165.1513    137.5470    -20.5143      6.2182      6.0551
   246.5000    164.9715    134.5792    -19.2275      6.2149      6.0617
   246.0000    163.7040    133.7237    -22.1134      6.2245      6.1086
   245.5000    162.0132    131.1564    -28.2348      6.2439      6.1723
   245.0000    160.3307    129.5810    -31.5361      6.2832      6.2371
   244.5000    158.5278    131.6173    -30.6708      6.3530      6.3080
   244.0000    156.3383    134.3933    -29.5820      6.4491      6.3964
   243.5000    153.7944    134.1649    -30.7473      6.5486      6.5022
   243.0000    151.6526    131.8924    -31.0237      6.6242      6.5940
   242.5000    150.7331    131.0435    -29.5219      6.6663      6.6342
   242.0000    151.0622    133.4435    -29.1272      6.6770      6.6198
   241.5000    152.2559    137.3736    -31.0179      6.6599      6.5679
   241.0000    154.0641    140.6784    -33.8114      6.6189      6.4908
   240.5000    156.1252    143.7576    -33.4673      6.5534      6.4051
   240.0000    158.0140    144.8647    -30.2743      6.4614      6.3286
   239.5000    159.5159    141.9297    -26.4295      6.3595      6.2690
   239.0000    160.5016    138.5330    -23.5774      6.2792      6.2305
   238.5000    161.0428    138.7166    -20.2953      6.2432      6.2095
   238.0000    161.3753    137.8164    -20.1962      6.2575      6.1967
   237.5000    161.5612    132.6993    -26.1730      6.3104      6.1896
   237.0000    161.6987    130.8297    -34.4241      6.3804      6.1843
   236.5000    161.8891    134.8022    -40.1819      6.4396      6.1771
   236.0000    161.9775    135.6964    -42.5100      6.4627      6.1737
   235.5000    161.4919    130.8442    -41.3092      6.4481      6.1923
   235.0000    159.5443    128.2870    -38.8899      6.4303      6.2679
   234.5000    155.1494    132.2804    -37.5525      6.4672      6.4454
   234.0000    148.1093    138.2256    -37.1651      6.6019      6.7518
   233.5000    139.4167    140.1235    -35.5474      6.8363      7.1727
   233.0000    130.1758    137.0698    -32.0104      7.1814      7.6819
   232.5000    120.6795    131.2540    -26.3807      7.7351      8.2864
   232.0000    110.5270    123.9851    -23.4554      8.6469      9.0476
   231.5000     99.7789    117.5148    -28.3955      9.9527     10.0222
   231.0000     90.0256    116.9131    -36.2065     11.3578     11.1079
   230.5000     82.3748    122.4768    -39.4646     12.4382     12.1396
   230.0000     77.6361    126.3637    -36.3819     12.9814     12.8806
   229.5000     75.4698    124.6091    -32.4172     13.1827     13.2503
   229.0000     74.8217    121.4334    -30.3417     13.2806     13.3651
   228.5000     74.5996    119.7350    -32.7912     13.3560     13.4049
   228.0000     74.0713    118.0395    -34.9582     13.4315     13.5005
   227.5000     73.1075    116.6968    -35.1070     13.5282     13.6785
   227.0000     71.9861    118.0118    -36.0851     13.6337     13.8916
   226.5000     70.9983    119.6681    -39.8867     13.7430     14.0848
   226.0000     70.2147    118.9800    -43.0910     13.8853     14.2420
   225.5000     69.5241    119.5081    -42.6076     14.0632     14.3835
   225.0000     68.7928    121.7695    -39.9965     14.2524     14.5364
   224.5000     68.0371    118.9409    -36.6305     14.4601     14.6979
   224.0000     67.2527    110.8694    -35.3663     14.7121     14.8693
   223.5000     66.1578    104.3750    -35.4001     14.9951     15.1154
   223.0000     64.5624    101.6086    -34.2387     15.2753     15.4889
   222.5000     62.8117    102.0822    -30.6293     15.5232     15.9206
   222.0000     61.4788    106.3833    -30.1004     15.7294     16.2658
   221.5000     60.7585    108.5032    -33.5006     15.9159     16.4586
   221.0000     60.4437    105.7065    -34.7328     16.0963     16.5443
   220.5000     60.3962    101.4064    -31.4736     16.2066     16.5573
   220.0000     60.7897     99.9833    -29.3041     16.1840     16.4502
   219.5000     61.7333    100.9330    -31.3680     16.0798     16.1987
   219.0000     62.9607    104.4911    -35.4971     15.9534     15.8829
   218.5000     64.2024    110.1946    -37.6077     15.7550     15.5757
   218.0000     65.5869    114.8566    -35.4535     15.4255     15.2469
   217.5000     67.2416    116.3667    -31.8045     15.0278     14.8717
   217.0000     68.9192    114.7332    -30.5522     14.6650     14.5097
   216.5000     70.2833    111.7613    -33.1785     14.3787     14.2281
   216.0000     71.2858    110.4001    -37.7919     14.1599     14.0280
   215.5000     72.0734    111.2764    -41.3928     13.9710     13.8747
   215.0000     72.7725    109.9612    -42.7775     13.7902     13.7415
   214.5000     73.4400    105.5813    -44.4376     13.6198     13.6166
   214.0000     73.9984    102.3649    -45.5173     13.4712     13.5138
   213.5000     74.3919    103.1378    -45.5371     13.3426     13.4423
   213.0000     74.6758    106.3817    -45.1790     13.2295     13.3912
   212.5000     75.1328    109.3760    -43.8017     13.1273     13.3098
   212.0000     75.9650    111.4318    -41.4388     13.0328     13.1640
   211.5000     77.0728    113.7431    -41.0039     12.9318     12.9747
   211.0000     78.2194    115.3026    -41.9808     12.8041     12.7845
   210.5000     79.3144    113.1784    -40.1911     12.6472     12.6081
   210.0000     80.4535    109.3339    -32.4300     12.4712     12.4295
   209.5000     81.6756    109.9113    -24.5461     12.2880     12.2436
   209.0000     82.9747    114.5192    -26.9080     12.1136     12.0519
   208.5000     84.2739    116.0368    -38.5261     11.9642     11.8661
   208.0000     85.4727    112.7948    -48.2794     11.8493     11.6996
   207.5000     86.4834    109.2335    -50.6425     11.7656     11.5629
   207.0000     87.2640    106.3678    -50.9984     11.6974     11.4595
   206.5000     87.7395    103.3679    -51.8719     11.6229     11.3974
   206.0000     87.9297    101.7230    -51.7457     11.5371     11.3727
   205.5000     88.0964    103.3426    -49.8611     11.4535     11.3512
   205.0000     88.6891    107.1075    -47.6080     11.3800     11.2753
   204.5000     90.1568    109.2715    -43.6168     11.2939     11.0918
   204.0000     92.6828    107.4991    -37.6016     11.1327     10.7895
   203.5000     95.9282    105.3296    -31.3247     10.8666     10.4245
   203.0000     99.3465    105.3821    -26.7918     10.5620     10.0658
   202.5000    102.5167    105.9304    -23.9462     10.3132      9.7545
   202.0000    105.0271    106.7705    -22.5609     10.1342      9.5214
   201.5000    107.2836    107.3939    -28.1448      9.9408      9.3211
   201.0000    110.9185    106.7922    -44.0344      9.6147      9.0156
   200.5000    117.9543    106.5484    -57.1381      9.1227      8.4779
   200.0000    129.6763    108.0925    -52.0211      8.5099      7.7115
   199.5000    145.7277    109.7005    -34.8697      7.8297      6.8621
   199.0000    162.8499    110.2441    -22.1985      7.1589      6.1406
   198.5000    175.3392    115.3891    -18.7569      6.5967      5.7032
   198.0000    178.6081    129.7368    -20.2700      6.1619      5.5988
   197.5000    173.7229    144.5518    -22.4212      5.7692      5.7563
   197.0000    165.5611    146.0378    -28.2442      5.3971      6.0401
   196.5000    157.2866    134.4986    -37.4549      5.2090      6.3578
   196.0000    147.4187    120.4918    -39.2809      5.4390      6.7834
   195.5000    132.6442    110.2387    -32.2217      6.2798      7.5390
   195.0000    113.5526    102.3141    -29.9671      7.8262      8.8065
   194.5000     95.5302     95.4982    -37.9222      9.8828     10.4679
   194.0000     83.4003     93.7039    -47.4122     11.7230     11.9904
   193.5000     77.9288     97.3686    -53.1932     12.5824     12.8322
   193.0000     80.6377    100.8600    -55.5783     12.1321     12.4011
   192.5000     95.2676    101.8876    -58.6872     10.7037     10.4967
   192.0000    126.6087    103.2201    -61.8031      8.8057      7.8983
   191.5000    174.8509    107.1827    -59.0331      6.9236      5.7192
