~Version Information
 VERS.                2.00:   CWLS log ASCII Standard -VERSION 2.00
 WRAP.                  NO:   One line per frame
~Well Information Block
#MNEM.UNIT              Data                Description
#--------- -------------------------------  -------------------------------
 STRT.F                          863.0000:   Starting Depth
 STOP.F                           -8.7500:   Ending Depth
 STEP.F                           -0.5000:   Level Spacing
 NULL.                          -999.2500:   Absent Value
 COMP.     FLUOR DANIEL (NPSOR), INC.    :   Company
 WELL.     47-1 X 11                     :   Well
 FLD .                                   :   Field
 LOC .                                   :   Location
 PROV.                                   :   Province
 SRVC.                                   :   Service Company
 LIC .                                   :   License Number
 DATE.                                   :   Log Date
 UWI .                                   :   Unique Well ID
~Curve Information Block
#MNEM.UNIT       API Codes    Curve Description
#---------    -------------   -------------------------------
 DEPT.F        0   0  0  0:   Depth
 CILD.MMHO     0   0  0  0:   Conductivity of Deep Induction
 GR  .API      0   0  0  0:   Gamma ray counts
 TEN .LBF      0   0  0  0:   Differential Tension
 RILM.OHMM     0   0  0  0:   Resistivity from CILM
 RILD.OHMM     0   0  0  0:   Resistivity from CILD
#  Curve Data
~A
# ...
   303.0000    125.7789    132.4906    -37.0465      8.0402      7.9505
   302.5000    126.2633    131.7445    -35.9372      8.0171      7.9200
   302.0000    126.8332    134.7416    -31.8286      7.9945      7.8844
   301.5000    127.2681    136.8977    -30.0797      7.9783      7.8574
   301.0000    127.5305    135.4486    -31.8078      7.9695      7.8413
   300.5000    127.7471    134.4187    -32.2031      7.9547      7.8280
   300.0000    128.1438    135.4756    -30.1517      7.9136      7.8037
   299.5000    129.0220    133.4916    -29.9223      7.8483      7.7506
   299.0000    130.6771    126.8405    -31.6596      7.7839      7.6525
   298.5000    132.8700    121.4701    -31.2832      7.7478      7.5262
   298.0000    135.0780    121.5356    -33.0962      7.7385      7.4031
   297.5000    137.2417    125.9411    -34.5562      7.6947      7.2864
   297.0000    139.7775    133.9446    -30.0455      7.5461      7.1542
   296.5000    142.8630    141.3875    -25.9268      7.3177      6.9997
   296.0000    146.0760    142.6706    -27.8346      7.0994      6.8457
   295.5000    148.7453    138.9354    -31.7709      6.9408      6.7229
   295.0000    150.4446    136.4420    -33.4070      6.8362      6.6470
   294.5000    151.0111    136.0895    -34.5772      6.7804      6.6220
   294.0000    150.3584    134.3773    -34.9875      6.7834      6.6508
   293.5000    148.4994    131.8380    -36.1831      6.8490      6.7340
   293.0000    145.5354    132.0367    -36.5116      6.9665      6.8712
   292.5000    141.7340    134.9352    -33.1587      7.1219      7.0555
   292.0000    137.5300    138.2166    -27.5378      7.3115      7.2711
   291.5000    133.3425    139.4633    -23.1833      7.5296      7.4995
   291.0000    129.4978    139.8747    -23.2706      7.7585      7.7221
   290.5000    126.5072    141.3830    -29.0287      7.9747      7.9047
   290.0000    124.8493    142.6711    -32.9995      8.1552      8.0097
   289.5000    124.6107    142.4531    -30.1923      8.2632      8.0250
   289.0000    125.5776    141.5130    -26.8562      8.2571      7.9632
   288.5000    127.6486    138.9636    -29.3602      8.1354      7.8340
   288.0000    130.7674    133.5496    -32.9894      7.9440      7.6472
   287.5000    134.5242    128.5219    -33.9072      7.7388      7.4336
   287.0000    138.2525    127.5128    -32.0717      7.5572      7.2331
   286.5000    141.4696    130.5276    -31.2890      7.4013      7.0687
   286.0000    143.9547    132.8496    -30.0660      7.2443      6.9466
   285.5000    145.8277    132.7682    -27.9078      7.0857      6.8574
   285.0000    147.4037    133.6648    -26.7518      6.9674      6.7841
   284.5000    148.4306    134.9915    -28.5056      6.9184      6.7372
   284.0000    148.2525    134.4675    -29.0387      6.9268      6.7452
   283.5000    146.8774    132.8882    -30.4381      6.9691      6.8084
   283.0000    144.9827    131.5247    -34.9835      7.0300      6.8974
   282.5000    143.1218    132.7829    -38.5251      7.1040      6.9871
   282.0000    141.2709    136.6110    -37.9228      7.1951      7.0786
   281.5000    139.2029    138.8885    -35.9619      7.3042      7.1838
   281.0000    137.0979    139.5111    -34.6340      7.4215      7.2941
   280.5000    135.4297    142.0289    -33.4201      7.5395      7.3839
   280.0000    134.2496    144.7315    -28.1591      7.6527      7.4488
   279.5000    133.2908    146.2893    -23.8659      7.7456      7.5024
   279.0000    132.5854    147.7864    -26.7516      7.7919      7.5423
   278.5000    132.3930    146.3494    -31.3186      7.7693      7.5533
   278.0000    133.0416    143.4266    -28.7081      7.6771      7.5164
   277.5000    134.6471    144.9951    -25.5566      7.5531      7.4268
   277.0000    137.0112    149.7711    -28.4663      7.4422      7.2987
   276.5000    139.6583    149.2487    -30.9233      7.3547      7.1603
   276.0000    142.1257    143.3644    -28.2927      7.2636      7.0360
   275.5000    144.1894    141.6748    -29.6189      7.1396      6.9353
   275.0000    146.0453    147.6438    -34.9771      6.9836      6.8472
   274.5000    147.8605    153.1548    -36.7476      6.8293      6.7631
   274.0000    149.2623    152.5709    -34.3036      6.7174      6.6996
   273.5000    149.9460    148.4503    -30.1090      6.6663      6.6691
   273.0000    149.9944    144.2598    -23.8458      6.6705      6.6669
   272.5000    149.5190    140.3844    -19.2162      6.7169      6.6881
   272.0000    148.6397    135.5921    -19.4242      6.7950      6.7277
   271.5000    147.5235    131.0719    -19.6850      6.8906      6.7786
   271.0000    146.2659    130.8343    -19.0320      6.9847      6.8369
   270.5000    144.9544    132.9765    -19.4935      7.0645      6.8987
   270.0000    143.5271    133.5920    -24.9621      7.1309      6.9673
   269.5000    141.8390    135.6564    -31.5092      7.1866      7.0502
   269.0000    139.9992    140.5649    -32.7424      7.2306      7.1429
   268.5000    138.1550    146.7063    -30.4585      7.2710      7.2382
   268.0000    136.3750    152.0650    -31.8999      7.3303      7.3327
   267.5000    134.7335    152.6192    -34.7337      7.4318      7.4221
   267.0000    133.0062    148.1501    -31.7349      7.5823      7.5184
   266.5000    131.0430    144.1415    -27.3698      7.7576      7.6311
   266.0000    129.2381    143.7946    -28.8100      7.9138      7.7377
   265.5000    127.9976    144.9852    -32.5743      8.0182      7.8126
   265.0000    127.4606    145.1629    -32.5783      8.0550      7.8456
   264.5000    128.0539    141.6826    -27.4046      8.0171      7.8092
   264.0000    130.0817    135.8836    -23.8726      7.9222      7.6875
   263.5000    132.9231    132.9566    -28.6380      7.8242      7.5231
   263.0000    135.4795    134.5288    -36.4509      7.7612      7.3812
   262.5000    137.2406    135.1338    -37.4012      7.7069      7.2865
   262.0000    138.5097    133.5868    -32.7262      7.6025      7.2197
   261.5000    139.6124    133.1761    -26.9687      7.4408      7.1627
   261.0000    140.5669    134.6956    -21.3149      7.2765      7.1140
   260.5000    141.2601    135.2259    -20.1806      7.1729      7.0791
   260.0000    141.3989    134.6474    -23.7290      7.1589      7.0722
   259.5000    140.5055    133.6775    -27.8804      7.2178      7.1172
   259.0000    138.5586    132.7857    -28.6181      7.3064      7.2172
   258.5000    136.4128    132.2718    -28.1481      7.3915      7.3307
   258.0000    134.8374    136.1306    -28.9201      7.4681      7.4163
   257.5000    133.8407    143.0694    -30.6430      7.5468      7.4716
   257.0000    132.9855    144.2612    -31.3610      7.6304      7.5196
   256.5000    132.0037    138.7155    -29.9403      7.7083      7.5755
   256.0000    130.9576    134.6641    -30.2749      7.7573      7.6361
   255.5000    130.3664    134.5916    -32.0134      7.7552      7.6707
   255.0000    130.8644    137.1245    -32.7777      7.6963      7.6415
   254.5000    132.4957    140.0900    -31.2180      7.6059      7.5474
   254.0000    134.7716    140.4138    -29.7375      7.5223      7.4200
   253.5000    137.2457    139.7727    -26.8830      7.4512      7.2862
   253.0000    139.6648    143.0886    -23.4972      7.3627      7.1600
   252.5000    141.9146    148.3581    -22.2793      7.2412      7.0465
   252.0000    144.1400    151.1374    -24.0611      7.1021      6.9377
   251.5000    146.7083    149.2833    -28.8439      6.9590      6.8162
   251.0000    149.7789    146.4403    -32.2101      6.8215      6.6765
   250.5000    153.1119    147.6869    -30.7062      6.7074      6.5312
   250.0000    156.1276    150.7221    -26.6381      6.6287      6.4050
   249.5000    158.3102    151.6808    -23.4103      6.5722      6.3167
   249.0000    159.7192    151.2154    -22.6340      6.5061      6.2610
   248.5000    161.0180    150.8422    -22.9570      6.4154      6.2105
   248.0000    162.5812    148.6542    -23.7302      6.3195      6.1508
   247.5000    164.1659    143.5790    -22.6749      6.2496      6.0914
