~Version Information
 VERS.                2.00:   CWLS log ASCII Standard -VERSION 2.00
 WRAP.                  NO:   One line per frame
~Well Information Block
#MNEM.UNIT              Data                Description
#--------- -------------------------------  -------------------------------
 STRT.F                          863.0000:   Starting Depth
 STOP.F                           -8.7500:   Ending Depth
 STEP.F                           -0.5000:   Level Spacing
 NULL.                          -999.2500:   Absent Value
 COMP.     FLUOR DANIEL (NPSOR), INC.    :   Company
 WELL.     47-1 X 11                     :   Well
 FLD .                                   :   Field
 LOC .                                   :   Location
 PROV.                                   :   Province
 SRVC.                                   :   Service Company
 LIC .                                   :   License Number
 DATE.                                   :   Log Date
 UWI .                                   :   Unique Well ID
~Curve Information Block
#MNEM.UNIT       API Codes    Curve Description
#---------    -------------   -------------------------------
 DEPT.F        0   0  0  0:   Depth
 CILD.MMHO     0   0  0  0:   Conductivity of Deep Induction
 GR  .API      0   0  0  0:   Gamma ray counts
 TEN .LBF      0   0  0  0:   Differential Tension
 RILM.OHMM     0   0  0  0:   Resistivity from CILM
 RILD.OHMM     0   0  0  0:   Resistivity from CILD
#  Curve Data
~A
# ...
   359.0000    123.7548    133.4332    -27.1502      8.2626      8.0805
   358.5000    125.7113    136.7930    -24.6431      8.1743      7.9547
   358.0000    128.0488    137.5868    -28.0298      8.0779      7.8095
   357.5000    130.4815    137.9560    -32.6530      7.9894      7.6639
   357.0000    132.8020    142.1696    -35.3135      7.8788      7.5300
   356.5000    134.7889    149.1695    -36.3176      7.7178      7.4190
   356.0000    136.3271    153.2772    -35.3510      7.5273      7.3353
   355.5000    137.2814    155.2540    -29.8098      7.3676      7.2843
   355.0000    137.2249    158.6867    -20.8724      7.2923      7.2873
   354.5000    135.8003    159.7979    -19.4678      7.3149      7.3638
   354.0000    133.1753    155.7131    -28.9006      7.4150      7.5089
   353.5000    129.9619    153.3983    -38.1592      7.5766      7.6946
   353.0000    126.5378    154.3202    -40.1700      7.7982      7.9028
   352.5000    123.0917    152.7505    -34.2533      8.0668      8.1240
   352.0000    119.9110    150.6270    -27.7532      8.3453      8.3395
   351.5000    117.1402    151.0739    -28.0826      8.5947      8.5368
   351.0000    114.7255    148.8884    -31.5251      8.7907      8.7165
   350.5000    112.8248    144.4492    -29.7198      8.9200      8.8633
   350.0000    111.7199    143.1446    -25.8341      8.9882      8.9510
   349.5000    111.3705    143.2018    -24.6053      9.0288      8.9790
   349.0000    111.3176    141.5175    -28.5117      9.0842      8.9833
   348.5000    111.0633    141.2798    -35.3196      9.1647      9.0039
   348.0000    110.6401    142.9164    -38.4965      9.2467      9.0383
   347.5000    110.3944    143.1257    -36.8507      9.2948      9.0584
   347.0000    110.3016    140.2950    -35.3041      9.2935      9.0661
   346.5000    110.2013    137.1221    -34.9127      9.2638      9.0743
   346.0000    110.0772    135.6343    -33.1370      9.2338      9.0845
   345.5000    109.7955    137.0372    -30.0764      9.2117      9.1078
   345.0000    109.2661    140.6712    -25.2668      9.2193      9.1520
   344.5000    108.4231    144.9557    -20.4127      9.3012      9.2231
   344.0000    106.7762    145.7650    -18.1960      9.4723      9.3654
   343.5000    104.1019    142.3088    -19.3898      9.6945      9.6060
   343.0000    101.0178    139.7888    -22.3632      9.9253      9.8992
   342.5000     98.2876    143.0559    -25.0978     10.1583     10.1742
   342.0000     95.9819    147.3516    -23.3099     10.4036     10.4186
   341.5000     94.0090    146.7591    -16.6313     10.6594     10.6373
   341.0000     92.4066    144.3812    -11.2768     10.9080     10.8217
   340.5000     91.3084    143.7498    -12.9000     11.1191     10.9519
   340.0000     90.7824    141.6971    -18.4980     11.2752     11.0154
   339.5000     90.6575    138.0330    -21.9957     11.3830     11.0305
   339.0000     90.7957    137.5591    -22.0829     11.4300     11.0137
   338.5000     91.2101    139.5273    -23.7558     11.4035     10.9637
   338.0000     91.6302    140.1847    -24.0990     11.3419     10.9134
   337.5000     91.6638    140.0438    -18.9878     11.2992     10.9094
   337.0000     91.3056    140.2814    -15.9588     11.2919     10.9522
   336.5000     90.7458    138.9793    -19.8851     11.3146     11.0198
   336.0000     89.9386    134.2466    -23.8766     11.3719     11.1187
   335.5000     89.0966    128.9961    -23.0257     11.4798     11.2238
   335.0000     88.5066    129.2167    -21.2536     11.6462     11.2986
   334.5000     88.0675    133.4626    -20.1443     11.8481     11.3549
   334.0000     87.4911    133.8250    -16.6377     12.0511     11.4297
   333.5000     86.8468    132.6006    -14.1154     12.1982     11.5145
   333.0000     86.4751    135.9299    -19.0884     12.2317     11.5640
   332.5000     86.6618    141.1910    -28.5453     12.1505     11.5391
   332.0000     87.3837    144.6015    -30.6424     12.0177     11.4438
   331.5000     88.3458    145.0655    -24.4454     11.9026     11.3192
   331.0000     89.2184    142.4877    -19.6139     11.8353     11.2085
   330.5000     89.8504    139.1696    -21.5199     11.7847     11.1296
   330.0000     90.5247    137.7755    -25.1854     11.6960     11.0467
   329.5000     91.8413    138.7322    -22.5621     11.5606     10.8883
   329.0000     93.9938    141.9698    -16.0217     11.3746     10.6390
   328.5000     96.6723    146.9249    -14.3139     11.0963     10.3442
   328.0000     99.5838    151.1978    -14.6397     10.7184     10.0418
   327.5000    102.8278    154.5734    -10.9821     10.3157      9.7250
   327.0000    106.3197    155.2573     -9.8628      9.9469      9.4056
   326.5000    109.8940    153.7999    -16.7421      9.5951      9.0997
   326.0000    113.1267    150.9720    -21.5912      9.2522      8.8396
   325.5000    115.4488    149.7221    -20.5759      8.9553      8.6618
   325.0000    116.7147    149.0821    -17.6403      8.7480      8.5679
   324.5000    117.4273    147.6653    -15.6377      8.6376      8.5159
   324.0000    118.2244    145.6840    -14.2603      8.6005      8.4585
   323.5000    119.2094    144.4586    -13.8824      8.6040      8.3886
   323.0000    120.1387    143.2351    -16.9659      8.6172      8.3237
   322.5000    120.9014    141.5168    -19.8482      8.6132      8.2712
   322.0000    121.5930    139.4583    -19.0555      8.5787      8.2242
   321.5000    122.3713    136.5050    -20.0120      8.5140      8.1719
   321.0000    123.3441    135.5073    -27.5830      8.4170      8.1074
   320.5000    124.6146    138.7662    -34.4342      8.2780      8.0247
   320.0000    126.3029    142.4639    -36.6436      8.1080      7.9175
   319.5000    128.2715    142.6946    -38.2446      7.9508      7.7960
   319.0000    129.9610    139.8104    -37.6806      7.8457      7.6946
   318.5000    130.9360    137.4078    -30.5027      7.8007      7.6373
   318.0000    131.2173    136.1784    -23.4835      7.7895      7.6209
   317.5000    130.9591    135.8910    -22.9131      7.7766      7.6360
   317.0000    130.2624    135.9355    -25.3312      7.7536      7.6768
   316.5000    129.5142    134.8889    -26.0839      7.7500      7.7212
   316.0000    129.2739    131.7985    -26.8257      7.7844      7.7355
   315.5000    129.7333    126.8867    -27.7138      7.8330      7.7081
   315.0000    130.5704    124.0473    -28.4257      7.8824      7.6587
   314.5000    131.3837    125.8906    -28.0088      7.9605      7.6113
   314.0000    131.8446    131.1265    -27.9301      8.0573      7.5847
   313.5000    131.9440    136.4968    -31.9481      8.0690      7.5790
   313.0000    132.4140    139.9308    -35.6005      7.9238      7.5521
   312.5000    134.0284    140.0076    -35.5438      7.6979      7.4611
   312.0000    136.3134    138.0363    -32.2315      7.5073      7.3360
   311.5000    138.1501    136.0922    -27.7303      7.3958      7.2385
   311.0000    139.1726    133.9291    -23.5982      7.3529      7.1853
   310.5000    139.6985    131.8704    -25.1945      7.3496      7.1583
   310.0000    139.9077    131.0228    -32.3160      7.3542      7.1476
   309.5000    139.9527    131.1496    -36.7278      7.3617      7.1453
   309.0000    139.9792    132.3441    -33.9794      7.3826      7.1439
   308.5000    139.8659    135.8957    -30.5808      7.4047      7.1497
   308.0000    139.3011    140.3727    -28.6310      7.4115      7.1787
   307.5000    138.1958    143.1596    -26.6457      7.4120      7.2361
   307.0000    136.7955    143.2184    -28.1167      7.4295      7.3102
   306.5000    135.2551    141.3827    -31.9185      7.4769      7.3934
   306.0000    133.3735    138.0946    -33.2361      7.5591      7.4977
   305.5000    131.1847    133.3909    -34.2515      7.6707      7.6228
   305.0000    129.1956    128.9576    -35.2409      7.7944      7.7402
   304.5000    127.6390    127.3945    -33.6113      7.9104      7.8346
   304.0000    126.4206    130.4484    -33.2886      7.9998      7.9101
   303.5000    125.7463    133.3954    -35.8259      8.0433      7.9525
