~Version Information
 VERS.                2.00:   CWLS log ASCII Standard -VERSION 2.00
 WRAP.                  NO:   One line per frame
~Well Information Block
#MNEM.UNIT              Data                Description
#--------- -------------------------------  -------------------------------
 STRT.F                          863.0000:   Starting Depth
 STOP.F                           -8.7500:   Ending Depth
 STEP.F                           -0.5000:   Level Spacing
 NULL.                          -999.2500:   Absent Value
 COMP.     FLUOR DANIEL (NPSOR), INC.    :   Company
 WELL.     47-1 X 11                     :   Well
 FLD .                                   :   Field
 LOC .                                   :   Location
 PROV.                                   :   Province
 SRVC.                                   :   Service Company
 LIC .                                   :   License Number
 DATE.                                   :   Log Date
 UWI .                                   :   Unique Well ID
~Curve Information Block
#MNEM.UNIT       API Codes    Curve Description
#---------    -------------   -------------------------------
 DEPT.F        0   0  0  0:   Depth
 CILD.MMHO     0   0  0  0:   Conductivity of Deep Induction
 GR  .API      0   0  0  0:   Gamma ray counts
 TEN .LBF      0   0  0  0:   Differential Tension
 RILM.OHMM     0   0  0  0:   Resistivity from CILM
 RILD.OHMM     0   0  0  0:   Resistivity from CILD
#  Curve Data
~A
# ...
   191.0000    235.3274    114.4892    -51.4559      5.3840      4.2494
   190.5000    304.1270    124.6878    -45.6551      4.2118      3.2881
   190.0000    373.4146    136.2944    -43.4735      3.3268      2.6780
   189.5000    439.4033    143.6512    -41.4245      2.6471      2.2758
   189.0000    502.7402    143.8108    -38.1213      2.1394      1.9891
   188.5000    553.3955    142.9059    -37.5418      1.8269      1.8070
   188.0000    580.3789    146.7627    -42.7860      1.6765      1.7230
   187.5000    576.0034    149.4589    -46.7711      1.6547      1.7361
   187.0000    542.7993    144.9277    -41.5148      1.7306      1.8423
   186.5000    490.6553    132.5107    -30.2740      1.9054      2.0381
   186.0000    429.2876    118.5547    -22.3812      2.2126      2.3294
   185.5000    365.0232    111.0920    -21.4931      2.7158      2.7396
   185.0000    299.7937    112.3739    -26.1681      3.4501      3.3356
   184.5000    241.5777    115.1986    -32.0183      4.3946      4.1395
   184.0000    199.5221    115.4586    -35.0771      5.3273      5.0120
   183.5000    172.8504    115.5846    -34.9862      5.9813      5.7853
   183.0000    158.9514    117.3967    -37.0883      6.3256      6.2912
   182.5000    152.3634    119.5477    -44.1042      6.4780      6.5633
   182.0000    147.9752    119.7178    -50.9524      6.5520      6.7579
   181.5000    144.0887    117.7995    -54.2949      6.5883      6.9402
   181.0000    141.7993    116.2959    -53.8724      6.5965      7.0522
   180.5000    141.7006    117.4747    -50.1792      6.5999      7.0571
   180.0000    142.8037    118.8991    -42.9510      6.6225      7.0026
   179.5000    144.2469    119.0029    -36.4451      6.6630      6.9326
   179.0000    146.2117    118.6098    -33.1992      6.6903      6.8394
   178.5000    149.1314    117.7986    -30.2578      6.6726      6.7055
   178.0000    153.2621    117.6661    -23.5210      6.6110      6.5248
   177.5000    158.2502    119.7106    -20.8919      6.5225      6.3191
   177.0000    163.2290    122.8570    -29.7299      6.4110      6.1264
   176.5000    167.4293    125.5509    -44.0142      6.2850      5.9727
   176.0000    170.8410    127.4340    -49.7861      6.1627      5.8534
   175.5000    173.5663    128.8972    -44.3110      6.0406      5.7615
   175.0000    175.6073    131.8440    -36.1306      5.9113      5.6945
   174.5000    177.2626    135.2674    -32.9809      5.7948      5.6413
   174.0000    178.6529    136.8636    -33.1709      5.7192      5.5974
   173.5000    179.2668    136.6728    -36.0117      5.6937      5.5783
   173.0000    178.7440    135.6438    -42.8369      5.7183      5.5946
   172.5000    177.4865    133.7217    -52.1166      5.7817      5.6342
   172.0000    175.8821    132.1149    -57.8841      5.8571      5.6856
   171.5000    173.9774    130.5310    -55.9666      5.9220      5.7479
   171.0000    171.8620    130.0848    -50.7965      5.9743      5.8186
   170.5000    169.8693    131.4762    -49.8626      6.0159      5.8869
   170.0000    168.5442    133.7222    -52.0730      6.0468      5.9332
   169.5000    167.9727    137.1975    -51.6130      6.0751      5.9533
   169.0000    167.4642    139.4261    -48.4005      6.1079      5.9714
   168.5000    166.4438    137.2558    -43.0083      6.1340      6.0080
   168.0000    165.3052    134.9138    -35.3260      6.1379      6.0494
   167.5000    164.6902    134.9024    -27.9063      6.1259      6.0720
   167.0000    164.5537    132.0001    -27.5973      6.1181      6.0770
   166.5000    164.3466    126.5579    -35.9226      6.1279      6.0847
   166.0000    163.5812    124.4598    -47.9012      6.1595      6.1132
   165.5000    162.3075    125.1447    -56.9655      6.2062      6.1611
   165.0000    160.9142    125.0713    -58.3322      6.2475      6.2145
   164.5000    160.0271    123.7913    -54.7332      6.2591      6.2489
   164.0000    160.7142    121.6641    -52.2880      6.2262      6.2222
   163.5000    163.7834    118.9333    -51.7466      6.1466      6.1056
   163.0000    168.8163    117.1197    -47.9250      6.0234      5.9236
   162.5000    174.7405    117.2071    -39.1431      5.8512      5.7228
   162.0000    181.0136    120.7968    -30.4543      5.6229      5.5244
   161.5000    187.4940    126.5005    -27.2103      5.3653      5.3335
   161.0000    193.8155    128.1593    -30.5296      5.1378      5.1595
   160.5000    199.1650    124.6070    -37.7556      4.9792      5.0210
   160.0000    203.3944    122.6956    -44.4303      4.8800      4.9166
   159.5000    208.4928    125.0094    -46.9981      4.8025      4.7963
   159.0000    218.0172    127.8612    -46.1456      4.6940      4.5868
   158.5000    235.2056    128.1528    -41.5514      4.5049      4.2516
   158.0000    262.6157    126.0346    -34.2713      4.2091      3.8078
   157.5000    298.9529    124.2466    -25.8121      3.8435      3.3450
   157.0000    336.0261    126.9115    -16.2263      3.4829      2.9760
   156.5000    367.0610    133.5563    -11.2688      3.1576      2.7243
   156.0000    390.9392    138.8626    -17.7775      2.8439      2.5579
   155.5000    410.6096    140.1786    -28.8866      2.5454      2.4354
   155.0000    427.3792    140.2317    -30.6760      2.3115      2.3398
   154.5000    437.1919    140.6804    -20.9672      2.2126      2.2873
   154.0000    433.5923    139.7250     -9.4465      2.2558      2.3063
   153.5000    415.3328    135.5546     -2.6273      2.4075      2.4077
   153.0000    388.1548    130.6252     -0.1531      2.6105      2.5763
   152.5000    359.2368    128.9479     -2.0691      2.8180      2.7837
   152.0000    333.6150    129.6814     -8.4339      3.0051      2.9975
   151.5000    313.7905    128.9545    -16.1836      3.1605      3.1868
   151.0000    299.3308    126.3007    -22.6383      3.2945      3.3408
   150.5000    287.8938    123.5462    -27.0126      3.4247      3.4735
   150.0000    277.6396    122.0981    -30.5116      3.5548      3.6018
   149.5000    269.2124    122.2543    -33.1538      3.6686      3.7145
   149.0000    265.4473    122.4282    -35.5718      3.7370      3.7672
   148.5000    269.6506    122.1069    -36.0568      3.7316      3.7085
   148.0000    284.7859    120.8240    -33.7016      3.6345      3.5114
   147.5000    311.3865    118.7022    -28.0871      3.4545      3.2114
   147.0000    344.3542    117.5471    -21.9100      3.2345      2.9040
   146.5000    375.7646    121.0974    -22.0536      3.0140      2.6612
   146.0000    401.7869    127.8987    -27.6708      2.7901      2.4889
   145.5000    423.7351    131.3748    -30.3466      2.5478      2.3600
   145.0000    443.8547    126.5945    -25.9064      2.3056      2.2530
   144.5000    461.9702    117.4135    -17.2859      2.1407      2.1646
   144.0000    471.2883    113.2987    -10.5289      2.0945      2.1218
   143.5000    464.4294    116.4543    -14.1215      2.1624      2.1532
   143.0000    441.8113    120.7619    -25.3184      2.3105      2.2634
   142.5000    412.1729    122.0584    -31.5233      2.4898      2.4262
   142.0000    383.7266    121.3125    -25.6032      2.6492      2.6060
   141.5000    362.9043    119.9100    -13.0549      2.7886      2.7555
   141.0000    351.1946    116.3135     -4.7342      2.9179      2.8474
   140.5000    344.9880    110.7742     -5.6904      3.0378      2.8987
   140.0000    338.6060    108.7875    -10.0092      3.1482      2.9533
   139.5000    329.1931    115.2484    -12.4718      3.2535      3.0377
   139.0000    317.9185    125.2181     -9.8375      3.3237      3.1455
   138.5000    307.9221    129.2087     -5.8886      3.3005      3.2476
   138.0000    302.0251    125.8595     -6.0393      3.2143      3.3110
   137.5000    298.9590    121.3826     -8.7495      3.1913      3.3449
   137.0000    292.7065    120.9225    -12.9735      3.3133      3.4164
   136.5000    279.3130    124.0492    -22.5919      3.5554      3.5802
   136.0000    261.4211    128.9217    -33.4066      3.8230      3.8252
   135.5000    244.6519    133.2375    -37.5199      4.0359      4.0874
