~Version Information
 VERS.                2.00:   CWLS log ASCII Standard -VERSION 2.00
 WRAP.                  NO:   One line per frame
~Well Information Block
#MNEM.UNIT              Data                Description
#--------- -------------------------------  -------------------------------
 STRT.F                          863.0000:   Starting Depth
 STOP.F                           -8.7500:   Ending Depth
 STEP.F                           -0.5000:   Level Spacing
 NULL.                          -999.2500:   Absent Value
 COMP.     FLUOR DANIEL (NPSOR), INC.    :   Company
 WELL.     47-1 X 11                     :   Well
 FLD .                                   :   Field
 LOC .                                   :   Location
 PROV.                                   :   Province
 SRVC.                                   :   Service Company
 LIC .                                   :   License Number
 DATE.                                   :   Log Date
 UWI .                                   :   Unique Well ID
~Curve Information Block
#MNEM.UNIT       API Codes    Curve Description
#---------    -------------   -------------------------------
 DEPT.F        0   0  0  0:   Depth
 CILD.MMHO     0   0  0  0:   Conductivity of Deep Induction
 GR  .API      0   0  0  0:   Gamma ray counts
 TEN .LBF      0   0  0  0:   Differential Tension
 RILM.OHMM     0   0  0  0:   Resistivity from CILM
 RILD.OHMM     0   0  0  0:   Resistivity from CILD
#  Curve Data
~A
# ...
   695.0000     81.0392     92.7825     22.8472     12.4632     12.3397
   694.5000     80.1747     91.9737     28.6581     12.6092     12.4728
   694.0000     79.2515     93.7094     34.3982     12.7579     12.6181
   693.5000     78.1871     95.2491     33.9264     12.8752     12.7898
   693.0000     77.1320     96.1201     25.4855     12.9467     12.9648
   692.5000     76.2290     96.7111     21.3475     12.9985     13.1184
   692.0000     75.2697     96.4078     24.1603     13.0807     13.2856
   691.5000     73.8714     93.2222     21.7053     13.2155     13.5370
   691.0000     71.7885     88.9437     18.8905     13.4101     13.9298
   690.5000     69.1752     86.6163     21.4894     13.7037     14.4561
   690.0000     66.2859     85.5459     21.7816     14.1632     15.0862
   689.5000     63.2955     83.7458     16.9473     14.8026     15.7989
   689.0000     60.6472     82.5780     14.2154     15.5370     16.4888
   688.5000     58.9338     81.8666     16.4511     16.2455     16.9682
   688.0000     58.5021     79.8473     22.8704     16.8962     17.0934
   687.5000     59.4594     78.5890     24.8761     17.4109     16.8182
   687.0000     61.7481     81.7417     19.7832     17.4497     16.1948
   686.5000     65.2148     88.8207     17.6192     16.7291     15.3340
   686.0000     69.7056     95.5404     18.3750     15.4862     14.3460
   685.5000     74.9458     99.0939     18.5391     14.1395     13.3430
   685.0000     80.4315    101.2757     18.9682     12.8860     12.4329
   684.5000     85.7312    104.6720     18.7706     11.8073     11.6644
   684.0000     90.5153    109.7175     12.1817     10.9841     11.0479
   683.5000     94.4130    113.6662      6.2196     10.4488     10.5918
   683.0000     97.1218    113.8351      8.2149     10.1585     10.2964
   682.5000     98.7496    111.4941     14.1230     10.0288     10.1266
   682.0000     99.6632    109.6750     15.3726      9.9852     10.0338
   681.5000    100.1629    108.7555     14.4210      9.9896      9.9837
   681.0000    100.3533    109.7446     19.7753     10.0190      9.9648
   680.5000    100.2588    113.8567     23.1544     10.0501      9.9742
   680.0000     99.9994    116.5587     17.0763     10.0725     10.0001
   679.5000     99.6926    114.7513      9.4571     10.0850     10.0308
   679.0000     99.3415    111.2694      7.7970     10.1012     10.0663
   678.5000     98.8986    108.9748     10.6768     10.1364     10.1114
   678.0000     98.2971    107.2173     14.8422     10.1909     10.1732
   677.5000     97.5141    105.5176     15.4242     10.2585     10.2549
   677.0000     96.6699    105.0042     10.2721     10.3392     10.3445
   676.5000     95.9545    106.2632      8.2289     10.4283     10.4216
   676.0000     95.4717    106.9247      9.3666     10.5021     10.4743
   675.5000     95.2301    104.1269      7.2355     10.5388     10.5009
   675.0000     95.2555    101.0423      5.0102     10.5493     10.4981
   674.5000     95.5152    102.4346      7.8772     10.5544     10.4695
   674.0000     95.8331    105.4723     11.4165     10.5519     10.4348
   673.5000     96.1002    106.7905     12.0176     10.5287     10.4058
   673.0000     96.4270    108.0253     13.3117     10.4836     10.3705
   672.5000     96.8092    109.1729     11.3182     10.4290     10.3296
   672.0000     97.0962    108.4873      3.5923     10.3872     10.2991
   671.5000     97.1482    108.7112      0.9906     10.3765     10.2936
   671.0000     96.9599    110.8279      8.0602     10.3990     10.3135
   670.5000     96.5629    112.3603     10.7790     10.4392     10.3559
   670.0000     96.1238    111.4969      3.4935     10.4810     10.4033
   669.5000     95.8511    108.4834      0.6814     10.5201     10.4328
   669.0000     95.6187    105.0189      6.2876     10.5611     10.4582
   668.5000     95.1400    102.6020     11.2981     10.6120     10.5108
   668.0000     94.4037    101.3747     14.3963     10.6711     10.5928
   667.5000     93.6082    101.3983     14.7556     10.7282     10.6828
   667.0000     92.7987    102.8622      6.7024     10.7913     10.7760
   666.5000     92.0295    103.5161     -3.9394     10.8739     10.8661
   666.0000     91.3961    101.7888     -1.4039     10.9734     10.9414
   665.5000     90.8661    100.7393      8.0200     11.0829     11.0052
   665.0000     90.3972    102.4003     10.0778     11.2010     11.0623
   664.5000     89.9381    103.6571      7.3978     11.3217     11.1188
   664.0000     89.2922    101.7258      8.4256     11.4243     11.1992
   663.5000     88.5167    100.7579      8.2368     11.4759     11.2973
   663.0000     88.0056    103.9534      3.3480     11.4689     11.3629
   662.5000     87.8927    108.6148      2.8042     11.4432     11.3775
   662.0000     87.8818    109.4957      6.6368     11.4383     11.3789
   661.5000     87.7763    105.4117      3.6124     11.4628     11.3926
   661.0000     87.5062    101.3700     -4.8751     11.4982     11.4278
   660.5000     87.0072    102.1928     -4.0245     11.5243     11.4933
   660.0000     86.4198    104.3327     -0.7814     11.5404     11.5714
   659.5000     85.9273    103.8322     -6.9778     11.5617     11.6377
   659.0000     85.5243    102.5423    -13.2022     11.5923     11.6926
   658.5000     85.2405    103.0217     -8.6208     11.6305     11.7315
   658.0000     85.1474    103.6753      0.4877     11.6826     11.7443
   657.5000     85.0497    102.3830      4.9020     11.7494     11.7578
   657.0000     84.6750    100.3984      2.8453     11.8211     11.8099
   656.5000     84.0302     99.8999      1.9816     11.9020     11.9005
   656.0000     83.3189    100.1572      8.4092     11.9897     12.0021
   655.5000     82.5942     99.7347     12.4306     12.0671     12.1074
   655.0000     81.8205     99.3387      8.3756     12.1280     12.2219
   654.5000     80.9964     99.1733      5.8926     12.1869     12.3462
   654.0000     80.1193     99.7959      8.4860     12.2673     12.4814
   653.5000     79.2071    101.3506      9.8073     12.3811     12.6251
   653.0000     78.3535    102.9710      7.7979     12.4978     12.7627
   652.5000     77.6906    103.9882      4.2471     12.5870     12.8716
   652.0000     77.3772    104.4194      2.6389     12.6546     12.9237
   651.5000     77.4721    103.0839      2.2411     12.7095     12.9079
   651.0000     77.8217    101.3380     -2.4653     12.7581     12.8499
   650.5000     78.2522    103.5300    -10.3297     12.7920     12.7792
   650.0000     78.6455    112.2440    -10.7406     12.7748     12.7153
   649.5000     78.9406    119.9908     -5.4253     12.6959     12.6677
   649.0000     79.1729    118.0863     -3.7195     12.5810     12.6306
   648.5000     79.3320    111.3811     -3.6704     12.4694     12.6052
   648.0000     79.2699    108.6623     -1.7184     12.4221     12.6151
   647.5000     78.8518    109.2790     -2.5699     12.4844     12.6820
   647.0000     78.1255    109.7520     -1.9834     12.6255     12.7999
   646.5000     77.2737    109.8231      4.5161     12.7829     12.9410
   646.0000     76.4583    110.3770      5.1874     12.9307     13.0790
   645.5000     75.8065    110.6678     -4.3478     13.0769     13.1915
   645.0000     75.2071    108.0123     -7.5939     13.2308     13.2966
   644.5000     74.2596    105.4485     -2.6773     13.4066     13.4663
   644.0000     72.8090    109.8959     -3.7765     13.6182     13.7346
   643.5000     71.2968    118.4321     -9.4837     13.8425     14.0259
   643.0000     70.0020    120.1722    -11.2780     14.0496     14.2853
   642.5000     68.8446    113.4572     -7.9654     14.2411     14.5255
   642.0000     67.9356    104.4238     -4.1660     14.4384     14.7198
   641.5000     67.5309    100.3488     -4.4814     14.6564     14.8080
   641.0000     67.4724    102.0095     -8.4433     14.8862     14.8209
   640.5000     67.5034    104.7924     -6.1461     15.0590     14.8141
   640.0000     67.7148    103.7863      1.3222     15.0815     14.7678
   639.5000     68.3755     99.8858      2.9372     14.9086     14.6251
