~Version Information
 VERS.                2.00:   CWLS log ASCII Standard -VERSION 2.00
 WRAP.                  NO:   One line per frame
~Well Information Block
#MNEM.UNIT              Data                Description
#--------- -------------------------------  -------------------------------
 STRT.F                          863.0000:   Starting Depth
 STOP.F                           -8.7500:   Ending Depth
 STEP.F                           -0.5000:   Level Spacing
 NULL.                          -999.2500:   Absent Value
 COMP.     FLUOR DANIEL (NPSOR), INC.    :   Company
 WELL.     47-1 X 11                     :   Well
 FLD .                                   :   Field
 LOC .                                   :   Location
 PROV.                                   :   Province
 SRVC.                                   :   Service Company
 LIC .                                   :   License Number
 DATE.                                   :   Log Date
 UWI .                                   :   Unique Well ID
~Curve Information Block
#MNEM.UNIT       API Codes    Curve Description
#---------    -------------   -------------------------------
 DEPT.F        0   0  0  0:   Depth
 CILD.MMHO     0   0  0  0:   Conductivity of Deep Induction
 GR  .API      0   0  0  0:   Gamma ray counts
 TEN .LBF      0   0  0  0:   Differential Tension
 RILM.OHMM     0   0  0  0:   Resistivity from CILM
 RILD.OHMM     0   0  0  0:   Resistivity from CILD
#  Curve Data
~A
# ...
   583.0000    191.1363    151.9229     -8.4976      5.7266      5.2319
   582.5000    205.5434    151.2810     -1.0245      5.2952      4.8652
   582.0000    215.3369    149.6973     -1.1468      4.9677      4.6439
   581.5000    218.4124    149.1067    -13.9348      4.7756      4.5785
   581.0000    216.6906    149.4433    -30.7647      4.6387      4.6149
   580.5000    213.4623    148.9752    -35.1152      4.5003      4.6847
   580.0000    210.3867    147.1059    -26.5625      4.4645      4.7532
   579.5000    205.5085    143.9006    -18.8106      4.6749      4.8660
   579.0000    195.8694    142.4153    -17.4158      5.1452      5.1054
   578.5000    182.5506    146.4218    -18.1027      5.7221      5.4779
   578.0000    169.7367    150.3759    -19.0009      6.2220      5.8915
   577.5000    160.4386    151.3221    -21.4720      6.5198      6.2329
   577.0000    156.2838    153.4001    -27.6586      6.5904      6.3986
   576.5000    157.7941    155.1527    -31.8871      6.5000      6.3374
   576.0000    164.1436    151.7923    -24.7126      6.3329      6.0922
   575.5000    173.9510    147.2344    -15.4809      6.1139      5.7487
   575.0000    185.4539    147.1588    -17.5500      5.8447      5.3922
   574.5000    195.2578    149.3911    -23.5930      5.5702      5.1214
   574.0000    200.4230    152.2024    -24.6714      5.3441      4.9894
   573.5000    201.5050    157.4660    -23.0123      5.1420      4.9627
   573.0000    201.3360    162.5387    -18.6312      4.9063      4.9668
   572.5000    202.0100    163.2353    -15.3558      4.6958      4.9502
   572.0000    202.9894    161.1727    -21.8157      4.6693      4.9264
   571.5000    201.1996    160.5833    -34.0755      4.9063      4.9702
   571.0000    194.8238    162.4332    -35.9135      5.3194      5.1328
   570.5000    185.9317    165.0076    -26.3282      5.7257      5.3783
   570.0000    177.6262    166.6565    -21.4677      5.9861      5.6298
   569.5000    171.2780    167.1890    -26.0125      6.0913      5.8385
   569.0000    167.1098    167.9124    -29.9458      6.1036      5.9841
   568.5000    164.6681    166.7285    -30.4118      6.0853      6.0728
   568.0000    163.0597    162.7103    -29.8934      6.0981      6.1327
   567.5000    161.2764    159.9522    -29.8805      6.2101      6.2005
   567.0000    158.3863    159.7764    -34.5730      6.4323      6.3137
   566.5000    154.4294    158.7793    -38.4321      6.6817      6.4755
   566.0000    150.4483    156.1324    -31.4970      6.8638      6.6468
   565.5000    147.3534    154.0494    -21.8212      6.9573      6.7864
   565.0000    145.5662    150.6543    -22.0128      6.9934      6.8697
   564.5000    145.1420    145.4865    -27.1020      7.0033      6.8898
   564.0000    145.5117    143.5414    -25.0509      7.0059      6.8723
   563.5000    145.8770    148.7768    -20.6991      7.0083      6.8551
   563.0000    145.8700    153.2995    -21.2554      7.0024      6.8554
   562.5000    145.5402    150.8792    -21.3802      6.9769      6.8710
   562.0000    145.0886    148.6685    -20.6384      6.9456      6.8923
   561.5000    144.7358    151.1110    -26.8220      6.9384      6.9091
   561.0000    144.5072    150.9552    -35.9229      6.9617      6.9201
   560.5000    144.2347    146.8984    -33.5085      6.9989      6.9331
   560.0000    143.8332    145.1201    -19.5764      7.0353      6.9525
   559.5000    143.3572    145.3660    -11.1825      7.0640      6.9756
   559.0000    142.7824    145.1602    -17.3972      7.0830      7.0037
   558.5000    142.1393    147.1342    -25.8680      7.0950      7.0354
   558.0000    141.8496    150.3710    -24.5376      7.1061      7.0497
   557.5000    142.2600    152.2840    -20.9090      7.1155      7.0294
   557.0000    143.2582    151.7041    -21.5714      7.1074      6.9804
   556.5000    144.5128    149.1359    -24.4153      7.0689      6.9198
   556.0000    145.7564    146.7534    -29.3349      7.0102      6.8608
   555.5000    146.9223    147.9276    -39.5323      6.9565      6.8063
   555.0000    148.2015    152.1806    -44.9430      6.9073      6.7476
   554.5000    150.0710    154.3806    -35.6579      6.8315      6.6635
   554.0000    153.3668    151.8799    -22.8838      6.7087      6.5203
   553.5000    158.9132    149.0398    -19.8741      6.5516      6.2927
   553.0000    167.2341    150.1197    -19.9967      6.3679      5.9796
   552.5000    178.0022    154.1751    -17.1532      6.1332      5.6179
   552.0000    189.8869    156.2179    -20.4271      5.8385      5.2663
   551.5000    200.4063    153.6154    -28.4742      5.5227      4.9899
   551.0000    207.9030    149.6224    -27.9944      5.2294      4.8099
   550.5000    212.7342    150.1115    -19.5728      4.9643      4.7007
   550.0000    215.9294    153.9944    -17.8294      4.7271      4.6311
   549.5000    217.6023    155.3598    -24.4293      4.5760      4.5955
   549.0000    216.5822    153.2365    -29.6368      4.5822      4.6172
   548.5000    211.2938    150.7566    -29.7866      4.7702      4.7327
   548.0000    201.8873    150.1630    -28.4724      5.0856      4.9533
   547.5000    190.6810    150.8283    -25.2711      5.4253      5.2444
   547.0000    180.0938    151.0682    -20.0638      5.7262      5.5527
   546.5000    171.3178    149.1994    -14.2523      5.9664      5.8371
   546.0000    164.7229    146.2352    -13.8757      6.1548      6.0708
   545.5000    159.9079    144.2759    -20.3624      6.3073      6.2536
   545.0000    155.9464    144.6070    -25.3678      6.4401      6.4125
   544.5000    152.0073    147.5149    -22.7463      6.5679      6.5786
   544.0000    148.1517    150.4565    -24.5873      6.6994      6.7498
   543.5000    144.7647    150.0650    -33.4631      6.8342      6.9078
   543.0000    142.0779    148.5057    -35.0039      6.9641      7.0384
   542.5000    140.1937    149.4813    -28.8472      7.0736      7.1330
   542.0000    139.3971    149.2960    -23.6543      7.1420      7.1737
   541.5000    139.9953    147.3249    -24.7889      7.1635      7.1431
   541.0000    142.1766    146.4610    -31.4184      7.1463      7.0335
   540.5000    145.8449    148.2284    -35.3095      7.0771      6.8566
   540.0000    150.8090    149.4024    -28.3869      6.9251      6.6309
   539.5000    156.9987    147.6492    -18.9204      6.6942      6.3695
   539.0000    164.4500    145.8622    -16.1116      6.4302      6.0809
   538.5000    173.1358    146.9539    -21.6696      6.1568      5.7758
   538.0000    183.2084    148.5408    -31.2219      5.8517      5.4583
   537.5000    194.3742    147.3543    -35.9205      5.5167      5.1447
   537.0000    205.4069    144.1156    -34.5184      5.2115      4.8684
   536.5000    215.1497    138.5953    -31.5416      4.9775      4.6479
   536.0000    223.1395    135.1331    -28.8811      4.7773      4.4815
   535.5000    228.6906    137.5556    -24.9359      4.5816      4.3727
   535.0000    230.7682    142.7871    -17.5918      4.4350      4.3334
   534.5000    228.8490    148.2572    -12.3086      4.4050      4.3697
   534.0000    223.3474    154.4999    -17.9129      4.4746      4.4773
   533.5000    215.7383    156.3325    -24.6513      4.5714      4.6352
   533.0000    207.7745    150.9882    -20.6970      4.6931      4.8129
   532.5000    199.9525    144.5393    -15.1972      4.9090      5.0012
   532.0000    191.7748    141.1253    -18.5214      5.2186      5.2144
   531.5000    183.6003    140.1644    -20.9715      5.5257      5.4466
   531.0000    176.9150    141.6926    -17.2743      5.7248      5.6524
   530.5000    173.6058    143.8007    -13.6536      5.7795      5.7602
   530.0000    175.0804    143.6822     -9.1515      5.7203      5.7117
   529.5000    182.1249    143.8377     -1.9038      5.5961      5.4907
   529.0000    195.0381    145.0217     -1.3856      5.4162      5.1272
   528.5000    213.2803    144.2431    -12.1713      5.1554      4.6887
   528.0000    235.3181    143.3918    -20.0071      4.8124      4.2496
   527.5000    262.0422    144.2952    -18.4229      4.4033      3.8162
