~Version Information
 VERS.                2.00:   CWLS log ASCII Standard -VERSION 2.00
 WRAP.                  NO:   One line per frame
~Well Information Block
#MNEM.UNIT              Data                Description
#--------- -------------------------------  -------------------------------
 STRT.F                          863.0000:   Starting Depth
 STOP.F                           -8.7500:   Ending Depth
 STEP.F                           -0.5000:   Level Spacing
 NULL.                          -999.2500:   Absent Value
 COMP.     FLUOR DANIEL (NPSOR), INC.    :   Company
 WELL.     47-1 X 11                     :   Well
 FLD .                                   :   Field
 LOC .                                   :   Location
 PROV.                                   :   Province
 SRVC.                                   :   Service Company
 LIC .                                   :   License Number
 DATE.                                   :   Log Date
 UWI .                                   :   Unique Well ID
~Curve Information Block
#MNEM.UNIT       API Codes    Curve Description
#---------    -------------   -------------------------------
 DEPT.F        0   0  0  0:   Depth
 CILD.MMHO     0   0  0  0:   Conductivity of Deep Induction
 GR  .API      0   0  0  0:   Gamma ray counts
 TEN .LBF      0   0  0  0:   Differential Tension
 RILM.OHMM     0   0  0  0:   Resistivity from CILM
 RILD.OHMM     0   0  0  0:   Resistivity from CILD
#  Curve Data
~A
# ...
   751.0000    139.1797    123.4959     73.1411      7.3741      7.1850
   750.5000    131.5677    124.4760     66.2469      7.7153      7.6006
   750.0000    126.9851    126.7531     67.5737      7.9435      7.8749
   749.5000    123.9028    130.5957     71.0473      8.1192      8.0708
   749.0000    121.4215    133.3063     69.2203      8.2729      8.2358
   748.5000    119.1307    130.5758     65.6671      8.4260      8.3941
   748.0000    116.7890    125.5139     63.2854      8.5926      8.5625
   747.5000    114.2980    121.8015     64.6588      8.7678      8.7491
   747.0000    111.8369    119.1376     67.4144      8.9276      8.9416
   746.5000    109.8212    118.0960     67.4092      9.0541      9.1057
   746.0000    108.6386    118.4202     66.3469      9.1554      9.2048
   745.5000    108.1507    118.2470     64.6158      9.2456      9.2464
   745.0000    107.7884    116.1379     63.1362      9.3374      9.2774
   744.5000    107.0683    114.0845     64.7979      9.4422      9.3398
   744.0000    105.9800    113.8002     67.8896      9.5542      9.4357
   743.5000    104.8711    114.0681     68.5149      9.6569      9.5355
   743.0000    103.8791    113.5024     69.9151      9.7488      9.6266
   742.5000    102.9191    113.8845     72.1422      9.8328      9.7164
   742.0000    102.0690    115.4054     72.8334      9.8985      9.7973
   741.5000    101.5624    115.5446     73.7307      9.9379      9.8462
   741.0000    101.1809    115.2631     70.2293      9.9626      9.8833
   740.5000    100.6523    118.2208     60.7618      9.9840      9.9352
   740.0000    100.1321    122.2054     56.1255     10.0088      9.9868
   739.5000     99.7714    121.9852     57.7615     10.0401     10.0229
   739.0000     99.4684    116.8711     57.2918     10.0742     10.0534
   738.5000     99.2586    112.8895     55.3495     10.0963     10.0747
   738.0000     99.2707    114.7709     55.7738     10.0979     10.0735
   737.5000     99.4540    118.2788     57.0045     10.0875     10.0549
   737.0000     99.6506    118.7267     57.1762     10.0749     10.0351
   736.5000     99.5489    120.1008     60.0499     10.0637     10.0453
   736.0000     99.0487    126.1152     64.0241     10.0558     10.0960
   735.5000     98.4169    131.2161     60.3848     10.0526     10.1609
   735.0000     97.9234    132.5269     52.0287     10.0517     10.2121
   734.5000     97.6734    133.8811     49.5097     10.0576     10.2382
   734.0000     97.6929    134.6090     51.7069     10.0879     10.2362
   733.5000     97.7708    130.5752     55.6424     10.1550     10.2280
   733.0000     97.7373    122.9870     60.2320     10.2360     10.2315
   732.5000     97.6527    117.6884     58.7335     10.2808     10.2404
   732.0000     97.5466    118.3163     52.4746     10.2518     10.2515
   731.5000     97.4775    121.7451     53.3896     10.1681     10.2588
   731.0000     97.6853    122.0093     59.7202     10.0830     10.2370
   730.5000     98.0971    119.5025     58.0162     10.0269     10.1940
   730.0000     98.3789    119.0363     50.5544      9.9986     10.1648
   729.5000     98.4814    118.8910     50.3546     10.0048     10.1542
   729.0000     98.5407    115.2452     52.7220     10.0412     10.1481
   728.5000     98.6159    109.5139     47.6758     10.0779     10.1404
   728.0000     98.7520    105.4070     44.5392     10.0876     10.1264
   727.5000     98.9841    104.8365     49.0470     10.0681     10.1026
   727.0000     99.3181    105.2441     51.4273     10.0267     10.0687
   726.5000     99.6970    103.7071     50.5675      9.9759     10.0304
   726.0000    100.0210    102.0118     53.3469      9.9324      9.9979
   725.5000    100.2929    103.6966     55.0205      9.9042      9.9708
   725.0000    100.4863    104.9483     50.3250      9.8947      9.9516
   724.5000    100.4697    101.5018     47.3805      9.9085      9.9532
   724.0000    100.2107     96.8163     49.4692      9.9514      9.9790
   723.5000     99.7807     96.6461     44.8618     10.0176     10.0220
   723.0000     99.1552    100.0672     36.9602     10.0860     10.0852
   722.5000     98.4192    101.3735     38.7402     10.1422     10.1606
   722.0000     97.7687    100.5425     44.8243     10.1852     10.2282
   721.5000     97.3625    100.4622     44.9924     10.2163     10.2709
   721.0000     97.1338     98.7378     42.7955     10.2410     10.2951
   720.5000     96.7679     94.8423     43.9377     10.2736     10.3340
   720.0000     96.0161     93.4043     46.4057     10.3221     10.4149
   719.5000     95.0109     95.2058     45.3825     10.3804     10.5251
   719.0000     94.0571     95.8827     42.6399     10.4449     10.6318
   718.5000     93.3372     95.0682     43.3975     10.5121     10.7138
   718.0000     92.8049     95.5137     43.0825     10.5719     10.7753
   717.5000     92.2953     96.9656     40.2923     10.6252     10.8348
   717.0000     91.7383     97.5125     37.4875     10.6831     10.9006
   716.5000     91.2746     97.1596     33.6622     10.7455     10.9559
   716.0000     90.9692     96.1568     31.0319     10.8034     10.9927
   715.5000     90.7819     94.6517     34.1451     10.8530     11.0154
   715.0000     90.7118     97.4962     34.4833     10.8930     11.0239
   714.5000     90.7726    105.1426     31.5770     10.9217     11.0165
   714.0000     90.7624    111.7733     35.0649     10.9426     11.0178
   713.5000     90.5544    113.6280     42.5902     10.9577     11.0431
   713.0000     90.2339    112.9473     43.0337     10.9659     11.0823
   712.5000     89.7860    112.7286     39.3786     10.9713     11.1376
   712.0000     89.2137    113.6296     37.2609     10.9882     11.2090
   711.5000     88.6612    113.6060     35.2735     11.0382     11.2789
   711.0000     88.0576    111.6544     36.5289     11.1417     11.3562
   710.5000     87.2266    111.2167     40.0496     11.3014     11.4644
   710.0000     86.4243    113.0713     36.2944     11.4772     11.5708
   709.5000     85.8691    112.2444     30.1910     11.6135     11.6456
   709.0000     85.3199    107.4975     32.2233     11.6973     11.7206
   708.5000     84.6877    105.0826     35.2854     11.7710     11.8081
   708.0000     84.2154    105.9272     31.3256     11.8565     11.8743
   707.5000     83.9635    105.0540     28.8917     11.9228     11.9099
   707.0000     83.8412    102.6546     32.3797     11.9433     11.9273
   706.5000     83.8307    102.0825     35.1162     11.9422     11.9288
   706.0000     83.9020    102.3496     32.7899     11.9562     11.9187
   705.5000     83.9576    101.0545     29.4749     12.0064     11.9108
   705.0000     83.8403     98.9301     25.7713     12.0973     11.9274
   704.5000     83.4374     98.3718     23.5173     12.2154     11.9850
   704.0000     82.8950    100.2350     25.4297     12.3164     12.0634
   703.5000     82.4948    102.5634     26.0250     12.3459     12.1220
   703.0000     82.3554    102.7997     21.0395     12.3063     12.1425
   702.5000     82.3561    100.6796     19.9717     12.2870     12.1424
   702.0000     82.3293     98.9829     21.4955     12.3432     12.1463
   701.5000     82.1995    100.1146     16.7277     12.4175     12.1655
   701.0000     81.9490    101.8564     11.0251     12.4506     12.2027
   700.5000     81.7911    100.8985     12.4001     12.4553     12.2263
   700.0000     81.9544     98.0514     20.5170     12.4596     12.2019
   699.5000     82.3268     95.3201     29.7046     12.4418     12.1467
   699.0000     82.6651     93.3172     28.9994     12.3776     12.0970
   698.5000     83.0012     94.2763     19.3294     12.3019     12.0480
   698.0000     83.2970     99.4975     19.9827     12.2757     12.0052
   697.5000     83.3758    103.7045     29.9519     12.2932     11.9939
   697.0000     83.2237    102.7870     27.6004     12.2958     12.0158
   696.5000     82.9229    100.1274     15.7499     12.2759     12.0594
   696.0000     82.4968     98.6012     11.1813     12.2815     12.1217
   695.5000     81.8634     95.9971     16.6442     12.3463     12.2155
