~Version Information
 VERS.                2.00:   CWLS log ASCII Standard -VERSION 2.00
 WRAP.                  NO:   One line per frame
~Well Information Block
#MNEM.UNIT              Data                Description
#--------- -------------------------------  -------------------------------
 STRT.F                          863.0000:   Starting Depth
 STOP.F                           -8.7500:   Ending Depth
 STEP.F                           -0.5000:   Level Spacing
 NULL.                          -999.2500:   Absent Value
 COMP.     FLUOR DANIEL (NPSOR), INC.    :   Company
 WELL.     47-1 X 11                     :   Well
 FLD .                                   :   Field
 LOC .                                   :   Location
 PROV.                                   :   Province
 SRVC.                                   :   Service Company
 LIC .                                   :   License Number
 DATE.                                   :   Log Date
 UWI .                                   :   Unique Well ID
~Curve Information Block
#MNEM.UNIT       API Codes    Curve Description
#---------    -------------   -------------------------------
 DEPT.F        0   0  0  0:   Depth
 CILD.MMHO     0   0  0  0:   Conductivity of Deep Induction
 GR  .API      0   0  0  0:   Gamma ray counts
 TEN .LBF      0   0  0  0:   Differential Tension
 RILM.OHMM     0   0  0  0:   Resistivity from CILM
 RILD.OHMM     0   0  0  0:   Resistivity from CILD
#  Curve Data
~A
# ...
    23.0000     84.1147     74.7165    -17.1660  10000.0000     11.8885
    22.5000     42.8967     76.4909    -16.6408  10000.0000     23.3118
    22.0000     16.8161     79.9919    -27.1807  10000.0000     59.4669
    21.5000     17.1273     84.2137   -250.0000  10000.0000     58.3864
    21.0000     23.3134     86.9270   -250.0000  10000.0000     42.8938
    20.5000     22.7605     86.2907   -250.0000  10000.0000     43.9357
    20.0000     30.7831     83.7965   -250.0000    558.4080     32.4854
    19.5000     54.8689     82.0203   -250.0000    536.7156     18.2253
    19.0000      0.0000     81.6309   -250.0000    535.3337      0.2000
    18.5000      0.0000     81.6524   -250.0000    536.1594      0.2000
    18.0000      0.0000     79.7322   -250.0000    538.2361      0.2000
    17.5000      0.0000     76.2935   -250.0000    552.8110      0.2000
    17.0000      0.0000     75.2416   -250.0000    567.2205      0.2000
    16.5000      0.0000     78.1437   -250.0000    552.3025      0.2000
    16.0000      0.0000     82.9294   -250.0000    521.2329      0.2000
    15.5000      0.0000     85.8557   -250.0000      0.2000      0.2000
    15.0000      0.0000     84.7997   -250.0000      0.2000      0.2000
    14.5000      0.0000     80.9995   -250.0000      0.2000      0.2000
    14.0000      0.0000     76.8955   -250.0000      0.2000      0.2000
    13.5000      0.0000     70.8756   -250.0000      0.2000      0.2000
    13.0000      0.0000     62.5304   -250.0000      0.2000      0.2000
    12.5000      0.0000     54.0390   -250.0000      0.2000      0.2000
    12.0000      0.0000     46.6376   -250.0000      0.2000      0.2000
    11.5000      0.0000     40.3964   -250.0000      0.2000      0.2000
    11.0000      0.0000     36.7376   -250.0000      0.2000      0.2000
    10.5000      0.0000     36.3066   -250.0000      0.2000      0.2000
    10.0000      0.0000     38.8147   -250.0000      0.2000      0.2000
     9.5000      0.0000     41.6429   -250.0000      0.2000      0.2000
     9.0000      0.0000     42.1180   -250.0000      0.2000      0.2000
     8.5000      0.0000     40.0714   -250.0000      0.2000      0.2000
     8.0000      0.0000     37.4661   -250.0000      0.2000      0.2000
     7.5000      0.0000     35.4761   -250.0000      0.2000      0.2000
     7.0000      0.0000     33.1344   -250.0000      0.2000      0.2000
     6.5000      0.0000     29.3908   -250.0000      0.2000      0.2000
     6.0000      0.0000     24.6838   -250.0000      0.2000      0.2000
     5.5000      0.0000     21.2209   -250.0000      0.2000      0.2000
     5.0000      0.0000     20.4562   -250.0000      0.2000      0.2000
     4.5000      0.0000     23.1389   -250.0000      0.2000      0.2000
     4.0000      0.0000     29.2842   -250.0000      0.2000      0.2000
     3.5000      0.0000     36.7809   -250.0000      0.2000      0.2000
     3.0000      0.0000     42.1836   -250.0000      0.2000      0.2000
     2.5000      0.0000     41.5965   -250.0000      0.2000      0.2000
     2.0000      0.0000     34.3785   -250.0000      0.2000      0.2000
     1.5000      0.0000     24.5502   -250.0000      0.2000      0.2000
     1.0000      0.0000     18.3993   -250.0000      0.2000      0.2000
     0.5000      0.0000     17.8409   -250.0000      0.2000      0.2000
     0.0000      0.0000     21.9153   -250.0000      0.2000      0.2000
    -0.5000      0.0000     27.1263   -250.0000      0.2000      0.2000
    -1.0000      0.0000     30.7711   -250.0000      0.2000      0.2000
    -1.5000      0.0000     34.2035   -250.0000      0.2000      0.2000
    -2.0000      0.0000     34.2035   -250.0000      0.2000      0.2000
    -2.5000      0.0000     34.2035   -250.0000      0.2000      0.2000
    -3.0000      0.0000     34.2035   -250.0000      0.2000      0.2000
    -3.5000      0.0000     34.2035   -250.0000      0.2000      0.2000
    -4.0000      0.0000     34.2035   -250.0000      0.2000      0.2000
    -4.5000      0.0000     34.2035   -250.0000      0.2000      0.2000
    -5.0000      0.0000     34.2035   -250.0000      0.2000      0.2000
    -5.5000      0.0000     34.2035   -250.0000      0.2000      0.2000
    -6.0000      0.0000     34.2035   -250.0000      0.2000      0.2000
    -6.5000      0.0000     34.2035   -250.0000      0.2000      0.2000
    -7.0000      0.0000     34.2035   -250.0000      0.2000      0.2000
    -7.5000      0.0000     34.2035   -250.0000      0.2000      0.2000
    -8.0000      0.0000     34.2035   -250.0000      0.2000      0.2000
    -8.5000      0.0000     34.2035   -250.0000      0.2000      0.2000
