~Version Information
 VERS.                2.00:   CWLS log ASCII Standard -VERSION 2.00
 WRAP.                  NO:   One line per frame
~Well Information Block
#MNEM.UNIT              Data                Description
#--------- -------------------------------  -------------------------------
 STRT.F                          863.0000:   Starting Depth
 STOP.F                           -8.7500:   Ending Depth
 STEP.F                           -0.5000:   Level Spacing
 NULL.                          -999.2500:   Absent Value
 COMP.     FLUOR DANIEL (NPSOR), INC.    :   Company
 WELL.     47-1 X 11                     :   Well
 FLD .                                   :   Field
 LOC .                                   :   Location
 PROV.                                   :   Province
 SRVC.                                   :   Service Company
 LIC .                                   :   License Number
 DATE.                                   :   Log Date
 UWI .                                   :   Unique Well ID
~Curve Information Block
#MNEM.UNIT       API Codes    Curve Description
#---------    -------------   -------------------------------
 DEPT.F        0   0  0  0:   Depth
 CILD.MMHO     0   0  0  0:   Conductivity of Deep Induction
 GR  .API      0   0  0  0:   Gamma ray counts
 TEN .LBF      0   0  0  0:   Differential Tension
 RILM.OHMM     0   0  0  0:   Resistivity from CILM
 RILD.OHMM     0   0  0  0:   Resistivity from CILD
#  Curve Data
~A
# ...
   135.0000    232.4866    134.0186    -38.6252      4.1886      4.3013
   134.5000    224.7585    132.8687    -41.9951      4.3214      4.4492
   134.0000    220.3358    133.3007    -45.1351      4.4584      4.5385
   133.5000    218.0185    132.7038    -44.8692      4.5787      4.5868
   133.0000    217.7250    130.7021    -41.1338      4.6476      4.5929
   132.5000    219.4054    130.8537    -34.3241      4.6565      4.5578
   132.0000    222.3255    131.3184    -27.9581      4.6236      4.4979
   131.5000    225.6548    130.8808    -28.0371      4.5568      4.4315
   131.0000    229.5987    131.5077    -33.1678      4.4495      4.3554
   130.5000    236.0844    131.0399    -36.2130      4.3058      4.2358
   130.0000    248.1757    127.6541    -35.1177      4.1326      4.0294
   129.5000    269.3430    124.7276    -32.6280      3.9251      3.7127
   129.0000    296.8748    124.2159    -28.1176      3.6918      3.3684
   128.5000    323.1294    128.5963    -22.3065      3.4752      3.0947
   128.0000    340.6592    139.6458    -19.9894      3.3052      2.9355
   127.5000    348.4768    151.8845    -23.4557      3.1472      2.8696
   127.0000    350.4797    155.7615    -33.0559      2.9544      2.8532
   126.5000    350.1108    150.7680    -43.4262      2.7699      2.8562
   126.0000    346.6992    145.3261    -45.9184      2.7008      2.8843
   125.5000    335.0732    142.5716    -38.5300      2.8128      2.9844
   125.0000    312.1316    139.8636    -27.7605      3.1022      3.2038
   124.5000    282.1912    138.7095    -18.4769      3.5186      3.5437
   124.0000    252.5327    137.7267    -15.3729      3.9895      3.9599
   123.5000    229.5918    134.0388    -20.8885      4.4242      4.3556
   123.0000    214.1031    128.8268    -31.2991      4.7342      4.6706
   122.5000    205.9582    127.4239    -38.9031      4.8998      4.8554
   122.0000    202.6117    129.2448    -37.5681      4.9706      4.9355
   121.5000    201.1751    131.3828    -32.3736      4.9973      4.9708
   121.0000    200.7254    133.5180    -32.7286      4.9877      4.9819
   120.5000    202.5069    136.9317    -37.9209      4.9213      4.9381
   120.0000    208.8584    138.3250    -40.1282      4.7943      4.7879
   119.5000    221.6539    134.3897    -37.0480      4.6200      4.5115
   119.0000    240.9970    126.7148    -30.3130      4.4012      4.1494
   118.5000    265.3906    121.0603    -25.8304      4.1486      3.7680
   118.0000    289.9612    122.5882    -28.6444      3.8854      3.4487
   117.5000    310.2085    129.2570    -35.1564      3.6149      3.2236
   117.0000    325.5894    133.0206    -38.7252      3.3234      3.0714
   116.5000    338.0793    132.7368    -42.4334      3.0400      2.9579
   116.0000    348.4497    131.9047    -47.6062      2.8396      2.8699
   115.5000    353.5081    131.4320    -41.9024      2.7768      2.8288
   115.0000    349.2278    131.9180    -25.1985      2.8534      2.8635
   114.5000    335.6460    133.5577    -16.7604      3.0331      2.9793
   114.0000    316.3538    133.4756    -24.7456      3.2637      3.1610
   113.5000    295.3428    130.2150    -31.9170      3.4936      3.3859
   113.0000    275.7634    125.5913    -28.9427      3.6902      3.6263
   112.5000    259.2336    122.3892    -22.2272      3.8501      3.8575
   112.0000    246.2619    121.9506    -18.9466      3.9874      4.0607
   111.5000    237.0331    122.4328    -21.6019      4.1150      4.2188
   111.0000    231.1421    120.8531    -29.9403      4.2341      4.3263
   110.5000    228.2749    119.0248    -37.9289      4.3290      4.3807
   110.0000    227.4254    119.8934    -40.3174      4.3834      4.3970
   109.5000    226.9622    122.9178    -36.7559      4.4036      4.4060
   109.0000    225.5033    124.7867    -27.3933      4.4069      4.4345
   108.5000    223.1549    123.6365    -16.5673      4.3951      4.4812
   108.0000    221.9617    122.1774    -12.7655      4.3608      4.5053
   107.5000    224.8451    123.0307    -17.1864      4.3067      4.4475
   107.0000    234.6617    124.6403    -23.2581      4.2387      4.2615
   106.5000    254.3381    123.8124    -29.7451      4.1288      3.9318
   106.0000    286.9011    120.0159    -38.0366      3.9218      3.4855
   105.5000    328.0059    117.0576    -42.3377      3.6088      3.0487
   105.0000    369.5850    120.4017    -35.6161      3.2491      2.7057
   104.5000    403.7212    126.2765    -25.0911      2.8980      2.4770
   104.0000    426.6333    126.7370    -24.2268      2.5816      2.3439
   103.5000    439.5696    124.1598    -31.9070      2.3138      2.2750
   103.0000    445.0815    122.8805    -37.1783      2.1407      2.2468
   102.5000    441.2749    120.7951    -39.8821      2.0942      2.2662
   102.0000    423.5015    118.8228    -44.9088      2.1942      2.3613
   101.5000    390.9307    122.3203    -46.5793      2.4662      2.5580
   101.0000    347.4363    128.4389    -39.5875      2.8995      2.8782
   100.5000    300.4583    132.3785    -30.2386      3.4561      3.3282
   100.0000    259.8884    134.8410    -24.3774      3.9962      3.8478
    99.5000    233.2044    136.0422    -22.6307      4.3826      4.2881
    99.0000    218.3279    134.9918    -29.8098      4.5910      4.5803
    98.5000    211.2153    133.4569    -45.7884      4.6831      4.7345
    98.0000    208.3730    130.3299    -57.7106      4.7284      4.7991
    97.5000    206.8382    125.9005    -56.7812      4.7660      4.8347
    97.0000    205.0651    128.0939    -47.8127      4.8119      4.8765
    96.5000    202.7308    136.4975    -36.9114      4.8632      4.9326
    96.0000    200.4167    141.1358    -25.4379      4.8999      4.9896
    95.5000    199.7499    140.1880    -18.9371      4.9074      5.0063
    95.0000    202.6624    137.4127    -18.8923      4.8802      4.9343
    94.5000    210.1277    132.9165    -22.4635      4.8116      4.7590
    94.0000    221.8701    129.0926    -29.0546      4.7003      4.5071
    93.5000    236.3336    129.9110    -37.8670      4.5458      4.2313
    93.0000    250.0717    133.0135    -41.5065      4.3640      3.9989
    92.5000    259.8164    134.6130    -38.4947      4.1899      3.8489
    92.0000    263.6055    135.2572    -31.3217      4.0324      3.7935
    91.5000    264.1416    135.7938    -22.8308      3.8663      3.7858
    91.0000    263.9531    135.9372    -18.7276      3.7082      3.7886
    90.5000    262.9836    134.9276    -24.5540      3.6445      3.8025
    90.0000    258.4109    132.7291    -35.3044      3.7555      3.8698
    89.5000    247.4995    129.9107    -41.3205      4.0359      4.0404
    89.0000    232.7816    127.6626    -39.1800      4.3864      4.2959
    88.5000    218.4623    127.2387    -29.1168      4.6960      4.5774
    88.0000    207.1548    127.6165    -18.5617      4.9302      4.8273
    87.5000    198.6383    127.6174    -16.2434      5.0982      5.0343
    87.0000    192.1936    128.5919    -21.1392      5.2305      5.2031
    86.5000    186.8467    132.3289    -27.6071      5.3664      5.3520
    86.0000    181.7793    136.0400    -34.0414      5.5143      5.5012
    85.5000    177.1140    136.1215    -39.2745      5.6453      5.6461
    85.0000    173.3702    133.2201    -41.2769      5.7436      5.7680
    84.5000    170.4560    131.2072    -39.3459      5.8372      5.8666
    84.0000    167.9096    128.9373    -31.0563      5.9468      5.9556
    83.5000    165.8124    123.0302    -22.8356      6.0456      6.0309
    83.0000    165.2442    117.1286    -27.1734      6.0887      6.0517
    82.5000    167.0468    117.2808    -39.4127      6.0568      5.9863
    82.0000    170.8488    123.0342    -44.1619      5.9602      5.8531
    81.5000    175.6505    128.9525    -41.5242      5.8227      5.6931
    81.0000    181.0550    131.3497    -40.7660      5.6648      5.5232
    80.5000    187.2191    129.1128    -42.2581      5.4985      5.3413
    80.0000    194.3954    124.5032    -42.7146      5.3323      5.1442
    79.5000    201.9860    121.3231    -39.8220      5.1813      4.9508
