~Version Information
 VERS.                2.00:   CWLS log ASCII Standard -VERSION 2.00
 WRAP.                  NO:   One line per frame
~Well Information Block
#MNEM.UNIT              Data                Description
#--------- -------------------------------  -------------------------------
 STRT.F                          863.0000:   Starting Depth
 STOP.F                           -8.7500:   Ending Depth
 STEP.F                           -0.5000:   Level Spacing
 NULL.                          -999.2500:   Absent Value
 COMP.     FLUOR DANIEL (NPSOR), INC.    :   Company
 WELL.     47-1 X 11                     :   Well
 FLD .                                   :   Field
 LOC .                                   :   Location
 PROV.                                   :   Province
 SRVC.                                   :   Service Company
 LIC .                                   :   License Number
 DATE.                                   :   Log Date
 UWI .                                   :   Unique Well ID
~Curve Information Block
#MNEM.UNIT       API Codes    Curve Description
#---------    -------------   -------------------------------
 DEPT.F        0   0  0  0:   Depth
 CILD.MMHO     0   0  0  0:   Conductivity of Deep Induction
 GR  .API      0   0  0  0:   Gamma ray counts
 TEN .LBF      0   0  0  0:   Differential Tension
 RILM.OHMM     0   0  0  0:   Resistivity from CILM
 RILD.OHMM     0   0  0  0:   Resistivity from CILD
#  Curve Data
~A
# ...
   807.0000    115.3041    132.7745    187.9596      8.9087      8.6727
   806.5000    115.5099    131.9966    185.4162      8.9345      8.6573
   806.0000    115.8987    130.2630    182.8795      8.9201      8.6282
   805.5000    116.4283    129.2489    177.2604      8.8604      8.5890
   805.0000    117.3482    131.6864    173.1210      8.7733      8.5216
   804.5000    119.0497    136.3625    171.6418      8.6729      8.3999
   804.0000    121.7505    138.1082    168.4240      8.5449      8.2135
   803.5000    125.8203    136.2787    164.1290      8.3570      7.9478
   803.0000    131.5546    134.7820    162.7888      8.0947      7.6014
   802.5000    139.2234    133.9493    163.1460      7.7511      7.1827
   802.0000    148.6938    133.1240    160.2546      7.3305      6.7252
   801.5000    158.1262    132.4378    157.3897      6.9000      6.3241
   801.0000    164.9339    134.1056    159.0895      6.5474      6.0630
   800.5000    168.3735    138.4014    164.8543      6.2745      5.9392
   800.0000    169.9164    143.1334    169.0621      6.0111      5.8852
   799.5000    170.8202    146.3433    166.7242      5.7675      5.8541
   799.0000    170.9713    148.5488    161.6975      5.6748      5.8489
   798.5000    168.7470    149.5718    160.4312      5.8423      5.9260
   798.0000    163.1186    148.3035    158.5158      6.2292      6.1305
   797.5000    155.5669    146.2345    156.4626      6.6637      6.4281
   797.0000    148.5841    144.8917    159.4964      6.9908      6.7302
   796.5000    143.3751    142.4154    162.6546      7.1795      6.9747
   796.0000    140.1167    135.9838    159.2984      7.2705      7.1369
   795.5000    138.3618    130.2066    155.7007      7.3229      7.2274
   795.0000    137.1276    129.9722    156.6522      7.3838      7.2925
   794.5000    135.7003    132.0847    155.9276      7.4644      7.3692
   794.0000    133.9321    134.2344    152.3808      7.5536      7.4665
   793.5000    131.8841    137.0235    151.0503      7.6392      7.5824
   793.0000    129.7312    138.3767    150.0844      7.7216      7.7082
   792.5000    127.7407    138.2892    146.1419      7.8056      7.8284
   792.0000    125.9873    140.8406    141.9824      7.8930      7.9373
   791.5000    124.4390    145.9153    137.9054      7.9893      8.0361
   791.0000    123.1453    148.7754    133.0385      8.1013      8.1205
   790.5000    122.1478    147.6412    130.4595      8.2246      8.1868
   790.0000    121.4118    144.8511    130.5418      8.3407      8.2364
   789.5000    120.8946    144.3058    135.1440      8.4275      8.2717
   789.0000    120.5307    144.1134    141.6773      8.4730      8.2966
   788.5000    120.2860    141.4523    140.7734      8.4818      8.3135
   788.0000    120.1891    139.4489    133.8596      8.4634      8.3202
   787.5000    120.1907    141.1021    126.8379      8.4280      8.3201
   787.0000    120.1857    143.7071    121.4007      8.3955      8.3205
   786.5000    120.0778    146.3773    122.9330      8.3876      8.3279
   786.0000    119.6731    148.0034    130.9264      8.4135      8.3561
   785.5000    118.8078    142.6610    133.7977      8.4692      8.4170
   785.0000    117.6701    131.7699    128.9427      8.5459      8.4983
   784.5000    116.5254    125.7258    127.1026      8.6383      8.5818
   784.0000    115.3023    129.3913    130.0755      8.7520      8.6729
   783.5000    113.9556    135.7910    129.6917      8.8864      8.7753
   783.0000    112.6786    139.2695    124.5174      9.0167      8.8748
   782.5000    111.4321    140.8305    124.5037      9.1188      8.9741
   782.0000    109.8802    141.6852    128.1033      9.2038      9.1008
   781.5000    108.0498    139.6716    126.8833      9.2953      9.2550
   781.0000    106.3494    134.8038    122.3044      9.4010      9.4030
   780.5000    104.8229    130.0831    120.9203      9.5353      9.5399
   780.0000    103.0815    129.1202    119.2638      9.7299      9.7011
   779.5000    100.9588    130.6807    117.0523      9.9769      9.9050
   779.0000     98.8204    130.2555    117.1816     10.2063     10.1194
   778.5000     97.0380    126.5561    115.3040     10.3891     10.3052
   778.0000     95.6879    121.5801    111.2137     10.5533     10.4506
   777.5000     94.6756    120.3103    111.4098     10.6978     10.5624
   777.0000     93.9353    125.0253    112.1445     10.7886     10.6456
   776.5000     93.3730    130.4917    109.8609     10.8431     10.7097
   776.0000     92.7559    131.0211    109.4712     10.9007     10.7810
   775.5000     91.9832    128.4926    111.3954     10.9567     10.8716
   775.0000     91.1508    125.4333    110.1138     10.9872     10.9708
   774.5000     90.4817    122.5899    107.9160     10.9933     11.0520
   774.0000     90.2305    121.2333    105.1390     11.0068     11.0827
   773.5000     90.2832    122.5311    102.4532     11.0797     11.0763
   773.0000     90.1875    125.1617    105.2985     11.2244     11.0880
   772.5000     89.8688    128.4009    108.8707     11.3832     11.1273
   772.0000     89.6281    130.7434    105.2881     11.4804     11.1572
   771.5000     89.5994    131.8712     99.7466     11.4929     11.1608
   771.0000     89.7558    131.6889    101.2484     11.4469     11.1413
   770.5000     90.0889    131.6891    104.7696     11.3684     11.1001
   770.0000     90.5600    133.3828    104.8816     11.2700     11.0424
   769.5000     91.1524    134.8397    103.2358     11.1604     10.9706
   769.0000     91.8920    134.4149     98.9203     11.0604     10.8823
   768.5000     92.5892    132.9352     93.6609     10.9934     10.8004
   768.0000     93.0259    131.5023     95.1914     10.9552     10.7497
   767.5000     93.3442    129.2187     99.8652     10.9084     10.7130
   767.0000     93.8366    127.7103     97.7336     10.8242     10.6568
   766.5000     94.6624    127.7555     93.9049     10.6992     10.5639
   766.0000     95.9176    128.6930     95.0667     10.5546     10.4256
   765.5000     97.5193    129.6483     93.2925     10.4214     10.2544
   765.0000     99.0331    128.2126     87.7570     10.3026     10.0976
   764.5000    100.1919    124.2476     84.9327     10.1711      9.9808
   764.0000    101.1367    123.9879     85.2694     10.0108      9.8876
   763.5000    102.0980    131.0614     84.7418      9.8334      9.7945
   763.0000    103.4250    139.5281     83.7469      9.6715      9.6688
   762.5000    105.3572    141.3593     87.5905      9.5314      9.4915
   762.0000    107.7532    135.1288     94.6918      9.3899      9.2805
   761.5000    110.2575    128.4674     94.5622      9.2263      9.0697
   761.0000    112.6973    127.9354     88.1584      9.0392      8.8733
   760.5000    115.0801    131.9690     82.2676      8.8415      8.6896
   760.0000    117.2858    134.7642     77.4633      8.6635      8.5262
   759.5000    119.0234    135.1702     76.2277      8.5346      8.4017
   759.0000    120.4820    133.5641     81.6915      8.4289      8.3000
   758.5000    122.9683    131.2314     88.1575      8.2859      8.1322
   758.0000    128.1975    129.2079     90.8394      8.0700      7.8005
   757.5000    137.6873    128.5035     85.6532      7.7473      7.2628
   757.0000    152.0706    130.1684     74.8552      7.2797      6.5759
   756.5000    169.4351    134.3399     69.0434      6.7187      5.9020
   756.0000    184.9423    140.5201     71.2324      6.1913      5.4071
   755.5000    195.0861    149.5890     70.6752      5.7384      5.1259
   755.0000    200.4422    159.9818     68.4045      5.2876      4.9890
   754.5000    203.4769    163.8035     72.1642      4.8283      4.9146
   754.0000    205.5714    158.2430     76.6929      4.5097      4.8645
   753.5000    204.9190    147.5882     76.1905      4.4960      4.8800
   753.0000    197.9391    137.8987     71.9571      4.8319      5.0521
   752.5000    184.0099    132.2021     69.7992      5.4388      5.4345
   752.0000    166.8354    128.6750     74.2776      6.1674      5.9939
   751.5000    151.0481    124.9501     78.9096      6.8536      6.6204
