~Version Information
 VERS.                2.00:   CWLS log ASCII Standard -VERSION 2.00
 WRAP.                  NO:   One line per frame
~Well Information Block
#MNEM.UNIT              Data                Description
#--------- -------------------------------  -------------------------------
 STRT.F                          863.0000:   Starting Depth
 STOP.F                           -8.7500:   Ending Depth
 STEP.F                           -0.5000:   Level Spacing
 NULL.                          -999.2500:   Absent Value
 COMP.     FLUOR DANIEL (NPSOR), INC.    :   Company
 WELL.     47-1 X 11                     :   Well
 FLD .                                   :   Field
 LOC .                                   :   Location
 PROV.                                   :   Province
 SRVC.                                   :   Service Company
 LIC .                                   :   License Number
 DATE.                                   :   Log Date
 UWI .                                   :   Unique Well ID
~Curve Information Block
#MNEM.UNIT       API Codes    Curve Description
#---------    -------------   -------------------------------
 DEPT.F        0   0  0  0:   Depth
 CILD.MMHO     0   0  0  0:   Conductivity of Deep Induction
 GR  .API      0   0  0  0:   Gamma ray counts
 TEN .LBF      0   0  0  0:   Differential Tension
 RILM.OHMM     0   0  0  0:   Resistivity from CILM
 RILD.OHMM     0   0  0  0:   Resistivity from CILD
#  Curve Data
~A
   863.0000      0.0000      0.0000   -250.0000      0.2000      0.2000
   862.5000      0.0000      0.0000   -250.0000      0.2000      0.2000
   862.0000      0.0000      0.0000   -250.0000      0.2000      0.2000
   861.5000      0.0000      0.0000   -250.0000      0.2000      0.2000
   861.0000      0.0000      0.0000   -250.0000      0.2000      0.2000
   860.5000      0.0000      0.0000   -250.0000      0.2000      0.2000
   860.0000      0.0000      0.0000   -250.0000      0.2000      0.2000
   859.5000      0.0000      0.0000   -250.0000      0.2000      0.2000
   859.0000      0.0000      0.0000   -250.0000      0.2000      0.2000
   858.5000      0.0000      0.0000   -250.0000      0.2000      0.2000
   858.0000      0.0000      0.0000   -250.0000      0.2000      0.2000
   857.5000      0.0000      0.0000   -250.0000      0.2000      0.2000
   857.0000      0.0000      0.0000   -250.0000      0.2000      0.2000
   856.5000      0.0000      0.0000   -250.0000      0.2000      0.2000
   856.0000      0.0000      0.0000   -250.0000      0.2000      0.2000
   855.5000      0.0000      0.0000   -250.0000      0.2000      0.2000
   855.0000      0.0000      0.0000   -250.0000      0.2000      0.2000
   854.5000      0.0000      0.0000   -250.0000      0.2000      0.2000
   854.0000      0.0000      0.0000   -250.0000      0.2000      0.2000
   853.5000      0.0000      0.0000   -250.0000      0.2000      0.2000
   853.0000      0.0000      0.0000   -252.9545      0.2000      0.2000
   852.5000      0.0000      0.0000   -250.6746      0.2000      0.2000
   852.0000      0.0000      0.0000   -253.1131      0.2000      0.2000
   851.5000      0.0000      0.0000   -248.5500      0.2000      0.2000
   851.0000      0.0000      0.0000   -240.7965      0.2000      0.2000
   850.5000      0.0000      0.0000   -238.6091      0.2000      0.2000
   850.0000      0.0000      0.0000   -234.4245      0.2000      0.2000
   849.5000      0.0000      0.0000   -226.5525      0.2000      0.2000
   849.0000      0.0000      0.0000   -219.7287      0.2000      0.2000
   848.5000      0.0000      0.0000   -218.7838      0.2000      0.2000
   848.0000      0.0000      0.0000   -220.3320      0.2000      0.2000
   847.5000      0.0000      0.0000   -217.9264      0.2000      0.2000
   847.0000      0.0000      0.0000   -207.0437      6.3026      0.2000
   846.5000      0.0000      0.0000   -196.0299      6.3034      0.2000
   846.0000      0.0000      0.0000   -190.8827      6.3042      0.2000
   845.5000      0.0000      0.0000   -187.9516      6.3061      0.2000
   845.0000      0.0000      0.0000   -184.2520      6.3064      0.2000
   844.5000      0.0000      0.0000   -179.4940      6.3026      0.2000
   844.0000      0.0000      0.0000   -173.7216      6.3004      0.2000
   843.5000      0.0000      0.0000   -167.2250      6.3040      0.2000
   843.0000      0.0000      0.0000   -160.8277      6.3081      0.2000
   842.5000      0.0000      0.0000   -154.8375      6.3062      0.2000
   842.0000      0.0000      0.0000   -146.7382      6.3028      0.2000
   841.5000      0.0000      0.0000   -115.2869      6.3034      0.2000
   841.0000      0.0000      0.0000    -31.4022      6.3034      0.2000
   840.5000      0.0000      0.0000     90.0680      6.2966      0.2000
   840.0000      0.0000      0.0000    186.7561      6.2879      0.2000
   839.5000      0.0000      0.0000    221.1283      6.2867      0.2000
   839.0000      0.0000      0.0000    218.8042      6.2924      0.2000
   838.5000      0.0000      0.0000    216.9486      6.2976      0.2000
   838.0000      0.0000      0.0000    221.0512      6.2963      0.2000
   837.5000      0.0000      0.0000    220.2081      6.2922      0.2000
   837.0000    142.5430      0.0000    216.2288      6.2894      7.0154
   836.5000    142.4882      0.0000    218.1466      6.2886      7.0181
   836.0000    142.3313      0.0000    224.6538      6.2892      7.0259
   835.5000    142.1917      0.0000    224.1192      6.2937      7.0328
   835.0000    142.0867      0.0000    217.2137      6.3080      7.0380
   834.5000    141.9802      0.0000    214.0655      6.3485      7.0432
   834.0000    141.9097      0.0000    219.3044      6.4065      7.0467
   833.5000    141.9294      0.0000    228.2043      6.4258      7.0458
   833.0000    141.9526      0.0000    232.6305      6.3763      7.0446
   832.5000    141.8032      0.0000    225.4306      6.2971      7.0520
   832.0000    141.4514      0.0000    212.9540      6.2314      7.0696
   831.5000    141.0868      0.0000    211.4266      6.1989      7.0878
   831.0000    140.5289      0.0000    218.6581      6.2154      7.1160
   830.5000    139.2576      0.0000    225.3394      6.2521      7.1809
   830.0000    137.4532      0.0000    229.2563      6.2409      7.2752
   829.5000    136.0464    129.0632    233.1902      6.1815      7.3504
   829.0000    135.4073    129.3081    233.8227      6.1418      7.3851
   828.5000    135.3143    131.4727    232.6936      6.1426      7.3902
   828.0000    135.7397    134.6249    233.3979      6.1900      7.3670
   827.5000    136.6465    134.6344    232.7735      6.3527      7.3182
   827.0000    137.7943    131.8039    228.2400      6.6188      7.2572
   826.5000    139.8524    131.4920    225.4892      6.7483      7.1504
   826.0000    143.8711    134.3931    227.0322      6.5818      6.9507
   825.5000    150.7419    134.4675    228.9699      6.3286      6.6339
   825.0000    162.6249    131.3029    229.2828      6.1572      6.1491
   824.5000    183.2809    129.9173    228.0625      5.9177      5.4561
   824.0000    214.5882    132.1743    224.6239      5.4253      4.6601
   823.5000    254.5034    135.9468    222.5195      4.7572      3.9292
   823.0000    298.1548    137.5635    223.0215      4.1144      3.3540
   822.5000    333.3706    134.4136    225.0601      3.5983      2.9997
   822.0000    355.9460    129.8427    226.4524      3.1829      2.8094
   821.5000    368.4658    128.4447    225.0250      2.8338      2.7140
   821.0000    374.4133    129.5708    221.2073      2.5726      2.6708
   820.5000    373.1143    130.2531    217.6864      2.4495      2.6801
   820.0000    360.3320    131.2702    215.1424      2.5194      2.7752
   819.5000    332.2625    132.2273    212.0274      2.8062      3.0097
   819.0000    291.1880    131.6143    210.9374      3.3312      3.4342
   818.5000    246.1017    130.3377    211.7581      4.0707      4.0634
   818.0000    208.3447    130.8029    211.8972      4.9214      4.7997
   817.5000    179.3157    131.4804    211.8524      5.6805      5.5768
   817.0000    159.7583    130.3164    213.0172      6.2434      6.2595
   816.5000    147.8584    130.4604    211.5782      6.6281      6.7632
   816.0000    140.2012    133.3183    207.6949      6.9174      7.1326
   815.5000    134.5791    135.2244    208.5938      7.1772      7.4306
   815.0000    129.8952    134.0015    210.3429      7.4469      7.6985
   814.5000    125.5461    132.9796    206.6378      7.7311      7.9652
   814.0000    121.2669    134.4666    202.2769      8.0049      8.2463
   813.5000    117.4704    137.7744    199.9881      8.2371      8.5128
   813.0000    115.1207    139.6622    198.0215      8.4110      8.6865
   812.5000    114.7511    138.5089    197.6274      8.5291      8.7145
   812.0000    115.8433    135.0721    196.8887      8.6086      8.6324
   811.5000    117.3239    130.4149    191.9871      8.6696      8.5234
   811.0000    118.3720    127.0822    187.9547      8.7185      8.4479
   810.5000    118.6864    128.3875    184.8934      8.7484      8.4256
   810.0000    118.3206    132.4518    180.7011      8.7543      8.4516
   809.5000    117.5890    133.6454    181.9788      8.7464      8.5042
   809.0000    116.8353    131.5532    186.7719      8.7490      8.5591
   808.5000    116.1437    129.8472    189.0975      8.7783      8.6100
   808.0000    115.5772    130.4774    190.9998      8.8226      8.6522
   807.5000    115.3133    132.1436    191.0425      8.8667      8.6720
