~Version Information
 VERS.                2.00:   CWLS log ASCII Standard -VERSION 2.00
 WRAP.                  NO:   One line per frame
~Well Information Block
#MNEM.UNIT              Data                Description
#--------- -------------------------------  -------------------------------
 STRT.F                          863.0000:   Starting Depth
 STOP.F                           -8.7500:   Ending Depth
 STEP.F                           -0.5000:   Level Spacing
 NULL.                          -999.2500:   Absent Value
 COMP.     FLUOR DANIEL (NPSOR), INC.    :   Company
 WELL.     47-1 X 11                     :   Well
 FLD .                                   :   Field
 LOC .                                   :   Location
 PROV.                                   :   Province
 SRVC.                                   :   Service Company
 LIC .                                   :   License Number
 DATE.                                   :   Log Date
 UWI .                                   :   Unique Well ID
~Curve Information Block
#MNEM.UNIT       API Codes    Curve Description
#---------    -------------   -------------------------------
 DEPT.F        0   0  0  0:   Depth
 CILD.MMHO     0   0  0  0:   Conductivity of Deep Induction
 GR  .API      0   0  0  0:   Gamma ray counts
 TEN .LBF      0   0  0  0:   Differential Tension
 RILM.OHMM     0   0  0  0:   Resistivity from CILM
 RILD.OHMM     0   0  0  0:   Resistivity from CILD
#  Curve Data
~A
# ...
   415.0000    128.8168    146.8209    -37.1829      8.0133      7.7630
   414.5000    129.9773    147.5538    -41.2555      7.9307      7.6937
   414.0000    130.1856    145.5316    -39.8092      7.8899      7.6813
   413.5000    129.7227    142.6238    -31.9957      7.8698      7.7088
   413.0000    129.2900    142.3817    -21.1081      7.8589      7.7346
   412.5000    129.0670    142.9633    -14.5970      7.8682      7.7479
   412.0000    128.7929    141.8507    -17.2807      7.9065      7.7644
   411.5000    128.1562    142.2061    -24.9215      7.9633      7.8030
   411.0000    126.8833    143.8813    -29.7149      8.0245      7.8813
   410.5000    125.0643    142.0784    -30.5643      8.0863      7.9959
   410.0000    123.5086    139.1183    -32.0790      8.1474      8.0966
   409.5000    122.8028    139.6299    -35.3379      8.2136      8.1431
   409.0000    122.5425    139.9522    -35.8482      8.2876      8.1604
   408.5000    122.2345    135.8970    -34.6574      8.3533      8.1810
   408.0000    122.0508    133.5390    -37.1688      8.3900      8.1933
   407.5000    122.4994    137.0656    -38.9863      8.3934      8.1633
   407.0000    123.6244    140.9380    -31.1057      8.3616      8.0890
   406.5000    125.0314    139.4349    -24.2612      8.2965      7.9980
   406.0000    126.3375    134.1362    -29.4154      8.2068      7.9153
   405.5000    127.5780    130.4034    -37.0545      8.0954      7.8383
   405.0000    128.7120    131.8879    -35.7314      7.9712      7.7693
   404.5000    129.7772    136.2041    -30.3237      7.8577      7.7055
   404.0000    131.1906    138.0590    -27.1929      7.7725      7.6225
   403.5000    132.9959    134.8088    -22.1329      7.7116      7.5190
   403.0000    134.5078    131.6792    -18.5986      7.6479      7.4345
   402.5000    135.5382    134.3288    -24.4168      7.5594      7.3780
   402.0000    136.6283    139.8609    -36.8315      7.4590      7.3191
   401.5000    137.9283    142.1495    -46.5406      7.3712      7.2501
   401.0000    139.0759    143.0400    -46.4491      7.3091      7.1903
   400.5000    139.7341    146.7244    -37.3378      7.2819      7.1565
   400.0000    139.5334    151.3360    -28.9814      7.2987      7.1667
   399.5000    138.1906    152.5566    -31.1667      7.3555      7.2364
   399.0000    135.9906    148.3135    -38.7960      7.4393      7.3535
   398.5000    133.4344    142.5278    -42.7518      7.5430      7.4943
   398.0000    130.7246    140.3272    -39.7211      7.6745      7.6497
   397.5000    128.0406    140.5363    -37.5888      7.8339      7.8100
   397.0000    125.8202    138.7203    -40.4643      7.9952      7.9478
   396.5000    124.2663    134.7704    -42.4349      8.1373      8.0472
   396.0000    123.0392    131.3799    -36.5353      8.2846      8.1275
   395.5000    121.7544    130.9095    -28.7090      8.4661      8.2133
   395.0000    120.3602    133.7694    -29.0357      8.6365      8.3084
   394.5000    119.2438    136.8862    -32.4935      8.6996      8.3862
   394.0000    118.8290    138.4852    -29.9818      8.6444      8.4155
   393.5000    119.1698    139.7427    -27.9624      8.5552      8.3914
   393.0000    120.0051    142.1636    -32.3681      8.4885      8.3330
   392.5000    120.9160    143.8409    -33.4927      8.4408      8.2702
   392.0000    121.5329    143.7438    -27.1224      8.4089      8.2282
   391.5000    121.9795    144.4746    -24.8133      8.3882      8.1981
   391.0000    122.6506    146.8363    -30.6949      8.3659      8.1532
   390.5000    123.4846    146.0732    -37.9078      8.3447      8.0982
   390.0000    124.2617    141.4142    -39.7357      8.3271      8.0475
   389.5000    125.0416    139.4171    -38.0609      8.2882      7.9973
   389.0000    126.0634    141.3176    -36.2017      8.2062      7.9325
   388.5000    127.4958    142.4283    -35.2986      8.0966      7.8434
   388.0000    129.0869    141.2720    -31.8271      7.9864      7.7467
   387.5000    130.4418    142.2226    -29.5365      7.8903      7.6663
   387.0000    131.4962    146.9172    -33.3987      7.8108      7.6048
   386.5000    132.0999    152.4903    -36.9569      7.7510      7.5700
   386.0000    132.0076    153.8885    -31.9124      7.7167      7.5753
   385.5000    131.4637    151.3080    -29.3175      7.7133      7.6067
   385.0000    130.7561    149.9735    -34.0664      7.7409      7.6478
   384.5000    129.8491    148.6992    -34.0383      7.7900      7.7012
   384.0000    128.8182    142.9687    -28.4461      7.8425      7.7629
   383.5000    127.9177    137.5138    -26.1205      7.8849      7.8175
   383.0000    127.2295    138.9411    -29.1726      7.9237      7.8598
   382.5000    126.5147    143.0583    -36.9803      7.9686      7.9042
   382.0000    125.5121    142.0369    -46.3386      8.0184      7.9674
   381.5000    124.4756    137.3492    -47.9109      8.0656      8.0337
   381.0000    123.7947    134.6725    -40.8297      8.1068      8.0779
   380.5000    123.4734    134.6441    -29.3712      8.1497      8.0989
   380.0000    123.4322    135.7108    -19.6426      8.2070      8.1016
   379.5000    123.5720    136.7657    -20.3093      8.2832      8.0924
   379.0000    123.6293    137.5307    -28.6441      8.3439      8.0887
   378.5000    123.5842    139.4409    -33.9648      8.3427      8.0916
   378.0000    123.8067    142.6538    -32.4968      8.2839      8.0771
   377.5000    124.2461    142.4799    -27.5156      8.2130      8.0485
   377.0000    124.4272    138.5348    -24.0416      8.1672      8.0368
   376.5000    123.9576    137.4757    -30.8922      8.1750      8.0673
   376.0000    122.8822    140.7374    -45.3825      8.2463      8.1379
   375.5000    121.7520    142.5235    -50.9722      8.3438      8.2134
   375.0000    121.1340    139.1505    -41.6279      8.4263      8.2553
   374.5000    121.0309    135.0103    -31.0935      8.5026      8.2624
   374.0000    121.0104    132.8821    -30.3606      8.5904      8.2638
   373.5000    120.9182    132.3770    -31.9823      8.6597      8.2701
   373.0000    120.9973    133.9383    -26.8601      8.6484      8.2647
   372.5000    121.5491    139.5645    -21.6111      8.5433      8.2271
   372.0000    122.4338    146.3476    -23.6210      8.4076      8.1677
   371.5000    123.0726    151.0658    -24.5760      8.3042      8.1253
   371.0000    123.0425    151.8677    -13.7463      8.2452      8.1273
   370.5000    122.5542    148.6474     -0.0762      8.2277      8.1597
   370.0000    121.9707    142.0583      0.7195      8.2690      8.1987
   369.5000    121.3518    136.0327     -6.2973      8.3676      8.2405
   369.0000    120.6326    133.2063     -9.5502      8.4828      8.2896
   368.5000    120.0196    132.8402    -11.8810      8.5747      8.3320
   368.0000    119.6846    132.5848    -15.1472      8.6262      8.3553
   367.5000    119.7295    132.1987    -16.3263      8.6292      8.3522
   367.0000    120.2201    132.6107    -15.8179      8.5866      8.3181
   366.5000    121.3300    135.8815    -14.0852      8.5047      8.2420
   366.0000    122.9559    141.0691    -13.5954      8.3800      8.1330
   365.5000    124.6640    142.0055    -18.7166      8.2281      8.0216
   365.0000    125.9886    136.5629    -22.6197      8.0948      7.9372
   364.5000    126.6586    131.3827    -16.9964      8.0082      7.8952
   364.0000    126.7097    131.2864     -7.4649      7.9684      7.8921
   363.5000    126.4165    131.4763     -4.7537      7.9720      7.9104
   363.0000    125.8351    130.0017    -13.1641      8.0221      7.9469
   362.5000    124.8887    129.5798    -21.8228      8.1011      8.0071
   362.0000    123.8548    130.3215    -21.6462      8.1697      8.0740
   361.5000    123.0956    131.8238    -19.5901      8.2140      8.1238
   361.0000    122.6069    135.1532    -25.4227      8.2512      8.1561
   360.5000    122.2804    135.6511    -34.6218      8.2872      8.1779
   360.0000    122.1718    131.5577    -38.8152      8.3103      8.1852
   359.5000    122.5526    129.9011    -34.7160      8.3084      8.1598
