~Version Information
 VERS.                2.00:   CWLS log ASCII Standard -VERSION 2.00
 WRAP.                  NO:   One line per frame
~Well Information Block
#MNEM.UNIT              Data                Description
#--------- -------------------------------  -------------------------------
 STRT.F                          863.0000:   Starting Depth
 STOP.F                           -8.7500:   Ending Depth
 STEP.F                           -0.5000:   Level Spacing
 NULL.                          -999.2500:   Absent Value
 COMP.     FLUOR DANIEL (NPSOR), INC.    :   Company
 WELL.     47-1 X 11                     :   Well
 FLD .                                   :   Field
 LOC .                                   :   Location
 PROV.                                   :   Province
 SRVC.                                   :   Service Company
 LIC .                                   :   License Number
 DATE.                                   :   Log Date
 UWI .                                   :   Unique Well ID
~Curve Information Block
#MNEM.UNIT       API Codes    Curve Description
#---------    -------------   -------------------------------
 DEPT.F        0   0  0  0:   Depth
 CILD.MMHO     0   0  0  0:   Conductivity of Deep Induction
 GR  .API      0   0  0  0:   Gamma ray counts
 TEN .LBF      0   0  0  0:   Differential Tension
 RILM.OHMM     0   0  0  0:   Resistivity from CILM
 RILD.OHMM     0   0  0  0:   Resistivity from CILD
#  Curve Data
~A
# ...
   639.0000     69.5593     95.2865     -0.1479     14.5893     14.3762
   638.5000     71.0513     92.0147     -0.8644     14.2514     14.0743
   638.0000     72.3941     92.6913      0.1351     14.0131     13.8133
   637.5000     73.2461     97.5485     -0.4069     13.8936     13.6526
   637.0000     73.6248    102.6798     -1.8968     13.8221     13.5824
   636.5000     73.8109    104.6675     -6.9439     13.7377     13.5481
   636.0000     74.0060    104.4460    -13.9897     13.6510     13.5124
   635.5000     74.1785    104.0287    -16.1586     13.5890     13.4810
   635.0000     74.2705    105.0836    -10.4051     13.5462     13.4643
   634.5000     74.1530    105.7859     -3.3013     13.5233     13.4856
   634.0000     73.6967    102.8123     -2.0090     13.5308     13.5691
   633.5000     72.9337     98.6029     -4.5771     13.5674     13.7111
   633.0000     72.0414     97.2996     -7.3243     13.6185     13.8809
   632.5000     71.1448     97.6661     -9.3592     13.6857     14.0558
   632.0000     70.4297     97.8600     -9.5166     13.7777     14.1986
   631.5000     69.9293     99.2881     -7.0702     13.8960     14.3002
   631.0000     69.4481    100.5361     -5.1039     14.0342     14.3993
   630.5000     68.9146     99.6461     -6.8762     14.1736     14.5107
   630.0000     68.4161     98.9507    -12.5114     14.2788     14.6164
   629.5000     68.0310     99.0701    -16.1827     14.3342     14.6992
   629.0000     67.8284    100.3143    -11.5870     14.3760     14.7431
   628.5000     67.8332    104.3861    -10.8385     14.4252     14.7421
   628.0000     68.0503    108.6200    -18.6114     14.4413     14.6950
   627.5000     68.5683    107.3135    -20.0397     14.3913     14.5840
   627.0000     69.3616    101.3381    -13.5179     14.3021     14.4172
   626.5000     70.2086     97.0122    -12.0121     14.2085     14.2433
   626.0000     70.8940     99.3156     -7.9709     14.0884     14.1056
   625.5000     71.4433    105.0405      2.8130     13.9171     13.9971
   625.0000     71.9816    107.7202      3.9385     13.7264     13.8924
   624.5000     72.5381    108.0477     -8.0200     13.5687     13.7859
   624.0000     72.9927    108.0361    -15.7566     13.4600     13.7000
   623.5000     73.3479    106.9261     -8.6888     13.3912     13.6337
   623.0000     73.6931    106.3651      1.9801     13.3503     13.5698
   622.5000     74.0465    106.7348      2.7435     13.3271     13.5050
   622.0000     74.3499    104.1517     -2.6983     13.3362     13.4499
   621.5000     74.5319    102.5949     -4.9819     13.4057     13.4171
   621.0000     74.5433    107.5215     -2.2838     13.5073     13.4150
   620.5000     74.4372    113.1120     -2.1789     13.5460     13.4341
   620.0000     74.4609    114.2495     -9.1448     13.4739     13.4299
   619.5000     74.7620    113.6227    -15.8615     13.3519     13.3758
   619.0000     75.1957    112.2215    -14.0809     13.2814     13.2986
   618.5000     75.4666    109.4476    -14.0831     13.3201     13.2509
   618.0000     75.4575    109.0055    -21.9374     13.4369     13.2525
   617.5000     75.1541    109.0917    -24.2176     13.5381     13.3060
   617.0000     74.5760    105.9256    -17.7952     13.5563     13.4091
   616.5000     73.9912    100.5736    -15.0203     13.4969     13.5151
   616.0000     73.8694     95.1449    -17.4182     13.4078     13.5374
   615.5000     74.2393     89.8084    -18.4138     13.3323     13.4700
   615.0000     74.5609     85.5931    -17.3612     13.2863     13.4119
   614.5000     74.2320     82.7026    -13.9226     13.2923     13.4713
   614.0000     72.8235     80.2829     -7.2776     13.4030     13.7318
   613.5000     70.1331     79.6645     -5.9451     13.6713     14.2586
   613.0000     66.4965     79.5654    -11.7355     14.1170     15.0384
   612.5000     62.8235     76.0392    -15.7380     14.7077     15.9176
   612.0000     60.1325     68.4056    -13.6936     15.3745     16.6299
   611.5000     59.1262     62.0115    -10.8305     16.0976     16.9130
   611.0000     59.9903     61.5959    -10.8162     16.8213     16.6694
   610.5000     62.6081     67.1120    -12.9933     17.2337     15.9724
   610.0000     66.6440     78.0373    -12.9110     16.9027     15.0051
   609.5000     71.6665     94.5430     -6.9604     15.7596     13.9535
   609.0000     77.4537    112.8894     -2.9847     14.1259     12.9109
   608.5000     83.9208    127.2032    -12.4046     12.4355     11.9160
   608.0000     90.7677    134.3831    -28.7612     11.0396     11.0171
   607.5000     97.2752    136.0561    -34.1746     10.0850     10.2801
   607.0000    102.7210    136.6817    -26.8522      9.5180      9.7351
   606.5000    106.4737    138.2781    -19.9165      9.2300      9.3920
   606.0000    108.4693    141.1478    -18.2939      9.0992      9.2192
   605.5000    109.2307    143.9450    -17.3554      9.0748      9.1549
   605.0000    109.0912    143.2947    -19.4501      9.1657      9.1666
   604.5000    108.0772    138.2095    -24.6461      9.3497      9.2526
   604.0000    106.8422    134.4172    -23.5777      9.5176      9.3596
   603.5000    107.4756    136.4644    -15.1445      9.5343      9.3044
   603.0000    112.5088    139.9901    -10.7793      9.3252      8.8882
   602.5000    123.7535    140.0272    -14.9410      8.8634      8.0806
   602.0000    141.5916    139.2268    -19.1201      8.1391      7.0626
   601.5000    162.9253    142.5456    -17.6644      7.2731      6.1378
   601.0000    181.1247    151.3546    -15.2186      6.5056      5.5211
   600.5000    190.8554    165.9847    -15.9802      5.9336      5.2396
   600.0000    193.5539    181.0351    -18.1411      5.4290      5.1665
   599.5000    194.0905    181.3941    -18.3378      4.9049      5.1522
   599.0000    195.1251    164.8297    -19.9833      4.5270      5.1249
   598.5000    194.0826    145.7158    -28.2348      4.5482      5.1524
   598.0000    185.3555    134.9441    -36.6573      5.0920      5.3950
   597.5000    167.7677    130.5441    -32.1796      6.0996      5.9606
   597.0000    147.7040    128.4649    -20.7357      7.2916      6.7703
   596.5000    132.1870    128.1789    -18.3329      8.1954      7.5650
   596.0000    123.7508    131.4181    -25.0167      8.5684      8.0808
   595.5000    121.5992    136.8782    -25.0332      8.5286      8.2237
   595.0000    123.2107    140.9454    -18.3015      8.3113      8.1162
   594.5000    125.7617    143.2725    -17.2462      8.0656      7.9515
   594.0000    127.8009    143.4335    -17.8071      7.8409      7.8247
   593.5000    129.1464    140.8264    -12.9994      7.6652      7.7431
   593.0000    129.8353    139.9493    -12.8259      7.5707      7.7021
   592.5000    129.9143    143.6546    -21.4549      7.5677      7.6974
   592.0000    129.6302    147.5205    -27.5815      7.6332      7.7143
   591.5000    129.2950    146.5002    -25.7453      7.7285      7.7343
   591.0000    129.2350    141.9667    -23.6281      7.8121      7.7378
   590.5000    129.6726    139.0226    -25.3507      7.8537      7.7117
   590.0000    130.3592    140.3252    -28.4815      7.8443      7.6711
   589.5000    130.8810    144.2271    -30.2475      7.8000      7.6405
   589.0000    131.3031    146.1600    -30.9099      7.7473      7.6160
   588.5000    131.9543    144.4323    -29.5661      7.7030      7.5784
   588.0000    132.8447    142.7309    -23.3728      7.6717      7.5276
   587.5000    133.8513    142.7721    -15.6108      7.6384      7.4710
   587.0000    135.0266    144.1292    -13.5844      7.5803      7.4059
   586.5000    136.6632    147.1402    -16.8427      7.4963      7.3173
   586.0000    139.1083    151.5541    -14.7858      7.4017      7.1886
   585.5000    142.5891    153.1395    -10.6299      7.2795      7.0132
   585.0000    147.5465    150.3440    -11.5296      7.0872      6.7775
   584.5000    154.7028    146.9390    -13.4612      6.8153      6.4640
   584.0000    164.3750    147.2849    -13.5267      6.4994      6.0836
   583.5000    176.5846    149.8050    -13.1540      6.1456      5.6630
