~Version Information
 VERS.                2.00:   CWLS log ASCII Standard -VERSION 2.00
 WRAP.                  NO:   One line per frame
~Well Information Block
#MNEM.UNIT              Data                Description
#--------- -------------------------------  -------------------------------
 STRT.F                          810.0000:   Starting Depth
 STOP.F                           26.2500:   Ending Depth
 STEP.F                           -0.5000:   Level Spacing
 NULL.                          -999.2500:   Absent Value
 COMP.     FLUOR DANIEL                  :   Company
 WELL.     32-1X14                       :   Well
 FLD .                                   :   Field
 LOC .                                   :   Location
 PROV.                                   :   Province
 SRVC.                                   :   Service Company
 LIC .                                   :   License Number
 DATE.                                   :   Log Date
 UWI .                                   :   Unique Well ID
~Curve Information Block
#MNEM.UNIT       API Codes    Curve Description
#---------    -------------   -------------------------------
 DEPT.F        0   0  0  0:   Depth
 CILD.MMHO     0   0  0  0:   Conductivity of Deep Induction
 GR  .API      0   0  0  0:   Gamma ray counts
 TEN .LBF      0   0  0  0:   Differential Tension
 RILM.OHMM     0   0  0  0:   Resistivity from CILM
 RILD.OHMM     0   0  0  0:   Resistivity from CILD
#  Curve Data
~A
# ...
   250.0000    133.8617    133.2338    -45.3782      7.5793      7.4704
   249.5000    134.7949    131.7435    -43.9715      7.4832      7.4187
   249.0000    135.5804    132.0750    -49.6586      7.4201      7.3757
   248.5000    136.5728    131.4334    -54.0195      7.3895      7.3221
   248.0000    137.9083    127.8433    -53.1039      7.3760      7.2512
   247.5000    139.4685    126.1100    -51.2507      7.3652      7.1701
   247.0000    141.1774    129.7153    -50.7990      7.3402      7.0833
   246.5000    143.0126    134.8359    -50.3872      7.2798      6.9924
   246.0000    144.9279    137.5642    -51.5596      7.1789      6.9000
   245.5000    146.9568    138.3365    -53.0389      7.0582      6.8047
   245.0000    148.7677    139.0730    -51.4459      6.9381      6.7219
   244.5000    149.6933    138.1550    -46.4240      6.8363      6.6803
   244.0000    149.4254    137.1006    -41.9851      6.7830      6.6923
   243.5000    148.1875    137.2739    -40.7532      6.8037      6.7482
   243.0000    146.1667    137.4794    -44.3281      6.8968      6.8415
   242.5000    143.3799    132.8245    -49.3768      7.0376      6.9745
   242.0000    139.9050    126.0265    -50.5714      7.1978      7.1477
   241.5000    136.1616    125.5117    -47.7953      7.3620      7.3442
   241.0000    132.7786    129.5650    -43.5503      7.5327      7.5313
   240.5000    129.9769    128.7727    -40.5070      7.7085      7.6937
   240.0000    127.6254    124.3216    -40.1057      7.8702      7.8354
   239.5000    125.6795    125.2908    -41.8951      8.0009      7.9567
   239.0000    124.2311    129.1041    -46.5848      8.0900      8.0495
   238.5000    123.8797    128.3895    -51.5706      8.1034      8.0723
   238.0000    125.3820    121.9681    -49.5332      8.0144      7.9756
   237.5000    128.5069    114.5700    -40.4964      7.8740      7.7817
   237.0000    132.1001    113.0479    -32.7634      7.7784      7.5700
   236.5000    135.2114    119.7739    -31.9787      7.7412      7.3958
   236.0000    137.6483    125.5769    -36.7574      7.6511      7.2649
   235.5000    140.1341    126.8016    -42.1696      7.4204      7.1360
   235.0000    143.3311    128.7435    -46.6369      7.1259      6.9769
   234.5000    146.6176    130.0030    -51.8951      6.8962      6.8205
   234.0000    148.9778    124.8562    -52.3773      6.7770      6.7124
   233.5000    150.0638    119.0527    -45.7250      6.7507      6.6638
   233.0000    149.7501    118.8785    -39.5341      6.7859      6.6778
   232.5000    148.2227    120.6059    -38.3943      6.8481      6.7466
   232.0000    146.2657    121.9797    -41.1759      6.9141      6.8369
   231.5000    144.5531    123.8991    -45.4358      6.9772      6.9179
   231.0000    143.0962    126.2789    -46.3832      7.0379      6.9883
   230.5000    141.8550    126.7680    -44.0127      7.0989      7.0495
   230.0000    140.8146    126.9088    -43.3997      7.1673      7.1015
   229.5000    139.8004    129.7387    -46.3719      7.2459      7.1531
   229.0000    138.6965    133.9963    -49.9992      7.3196      7.2100
   228.5000    137.5903    137.2912    -50.0828      7.3671      7.2680
   228.0000    136.5818    141.5414    -48.7216      7.3852      7.3216
   227.5000    135.9284    145.9047    -47.6529      7.3800      7.3568
   227.0000    136.2882    143.4691    -46.4372      7.3413      7.3374
   226.5000    138.1674    134.0647    -48.2852      7.2681      7.2376
   226.0000    141.3456    126.1532    -49.6427      7.2092      7.0749
   225.5000    144.8792    123.7729    -44.9698      7.2212      6.9023
   225.0000    147.6646    125.6234    -39.6421      7.2629      6.7721
   224.5000    149.4843    129.1952    -40.6867      7.1974      6.6897
   224.0000    151.4024    132.8812    -44.1701      6.9668      6.6049
   223.5000    154.2630    138.0145    -46.0410      6.6770      6.4824
   223.0000    157.3926    143.7889    -43.8376      6.4505      6.3535
   222.5000    159.6186    143.4402    -40.4576      6.3294      6.2649
   222.0000    160.5459    136.3553    -43.1145      6.3033      6.2287
   221.5000    160.1352    132.8226    -50.8535      6.3435      6.2447
   221.0000    158.6396    134.8748    -55.4185      6.4176      6.3036
   220.5000    156.8066    134.7827    -53.7535      6.4982      6.3773
   220.0000    155.3914    129.8406    -47.8148      6.5641      6.4354
   219.5000    154.4613    126.7084    -41.6017      6.6038      6.4741
   219.0000    153.6010    128.9045    -39.8193      6.6232      6.5104
   218.5000    152.6699    131.9678    -43.6171      6.6378      6.5501
   218.0000    151.7082    134.2058    -50.2158      6.6557      6.5916
   217.5000    150.4289    140.1455    -55.3380      6.6812      6.6477
   217.0000    148.4796    145.9911    -55.4350      6.7316      6.7349
   216.5000    145.9326    144.1890    -51.5270      6.8280      6.8525
   216.0000    143.1476    139.0625    -47.9975      6.9679      6.9858
   215.5000    140.4117    140.6841    -45.1513      7.1265      7.1219
   215.0000    138.0960    145.6671    -44.0158      7.2810      7.2413
   214.5000    136.5120    143.6114    -45.4895      7.4205      7.3254
   214.0000    135.8384    134.7383    -45.6085      7.5325      7.3617
   213.5000    136.0096    129.5935    -42.6305      7.5991      7.3524
   213.0000    136.7973    129.2173    -42.9452      7.6076      7.3101
   212.5000    137.9520    127.6828    -48.4904      7.5549      7.2489
   212.0000    139.2725    128.2290    -53.4817      7.4517      7.1802
   211.5000    140.5143    132.6195    -55.1318      7.3330      7.1167
   211.0000    141.3947    132.6604    -54.5944      7.2453      7.0724
   210.5000    141.7609    127.9331    -52.3752      7.2048      7.0541
   210.0000    141.7877    124.4844    -51.7917      7.1929      7.0528
   209.5000    141.9483    123.3736    -55.2718      7.1904      7.0448
   209.0000    142.3590    124.5657    -60.5184      7.1947      7.0245
   208.5000    142.6186    126.6335    -61.6503      7.2089      7.0117
   208.0000    142.3972    128.0218    -56.6629      7.2304      7.0226
   207.5000    141.6826    129.7885    -49.6644      7.2545      7.0580
   207.0000    140.3826    133.6558    -43.2798      7.2847      7.1234
   206.5000    138.5365    137.5688    -39.8769      7.3277      7.2183
   206.0000    136.7923    136.4336    -40.7608      7.3829      7.3104
   205.5000    136.0955    128.9245    -44.1954      7.4486      7.3478
   205.0000    136.3453    120.1593    -45.1248      7.5334      7.3343
   204.5000    136.5987    114.8584    -42.7665      7.6367      7.3207
   204.0000    136.4277    113.3913    -40.8038      7.7158      7.3299
   203.5000    136.2625    116.3410    -41.7795      7.6992      7.3388
   203.0000    136.7175    121.5754    -45.6951      7.5690      7.3144
   202.5000    137.9578    124.6861    -47.4894      7.4062      7.2486
   202.0000    139.2927    124.4523    -42.4093      7.3110      7.1791
   201.5000    139.7073    122.0262    -36.5277      7.3123      7.1578
   201.0000    138.9076    120.5325    -38.8820      7.3712      7.1990
   200.5000    137.2702    121.0212    -45.1134      7.4547      7.2849
   200.0000    135.4221    121.8327    -45.7082      7.5561      7.3843
   199.5000    133.8305    124.5009    -41.8677      7.6650      7.4721
   199.0000    132.5492    128.9789    -40.7471      7.7612      7.5444
   198.5000    131.4830    129.0212    -43.0181      7.8383      7.6055
   198.0000    130.8190    124.9829    -45.0421      7.8864      7.6441
   197.5000    130.8822    123.0033    -45.2425      7.8853      7.6405
   197.0000    131.8176    124.9532    -47.3357      7.8346      7.5862
   196.5000    133.4562    128.3156    -51.5124      7.7597      7.4931
   196.0000    135.4125    129.6248    -55.1443      7.6826      7.3848
   195.5000    137.3351    128.0928    -55.2730      7.6081      7.2815
   195.0000    139.0570    126.9781    -49.8291      7.5270      7.1913
   194.5000    140.5781    126.8132    -43.0541      7.4260      7.1135
