~Version Information
 VERS.                2.00:   CWLS log ASCII Standard -VERSION 2.00
 WRAP.                  NO:   One line per frame
~Well Information Block
#MNEM.UNIT              Data                Description
#--------- -------------------------------  -------------------------------
 STRT.F                          810.0000:   Starting Depth
 STOP.F                           26.2500:   Ending Depth
 STEP.F                           -0.5000:   Level Spacing
 NULL.                          -999.2500:   Absent Value
 COMP.     FLUOR DANIEL                  :   Company
 WELL.     32-1X14                       :   Well
 FLD .                                   :   Field
 LOC .                                   :   Location
 PROV.                                   :   Province
 SRVC.                                   :   Service Company
 LIC .                                   :   License Number
 DATE.                                   :   Log Date
 UWI .                                   :   Unique Well ID
~Curve Information Block
#MNEM.UNIT       API Codes    Curve Description
#---------    -------------   -------------------------------
 DEPT.F        0   0  0  0:   Depth
 CILD.MMHO     0   0  0  0:   Conductivity of Deep Induction
 GR  .API      0   0  0  0:   Gamma ray counts
 TEN .LBF      0   0  0  0:   Differential Tension
 RILM.OHMM     0   0  0  0:   Resistivity from CILM
 RILD.OHMM     0   0  0  0:   Resistivity from CILD
#  Curve Data
~A
# ...
   698.0000     98.9573     86.9258    142.5643      9.5018     10.1054
   697.5000     99.2572     88.7604    152.9264      9.8652     10.0748
   697.0000     98.1242     93.2701    154.7750     10.2675     10.1912
   696.5000     95.8775    100.7179    152.3192     10.4630     10.4300
   696.0000     94.2395    107.7755    146.9042     10.6417     10.6113
   695.5000     93.5238    110.0629    138.5368     10.8827     10.6925
   695.0000     92.7888    109.6898    131.6700     11.0467     10.7772
   694.5000     92.1349    110.4694    127.5150     11.1104     10.8536
   694.0000     91.8647    110.3223    129.7308     11.1316     10.8856
   693.5000     91.7386    108.2392    135.7415     11.1414     10.9005
   693.0000     91.8580    107.8503    136.0144     11.1551     10.8864
   692.5000     92.1407    109.2679    128.3803     11.1692     10.8530
   692.0000     92.1711    109.7032    120.8126     11.1812     10.8494
   691.5000     91.9108    108.0457    116.4020     11.1916     10.8801
   691.0000     91.6982    106.1360    115.9174     11.1978     10.9053
   690.5000     91.8509    106.3596    119.5990     11.2008     10.8872
   690.0000     92.3067    109.2263    123.4622     11.1941     10.8335
   689.5000     92.6439    111.9856    124.7221     11.1698     10.7940
   689.0000     92.7906    112.6973    123.5912     11.1279     10.7770
   688.5000     93.0204    112.8447    120.3393     11.0765     10.7503
   688.0000     93.3374    114.0479    120.3499     11.0222     10.7138
   687.5000     93.5746    115.2955    126.7052     10.9792     10.6867
   687.0000     93.7214    114.3530    134.2076     10.9731     10.6699
   686.5000     93.6872    110.0897    133.8779     11.0087     10.6738
   686.0000     93.4175    104.5782    126.4292     11.0724     10.7046
   685.5000     93.0596    101.3530    119.3078     11.1440     10.7458
   685.0000     92.6927    101.1974    116.2675     11.2072     10.7883
   684.5000     92.2247    102.6842    117.0297     11.2521     10.8431
   684.0000     91.7455    104.8148    118.7380     11.2829     10.8997
   683.5000     91.3990    105.7184    116.0528     11.3080     10.9410
   683.0000     91.1671    104.1635    109.2745     11.3311     10.9689
   682.5000     90.9824    100.8733    108.7102     11.3561     10.9911
   682.0000     90.8183     97.8294    117.6504     11.3891     11.0110
   681.5000     90.6607     96.9343    126.0650     11.4302     11.0301
   681.0000     90.5951     96.7377    124.6187     11.4682     11.0381
   680.5000     90.6517     96.8395    117.1511     11.4877     11.0312
   680.0000     90.6934     99.3116    112.2421     11.4822     11.0262
   679.5000     90.7540    102.2373    110.8452     11.4570     11.0188
   679.0000     91.0314    101.4077    107.7098     11.4240     10.9852
   678.5000     91.4731     98.9481    103.3501     11.3825     10.9322
   678.0000     91.8782     98.0901    102.3824     11.3254     10.8840
   677.5000     92.1242     99.0505    103.3447     11.2593     10.8549
   677.0000     92.2407    100.7273    102.2680     11.2096     10.8412
   676.5000     92.4203    101.7784     99.5288     11.1856     10.8201
   676.0000     92.6641    101.7900     98.2984     11.1738     10.7917
   675.5000     92.6225    100.9437     97.4273     11.1724     10.7965
   675.0000     92.2749     98.2929     99.9158     11.1985     10.8372
   674.5000     91.9533     95.3369    109.0049     11.2475     10.8751
   674.0000     91.7159     95.1185    119.0046     11.2914     10.9032
   673.5000     91.4303     95.4987    120.7446     11.3263     10.9373
   673.0000     91.0864     93.6277    111.5242     11.3632     10.9786
   672.5000     90.7006     91.8557    101.2014     11.4008     11.0253
   672.0000     90.2790     92.8547     99.2860     11.4387     11.0768
   671.5000     89.7885     95.0349    101.1264     11.4878     11.1373
   671.0000     89.2782     96.6514    101.1029     11.5423     11.2009
   670.5000     88.7647     98.2973    102.0292     11.6006     11.2657
   670.0000     88.1196     99.5727    102.6962     11.6720     11.3482
   669.5000     87.4302     99.3276     99.9293     11.7587     11.4377
   669.0000     86.8940     96.5708     96.4889     11.8489     11.5083
   668.5000     86.4187     92.9860     94.7354     11.9286     11.5716
   668.0000     85.9056     91.6286     96.3730     11.9941     11.6407
   667.5000     85.4577     92.3519    100.5069     12.0527     11.7017
   667.0000     85.0612     91.4731    103.6469     12.1046     11.7562
   666.5000     84.6247     88.9789    101.4052     12.1498     11.8169
   666.0000     84.1763     89.4907     93.3968     12.1990     11.8798
   665.5000     83.7667     93.0052     87.6198     12.2529     11.9379
   665.0000     83.3409     95.5747     89.3095     12.3074     11.9989
   664.5000     82.8898     96.9010     92.6938     12.3637     12.0642
   664.0000     82.4996     98.5023     92.0804     12.4224     12.1213
   663.5000     82.1207    101.0845     89.1192     12.4851     12.1772
   663.0000     81.5412    102.7309     85.3753     12.5597     12.2637
   662.5000     80.7542     99.1954     84.1791     12.6534     12.3832
   662.0000     79.8667     93.0647     87.1019     12.7736     12.5209
   661.5000     78.8971     91.7368     90.5285     12.9184     12.6747
   661.0000     78.1115     94.7918     90.9980     13.0630     12.8022
   660.5000     77.8538     97.0052     89.5800     13.1785     12.8446
   660.0000     78.0838     98.6192     88.3612     13.2556     12.8068
   659.5000     78.5246    100.7559     87.6463     13.2837     12.7349
   659.0000     79.0977    102.0718     87.1254     13.2324     12.6426
   658.5000     79.7707    100.9383     85.0935     13.0749     12.5359
   658.0000     80.6333     98.9811     81.7998     12.8289     12.4018
   657.5000     81.7159     98.6567     79.5702     12.5625     12.2375
   657.0000     82.7480    100.3730     79.9332     12.3434     12.0849
   656.5000     83.3871    101.4832     81.8684     12.1991     11.9923
   656.0000     83.6707     99.6270     83.2583     12.1406     11.9516
   655.5000     83.6216     97.2023     81.9825     12.1815     11.9586
   655.0000     82.9974     96.8787     79.3183     12.3130     12.0486
   654.5000     81.7788     97.1329     78.4127     12.4892     12.2281
   654.0000     80.3995     96.9013     79.6727     12.6813     12.4379
   653.5000     79.1147     94.3185     80.4974     12.8995     12.6399
   653.0000     77.8714     89.8692     80.3629     13.1439     12.8417
   652.5000     76.6933     87.5826     81.8693     13.3812     13.0390
   652.0000     75.5611     88.1020     84.2023     13.5893     13.2343
   651.5000     74.3664     90.6148     84.1891     13.7701     13.4469
   651.0000     73.0893     95.0533     81.5676     13.9402     13.6819
   650.5000     71.8593     95.2889     78.7232     14.1135     13.9161
   650.0000     70.8393     89.0518     76.6685     14.2835     14.1165
   649.5000     70.1089     85.7939     76.0386     14.4340     14.2635
   649.0000     69.5979     88.1776     76.8472     14.5699     14.3683
   648.5000     69.1654     90.3387     76.4525     14.7253     14.4581
   648.0000     68.7713     90.8316     73.6907     14.9224     14.5410
   647.5000     68.4384     91.9917     72.2295     15.1240     14.6117
   647.0000     68.0394     92.6192     73.7715     15.2439     14.6974
   646.5000     67.4262     90.7458     75.3527     15.2509     14.8310
   646.0000     66.6933     89.2168     75.1160     15.2371     14.9940
   645.5000     65.9294     90.8949     75.8581     15.3186     15.1677
   645.0000     64.9540     93.0088     77.5798     15.5005     15.3955
   644.5000     63.5798     92.8854     77.4218     15.7437     15.7283
   644.0000     61.8237     92.1319     74.6368     16.0866     16.1750
   643.5000     59.9633     89.8599     71.6820     16.5657     16.6769
   643.0000     58.4515     85.2635     70.0234     17.0722     17.1082
   642.5000     57.5794     80.5990     69.0523     17.4861     17.3673
