~Version Information
 VERS.                2.00:   CWLS log ASCII Standard -VERSION 2.00
 WRAP.                  NO:   One line per frame
~Well Information Block
#MNEM.UNIT              Data                Description
#--------- -------------------------------  -------------------------------
 STRT.F                          810.0000:   Starting Depth
 STOP.F                           26.2500:   Ending Depth
 STEP.F                           -0.5000:   Level Spacing
 NULL.                          -999.2500:   Absent Value
 COMP.     FLUOR DANIEL                  :   Company
 WELL.     32-1X14                       :   Well
 FLD .                                   :   Field
 LOC .                                   :   Location
 PROV.                                   :   Province
 SRVC.                                   :   Service Company
 LIC .                                   :   License Number
 DATE.                                   :   Log Date
 UWI .                                   :   Unique Well ID
~Curve Information Block
#MNEM.UNIT       API Codes    Curve Description
#---------    -------------   -------------------------------
 DEPT.F        0   0  0  0:   Depth
 CILD.MMHO     0   0  0  0:   Conductivity of Deep Induction
 GR  .API      0   0  0  0:   Gamma ray counts
 TEN .LBF      0   0  0  0:   Differential Tension
 RILM.OHMM     0   0  0  0:   Resistivity from CILM
 RILD.OHMM     0   0  0  0:   Resistivity from CILD
#  Curve Data
~A
# ...
    82.0000      9.5780     76.3543    -53.6788  10000.0000    104.4060
    81.5000     10.9381     80.2031    -51.9638  10000.0000     91.4236
    81.0000     11.8298     81.3452    -49.1782  10000.0000     84.5321
    80.5000     12.2242     80.6822    -46.3280  10000.0000     81.8048
    80.0000     12.2042     78.5751    -45.9650  10000.0000     81.9392
    79.5000     11.8892     75.4386    -49.8965  10000.0000     84.1102
    79.0000     11.6769     74.9778    -56.2423  10000.0000     85.6395
    78.5000     11.7249     78.6655    -59.0745  10000.0000     85.2888
    78.0000     11.8473     80.3044    -54.1866  10000.0000     84.4072
    77.5000     11.7145     76.5963    -46.0800  10000.0000     85.3646
    77.0000     11.2370     72.6644    -43.1654  10000.0000     88.9917
    76.5000     10.9796     71.7527    -46.9322  10000.0000     91.0784
    76.0000     11.8267     71.6511    -51.7649  10000.0000     84.5548
    75.5000     14.1395     70.7790    -54.6389  10000.0000     70.7236
    75.0000     17.3602     69.8405    -57.1850  10000.0000     57.6032
    74.5000     20.6389     70.6836    -58.7655  10000.0000     48.4522
    74.0000     23.8489     73.7940    -58.9565  10000.0000     41.9306
    73.5000     27.2458     78.6000    -57.4214  10000.0000     36.7028
    73.0000     29.7958     81.9736    -52.8412  10000.0000     33.5618
    72.5000     30.1063     81.0412    -47.4684  10000.0000     33.2156
    72.0000     28.2058     78.8884    -46.3209  10000.0000     35.4537
    71.5000     25.7065     81.7240    -46.8580  10000.0000     38.9006
    71.0000     26.1296     87.0876    -46.4365  10000.0000     38.2707
    70.5000     33.6807     88.3587    -45.6637  10000.0000     29.6906
    70.0000     48.4320     84.1770    -44.3028  10000.0000     20.6475
    69.5000     62.0468     79.0507    -43.3716  10000.0000     16.1169
    69.0000     61.3540     76.8842    -46.4948  10000.0000     16.2988
    68.5000     42.1187     76.4693    -52.9550  10000.0000     23.7424
    68.0000     18.3511     74.7385    -55.6347  10000.0000     54.4927
    67.5000      4.3815     73.6990    -50.4107  10000.0000    228.2334
    67.0000      0.9437     73.3018    -46.0074  10000.0000   1059.6533
    66.5000      0.8165     71.2871    -48.9574  10000.0000   1224.7656
    66.0000      0.8178     68.6269    -53.5223  10000.0000   1222.7292
    65.5000      0.8332     69.0849    -51.8363  10000.0000   1200.2622
    65.0000      0.8560     72.4688    -48.3041  10000.0000   1168.1750
    64.5000      0.8788     76.2542    -49.0504  10000.0000   1137.9121
    64.0000      0.9159     75.2386    -51.4041  10000.0000   1091.8779
    63.5000      0.9485     68.5960    -50.8545  10000.0000   1054.2593
    63.0000      0.9554     62.6243    -53.2155  10000.0000   1046.6460
    62.5000      0.9403     62.6389    -58.8449  10000.0000   1063.4355
    62.0000      0.9311     66.4412    -61.4999  10000.0000   1073.9558
    61.5000      0.9977     71.3669    -57.9146  10000.0000   1002.3179
    61.0000      1.1408     75.1928    -50.8886  10000.0000    876.6074
    60.5000      1.2348     74.1827    -44.0966  10000.0000    809.8762
    60.0000      1.2201     71.5098    -41.7081  10000.0000    819.6213
    59.5000      1.1849     73.6160    -45.4365  10000.0000    843.9175
    59.0000      1.2138     78.2189    -50.7245  10000.0000    823.8826
    58.5000      1.2898     79.3155    -52.7321  10000.0000    775.3193
    58.0000      1.3177     76.8609    -52.6823  10000.0000    758.8796
    57.5000      1.2854     75.2154    -51.4498  10000.0000    777.9556
    57.0000      1.2769     77.1333    -46.4518  10000.0000    783.1511
    56.5000      1.3030     79.0187    -43.1203  10000.0000    767.4854
    56.0000      1.2887     75.9876    -48.0040  10000.0000    775.9666
    55.5000      1.2356     69.8153    -54.5709  10000.0000    809.3237
    55.0000      1.1757     58.5061    -54.3281  10000.0000    850.5667
    54.5000      1.1361     42.5877    -51.1561  10000.0000    880.1851
    54.0000      1.1535     36.7716    -52.0797  10000.0000    866.9414
    53.5000      1.2032     48.1334    -56.0477  10000.0000    831.1096
    53.0000      1.2369     63.6681    -58.8839  10000.0000    808.4907
    52.5000      1.2522     71.6522    -60.7090  10000.0000    798.5908
    52.0000      1.2462     74.1832    -59.9822  10000.0000    802.4519
    51.5000      1.2348     74.8594    -55.7479  10000.0000    809.8293
    51.0000      1.2455     75.5674    -52.0370  10000.0000    802.8938
    50.5000      1.2572     74.4879    -51.7908  10000.0000    795.4231
    50.0000      1.2455     68.7097    -50.7910  10000.0000    802.8992
    49.5000      1.2404     62.4150    -43.7846  10000.0000    806.2056
    49.0000      1.2431     64.3925    -36.8120  10000.0000    804.4646
    48.5000      1.2446     72.6543    -35.0695  10000.0000    803.4763
    48.0000      1.2537     77.4567    -32.8741  10000.0000    797.6382
    47.5000      1.2667     76.8008    -26.9336  10000.0000    789.4353
    47.0000      1.2627     73.8462    -24.0291  10000.0000    791.9363
    46.5000      1.2511     69.3731    -26.2852  10000.0000    799.2805
    46.0000      1.2358     64.8198    -29.5780  10000.0000    809.1887
    45.5000      1.2183     63.0553    -31.0761  10000.0000    820.7864
    45.0000      1.2256     66.0358    -32.8866  10000.0000    815.9243
    44.5000      1.2491     71.5438    -35.8293  10000.0000    800.5559
    44.0000      1.2422     73.5765    -39.4911  10000.0000    804.9968
    43.5000      1.1989     72.3653    -42.0339  10000.0000    834.1223
    43.0000      1.1692     75.2090    -40.2210  10000.0000    855.2983
    42.5000      1.1849     79.8640    -36.0772  10000.0000    843.9800
    42.0000      1.2172     76.5089    -35.8149  10000.0000    821.5601
    41.5000      1.2300     68.3887    -39.2023  10000.0000    812.9819
    41.0000      1.2259     66.2029    -42.4865  10000.0000    815.6943
    40.5000      1.2188     67.7518    -43.5885  10000.0000    820.5110
    40.0000      1.2195     64.9456    -43.7220  10000.0000    819.9763
    39.5000      1.2336     60.8781    -43.6275  10000.0000    810.6497
    39.0000      1.2410     61.4014    -41.3815  10000.0000    805.8086
    38.5000      1.2329     62.7863    -36.0955  10000.0000    811.1091
    38.0000      1.2220     60.0423    -35.8177  10000.0000    818.3528
    37.5000      1.2163     54.6821    -39.9864  10000.0000    822.1741
    37.0000      1.2330     49.8191    -41.8866  10000.0000    811.0403
    36.5000      1.2597     47.5272    -43.7626  10000.0000    793.8135
    36.0000      1.2780     46.5588    -49.0086  10000.0000    782.4973
    35.5000      1.2800     44.6829    -50.7096  10000.0000    781.2310
    35.0000      1.2658     42.7195    -46.7614  10000.0000    790.0156
    34.5000      1.2466     41.6917    -44.0722  10000.0000    802.1523
    34.0000      1.2587     40.6651    -48.6539  10000.0000    794.4739
    33.5000      1.3019     42.2210    -55.5258  10000.0000    768.1160
    33.0000      1.3264     47.7749    -56.7416  10000.0000    753.9009
    32.5000      1.3314     53.2294    -51.6557  10000.0000    751.0640
    32.0000      1.3298     56.2217    -48.9476  10000.0000    752.0107
    31.5000      1.3191     56.6578    -52.6945  10000.0000    758.0815
    31.0000      1.3076     55.7507    -54.1881  10000.0000    764.7761
    30.5000      1.3082     54.8308    -47.7944  10000.0000    764.4158
    30.0000      1.3093     55.7486    -45.1342  10000.0000    763.7949
    29.5000      1.2893     57.7851    -52.0010  10000.0000    775.6211
    29.0000      1.2708     60.1689    -53.8572  10000.0000    786.9321
    28.5000      1.2708     60.1689    -53.8572  10000.0000    786.9321
    28.0000      1.2708     60.1689    -53.8572  10000.0000    786.9321
    27.5000      1.2708     60.1689    -53.8572  10000.0000    786.9321
    27.0000      1.2708     60.1689    -53.8572  10000.0000    786.9321
    26.5000      1.2708     60.1689    -53.8572  10000.0000    786.9321
