~Version Information
 VERS.                2.00:   CWLS log ASCII Standard -VERSION 2.00
 WRAP.                  NO:   One line per frame
~Well Information Block
#MNEM.UNIT              Data                Description
#--------- -------------------------------  -------------------------------
 STRT.F                          810.0000:   Starting Depth
 STOP.F                           26.2500:   Ending Depth
 STEP.F                           -0.5000:   Level Spacing
 NULL.                          -999.2500:   Absent Value
 COMP.     FLUOR DANIEL                  :   Company
 WELL.     32-1X14                       :   Well
 FLD .                                   :   Field
 LOC .                                   :   Location
 PROV.                                   :   Province
 SRVC.                                   :   Service Company
 LIC .                                   :   License Number
 DATE.                                   :   Log Date
 UWI .                                   :   Unique Well ID
~Curve Information Block
#MNEM.UNIT       API Codes    Curve Description
#---------    -------------   -------------------------------
 DEPT.F        0   0  0  0:   Depth
 CILD.MMHO     0   0  0  0:   Conductivity of Deep Induction
 GR  .API      0   0  0  0:   Gamma ray counts
 TEN .LBF      0   0  0  0:   Differential Tension
 RILM.OHMM     0   0  0  0:   Resistivity from CILM
 RILD.OHMM     0   0  0  0:   Resistivity from CILD
#  Curve Data
~A
# ...
   474.0000    505.0752    133.8992    -14.4408      1.9145      1.9799
   473.5000    485.1335    129.7403    -22.3425      1.9559      2.0613
   473.0000    450.6504    126.1242    -24.9880      2.1158      2.2190
   472.5000    406.5032    124.8432    -21.9307      2.4139      2.4600
   472.0000    354.9993    126.9557    -17.4134      2.8303      2.8169
   471.5000    303.8123    131.7766    -14.6495      3.3452      3.2915
   471.0000    259.1895    135.1932    -13.9766      3.9147      3.8582
   470.5000    225.5843    136.7018    -14.9773      4.4746      4.4329
   470.0000    200.8799    136.9169    -16.5859      4.9774      4.9781
   469.5000    182.7202    133.0793    -18.3473      5.3998      5.4728
   469.0000    169.2669    127.7567    -20.4301      5.7709      5.9078
   468.5000    159.0081    125.6363    -20.8428      6.1082      6.2890
   468.0000    151.0025    125.2805    -19.0030      6.4137      6.6224
   467.5000    144.7167    124.3256    -15.7118      6.6714      6.9101
   467.0000    140.2172    123.0795     -8.2676      6.8689      7.1318
   466.5000    137.3807    124.7454      0.7375      7.0137      7.2790
   466.0000    135.8751    128.9486     -0.8693      7.1269      7.3597
   465.5000    135.3744    130.6549    -11.5940      7.2273      7.3869
   465.0000    135.5008    128.7606    -16.4517      7.3210      7.3800
   464.5000    135.8445    129.1107    -15.0734      7.4095      7.3614
   464.0000    136.0275    130.6595    -19.2467      7.4975      7.3515
   463.5000    135.7971    130.2765    -25.7908      7.5865      7.3639
   463.0000    135.1278    130.7167    -24.5238      7.6683      7.4004
   462.5000    134.2759    134.2120    -17.1819      7.7407      7.4474
   462.0000    133.4456    134.9674    -13.4773      7.8000      7.4937
   461.5000    132.7063    130.2599    -16.2583      7.8376      7.5354
   461.0000    132.3940    126.9764    -19.7985      7.8522      7.5532
   460.5000    132.8368    130.1668    -22.6514      7.8498      7.5280
   460.0000    133.7237    133.8996    -26.9312      7.8360      7.4781
   459.5000    134.5896    132.9249    -28.0444      7.8186      7.4300
   459.0000    135.2962    130.0273    -22.1888      7.7944      7.3912
   458.5000    135.9789    129.1666    -15.2073      7.7468      7.3541
   458.0000    136.8580    131.3878    -13.8174      7.6745      7.3068
   457.5000    137.8390    133.6844    -16.2559      7.5975      7.2548
   457.0000    138.7254    133.6551    -17.7135      7.5297      7.2085
   456.5000    139.5241    133.4919    -17.1996      7.4632      7.1672
   456.0000    140.2549    133.0644    -17.3759      7.3843      7.1299
   455.5000    141.0655    129.3390    -18.5751      7.2975      7.0889
   455.0000    142.2729    121.4549    -18.5657      7.2279      7.0287
   454.5000    143.9961    114.2633    -16.5127      7.1807      6.9446
   454.0000    145.9566    113.6764    -15.1228      7.1202      6.8514
   453.5000    147.8162    119.5992    -18.4525      7.0243      6.7652
   453.0000    149.6219    126.6907    -23.0455      6.9154      6.6835
   452.5000    151.7186    129.6980    -19.3367      6.8176      6.5911
   452.0000    153.9792    130.8000    -11.0849      6.7294      6.4944
   451.5000    156.2418    132.9287    -12.3260      6.6383      6.4003
   451.0000    159.2909    133.5138    -20.3990      6.5335      6.2778
   450.5000    164.3487    129.3647    -22.1409      6.4015      6.0846
   450.0000    172.3246    123.6823    -20.9117      6.2153      5.8030
   449.5000    184.0509    122.8465    -23.6390      5.9435      5.4333
   449.0000    198.4056    126.6798    -25.0621      5.6040      5.0402
   448.5000    211.3105    128.5192    -21.6782      5.2749      4.7324
   448.0000    219.2899    126.4854    -20.3764      5.0071      4.5602
   447.5000    222.6225    126.2278    -23.7915      4.7581      4.4919
   447.0000    223.7187    128.3783    -26.6030      4.4932      4.4699
   446.5000    224.2853    126.5256    -23.4707      4.2826      4.4586
   446.0000    223.3168    120.6373    -15.0499      4.2638      4.4779
   445.5000    217.6045    116.8531    -10.0982      4.5046      4.5955
   445.0000    206.0618    119.0788    -15.2482      4.9493      4.8529
   444.5000    192.0054    124.5363    -24.1770      5.4318      5.2082
   444.0000    179.5908    128.4532    -25.9738      5.8287      5.5682
   443.5000    170.4716    127.4387    -20.0528      6.0982      5.8661
   443.0000    164.4784    123.5464    -13.4481      6.2705      6.0798
   442.5000    160.7363    123.2350    -10.6018      6.3933      6.2214
   442.0000    157.9333    126.6119    -11.3362      6.4927      6.3318
   441.5000    155.2096    128.0460    -13.9675      6.5750      6.4429
   441.0000    152.6375    123.9070    -16.0521      6.6504      6.5515
   440.5000    150.4128    117.9553    -16.6991      6.7347      6.6484
   440.0000    148.4106    116.1947    -18.6636      6.8340      6.7381
   439.5000    146.6927    120.0454    -24.7730      6.9314      6.8170
   439.0000    145.5871    124.8814    -28.4489      6.9979      6.8687
   438.5000    145.3224    127.6580    -24.8779      7.0215      6.8812
   438.0000    145.8543    128.4351    -21.1011      7.0209      6.8562
   437.5000    146.8065    125.7138    -22.3184      7.0199      6.8117
   437.0000    147.6469    121.8455    -24.3744      7.0187      6.7729
   436.5000    148.2321    122.3415    -24.5976      7.0046      6.7462
   436.0000    148.9911    125.6926    -23.0110      6.9758      6.7118
   435.5000    150.8001    127.2020    -19.7332      6.9230      6.6313
   435.0000    154.5669    127.2518    -18.3741      6.8174      6.4697
   434.5000    160.4470    126.0018    -20.6183      6.6491      6.2326
   434.0000    167.1164    124.1064    -23.3374      6.4584      5.9839
   433.5000    172.6202    125.7196    -24.3533      6.2843      5.7931
   433.0000    176.0704    129.1915    -24.4494      6.1129      5.6795
   432.5000    177.7253    130.3783    -24.1112      5.9082      5.6267
   432.0000    178.4333    129.2248    -24.0209      5.6961      5.6043
   431.5000    178.5743    129.3665    -24.2140      5.5727      5.5999
   431.0000    177.1607    130.5037    -26.2678      5.6138      5.6446
   430.5000    173.0126    129.5942    -30.6330      5.8122      5.7799
   430.0000    166.6313    127.3261    -33.2523      6.1067      6.0013
   429.5000    159.5105    127.8580    -31.1292      6.4397      6.2692
   429.0000    152.9836    127.8855    -26.7943      6.7625      6.5366
   428.5000    147.8718    124.1547    -27.2179      7.0214      6.7626
   428.0000    144.5032    120.5989    -32.6521      7.1889      6.9203
   427.5000    142.3073    120.4437    -32.3099      7.2858      7.0270
   427.0000    140.5720    122.1138    -24.0309      7.3543      7.1138
   426.5000    139.0794    124.8638    -20.6247      7.4145      7.1901
   426.0000    137.7485    127.5081    -23.6064      7.4571      7.2596
   425.5000    136.4680    127.1421    -25.2757      7.4870      7.3277
   425.0000    135.2415    123.6657    -25.9723      7.5335      7.3942
   424.5000    134.1573    122.2546    -27.7260      7.6074      7.4539
   424.0000    133.3592    125.0763    -26.3929      7.6853      7.4985
   423.5000    132.8398    128.5638    -24.2417      7.7461      7.5279
   423.0000    132.4331    129.7122    -25.7585      7.7929      7.5510
   422.5000    132.0919    127.6737    -25.7167      7.8361      7.5705
   422.0000    131.8534    122.4735    -22.3675      7.8717      7.5842
   421.5000    131.6069    118.8493    -23.5981      7.8852      7.5984
   421.0000    131.4585    121.5121    -29.2605      7.8778      7.6070
   420.5000    131.6970    124.5329    -29.7817      7.8669      7.5932
   420.0000    132.2316    127.1349    -26.0333      7.8694      7.5625
   419.5000    132.5837    132.9032    -22.1805      7.8899      7.5424
   419.0000    132.5258    137.7837    -19.3068      7.9126      7.5457
   418.5000    132.3844    136.4799    -18.3024      7.9084      7.5538
