~Version Information
 VERS.                2.00:   CWLS log ASCII Standard -VERSION 2.00
 WRAP.                  NO:   One line per frame
~Well Information Block
#MNEM.UNIT              Data                Description
#--------- -------------------------------  -------------------------------
 STRT.F                          810.0000:   Starting Depth
 STOP.F                           26.2500:   Ending Depth
 STEP.F                           -0.5000:   Level Spacing
 NULL.                          -999.2500:   Absent Value
 COMP.     FLUOR DANIEL                  :   Company
 WELL.     32-1X14                       :   Well
 FLD .                                   :   Field
 LOC .                                   :   Location
 PROV.                                   :   Province
 SRVC.                                   :   Service Company
 LIC .                                   :   License Number
 DATE.                                   :   Log Date
 UWI .                                   :   Unique Well ID
~Curve Information Block
#MNEM.UNIT       API Codes    Curve Description
#---------    -------------   -------------------------------
 DEPT.F        0   0  0  0:   Depth
 CILD.MMHO     0   0  0  0:   Conductivity of Deep Induction
 GR  .API      0   0  0  0:   Gamma ray counts
 TEN .LBF      0   0  0  0:   Differential Tension
 RILM.OHMM     0   0  0  0:   Resistivity from CILM
 RILD.OHMM     0   0  0  0:   Resistivity from CILD
#  Curve Data
~A
# ...
   530.0000    218.2095    146.1033      3.9796      4.3580      4.5828
   529.5000    211.0028    145.8954      3.0302      4.6788      4.7393
   529.0000    198.9253    145.2923      3.1744      5.1886      5.0270
   528.5000    185.0882    145.9157      3.6987      5.7069      5.4028
   528.0000    173.5106    149.6218      3.4291      6.0908      5.7633
   527.5000    166.4436    152.4922      2.9997      6.2775      6.0080
   527.0000    164.8365    150.5737      3.0979      6.2889      6.0666
   526.5000    168.4732    145.3255      3.1949      6.1934      5.9357
   526.0000    176.3926    143.1953      2.7975      6.0272      5.6692
   525.5000    187.6369    143.0331      1.9014      5.7860      5.3294
   525.0000    199.8311    142.2031      0.3163      5.5007      5.0042
   524.5000    208.8176    142.7157      0.0854      5.2439      4.7889
   524.0000    212.6110    146.9754      2.1621      5.0421      4.7034
   523.5000    213.1540    152.1151      1.6070      4.8348      4.6914
   523.0000    213.4535    155.5749     -1.9700      4.6049      4.6849
   522.5000    214.7183    155.9786     -1.4338      4.4570      4.6573
   522.0000    215.0922    153.9543      3.2821      4.5246      4.6492
   521.5000    211.1743    152.8009      4.1922      4.8332      4.7354
   521.0000    202.4087    154.2084      2.6874      5.2536      4.9405
   520.5000    191.8707    157.2486      2.1127      5.6062      5.2118
   520.0000    182.6596    157.8740     -0.2275      5.8149      5.4747
   519.5000    176.2799    154.5098     -3.4224      5.9021      5.6728
   519.0000    172.8328    149.2427     -3.6197      5.9188      5.7859
   518.5000    170.9523    145.3259     -1.4805      5.9329      5.8496
   518.0000    168.8898    144.4844      0.4441      6.0166      5.9210
   517.5000    165.7272    144.0751      0.4886      6.1931      6.0340
   517.0000    161.6121    143.0780     -2.2671      6.4035      6.1877
   516.5000    157.5535    143.3611     -4.2136      6.5675      6.3470
   516.0000    154.5157    143.8041     -2.3128      6.6586      6.4718
   515.5000    152.7715    141.4421      1.8733      6.6965      6.5457
   515.0000    152.3075    139.7148      3.7655      6.7051      6.5657
   514.5000    152.9065    140.5131      1.9761      6.7034      6.5399
   514.0000    153.8692    141.5274     -0.8086      6.7041      6.4990
   513.5000    154.5504    141.8346     -2.2573      6.7116      6.4704
   513.0000    154.6736    141.1521     -2.0167      6.7162      6.4652
   512.5000    154.2933    139.7164     -1.8751      6.7089      6.4812
   512.0000    153.7062    141.1664     -3.4267      6.6965      6.5059
   511.5000    153.1424    145.5341     -5.5004      6.6928      6.5299
   511.0000    152.6311    147.5971     -5.7416      6.7049      6.5517
   510.5000    152.2272    144.9690     -5.1722      6.7349      6.5691
   510.0000    151.7755    141.6072     -4.3383      6.7823      6.5887
   509.5000    150.9197    142.3228     -4.8773      6.8368      6.6260
   509.0000    149.5748    146.7057     -7.8159      6.8865      6.6856
   508.5000    148.2838    150.2634     -9.3376      6.9289      6.7438
   508.0000    147.7765    149.8945     -7.5277      6.9588      6.7670
   507.5000    148.2270    145.6787     -8.7508      6.9607      6.7464
   507.0000    149.2805    140.7091    -15.2018      6.9248      6.6988
   506.5000    150.7038    139.4270    -17.2035      6.8561      6.6355
   506.0000    152.1170    144.1536     -9.3748      6.7790      6.5739
   505.5000    153.0757    148.5216     -3.6460      6.7207      6.5327
   505.0000    153.7477    145.2066     -6.8390      6.6785      6.5042
   504.5000    154.9400    138.4523     -9.1448      6.6155      6.4541
   504.0000    157.6508    135.7148     -4.9062      6.5065      6.3431
   503.5000    163.0354    137.4915     -3.1766      6.3594      6.1336
   503.0000    171.9970    141.8938     -8.6059      6.1773      5.8141
   502.5000    184.5684    145.9548    -15.6621      5.9307      5.4180
   502.0000    198.8296    145.9210    -17.3646      5.6164      5.0294
   501.5000    211.0411    142.8546    -13.7552      5.2928      4.7384
   501.0000    218.9732    142.8025     -8.8517      4.9989      4.5668
   500.5000    223.7099    147.2121     -7.0553      4.6951      4.4701
   500.0000    227.1844    152.0603     -9.9052      4.3861      4.4017
   499.5000    229.8511    151.7617    -13.2983      4.1696      4.3506
   499.0000    230.0040    147.3459    -13.7265      4.1609      4.3477
   498.5000    224.7594    143.4004    -10.6680      4.3877      4.4492
   498.0000    213.7609    140.6391     -6.0933      4.7728      4.6781
   497.5000    200.4260    137.9101     -4.2255      5.1790      4.9894
   497.0000    188.4869    137.4261     -6.3840      5.5114      5.3054
   496.5000    179.5630    139.8428    -10.5997      5.7537      5.5691
   496.0000    173.4514    143.4595    -13.1049      5.9253      5.7653
   495.5000    168.9158    145.3331    -10.1416      6.0616      5.9201
   495.0000    164.9095    143.0936     -6.2873      6.1864      6.0639
   494.5000    161.0533    139.1014     -9.0920      6.3062      6.2091
   494.0000    157.2953    137.3210    -12.9344      6.4235      6.3575
   493.5000    153.6829    136.2625    -11.1789      6.5425      6.5069
   493.0000    150.3618    133.0102     -8.4720      6.6668      6.6506
   492.5000    147.6334    129.5771     -7.6116      6.7884      6.7735
   492.0000    145.9868    129.9612     -6.9964      6.8866      6.8499
   491.5000    145.8984    133.8972     -7.2157      6.9446      6.8541
   491.0000    147.4970    135.9301     -8.4601      6.9553      6.7798
   490.5000    150.5320    134.0080     -9.2690      6.9148      6.6431
   490.0000    154.7529    131.3764     -9.2464      6.8075      6.4619
   489.5000    160.2623    128.8377     -9.0106      6.6252      6.2398
   489.0000    167.0802    127.7733     -9.0957      6.3924      5.9851
   488.5000    174.7558    131.7561    -12.1146      6.1453      5.7223
   488.0000    183.4702    136.7522    -16.6908      5.8819      5.4505
   487.5000    193.8297    137.6193    -16.6167      5.5794      5.1592
   487.0000    205.1136    136.0947    -10.7943      5.2651      4.8753
   486.5000    215.5370    135.4820     -8.4674      5.0028      4.6396
   486.0000    224.0923    134.7878    -12.5251      4.8001      4.4624
   485.5000    230.3771    136.3094    -13.6600      4.6233      4.3407
   485.0000    233.3822    142.4438     -8.6882      4.4668      4.2848
   484.5000    232.3158    150.8156     -9.6328      4.3870      4.3045
   484.0000    227.5396    153.9849    -18.2122      4.4065      4.3948
   483.5000    220.4670    152.0415    -19.5798      4.4745      4.5358
   483.0000    213.0632    148.3865    -10.6851      4.5599      4.6934
   482.5000    206.3520    142.0855     -7.1062      4.7140      4.8461
   482.0000    199.4391    135.2141    -14.5628      4.9788      5.0141
   481.5000    191.6212    133.8367    -21.0657      5.2788      5.2186
   481.0000    184.4418    137.6302    -19.1400      5.4991      5.4218
   480.5000    180.0686    139.7835    -14.9313      5.5809      5.5534
   480.0000    179.9228    138.4418    -13.8647      5.5474      5.5579
   479.5000    185.6748    136.2642    -14.0160      5.4318      5.3858
   479.0000    198.7259    133.5759    -14.7248      5.2391      5.0321
   478.5000    219.2187    129.7964    -14.7669      4.9569      4.5617
   478.0000    247.7548    128.2526    -10.4106      4.5619      4.0362
   477.5000    287.8645    129.1729     -4.9578      4.0688      3.4739
   477.0000    336.1365    128.8922     -7.0101      3.5329      2.9750
   476.5000    387.8635    124.9007    -14.9602      3.0412      2.5782
   476.0000    436.1384    120.1743    -19.2967      2.6476      2.2929
   475.5000    475.3496    119.3356    -17.0840      2.3434      2.1037
   475.0000    500.2002    125.4168    -11.6696      2.1178      1.9992
   474.5000    510.0371    132.7053     -9.7597      1.9728      1.9606
