~Version Information
 VERS.                2.00:   CWLS log ASCII Standard -VERSION 2.00
 WRAP.                  NO:   One line per frame
~Well Information Block
#MNEM.UNIT              Data                Description
#--------- -------------------------------  -------------------------------
 STRT.F                          810.0000:   Starting Depth
 STOP.F                           26.2500:   Ending Depth
 STEP.F                           -0.5000:   Level Spacing
 NULL.                          -999.2500:   Absent Value
 COMP.     FLUOR DANIEL                  :   Company
 WELL.     32-1X14                       :   Well
 FLD .                                   :   Field
 LOC .                                   :   Location
 PROV.                                   :   Province
 SRVC.                                   :   Service Company
 LIC .                                   :   License Number
 DATE.                                   :   Log Date
 UWI .                                   :   Unique Well ID
~Curve Information Block
#MNEM.UNIT       API Codes    Curve Description
#---------    -------------   -------------------------------
 DEPT.F        0   0  0  0:   Depth
 CILD.MMHO     0   0  0  0:   Conductivity of Deep Induction
 GR  .API      0   0  0  0:   Gamma ray counts
 TEN .LBF      0   0  0  0:   Differential Tension
 RILM.OHMM     0   0  0  0:   Resistivity from CILM
 RILD.OHMM     0   0  0  0:   Resistivity from CILD
#  Curve Data
~A
# ...
   418.0000    132.6095    132.9775    -21.1566      7.8636      7.5409
   417.5000    133.1096    129.9194    -25.1814      7.7993      7.5126
   417.0000    133.3422    127.4625    -25.7771      7.7576      7.4995
   416.5000    132.9542    126.8622    -23.0531      7.7647      7.5214
   416.0000    131.9905    127.5004    -24.3027      7.8132      7.5763
   415.5000    130.6357    127.5016    -31.4083      7.8809      7.6549
   415.0000    129.2113    127.4166    -36.5121      7.9577      7.7393
   414.5000    128.1229    127.9106    -34.3671      8.0376      7.8050
   414.0000    127.5563    126.7990    -29.1019      8.1023      7.8397
   413.5000    127.5554    122.1230    -26.6152      8.1336      7.8397
   413.0000    128.0642    118.9708    -27.0639      8.1272      7.8086
   412.5000    128.9573    123.7955    -27.4597      8.0846      7.7545
   412.0000    130.1504    134.6408    -28.3781      8.0086      7.6834
   411.5000    131.5987    143.2453    -34.0566      7.9040      7.5989
   411.0000    133.0401    146.3119    -41.1067      7.7821      7.5165
   410.5000    134.3919    143.2627    -38.5550      7.6641      7.4409
   410.0000    135.7490    137.3214    -28.4507      7.5755      7.3665
   409.5000    136.9649    131.5070    -23.5695      7.5308      7.3011
   409.0000    137.6549    125.0507    -24.8959      7.5259      7.2645
   408.5000    137.7878    119.8668    -24.3881      7.5339      7.2575
   408.0000    137.9336    121.6286    -25.2720      7.5186      7.2499
   407.5000    138.9035    127.1294    -31.6355      7.4595      7.1992
   407.0000    141.0135    126.9944    -36.7607      7.3653      7.0915
   406.5000    143.7683    123.1991    -34.8188      7.2631      6.9556
   406.0000    146.1139    121.0456    -32.8845      7.1805      6.8440
   405.5000    147.1606    122.0290    -34.6684      7.1255      6.7953
   405.0000    146.8215    126.0272    -33.7537      7.0744      6.8110
   404.5000    145.6441    130.8746    -27.2017      7.0067      6.8661
   404.0000    144.0609    133.7588    -20.8400      6.9551      6.9415
   403.5000    142.0256    135.9756    -19.0424      6.9944      7.0410
   403.0000    139.1697    138.5590    -25.3891      7.1687      7.1855
   402.5000    135.3735    138.0284    -33.7574      7.4514      7.3870
   402.0000    131.1299    135.6140    -31.5321      7.7710      7.6260
   401.5000    127.1425    134.9582    -22.9296      8.0657      7.8652
   401.0000    123.7460    136.2784    -23.1772      8.3150      8.0811
   400.5000    120.9882    136.3512    -30.5662      8.5203      8.2653
   400.0000    118.8901    131.7805    -31.0591      8.6733      8.4111
   399.5000    117.4963    124.8693    -26.4923      8.7562      8.5109
   399.0000    116.9222    122.4608    -28.2805      8.7719      8.5527
   398.5000    117.1840    123.7404    -34.9012      8.7523      8.5336
   398.0000    117.7809    122.4084    -35.6618      8.7409      8.4903
   397.5000    118.0136    120.3058    -29.2239      8.7545      8.4736
   397.0000    117.7939    124.2524    -23.7019      8.7649      8.4894
   396.5000    117.6008    128.6476    -23.3752      8.7373      8.5033
   396.0000    117.8147    125.7266    -26.5932      8.6789      8.4879
   395.5000    118.3955    120.7692    -28.9344      8.6294      8.4463
   395.0000    118.9654    123.8747    -28.1393      8.6178      8.4058
   394.5000    119.0836    129.7267    -26.4099      8.6499      8.3975
   394.0000    118.5070    130.9971    -27.3872      8.7159      8.4383
   393.5000    117.3877    129.3726    -30.5747      8.7949      8.5188
   393.0000    116.2478    127.1272    -32.8354      8.8710      8.6023
   392.5000    115.2713    123.9456    -33.6244      8.9484      8.6752
   392.0000    114.1458    122.7906    -34.4244      9.0339      8.7607
   391.5000    112.9228    122.5858    -36.0663      9.1260      8.8556
   391.0000    112.0018    118.9057    -37.9203      9.2230      8.9284
   390.5000    111.2629    115.8438    -36.6903      9.3249      8.9877
   390.0000    110.4222    119.5001    -31.2668      9.4260      9.0561
   389.5000    109.3488    127.1303    -24.6480      9.5182      9.1451
   389.0000    107.8842    130.3393    -26.1580      9.5907      9.2692
   388.5000    105.8903    129.1436    -36.4024      9.6551      9.4437
   388.0000    103.6028    129.1801    -42.6424      9.7419      9.6522
   387.5000    101.3699    129.7896    -39.0064      9.8822      9.8649
   387.0000     99.3951    124.5602    -35.5008     10.0985     10.0609
   386.5000     97.7018    113.2003    -35.5392     10.3815     10.2352
   386.0000     96.3134    104.1587    -34.3766     10.6915     10.3828
   385.5000     95.2718    104.5955    -31.5812     10.9886     10.4963
   385.0000     94.5735    110.8850    -29.8305     11.2162     10.5738
   384.5000     94.3946    116.0115    -28.8567     11.2827     10.5938
   384.0000     94.9787    116.3094    -29.0146     11.1361     10.5287
   383.5000     96.3302    113.9440    -30.0992     10.8318     10.3810
   383.0000     98.0738    112.1136    -31.8167     10.5121     10.1964
   382.5000     99.5843    113.9402    -33.5790     10.3081     10.0417
   382.0000    100.3234    119.9819    -32.8153     10.2428      9.9678
   381.5000    100.1814    127.1666    -30.6238     10.2531      9.9819
   381.0000     99.4721    129.6102    -32.0131     10.2833     10.0531
   380.5000     98.5478    125.3772    -36.7266     10.3241     10.1474
   380.0000     97.6351    121.4057    -40.2240     10.3941     10.2422
   379.5000     96.7705    121.4057    -37.6135     10.5159     10.3337
   379.0000     95.8357    121.8986    -30.1587     10.6742     10.4345
   378.5000     94.8061    120.0510    -27.9782     10.8211     10.5478
   378.0000     93.7225    117.4548    -34.1777     10.9294     10.6698
   377.5000     92.6907    118.7633    -38.5953     11.0075     10.7886
   377.0000     91.8292    122.9714    -37.4772     11.0652     10.8898
   376.5000     91.1703    127.1887    -35.3062     11.1045     10.9685
   376.0000     90.6673    129.6628    -32.2681     11.1354     11.0293
   375.5000     90.3502    129.8532    -29.4911     11.1721     11.0680
   375.0000     90.2520    126.8561    -31.9753     11.2078     11.0801
   374.5000     90.3590    122.8351    -36.5256     11.2105     11.0670
   374.0000     90.7121    120.3478    -33.3258     11.1565     11.0239
   373.5000     91.4687    120.6382    -26.7448     11.0424     10.9327
   373.0000     92.8392    122.9803    -26.3706     10.8668     10.7713
   372.5000     94.6591    123.9043    -27.0706     10.6569     10.5642
   372.0000     96.3881    124.6287    -23.0870     10.4584     10.3747
   371.5000     97.8896    127.1426    -20.0004     10.2773     10.2156
   371.0000     99.4502    127.4130    -21.3009     10.0938     10.0553
   370.5000    101.2254    125.7138    -26.6637      9.9144      9.8789
   370.0000    103.0763    127.6987    -33.0473      9.7510      9.7015
   369.5000    104.9421    132.7461    -35.9043      9.5982      9.5291
   369.0000    106.8723    136.1171    -34.5428      9.4490      9.3570
   368.5000    109.1513    136.1090    -28.6544      9.2963      9.1616
   368.0000    112.0764    133.7437    -22.5419      9.1259      8.9225
   367.5000    115.4697    129.1674    -24.0221      8.9351      8.6603
   367.0000    118.8054    124.4072    -31.3625      8.7317      8.4171
   366.5000    121.6554    121.7218    -35.4453      8.5322      8.2199
   366.0000    123.8658    123.9684    -36.2441      8.3530      8.0732
   365.5000    125.6153    129.3311    -34.8554      8.1874      7.9608
   365.0000    127.2988    132.6873    -33.4875      8.0273      7.8555
   364.5000    129.0667    134.0298    -36.3938      7.8988      7.7479
   364.0000    130.4883    137.0057    -38.4001      7.8371      7.6635
   363.5000    131.0700    138.8889    -32.7908      7.8365      7.6295
   363.0000    130.9872    136.9786    -29.4581      7.8575      7.6343
   362.5000    130.6935    136.4807    -37.2920      7.8700      7.6515
