~Version Information
 VERS.                2.00:   CWLS log ASCII Standard -VERSION 2.00
 WRAP.                  NO:   One line per frame
~Well Information Block
#MNEM.UNIT              Data                Description
#--------- -------------------------------  -------------------------------
 STRT.F                          810.0000:   Starting Depth
 STOP.F                           26.2500:   Ending Depth
 STEP.F                           -0.5000:   Level Spacing
 NULL.                          -999.2500:   Absent Value
 COMP.     FLUOR DANIEL                  :   Company
 WELL.     32-1X14                       :   Well
 FLD .                                   :   Field
 LOC .                                   :   Location
 PROV.                                   :   Province
 SRVC.                                   :   Service Company
 LIC .                                   :   License Number
 DATE.                                   :   Log Date
 UWI .                                   :   Unique Well ID
~Curve Information Block
#MNEM.UNIT       API Codes    Curve Description
#---------    -------------   -------------------------------
 DEPT.F        0   0  0  0:   Depth
 CILD.MMHO     0   0  0  0:   Conductivity of Deep Induction
 GR  .API      0   0  0  0:   Gamma ray counts
 TEN .LBF      0   0  0  0:   Differential Tension
 RILM.OHMM     0   0  0  0:   Resistivity from CILM
 RILD.OHMM     0   0  0  0:   Resistivity from CILD
#  Curve Data
~A
   810.0000      0.0000      0.0000   -250.0000      0.2000      0.2000
   809.5000      0.0000      0.0000   -250.0000      0.2000      0.2000
   809.0000      0.0000      0.0000   -250.0000      0.2000      0.2000
   808.5000      0.0000      0.0000   -250.0000      0.2000      0.2000
   808.0000      0.0000      0.0000   -250.0000      0.2000      0.2000
   807.5000      0.0000      0.0000   -250.0000      0.2000      0.2000
   807.0000      0.0000      0.0000   -250.0000      0.2000      0.2000
   806.5000      0.0000      0.0000   -250.0000      0.2000      0.2000
   806.0000      0.0000      0.0000   -250.0000      0.2000      0.2000
   805.5000      0.0000      0.0000   -250.0000      0.2000      0.2000
   805.0000      0.0000      0.0000   -250.0000      0.2000      0.2000
   804.5000      0.0000      0.0000   -250.0000      0.2000      0.2000
   804.0000      0.0000      0.0000   -250.0000      0.2000      0.2000
   803.5000      0.0000      0.0000   -250.0000      0.2000      0.2000
   803.0000      0.0000      0.0000   -250.0000      0.2000      0.2000
   802.5000      0.0000      0.0000   -250.0000      0.2000      0.2000
   802.0000      0.0000      0.0000   -250.0000      0.2000      0.2000
   801.5000      0.0000      0.0000   -250.0000      0.2000      0.2000
   801.0000      0.0000      0.0000   -250.0000      0.2000      0.2000
   800.5000      0.0000      0.0000   -250.0000      0.2000      0.2000
   800.0000      0.0000      0.0000   -204.9843      0.2000      0.2000
   799.5000      0.0000      0.0000   -201.1425      0.2000      0.2000
   799.0000      0.0000      0.0000   -196.6765      0.2000      0.2000
   798.5000      0.0000      0.0000   -188.5677      0.2000      0.2000
   798.0000      0.0000      0.0000   -183.6786      0.2000      0.2000
   797.5000      0.0000      0.0000   -183.0744      0.2000      0.2000
   797.0000      0.0000      0.0000   -178.1505      0.2000      0.2000
   796.5000      0.0000      0.0000   -170.3388      0.2000      0.2000
   796.0000      0.0000      0.0000   -166.2884      0.2000      0.2000
   795.5000      0.0000      0.0000   -161.6832      0.2000      0.2000
   795.0000      0.0000      0.0000   -152.2929      0.2000      0.2000
   794.5000      0.0000      0.0000   -148.2754      0.2000      0.2000
   794.0000      0.0000      0.0000   -154.6594      9.2971      0.2000
   793.5000      0.0000      0.0000   -159.2389      9.2956      0.2000
   793.0000      0.0000      0.0000   -155.3865      9.3003      0.2000
   792.5000      0.0000      0.0000   -146.6220      9.3063      0.2000
   792.0000      0.0000      0.0000   -134.3668      9.3037      0.2000
   791.5000      0.0000      0.0000   -122.0567      9.2954      0.2000
   791.0000      0.0000      0.0000   -117.4762      9.2925      0.2000
   790.5000      0.0000      0.0000   -115.3766      9.2956      0.2000
   790.0000      0.0000      0.0000    -93.6277      9.3005      0.2000
   789.5000      0.0000      0.0000    -25.2644      9.3036      0.2000
   789.0000      0.0000      0.0000     78.7492      9.3021      0.2000
   788.5000      0.0000      0.0000    166.5864      9.3009      0.2000
   788.0000      0.0000      0.0000    205.2717      9.3033      0.2000
   787.5000      0.0000      0.0000    211.4924      9.3024      0.2000
   787.0000      0.0000      0.0000    207.4854      9.2972      0.2000
   786.5000      0.0000      0.0000    200.9114      9.2944      0.2000
   786.0000      0.0000      0.0000    193.1382      9.2941      0.2000
   785.5000      0.0000      0.0000    186.2000      9.2958      0.2000
   785.0000      0.0000      0.0000    182.5202      9.2986      0.2000
   784.5000      0.0000      0.0000    181.5073      9.2969      0.2000
   784.0000    104.9813      0.0000    181.3819      9.2954      9.5255
   783.5000    104.9060      0.0000    179.9189      9.3223      9.5323
   783.0000    104.9416      0.0000    174.7534      9.3960      9.5291
   782.5000    105.0419      0.0000    164.6996      9.4694      9.5200
   782.0000    104.9820      0.0000    156.4122      9.4780      9.5254
   781.5000    104.8128      0.0000    155.7861      9.4379      9.5408
   781.0000    104.6148      0.0000    159.6784      9.4052      9.5589
   780.5000    104.2760      0.0000    159.7950      9.3862      9.5899
   780.0000    103.8530      0.0000    157.6654      9.3615      9.6290
   779.5000    103.5182      0.0000    158.7733      9.2940      9.6601
   779.0000    103.2922      0.0000    160.5090      9.1416      9.6813
   778.5000    103.2762      0.0000    158.1581      8.9542      9.6828
   778.0000    103.6794      0.0000    154.5657      8.8437      9.6451
   777.5000    104.2830      0.0000    154.0338      8.8259      9.5893
   777.0000    104.7323      0.0000    155.4902      8.8162      9.5481
   776.5000    105.0544    107.0427    154.9760      8.7632      9.5189
   776.0000    105.5076    105.0637    152.1877      8.6825      9.4780
   775.5000    106.2527    105.6237    146.6068      8.5767      9.4115
   775.0000    107.5143    108.8295    139.7607      8.4306      9.3011
   774.5000    109.6496    112.9070    141.8597      8.2615      9.1200
   774.0000    113.1421    114.4430    155.6759      8.1000      8.8384
   773.5000    118.3159    111.9250    163.6743      7.9263      8.4519
   773.0000    125.2327    109.5700    159.5446      7.7129      7.9851
   772.5000    133.2408    109.5903    155.2392      7.4677      7.5052
   772.0000    140.3965    109.4234    152.8779      7.2207      7.1227
   771.5000    144.7441    107.2230    145.8290      7.0001      6.9087
   771.0000    146.3590    105.2959    135.9900      6.8069      6.8325
   770.5000    146.7263    105.1781    127.5558      6.5695      6.8154
   770.0000    146.8486    107.5319    122.4294      6.2663      6.8097
   769.5000    146.5474    110.9309    127.3689      6.0587      6.8237
   769.0000    144.6459    113.4233    140.6830      6.1290      6.9134
   768.5000    140.1020    113.6909    149.3878      6.4795      7.1377
   768.0000    133.7813    111.7141    147.2451      6.9426      7.4749
   767.5000    127.7211    110.2238    142.9514      7.3416      7.8296
   767.0000    122.9482    110.8844    142.3304      7.6042      8.1335
   766.5000    119.5515    111.1489    143.5156      7.7237      8.3646
   766.0000    117.6359    110.7556    143.8865      7.7381      8.5008
   765.5000    116.8598    111.5960    140.0706      7.7320      8.5573
   765.0000    116.4790    111.5270    127.2487      7.7827      8.5852
   764.5000    116.2390    107.9797    114.3646      7.8912      8.6030
   764.0000    116.2627    103.6984    116.7433      7.9820      8.6012
   763.5000    116.5005    100.5845    127.7861      7.9919      8.5837
   763.0000    116.7080    100.6327    128.7396      7.9449      8.5684
   762.5000    116.8140    105.3791    120.8559      7.9015      8.5606
   762.0000    117.1173    109.6371    119.7149      7.8734      8.5384
   761.5000    117.8394    109.2132    128.8542      7.8371      8.4861
   761.0000    118.6888    107.5404    136.0266      7.8058      8.4254
   760.5000    119.1927    107.9127    132.2809      7.8355      8.3898
   760.0000    119.0794    108.5905    121.8798      7.9579      8.3978
   759.5000    118.3524    108.9426    113.3615      8.1164      8.4493
   759.0000    117.4575    109.3037    108.5690      8.1865      8.5137
   758.5000    117.0324    109.1653    104.5695      8.1145      8.5446
   758.0000    117.0305    107.9639     99.0582      7.9973      8.5448
   757.5000    116.6200    108.1405     95.1359      7.9460      8.5749
   757.0000    115.1632    109.8897     96.2742      7.9673      8.6833
   756.5000    112.8661    108.0841    102.3662      8.0169      8.8601
   756.0000    110.3878    103.4840    107.4920      8.0924      9.0590
   755.5000    108.2901    102.6146    106.1040      8.2124      9.2344
   755.0000    106.9187    105.0938     98.9896      8.3243      9.3529
   754.5000    106.5713    105.0492     95.5632      8.3172      9.3834
