~Version Information
 VERS.                2.00:   CWLS log ASCII Standard -VERSION 2.00
 WRAP.                  NO:   One line per frame
~Well Information Block
#MNEM.UNIT              Data                Description
#--------- -------------------------------  -------------------------------
 STRT.F                          810.0000:   Starting Depth
 STOP.F                           26.2500:   Ending Depth
 STEP.F                           -0.5000:   Level Spacing
 NULL.                          -999.2500:   Absent Value
 COMP.     FLUOR DANIEL                  :   Company
 WELL.     32-1X14                       :   Well
 FLD .                                   :   Field
 LOC .                                   :   Location
 PROV.                                   :   Province
 SRVC.                                   :   Service Company
 LIC .                                   :   License Number
 DATE.                                   :   Log Date
 UWI .                                   :   Unique Well ID
~Curve Information Block
#MNEM.UNIT       API Codes    Curve Description
#---------    -------------   -------------------------------
 DEPT.F        0   0  0  0:   Depth
 CILD.MMHO     0   0  0  0:   Conductivity of Deep Induction
 GR  .API      0   0  0  0:   Gamma ray counts
 TEN .LBF      0   0  0  0:   Differential Tension
 RILM.OHMM     0   0  0  0:   Resistivity from CILM
 RILD.OHMM     0   0  0  0:   Resistivity from CILD
#  Curve Data
~A
# ...
   362.0000    130.2145    139.9793    -46.8642      7.8780      7.6796
   361.5000    129.3918    140.6273    -48.3764      7.9021      7.7285
   361.0000    128.2783    136.3706    -43.1270      7.9512      7.7955
   360.5000    127.0180    133.8573    -37.3366      8.0098      7.8729
   360.0000    125.8273    137.5728    -34.2115      8.0603      7.9474
   359.5000    124.9139    142.3577    -31.8606      8.1125      8.0055
   359.0000    124.3816    141.5164    -29.3264      8.1900      8.0398
   358.5000    124.1367    137.0236    -32.8827      8.2804      8.0556
   358.0000    124.0103    135.8130    -40.7526      8.3376      8.0638
   357.5000    124.0551    139.0709    -40.0712      8.3415      8.0609
   357.0000    124.5988    143.1882    -28.3702      8.3125      8.0258
   356.5000    125.6085    145.1328    -18.1054      8.2674      7.9612
   356.0000    126.6095    144.0617    -18.0780      8.2006      7.8983
   355.5000    127.3897    140.2185    -25.3699      8.1175      7.8499
   355.0000    128.1796    135.7834    -32.3236      8.0326      7.8016
   354.5000    129.3013    131.4080    -35.8402      7.9504      7.7339
   354.0000    130.8670    128.2602    -39.1117      7.8757      7.6413
   353.5000    132.6393    128.4648    -41.9241      7.8269      7.5392
   353.0000    134.1737    130.5029    -41.3302      7.8009      7.4530
   352.5000    135.3573    130.1058    -37.5019      7.7559      7.3879
   352.0000    136.4890    127.1961    -33.1068      7.6597      7.3266
   351.5000    137.9187    127.1061    -29.8217      7.5265      7.2506
   351.0000    139.5359    132.7733    -28.1091      7.4021      7.1666
   350.5000    140.7229    142.9941    -27.1609      7.3238      7.1062
   350.0000    140.9290    149.3757    -28.0820      7.2992      7.0958
   349.5000    140.2291    147.4028    -31.2253      7.3163      7.1312
   349.0000    138.9649    140.6010    -35.1073      7.3656      7.1961
   348.5000    137.3756    137.3488    -37.5059      7.4425      7.2793
   348.0000    135.6832    139.5319    -37.9817      7.5370      7.3701
   347.5000    134.0890    141.2532    -37.2890      7.6360      7.4577
   347.0000    132.6573    140.3250    -36.5863      7.7390      7.5382
   346.5000    131.2713    140.7410    -37.0389      7.8456      7.6178
   346.0000    129.8582    142.5527    -41.1018      7.9392      7.7007
   345.5000    128.5398    141.2312    -47.4064      8.0011      7.7797
   345.0000    127.5392    138.1610    -48.8271      8.0380      7.8407
   344.5000    126.7831    135.8263    -43.7654      8.0652      7.8875
   344.0000    126.0920    134.8122    -39.4786      8.0918      7.9307
   343.5000    125.4425    132.6956    -39.0644      8.1255      7.9718
   343.0000    124.8196    130.6473    -39.0098      8.1730      8.0116
   342.5000    124.2431    133.1050    -39.4874      8.2278      8.0487
   342.0000    123.8128    139.4158    -41.6554      8.2738      8.0767
   341.5000    123.6186    144.5511    -42.8074      8.3017      8.0894
   341.0000    123.7740    144.7153    -39.4780      8.2990      8.0792
   340.5000    124.3917    142.5254    -35.5404      8.2615      8.0391
   340.0000    125.3758    142.4111    -34.8142      8.2113      7.9760
   339.5000    126.4579    142.9453    -35.9909      8.1710      7.9078
   339.0000    127.6343    135.8954    -35.1805      8.1247      7.8349
   338.5000    129.0071    125.1500    -34.6953      8.0464      7.7515
   338.0000    130.4843    123.6652    -36.3447      7.9371      7.6638
   337.5000    131.8951    132.3446    -38.9634      7.8274      7.5818
   337.0000    133.1694    140.1994    -40.0642      7.7459      7.5092
   336.5000    134.1114    143.8730    -39.3026      7.6949      7.4565
   336.0000    134.5172    146.6992    -38.7118      7.6636      7.4340
   335.5000    134.4827    144.1710    -37.9728      7.6471      7.4359
   335.0000    134.1861    134.4850    -33.9724      7.6478      7.4523
   334.5000    133.7035    126.8147    -30.5387      7.6616      7.4792
   334.0000    133.1500    129.5905    -33.6070      7.6819      7.5103
   333.5000    132.7304    139.0590    -39.1968      7.7081      7.5341
   333.0000    132.4187    146.7912    -40.4985      7.7385      7.5518
   332.5000    132.0821    148.5740    -40.3820      7.7637      7.5710
   332.0000    131.6705    145.5290    -40.5522      7.7821      7.5947
   331.5000    131.3097    142.2520    -38.6649      7.7929      7.6156
   331.0000    130.9909    140.5804    -36.6729      7.7928      7.6341
   330.5000    130.4814    139.8613    -37.0886      7.7907      7.6639
   330.0000    129.6927    140.3766    -38.3696      7.7998      7.7105
   329.5000    128.9136    139.1233    -39.6299      7.8199      7.7571
   329.0000    128.4912    133.6175    -40.3039      7.8465      7.7826
   328.5000    128.2343    128.9508    -39.4469      7.8717      7.7982
   328.0000    127.7574    129.0209    -38.8149      7.8885      7.8273
   327.5000    127.1675    132.2701    -41.0719      7.8980      7.8636
   327.0000    126.9308    136.3725    -43.2472      7.9101      7.8783
   326.5000    126.9553    140.0531    -41.9561      7.9370      7.8768
   326.0000    126.7965    142.8232    -40.2823      7.9770      7.8867
   325.5000    126.3342    145.2158    -41.4705      8.0159      7.9155
   325.0000    125.6555    142.8520    -41.6847      8.0570      7.9583
   324.5000    125.0215    134.4957    -38.8314      8.1056      7.9986
   324.0000    124.8042    128.4203    -39.1583      8.1430      8.0126
   323.5000    125.0841    130.7913    -43.5351      8.1633      7.9946
   323.0000    125.4854    135.6660    -46.1209      8.1853      7.9691
   322.5000    125.5994    138.1631    -44.4699      8.2133      7.9618
   322.0000    125.5694    137.7947    -42.2495      8.2280      7.9637
   321.5000    125.4658    134.2130    -41.4788      8.2215      7.9703
   321.0000    125.0605    131.8551    -40.9090      8.2108      7.9961
   320.5000    124.4264    132.4728    -37.6230      8.2205      8.0369
   320.0000    123.7799    133.5699    -32.8275      8.2594      8.0789
   319.5000    123.0210    134.9271    -32.2742      8.3284      8.1287
   319.0000    122.1652    135.3234    -38.2019      8.4264      8.1856
   318.5000    121.5484    132.9471    -43.3402      8.5246      8.2272
   318.0000    121.3728    131.9111    -42.6167      8.5787      8.2391
   317.5000    121.6578    133.0168    -41.3598      8.5762      8.2198
   317.0000    122.2691    132.2069    -41.1988      8.5428      8.1787
   316.5000    123.2030    132.5641    -39.2209      8.4954      8.1167
   316.0000    124.5287    135.9998    -37.9258      8.4211      8.0303
   315.5000    125.9109    137.0266    -39.7088      8.3085      7.9421
   315.0000    126.9240    132.9806    -39.9986      8.1851      7.8787
   314.5000    127.1842    127.4523    -39.0671      8.1014      7.8626
   314.0000    126.4454    121.7799    -40.0663      8.0800      7.9086
   313.5000    124.9716    117.5426    -40.0977      8.1145      8.0018
   313.0000    123.5505    117.9868    -37.9270      8.1959      8.0939
   312.5000    122.6537    120.1919    -36.3856      8.3099      8.1530
   312.0000    122.0445    120.5975    -37.1033      8.4395      8.1937
   311.5000    121.2121    121.6015    -38.2546      8.5793      8.2500
   311.0000    120.0723    125.1932    -38.7759      8.7028      8.3283
   310.5000    119.2244    128.2533    -38.2888      8.7448      8.3875
   310.0000    119.2986    128.6950    -37.5510      8.6838      8.3823
   309.5000    120.2581    127.2609    -37.3561      8.5791      8.3154
   309.0000    121.5970    126.9939    -38.8231      8.4898      8.2239
   308.5000    123.0576    129.3496    -40.5772      8.4182      8.1263
   308.0000    124.8552    132.4707    -41.0417      8.3478      8.0093
   307.5000    127.1253    133.7582    -40.7343      8.2726      7.8663
   307.0000    129.6113    133.1180    -39.6567      8.1867      7.7154
   306.5000    132.0454    131.9805    -37.1075      8.0643      7.5732
