~Version Information
 VERS.                2.00:   CWLS log ASCII Standard -VERSION 2.00
 WRAP.                  NO:   One line per frame
~Well Information Block
#MNEM.UNIT              Data                Description
#--------- -------------------------------  -------------------------------
 STRT.F                          810.0000:   Starting Depth
 STOP.F                           26.2500:   Ending Depth
 STEP.F                           -0.5000:   Level Spacing
 NULL.                          -999.2500:   Absent Value
 COMP.     FLUOR DANIEL                  :   Company
 WELL.     32-1X14                       :   Well
 FLD .                                   :   Field
 LOC .                                   :   Location
 PROV.                                   :   Province
 SRVC.                                   :   Service Company
 LIC .                                   :   License Number
 DATE.                                   :   Log Date
 UWI .                                   :   Unique Well ID
~Curve Information Block
#MNEM.UNIT       API Codes    Curve Description
#---------    -------------   -------------------------------
 DEPT.F        0   0  0  0:   Depth
 CILD.MMHO     0   0  0  0:   Conductivity of Deep Induction
 GR  .API      0   0  0  0:   Gamma ray counts
 TEN .LBF      0   0  0  0:   Differential Tension
 RILM.OHMM     0   0  0  0:   Resistivity from CILM
 RILD.OHMM     0   0  0  0:   Resistivity from CILD
#  Curve Data
~A
# ...
   586.0000     79.4628    100.0449     30.3679     12.9272     12.5845
   585.5000     79.2832     96.3624     30.1642     12.9147     12.6130
   585.0000     78.7767     92.6468     30.0559     12.9497     12.6941
   584.5000     78.1571     91.3777     30.2173     13.0317     12.7947
   584.0000     77.5261     92.1767     31.8871     13.1349     12.8989
   583.5000     76.8792     93.4270     32.8241     13.2421     13.0074
   583.0000     76.2601     94.3973     30.8715     13.3545     13.1130
   582.5000     75.7285     94.3084     29.5280     13.4826     13.2051
   582.0000     75.2603     93.4331     33.7641     13.6351     13.2872
   581.5000     74.8274     93.4469     37.9640     13.7855     13.3641
   581.0000     74.4054     93.0672     35.4559     13.8814     13.4399
   580.5000     74.1315     92.8885     30.4631     13.8965     13.4895
   580.0000     74.2452     93.5140     29.0387     13.8499     13.4689
   579.5000     74.8514     93.5101     28.2104     13.7668     13.3598
   579.0000     75.6949     91.5580     24.4942     13.6799     13.2109
   578.5000     76.4069     92.5258     22.1329     13.6237     13.0878
   578.0000     76.8393     98.3416     23.3322     13.5805     13.0142
   577.5000     77.1201    100.2011     24.5647     13.4917     12.9668
   577.0000     77.5265     93.9510     22.1704     13.3400     12.8988
   576.5000     78.1777     88.8600     16.6320     13.1673     12.7914
   576.0000     78.8898     90.2059     14.3530     13.0321     12.6759
   575.5000     79.3430     92.4944     17.4118     12.9801     12.6035
   575.0000     79.4885     93.2151     21.8234     13.0064     12.5804
   574.5000     79.5586     92.3643     22.1457     13.0635     12.5693
   574.0000     79.6517     90.8568     20.5610     13.1084     12.5547
   573.5000     79.7188     89.2871     19.5307     13.1203     12.5441
   573.0000     79.8251     89.7590     19.3114     13.0896     12.5274
   572.5000     79.9534     93.4253     20.0669     13.0290     12.5073
   572.0000     79.8916     96.8944     22.1903     12.9702     12.5170
   571.5000     79.6304     96.5055     24.1645     12.9521     12.5580
   571.0000     79.2326     94.9476     26.4209     12.9967     12.6211
   570.5000     78.5114     94.2567     28.0441     13.1075     12.7370
   570.0000     77.2785     93.0512     24.7379     13.2902     12.9402
   569.5000     75.5704     90.9055     19.3410     13.5626     13.2327
   569.0000     73.5353     89.4672     19.3980     13.9342     13.5989
   568.5000     71.2851     89.4875     22.8482     14.3822     14.0282
   568.0000     69.0704     90.1660     23.3877     14.8521     14.4780
   567.5000     67.0872     86.9555     21.4022     15.2890     14.9060
   567.0000     65.4049     81.1543     20.5015     15.6494     15.2894
   566.5000     64.0368     78.5090     21.9509     15.9015     15.6160
   566.0000     62.9273     79.1281     20.7052     16.0634     15.8913
   565.5000     61.7692     78.6721     15.9152     16.2513     16.1893
   565.0000     60.3350     78.4723     14.9453     16.5676     16.5741
   564.5000     58.8913     82.5243     18.9750     16.9236     16.9804
   564.0000     58.0161     86.0475     20.1309     17.1098     17.2366
   563.5000     58.2243     83.3147     17.9916     17.1096     17.1749
   563.0000     59.6988     76.6889     18.5043     17.1038     16.7508
   562.5000     62.2895     72.2595     20.7830     17.0676     16.0541
   562.0000     65.9638     72.8542     21.0575     16.6450     15.1598
   561.5000     71.1044     78.4934     18.7789     15.6076     14.0638
   561.0000     77.7849     88.9011     15.6514     14.2059     12.8560
   560.5000     85.4142    103.2481     13.6243     12.8170     11.7076
   560.0000     93.0355    118.4010     15.1676     11.6075     10.7486
   559.5000     99.8495    127.8067     16.2050     10.5865     10.0151
   559.0000    105.9647    128.8740     13.1891      9.7482      9.4371
   558.5000    111.3752    127.8751     10.1333      9.1180      8.9787
   558.0000    115.9229    128.6398     10.5621      8.7147      8.6264
   557.5000    119.0936    128.5980     11.7059      8.4966      8.3968
   557.0000    120.7467    127.4831     12.0753      8.4093      8.2818
   556.5000    121.1384    126.8674     12.2909      8.4152      8.2550
   556.0000    120.6747    124.8199     12.5898      8.4922      8.2867
   555.5000    119.7106    122.4174     11.3317      8.6155      8.3535
   555.0000    118.8039    122.6358      7.1187      8.7361      8.4172
   554.5000    119.2721    124.0220      6.2976      8.7755      8.3842
   554.0000    122.9430    126.9061     13.3261      8.6575      8.1338
   553.5000    131.5084    133.4651     18.4815      8.3389      7.6041
   553.0000    145.5989    137.8911     14.5271      7.8190      6.8682
   552.5000    163.4719    135.4284      9.6017      7.1664      6.1173
   552.0000    180.6400    133.4716     10.0723      6.5191      5.5359
   551.5000    192.1160    138.8141     12.5041      5.9726      5.2052
   551.0000    196.9234    147.7448     14.9386      5.4988      5.0781
   550.5000    197.9962    152.9204     17.9926      5.0523      5.0506
   550.0000    198.2538    150.9342     18.9939      4.7137      5.0440
   549.5000    196.9427    143.2509     13.8452      4.6728      5.0776
   549.0000    190.2491    137.5056      4.3566      5.0509      5.2563
   548.5000    176.2400    136.1684     -0.0195      5.8225      5.6741
   548.0000    158.6703    133.1093      4.5665      6.7975      6.3024
   547.5000    144.0002    127.1376     10.0809      7.6099      6.9444
   547.0000    135.3596    125.5002     10.8806      8.0241      7.3877
   546.5000    132.5698    129.3747      9.7762      8.0877      7.5432
   546.0000    133.7398    132.6075      9.0841      7.9563      7.4772
   545.5000    136.4105    134.4146      7.2919      7.7475      7.3308
   545.0000    138.7408    135.2782      2.8472      7.5250      7.2077
   544.5000    140.2606    134.8146     -0.9476      7.3296      7.1296
   544.0000    141.3166    133.5973      2.8365      7.1979      7.0763
   543.5000    141.9121    132.3178     10.3831      7.1472      7.0466
   543.0000    141.7392    133.5772     11.0465      7.1650      7.0552
   542.5000    141.2129    138.7412      6.7792      7.2181      7.0815
   542.0000    141.2242    142.6767      5.6385      7.2728      7.0809
   541.5000    141.9533    141.5067      7.7943      7.3021      7.0446
   541.0000    142.7281    138.7696     10.6832      7.3012      7.0063
   540.5000    143.0934    136.6986     12.6087      7.2827      6.9884
   540.0000    143.1159    136.6674     11.5244      7.2500      6.9873
   539.5000    143.0350    139.7770      9.2500      7.2111      6.9913
   539.0000    143.0678    143.7155      8.0938      7.1872      6.9897
   538.5000    143.4808    142.7358      7.6808      7.1832      6.9696
   538.0000    144.4354    136.1440      9.4208      7.1717      6.9235
   537.5000    145.9293    131.3304     11.5305      7.1247      6.8526
   537.0000    148.1270    133.4890      9.3589      7.0399      6.7510
   536.5000    151.4472    136.5806      5.3958      6.9296      6.6030
   536.0000    156.2315    134.9734      5.7987      6.7914      6.4008
   535.5000    162.2200    134.8734      7.3346      6.6059      6.1645
   535.0000    168.7507    140.2794      6.1695      6.3763      5.9259
   534.5000    176.0811    146.6550      3.6606      6.1230      5.6792
   534.0000    185.7942    149.4683      1.0050      5.8338      5.3823
   533.5000    199.0094    149.7856     -0.9330      5.4773      5.0249
   533.0000    213.8944    147.4775     -0.1272      5.0984      4.6752
   532.5000    225.6039    145.2830      2.3769      4.8044      4.4325
   532.0000    230.2075    148.0291      4.8059      4.6479      4.3439
   531.5000    228.5927    154.6566      6.4660      4.5458      4.3746
   531.0000    224.8246    155.3775      6.5752      4.4075      4.4479
   530.5000    221.6944    149.5959      5.3467      4.2940      4.5107
