~Version Information
 VERS.                2.00:   CWLS log ASCII Standard -VERSION 2.00
 WRAP.                  NO:   One line per frame
~Well Information Block
#MNEM.UNIT              Data                Description
#--------- -------------------------------  -------------------------------
 STRT.F                          810.0000:   Starting Depth
 STOP.F                           26.2500:   Ending Depth
 STEP.F                           -0.5000:   Level Spacing
 NULL.                          -999.2500:   Absent Value
 COMP.     FLUOR DANIEL                  :   Company
 WELL.     32-1X14                       :   Well
 FLD .                                   :   Field
 LOC .                                   :   Location
 PROV.                                   :   Province
 SRVC.                                   :   Service Company
 LIC .                                   :   License Number
 DATE.                                   :   Log Date
 UWI .                                   :   Unique Well ID
~Curve Information Block
#MNEM.UNIT       API Codes    Curve Description
#---------    -------------   -------------------------------
 DEPT.F        0   0  0  0:   Depth
 CILD.MMHO     0   0  0  0:   Conductivity of Deep Induction
 GR  .API      0   0  0  0:   Gamma ray counts
 TEN .LBF      0   0  0  0:   Differential Tension
 RILM.OHMM     0   0  0  0:   Resistivity from CILM
 RILD.OHMM     0   0  0  0:   Resistivity from CILD
#  Curve Data
~A
# ...
   642.0000     57.1109     79.4096     67.5230     17.8519     17.5098
   641.5000     56.4710     82.4050     65.6921     18.2703     17.7082
   641.0000     55.4486     84.4360     64.7860     18.6272     18.0347
   640.5000     54.5357     82.9801     65.2258     18.6166     18.3366
   640.0000     54.3441     83.0214     66.4086     18.1765     18.4013
   639.5000     54.8481     85.2150     67.4593     17.6927     18.2322
   639.0000     55.4638     87.3386     67.3284     17.5512     18.0298
   638.5000     55.6128     88.1360     66.2923     17.7795     17.9815
   638.0000     55.0730     85.9725     66.0255     18.1380     18.1577
   637.5000     53.9980     81.8812     67.6395     18.3979     18.5192
   637.0000     52.8464     81.7013     70.4044     18.5280     18.9228
   636.5000     52.2566     84.6181     70.8365     18.5781     19.1364
   636.0000     52.8363     83.1485     67.6133     18.4836     18.9264
   635.5000     54.9801     77.9199     64.7048     18.1569     18.1884
   635.0000     58.5592     76.6879     64.7921     17.6624     17.0767
   634.5000     62.9585     82.2136     65.4731     17.1091     15.8835
   634.0000     67.5660     89.7979     65.5622     16.3990     14.8003
   633.5000     72.3471     95.6072     65.8580     15.3129     13.8223
   633.0000     77.6182     98.5440     65.8382     13.8847     12.8836
   632.5000     83.4547     99.2179     65.0525     12.4603     11.9826
   632.0000     89.4990     99.1118     63.7526     11.3506     11.1733
   631.5000     95.0573     98.3438     62.4225     10.6374     10.5200
   631.0000     99.4002     98.6089     61.0698     10.2355     10.0603
   630.5000    102.1982    102.4828     60.1756     10.0263      9.7849
   630.0000    103.3824    108.2195     59.7208      9.9267      9.6728
   629.5000    103.5099    111.5055     60.3119      9.8917      9.6609
   629.0000    103.2994    110.9935     60.7279      9.8956      9.6806
   628.5000    102.8957    108.8589     57.7334      9.9386      9.7186
   628.0000    101.9689    107.3518     56.1587     10.0185      9.8069
   627.5000    100.5689    105.9581     61.4599     10.1186      9.9434
   627.0000     99.1822    103.7186     64.7185     10.2196     10.0825
   626.5000     98.1125    102.2208     56.8651     10.3147     10.1924
   626.0000     97.2641    100.9963     45.7646     10.4170     10.2813
   625.5000     96.3550    101.4338     40.8792     10.5332     10.3783
   625.0000     95.2763    106.7247     42.1058     10.6378     10.4958
   624.5000     94.2978    114.2921     45.9437     10.6873     10.6047
   624.0000     93.8317    115.5944     50.0194     10.6825     10.6574
   623.5000     94.0536    109.8503     52.7388     10.6678     10.6322
   623.0000     94.6076    105.3218     55.0177     10.6624     10.5700
   622.5000     95.0370    106.8572     55.4993     10.6356     10.5222
   622.0000     95.4107    111.2065     52.4475     10.5666     10.4810
   621.5000     95.9742    111.2538     49.3295     10.4752     10.4195
   621.0000     96.6111    106.7241     49.8382     10.3925     10.3508
   620.5000     97.1284    102.9449     52.9852     10.3378     10.2957
   620.0000     97.5349    101.7993     55.1202     10.3094     10.2527
   619.5000     97.7748    100.3256     55.0921     10.3048     10.2276
   619.0000     97.7857     98.5391     53.3945     10.3356     10.2264
   618.5000     97.7294     99.4451     51.9089     10.3994     10.2323
   618.0000     97.6959    102.5814     50.0249     10.4631     10.2358
   617.5000     97.6010    105.3151     48.2842     10.4976     10.2458
   617.0000     97.3824    104.0895     48.1177     10.5101     10.2688
   616.5000     97.0884    100.1940     48.8165     10.5204     10.2999
   616.0000     96.8181     96.2154     48.6304     10.5415     10.3286
   615.5000     96.6235     92.9355     48.0442     10.5822     10.3494
   615.0000     96.3761     93.6136     47.5583     10.6473     10.3760
   614.5000     95.8929    101.3237     47.4113     10.7354     10.4283
   614.0000     95.2372    107.2893     46.4786     10.8370     10.5001
   613.5000     94.6759    103.9093     44.7380     10.9317     10.5623
   613.0000     94.4354     99.3693     43.9841     10.9867     10.5892
   612.5000     94.6125    101.2671     44.4745     10.9875     10.5694
   612.0000     95.0445    104.1876     45.2126     10.9527     10.5214
   611.5000     95.1086    103.8573     45.5966     10.9238     10.5143
   611.0000     94.0782    101.8295     45.9400     10.9572     10.6295
   610.5000     91.5001    100.9523     48.4099     11.1023     10.9289
   610.0000     87.7147     99.4373     52.5741     11.3691     11.4006
   609.5000     83.7613     93.2565     53.5382     11.7406     11.9387
   609.0000     80.7174     82.8619     50.5961     12.2127     12.3889
   608.5000     79.0079     75.8846     48.8067     12.8294     12.6570
   608.0000     78.4002     73.9567     48.2181     13.6305     12.7551
   607.5000     78.0287     75.8731     44.3192     14.4884     12.8158
   607.0000     77.4729     82.6304     39.8437     15.0285     12.9077
   606.5000     77.5699     93.2851     40.8206     14.8768     12.8916
   606.0000     79.2796    101.2517     46.0727     14.0601     12.6136
   605.5000     82.4051    104.3606     50.0301     13.0250     12.1352
   605.0000     85.7827    106.0185     50.5971     12.2091     11.6574
   604.5000     88.2715    108.1626     48.1510     11.7616     11.3287
   604.0000     89.3927    107.5567     43.3396     11.6119     11.1866
   603.5000     89.3358    103.4798     40.6153     11.6416     11.1937
   603.0000     88.5371     99.9169     41.4501     11.7596     11.2947
   602.5000     87.5010    100.6505     42.7991     11.8946     11.4284
   602.0000     86.7234    103.2216     42.5475     12.0009     11.5309
   601.5000     86.4833    103.2159     41.9558     12.0703     11.5629
   601.0000     86.5945     98.5253     41.3333     12.1194     11.5481
   600.5000     86.7063     95.5582     40.4604     12.1640     11.5332
   600.0000     86.6428     96.7531     39.9830     12.1864     11.5416
   599.5000     86.4790     96.1164     39.7866     12.1537     11.5635
   599.0000     86.2849     94.8264     39.1937     12.0649     11.5895
   598.5000     86.0107     99.7377     38.3971     11.9727     11.6265
   598.0000     85.5192    105.1477     37.9963     11.9416     11.6933
   597.5000     84.8214    102.9667     37.7657     12.0031     11.7895
   597.0000     84.0428     99.0400     37.8752     12.1289     11.8987
   596.5000     83.2742    100.4419     38.3098     12.2733     12.0085
   596.0000     82.4990    104.0692     38.2421     12.4151     12.1214
   595.5000     81.7059    105.0273     37.7114     12.5564     12.2390
   595.0000     80.7969    104.3223     39.1754     12.6985     12.3767
   594.5000     79.7504    104.4280     42.2678     12.8343     12.5391
   594.0000     78.8440    105.0134     43.1892     12.9501     12.6833
   593.5000     78.2445    104.3550     41.0521     13.0411     12.7805
   593.0000     77.7099     99.8326     38.4306     13.1163     12.8684
   592.5000     77.0656     93.2424     36.9562     13.2004     12.9760
   592.0000     76.5228     89.1796     36.6003     13.2982     13.0680
   591.5000     76.2633     89.0459     36.2984     13.3800     13.1125
   591.0000     76.2417     90.9748     33.9377     13.4195     13.1162
   590.5000     76.3957     95.3593     30.8672     13.4143     13.0897
   590.0000     76.7008     99.4651     30.4756     13.3638     13.0377
   589.5000     77.0662     99.3727     33.2490     13.2744     12.9759
   589.0000     77.4333     96.3978     36.9873     13.1805     12.9143
   588.5000     77.8308     94.7536     38.8808     13.1245     12.8484
   588.0000     78.2446     93.8297     37.5141     13.0951     12.7804
   587.5000     78.6301     94.7984     34.3857     13.0541     12.7178
   587.0000     78.9798     98.3005     32.0332     13.0017     12.6615
   586.5000     79.2964    100.9945     31.0152     12.9599     12.6109
