~Version Information
 VERS.                2.00:   CWLS log ASCII Standard -VERSION 2.00
 WRAP.                  NO:   One line per frame
~Well Information Block
#MNEM.UNIT              Data                Description
#--------- -------------------------------  -------------------------------
 STRT.F                          810.0000:   Starting Depth
 STOP.F                           26.2500:   Ending Depth
 STEP.F                           -0.5000:   Level Spacing
 NULL.                          -999.2500:   Absent Value
 COMP.     FLUOR DANIEL                  :   Company
 WELL.     32-1X14                       :   Well
 FLD .                                   :   Field
 LOC .                                   :   Location
 PROV.                                   :   Province
 SRVC.                                   :   Service Company
 LIC .                                   :   License Number
 DATE.                                   :   Log Date
 UWI .                                   :   Unique Well ID
~Curve Information Block
#MNEM.UNIT       API Codes    Curve Description
#---------    -------------   -------------------------------
 DEPT.F        0   0  0  0:   Depth
 CILD.MMHO     0   0  0  0:   Conductivity of Deep Induction
 GR  .API      0   0  0  0:   Gamma ray counts
 TEN .LBF      0   0  0  0:   Differential Tension
 RILM.OHMM     0   0  0  0:   Resistivity from CILM
 RILD.OHMM     0   0  0  0:   Resistivity from CILD
#  Curve Data
~A
# ...
   194.0000    142.0104    124.5747    -41.9411      7.3028      7.0417
   193.5000    143.7071    119.8945    -46.6089      7.1676      6.9586
   193.0000    146.0135    115.1633    -50.2320      7.0377      6.8487
   192.5000    148.6942    112.9541    -51.6600      6.9361      6.7252
   192.0000    151.0199    113.6803    -52.6598      6.8835      6.6216
   191.5000    152.6235    117.0742    -51.6350      6.8741      6.5521
   191.0000    153.6990    123.9675    -50.0307      6.8621      6.5062
   190.5000    154.6132    131.3332    -49.2139      6.7949      6.4678
   190.0000    155.6169    134.2769    -45.9031      6.6785      6.4260
   189.5000    156.5977    131.4832    -40.7440      6.5745      6.3858
   189.0000    157.0497    125.8551    -39.8452      6.5286      6.3674
   188.5000    156.5729    122.3570    -42.3992      6.5395      6.3868
   188.0000    155.3230    122.9527    -44.4388      6.5811      6.4382
   187.5000    153.6529    124.1984    -44.7246      6.6321      6.5082
   187.0000    151.8140    125.2110    -44.9241      6.6944      6.5870
   186.5000    149.9708    127.2821    -46.9733      6.7823      6.6680
   186.0000    148.1982    129.8521    -50.1167      6.8922      6.7477
   185.5000    146.5510    133.3254    -52.7973      6.9950      6.8236
   185.0000    145.3931    135.2989    -52.8406      7.0643      6.8779
   184.5000    145.3519    131.7696    -50.2939      7.0872      6.8799
   184.0000    146.6111    126.5276    -45.7277      7.0547      6.8208
   183.5000    148.5887    128.6951    -42.5316      6.9823      6.7300
   183.0000    150.4427    135.7811    -43.2133      6.9058      6.6470
   182.5000    151.7078    138.4017    -46.8483      6.8372      6.5916
   182.0000    152.2982    134.1125    -49.6439      6.7645      6.5661
   181.5000    152.3646    129.3248    -51.6008      6.6960      6.5632
   181.0000    152.0983    127.7806    -51.6633      6.6566      6.5747
   180.5000    151.6907    127.5919    -49.4503      6.6582      6.5924
   180.0000    151.1216    127.2727    -45.6689      6.7017      6.6172
   179.5000    150.1371    128.4971    -41.6761      6.7892      6.6606
   179.0000    148.3738    132.3377    -39.0580      6.9162      6.7397
   178.5000    145.3856    135.3717    -39.2056      7.0679      6.8783
   178.0000    140.5983    135.3891    -40.4451      7.2391      7.1125
   177.5000    133.8817    133.4380    -41.6194      7.4486      7.4693
   177.0000    125.7770    129.4236    -42.7424      7.7171      7.9506
   176.5000    117.0001    123.7750    -42.7967      8.0607      8.5470
   176.0000    108.2951    119.4497    -41.8158      8.5502      9.2340
   175.5000    100.0407    116.3274    -43.4649      9.3454      9.9959
   175.0000     92.0592    115.5864    -49.0547     10.5754     10.8626
   174.5000     83.5438    116.1438    -51.7249     12.1412     11.9698
   174.0000     75.5374    114.1918    -49.1877     13.6665     13.2385
   173.5000     69.5589    109.8893    -47.4827     14.7424     14.3763
   173.0000     66.0028    107.9744    -46.9572     15.3201     15.1509
   172.5000     64.2796    107.8637    -44.0618     15.5873     15.5570
   172.0000     63.4485    107.0094    -41.2403     15.7377     15.7608
   171.5000     62.7108    108.0999    -42.8372     15.9131     15.9462
   171.0000     61.7516    109.2849    -44.9817     16.1966     16.1939
   170.5000     60.5516    108.3377    -45.9931     16.5755     16.5148
   170.0000     59.2726    105.5869    -47.7130     16.9362     16.8712
   169.5000     58.2428    102.5984    -49.5366     17.1753     17.1695
   169.0000     57.5854     99.1915    -50.1643     17.3085     17.3655
   168.5000     57.1590     98.1718    -50.7035     17.4309     17.4951
   168.0000     56.9148     99.8350    -48.9010     17.5991     17.5701
   167.5000     56.7065    100.6322    -42.3480     17.7528     17.6347
   167.0000     56.2060     99.5507    -35.4139     17.8244     17.7917
   166.5000     55.2581     99.7319    -35.2098     17.8813     18.0969
   166.0000     54.1298    102.4321    -39.6750     18.0040     18.4741
   165.5000     53.2807    104.4900    -42.0180     18.1553     18.7685
   165.0000     52.9791    102.7824    -42.8485     18.3038     18.8754
   164.5000     53.0668     99.8952    -45.7027     18.4821     18.8442
   164.0000     53.2178     99.7165    -50.6035     18.6860     18.7907
   163.5000     53.3611    101.8595    -54.3879     18.8176     18.7402
   163.0000     53.8229    103.3303    -56.0254     18.7306     18.5795
   162.5000     54.8294    103.9764    -55.5405     18.3856     18.2384
   162.0000     56.1028    107.2772    -52.0586     17.9279     17.8244
   161.5000     57.2475    110.3912    -48.6051     17.5257     17.4680
   161.0000     58.2458    107.7765    -46.5021     17.2169     17.1686
   160.5000     59.3101    102.0556    -44.8353     16.9646     16.8605
   160.0000     60.5838    101.2998    -45.3593     16.7317     16.5061
   159.5000     61.9302    104.1081    -48.7936     16.5192     16.1472
   159.0000     62.9966    104.8256    -48.9162     16.3414     15.8739
   158.5000     63.6903    103.2075    -46.4613     16.1937     15.7010
   158.0000     64.2264    102.8470    -47.1890     16.0513     15.5699
   157.5000     64.8333    103.1120    -50.2820     15.8852     15.4242
   157.0000     65.6794    101.9577    -50.9374     15.7104     15.2255
   156.5000     66.7099    103.1807    -49.7403     15.5591     14.9903
   156.0000     67.7238    107.7304    -49.7549     15.4199     14.7659
   155.5000     68.7404    111.9190    -51.8058     15.2524     14.5475
   155.0000     69.8358    114.7072    -55.3901     15.0656     14.3193
   154.5000     70.8017    116.3772    -58.3883     14.8905     14.1240
   154.0000     71.6413    114.3256    -59.1386     14.7125     13.9584
   153.5000     72.6283    109.6504    -58.3248     14.4980     13.7687
   153.0000     73.7996    105.7585    -53.9524     14.2597     13.5502
   152.5000     74.9178    102.8194    -49.6668     14.0392     13.3480
   152.0000     75.8765    100.4834    -49.8345     13.8560     13.1793
   151.5000     76.6309     99.1260    -51.0640     13.7074     13.0496
   151.0000     76.9689     98.3613    -48.1305     13.5759     12.9923
   150.5000     76.8232     96.7297    -44.3366     13.4438     13.0169
   150.0000     76.5723     94.7535    -42.8702     13.3080     13.0596
   149.5000     76.8242     95.8418    -45.2623     13.1755     13.0167
   149.0000     78.0379    100.2248    -50.8459     13.0393     12.8143
   148.5000     80.3132    104.4624    -56.7611     12.8452     12.4512
   148.0000     83.4438    105.5200    -58.6362     12.5026     11.9841
   147.5000     87.1289    104.6054    -54.1909     11.9979     11.4773
   147.0000     91.0255    101.9802    -47.4003     11.4606     10.9859
   146.5000     94.6512     98.8806    -44.8326     11.0225     10.5651
   146.0000     97.6266     97.2919    -45.9269     10.6669     10.2431
   145.5000    100.5224     98.8279    -46.7736     10.2708      9.9480
   145.0000    105.7694    100.5600    -47.1057      9.7370      9.4545
   144.5000    116.4489    100.4151    -48.3330      9.0581      8.5875
   144.0000    134.6189    100.3360    -50.8307      8.2602      7.4284
   143.5000    159.1274    101.3910    -52.4658      7.3898      6.2843
   143.0000    184.7442    105.6122    -51.2003      6.5650      5.4129
   142.5000    203.3590    116.6384    -47.2460      5.8880      4.9174
   142.0000    211.4125    132.5415    -44.5559      5.3277      4.7301
   141.5000    212.1494    140.4465    -43.2752      4.7783      4.7137
   141.0000    211.0029    134.4411    -43.9401      4.2766      4.7393
   140.5000    209.3139    122.1965    -46.5046      4.0187      4.7775
   140.0000    203.0611    112.6153    -49.2352      4.1684      4.9246
   139.5000    187.7990    106.4925    -47.8819      4.8306      5.3248
   139.0000    165.0748    102.7567    -43.3146      5.9801      6.0579
   138.5000    142.7764    100.6830    -42.0879      7.3846      7.0040
