~Version Information
 VERS.                2.00:   CWLS log ASCII Standard -VERSION 2.00
 WRAP.                  NO:   One line per frame
~Well Information Block
#MNEM.UNIT              Data                Description
#--------- -------------------------------  -------------------------------
 STRT.F                          810.0000:   Starting Depth
 STOP.F                           26.2500:   Ending Depth
 STEP.F                           -0.5000:   Level Spacing
 NULL.                          -999.2500:   Absent Value
 COMP.     FLUOR DANIEL                  :   Company
 WELL.     32-1X14                       :   Well
 FLD .                                   :   Field
 LOC .                                   :   Location
 PROV.                                   :   Province
 SRVC.                                   :   Service Company
 LIC .                                   :   License Number
 DATE.                                   :   Log Date
 UWI .                                   :   Unique Well ID
~Curve Information Block
#MNEM.UNIT       API Codes    Curve Description
#---------    -------------   -------------------------------
 DEPT.F        0   0  0  0:   Depth
 CILD.MMHO     0   0  0  0:   Conductivity of Deep Induction
 GR  .API      0   0  0  0:   Gamma ray counts
 TEN .LBF      0   0  0  0:   Differential Tension
 RILM.OHMM     0   0  0  0:   Resistivity from CILM
 RILD.OHMM     0   0  0  0:   Resistivity from CILD
#  Curve Data
~A
# ...
   754.0000    107.5948    102.3236    100.2376      8.1746      9.2941
   753.5000    109.6024    102.0288    103.4697      8.0175      9.1239
   753.0000    111.2132    105.7297     97.3895      7.9338      8.9917
   752.5000    112.1121    106.9495     91.2105      7.8809      8.9196
   752.0000    114.0529    102.8275     94.9657      7.7648      8.7679
   751.5000    119.9880     98.2183    102.3165      7.5033      8.3342
   751.0000    134.3336     96.5286    103.9196      7.0157      7.4442
   750.5000    161.4712     97.3100    103.1751      6.3146      6.1931
   750.0000    200.9161     98.1673    105.6974      5.5591      4.9772
   749.5000    245.9577     96.5949    110.2962      4.8958      4.0657
   749.0000    293.1978     94.5918    111.8917      4.3240      3.4107
   748.5000    333.5190     95.2073    109.0963      3.7880      2.9983
   748.0000    361.9407     96.5823    101.8087      3.2695      2.7629
   747.5000    378.3811     98.5313     89.6300      2.8374      2.6428
   747.0000    384.0322    101.6680     81.2694      2.5547      2.6039
   746.5000    377.7600    103.4594     82.5806      2.4392      2.6472
   746.0000    357.9448    102.4700     88.7068      2.5215      2.7937
   745.5000    323.7517    100.7837     96.0777      2.8300      3.0888
   745.0000    277.0806    100.3640    104.2908      3.4160      3.6091
   744.5000    227.4387    101.9084    102.9674      4.2921      4.3968
   744.0000    184.3167    103.0829     90.7735      5.3721      5.4254
   743.5000    150.9859    101.1340     80.3361      6.4497      6.6231
   743.0000    128.3462     97.8837     78.5921      7.3409      7.7914
   742.5000    114.2025     95.9386     81.5179      7.9738      8.7564
   742.0000    105.2593     95.2069     82.4110      8.4272      9.5004
   741.5000     98.7967     95.0597     82.1404      8.8093     10.1218
   741.0000     93.5842     95.8998     86.8423      9.1765     10.6856
   740.5000     88.8842     97.9674     95.2164      9.5278     11.2506
   740.0000     84.7340    100.8565     97.3984      9.8510     11.8016
   739.5000     81.7790    102.0423     90.3257     10.1278     12.2281
   739.0000     80.5969    100.1416     80.5480     10.3083     12.4074
   738.5000     81.0667     98.6470     73.1170     10.3717     12.3355
   738.0000     82.6071     99.4950     67.5285     10.3848     12.1055
   737.5000     84.5886    100.9673     62.7656     10.4507     11.8219
   737.0000     86.2710    101.8231     63.1402     10.5822     11.5914
   736.5000     87.2853    102.4911     65.7061     10.6680     11.4567
   736.0000     87.8589    102.1137     64.5724     10.6207     11.3819
   735.5000     88.4075    100.4301     61.0320     10.4969     11.3113
   735.0000     89.1194     99.8025     60.2271     10.4137     11.2209
   734.5000     89.9872    101.7052     59.9917     10.4252     11.1127
   734.0000     90.7761    102.3256     56.7337     10.5193     11.0161
   733.5000     91.0496    100.3558     51.4370     10.6629     10.9830
   733.0000     90.2890    100.6795     49.3523     10.8571     11.0755
   732.5000     88.3422    104.8265     55.3139     11.0173     11.3196
   732.0000     85.8355    107.5031     65.3179     10.8721     11.6502
   731.5000     83.5591    106.1839     70.8448     10.2694     11.9676
   731.0000     81.6541    103.6843     71.6302      9.5711     12.2468
   730.5000     79.7450    101.9313     75.0773      9.2950     12.5400
   730.0000     77.4508     99.7288     81.6933      9.5936     12.9114
   729.5000     74.7702     97.0953     84.2620     10.2221     13.3743
   729.0000     72.1882     94.9770     81.3432     10.8680     13.8527
   728.5000     70.1578     94.5292     78.9913     11.5455     14.2536
   728.0000     68.8721     96.2491     80.6807     12.3241     14.5197
   727.5000     68.7043     97.5023     80.5419     12.9484     14.5551
   727.0000     69.7725     95.6395     69.9404     12.9806     14.3323
   726.5000     71.4963     92.5766     53.8962     12.3334     13.9867
   726.0000     73.2460     90.8131     51.2165     11.4899     13.6526
   725.5000     74.8902     90.4767     62.7702     10.9731     13.3529
   725.0000     76.2182     91.5225     74.2211     10.8678     13.1202
   724.5000     77.1847     91.7598     80.0393     10.8993     12.9559
   724.0000     78.0907     89.9797     81.9355     10.8718     12.8056
   723.5000     79.0830     87.7573     75.7184     10.8616     12.6449
   723.0000     80.0012     86.1339     64.6868     11.0180     12.4998
   722.5000     80.8179     84.4726     59.6366     11.3418     12.3735
   722.0000     81.5626     83.9909     68.3096     11.6214     12.2605
   721.5000     82.2056     87.0453     82.0182     11.5653     12.1646
   721.0000     82.9319     91.6256     86.4754     11.1563     12.0581
   720.5000     83.9301     93.0079     82.9816     10.6629     11.9147
   720.0000     85.1115     92.0345     81.8925     10.2978     11.7493
   719.5000     86.1741     90.9506     84.8629     10.1187     11.6044
   719.0000     86.9460     89.7664     89.1051     10.1142     11.5014
   718.5000     87.5609     90.1274     95.6767     10.2309     11.4206
   718.0000     88.2809     92.9543     98.0309     10.3338     11.3275
   717.5000     89.2213     96.1322     92.3912     10.2574     11.2081
   717.0000     90.4406     98.5344     85.3240     10.0091     11.0570
   716.5000     91.9352    100.6345     84.9095      9.7331     10.8772
   716.0000     93.4338    101.0240     92.7041      9.5000     10.7028
   715.5000     94.7466     99.9068    101.8920      9.2889     10.5545
   715.0000     96.0806     99.9702    103.4899      9.1486     10.4079
   714.5000     97.6836    101.1814    103.1665      9.1227     10.2371
   714.0000     99.5835    101.1465    105.3454      9.1426     10.0418
   713.5000    101.7887    100.5711    102.2268      9.1054      9.8243
   713.0000    104.0441    101.9147     94.5085      8.9773      9.6113
   712.5000    106.0444    102.5230     95.1621      8.8073      9.4300
   712.0000    107.5522     99.5105    104.8297      8.6813      9.2978
   711.5000    108.2065     95.6339    112.1720      8.6357      9.2416
   711.0000    108.4219     94.4993    112.6331      8.6145      9.2232
   710.5000    110.1050     95.3078    108.1448      8.5281      9.0822
   710.0000    115.4798     94.2504    104.6620      8.3125      8.6595
   709.5000    126.0717     91.6129    110.2230      7.9328      7.9320
   709.0000    142.0105     90.7249    121.3640      7.4110      7.0417
   708.5000    159.6870     93.9188    124.2628      6.8737      6.2623
   708.0000    173.5031    102.3157    119.5856      6.4625      5.7636
   707.5000    180.8320    113.6574    121.0329      6.1608      5.5300
   707.0000    184.0222    118.8680    124.0041      5.7801      5.4341
   706.5000    185.7878    114.4327    119.7665      5.2612      5.3825
   706.0000    186.7246    107.7667    117.4668      4.8414      5.3555
   705.5000    184.6280    104.3763    121.9430      4.7823      5.4163
   705.0000    176.2324    101.9125    121.0814      5.1520      5.6743
   704.5000    161.7231     99.6506    111.2686      5.8266      6.1834
   704.0000    145.5862     98.6266    104.5125      6.5951      6.8688
   703.5000    131.5108     97.8904    110.1629      7.2635      7.6039
   703.0000    121.1435     96.4766    126.0385      7.7275      8.2547
   702.5000    114.9277     93.9963    137.7627      7.9901      8.7011
   702.0000    111.9638     90.4402    140.6025      8.1416      8.9315
   701.5000    110.2408     88.0986    142.0342      8.2663      9.0711
   701.0000    108.2409     87.6082    139.5692      8.4098      9.2387
   700.5000    105.8080     86.6005    131.2863      8.6204      9.4511
   700.0000    103.2581     85.7447    125.3742      8.9586      9.6845
   699.5000    100.7150     87.0741    123.0373      9.3735      9.9290
   699.0000     98.9149     88.1533    120.8172      9.5861     10.1097
   698.5000     98.4528     87.2911    127.7203      9.4912     10.1572
