~Version Information
 VERS.                2.00:   CWLS log ASCII Standard -VERSION 2.00
 WRAP.                  NO:   One line per frame
~Well Information Block
#MNEM.UNIT              Data                Description
#--------- -------------------------------  -------------------------------
 STRT.F                          810.0000:   Starting Depth
 STOP.F                           26.2500:   Ending Depth
 STEP.F                           -0.5000:   Level Spacing
 NULL.                          -999.2500:   Absent Value
 COMP.     FLUOR DANIEL                  :   Company
 WELL.     32-1X14                       :   Well
 FLD .                                   :   Field
 LOC .                                   :   Location
 PROV.                                   :   Province
 SRVC.                                   :   Service Company
 LIC .                                   :   License Number
 DATE.                                   :   Log Date
 UWI .                                   :   Unique Well ID
~Curve Information Block
#MNEM.UNIT       API Codes    Curve Description
#---------    -------------   -------------------------------
 DEPT.F        0   0  0  0:   Depth
 CILD.MMHO     0   0  0  0:   Conductivity of Deep Induction
 GR  .API      0   0  0  0:   Gamma ray counts
 TEN .LBF      0   0  0  0:   Differential Tension
 RILM.OHMM     0   0  0  0:   Resistivity from CILM
 RILD.OHMM     0   0  0  0:   Resistivity from CILD
#  Curve Data
~A
# ...
   138.0000    127.5432    100.7502    -44.7551      8.5759      7.8405
   137.5000    121.2657    101.9764    -46.1935      9.2104      8.2464
   137.0000    123.1358    102.3234    -45.2461      9.2480      8.1211
   136.5000    132.0806    101.0538    -42.7268      8.8039      7.5711
   136.0000    148.0668    101.6696    -39.8873      8.0014      6.7537
   135.5000    173.5130    102.8225    -39.0101      6.9581      5.7633
   135.0000    211.1339    101.1458    -43.9279      5.8458      4.7363
   134.5000    259.8547     99.5644    -51.0204      4.8422      3.8483
   134.0000    315.8889    103.5545    -52.9742      4.0293      3.1657
   133.5000    368.7195    111.1381    -48.9744      3.4161      2.7121
   133.0000    413.1235    120.4309    -45.8424      2.9365      2.4206
   132.5000    445.5535    131.5147    -47.8237      2.5593      2.2444
   132.0000    465.4973    141.8755    -50.4305      2.2761      2.1482
   131.5000    471.7942    146.8438    -49.8898      2.1068      2.1196
   131.0000    464.1580    144.8542    -48.6868      2.0438      2.1544
   130.5000    441.4248    136.2671    -47.0569      2.0852      2.2654
   130.0000    405.1458    125.5444    -45.7488      2.2541      2.4682
   129.5000    357.9170    117.2300    -48.5545      2.5880      2.7939
   129.0000    305.3611    112.8031    -54.4004      3.0961      3.2748
   128.5000    254.7109    112.4521    -58.8433      3.7706      3.9260
   128.0000    215.6455    116.6026    -59.5430      4.5122      4.6372
   127.5000    188.2664    119.0655    -57.2317      5.1678      5.3116
   127.0000    171.5639    117.9656    -53.7861      5.6066      5.8287
   126.5000    163.4232    118.7415    -52.3484      5.8257      6.1191
   126.0000    161.0038    121.6673    -53.7218      5.9024      6.2110
   125.5000    161.3342    121.6354    -56.9731      5.9116      6.1983
   125.0000    162.5832    118.5489    -58.8653      5.8796      6.1507
   124.5000    164.6754    117.0104    -55.0229      5.8178      6.0725
   124.0000    168.6297    118.1185    -47.6013      5.7262      5.9302
   123.5000    174.9269    120.1177    -42.8150      5.5925      5.7167
   123.0000    182.8682    122.8836    -41.3183      5.4273      5.4684
   122.5000    191.4756    125.7738    -41.2296      5.2645      5.2226
   122.0000    199.8657    124.0960    -41.4022      5.1103      5.0034
   121.5000    207.0580    119.5014    -42.9382      4.9398      4.8296
   121.0000    212.7854    117.2015    -47.8527      4.7629      4.6996
   120.5000    217.1256    118.8717    -50.6882      4.6343      4.6056
   120.0000    219.1692    121.9886    -46.1523      4.5868      4.5627
   119.5000    217.9905    124.3481    -41.8655      4.6116      4.5874
   119.0000    214.3326    124.0147    -47.2787      4.6858      4.6656
   118.5000    209.5905    123.7074    -57.2869      4.7909      4.7712
   118.0000    204.5222    126.1113    -63.1252      4.9116      4.8894
   117.5000    199.6228    128.9349    -64.4175      5.0372      5.0094
   117.0000    195.1855    129.2006    -62.1510      5.1647      5.1233
   116.5000    191.0085    126.9044    -56.5845      5.2891      5.2354
   116.0000    187.1874    121.6302    -52.7772      5.3917      5.3422
   115.5000    184.4943    117.2893    -53.4744      5.4615      5.4202
   115.0000    183.1252    119.1540    -53.7203      5.5065      5.4607
   114.5000    182.3173    123.2659    -49.0226      5.5347      5.4849
   114.0000    181.4683    124.6840    -44.7591      5.5455      5.5106
   113.5000    180.7550    124.4265    -44.5590      5.5384      5.5323
   113.0000    180.4350    123.8567    -46.2029      5.5268      5.5422
   112.5000    180.4951    121.0915    -48.4233      5.5252      5.5403
   112.0000    180.7094    117.5790    -50.9594      5.5417      5.5337
   111.5000    180.8057    115.7799    -52.1989      5.5704      5.5308
   111.0000    180.8313    117.5829    -50.3823      5.5907      5.5300
   110.5000    181.3408    121.8073    -46.7123      5.5775      5.5145
   110.0000    183.1480    124.3437    -43.9581      5.5208      5.4601
   109.5000    186.9199    122.0448    -43.0672      5.4171      5.3499
   109.0000    192.8415    116.3356    -44.5163      5.2738      5.1856
   108.5000    200.1223    113.6081    -46.5189      5.1164      4.9969
   108.0000    208.5508    115.8305    -48.4694      4.9531      4.7950
   107.5000    216.8124    118.2939    -53.5226      4.7600      4.6123
   107.0000    220.1011    117.9177    -58.4786      4.5443      4.5434
   106.5000    217.5682    116.8227    -59.2438      4.3568      4.5963
   106.0000    214.2272    115.8806    -59.1559      4.2444      4.6679
   105.5000    213.8189    114.8670    -60.2875      4.2034      4.6769
   105.0000    228.2911    115.0261    -57.7978      4.1876      4.3804
   104.5000    271.3901    117.0463    -53.8178      4.2108      3.6847
   104.0000    327.1667    119.9654    -52.7058      4.2954      3.0565
   103.5000    369.9236    121.2987    -53.5906      4.1214      2.7033
   103.0000    404.9136    118.0976    -53.2744      3.5816      2.4697
   102.5000    443.2607    116.0085    -50.8124      3.1119      2.2560
   102.0000    481.3628    123.3337    -46.9514      2.8554      2.0774
   101.5000    498.6394    134.5676    -44.3549      2.6199      2.0055
   101.0000    475.4355    140.0719    -44.3028      2.2228      2.1033
   100.5000    481.9487    141.0562    -43.7455      1.7905      2.0749
   100.0000    597.4387    139.6191    -43.5262      1.5212      1.6738
    99.5000    760.4153    135.5739    -46.8529      1.4430      1.3151
    99.0000    862.9836    131.2362    -52.5692      1.4030      1.1588
    98.5000    810.3750    126.2117    -55.1238      1.3537      1.2340
    98.0000    452.1011    120.1385    -52.8284      1.6585      2.2119
    97.5000    -19.9501    116.0688    -49.1971      3.7259  10000.0000
    97.0000   -259.7124    109.4864    -47.8850  10000.0000  10000.0000
    96.5000   -253.8420     95.9400    -48.6527  10000.0000  10000.0000
    96.0000   -185.2128     82.8410    -50.5208  10000.0000  10000.0000
    95.5000   -158.6579     76.2975    -51.4849  10000.0000  10000.0000
    95.0000   -149.5758     72.8396    -51.0863  10000.0000  10000.0000
    94.5000   -101.3808     69.9272    -52.2084  10000.0000  10000.0000
    94.0000     -4.9825     68.8696    -54.8500  10000.0000  10000.0000
    93.5000     78.1291     70.8751    -54.7902  10000.0000     12.7993
    93.0000     97.0480     75.6056    -51.2122  10000.0000     10.3042
    92.5000     87.2915     77.6839    -46.4216  10000.0000     11.4559
    92.0000     75.6709     73.0752    -43.8685  10000.0000     13.2151
    91.5000     71.7781     68.6012    -45.9306  10000.0000     13.9318
    91.0000     83.0377     71.1607    -49.7821  10000.0000     12.0427
    90.5000     94.5098     77.2267    -50.9185  10000.0000     10.5809
    90.0000     88.4627     78.2855    -50.8124  10000.0000     11.3042
    89.5000     70.9335     75.5297    -52.5338  10000.0000     14.0977
    89.0000     56.3250     73.9543    -56.2127  10000.0000     17.7541
    88.5000     46.7422     74.5476    -57.6392  10000.0000     21.3940
    88.0000     37.6572     74.9247    -56.7105  10000.0000     26.5554
    87.5000     25.9249     73.3170    -55.4835  10000.0000     38.5729
    87.0000     13.9760     70.2028    -52.8376  10000.0000     71.5514
    86.5000      7.3708     68.8427    -48.0055  10000.0000    135.6703
    86.0000      5.4212     72.8645    -45.9626  10000.0000    184.4597
    85.5000      4.6584     79.2269    -49.9117  10000.0000    214.6643
    85.0000      4.3182     80.9672    -57.1750  10000.0000    231.5753
    84.5000      4.4099     78.0301    -60.8914  10000.0000    226.7633
    84.0000      4.8568     75.1170    -58.9229  10000.0000    205.8970
    83.5000      5.6210     73.2894    -56.0026  10000.0000    177.9032
    83.0000      6.7358     71.6804    -55.1836  10000.0000    148.4598
    82.5000      8.1050     72.5442    -55.0250  10000.0000    123.3803
