~Version Information
 VERS.                2.00:   CWLS log ASCII Standard -VERSION 2.00
 WRAP.                  NO:   One line per frame
~Well Information Block
#MNEM.UNIT              Data                Description
#--------- -------------------------------  -------------------------------
 STRT.F                          810.0000:   Starting Depth
 STOP.F                           26.2500:   Ending Depth
 STEP.F                           -0.5000:   Level Spacing
 NULL.                          -999.2500:   Absent Value
 COMP.     FLUOR DANIEL                  :   Company
 WELL.     32-1X14                       :   Well
 FLD .                                   :   Field
 LOC .                                   :   Location
 PROV.                                   :   Province
 SRVC.                                   :   Service Company
 LIC .                                   :   License Number
 DATE.                                   :   Log Date
 UWI .                                   :   Unique Well ID
~Curve Information Block
#MNEM.UNIT       API Codes    Curve Description
#---------    -------------   -------------------------------
 DEPT.F        0   0  0  0:   Depth
 CILD.MMHO     0   0  0  0:   Conductivity of Deep Induction
 GR  .API      0   0  0  0:   Gamma ray counts
 TEN .LBF      0   0  0  0:   Differential Tension
 RILM.OHMM     0   0  0  0:   Resistivity from CILM
 RILD.OHMM     0   0  0  0:   Resistivity from CILD
#  Curve Data
~A
# ...
   306.0000    134.3349    132.3564    -36.6329      7.8805      7.4441
   305.5000    136.5231    135.2613    -40.6782      7.6526      7.3248
   305.0000    138.5680    140.6029    -43.7114      7.4458      7.2167
   304.5000    139.8394    148.0621    -41.5099      7.3255      7.1511
   304.0000    139.4900    154.1753    -38.3168      7.3105      7.1690
   303.5000    137.5717    154.8379    -38.6764      7.3808      7.2689
   303.0000    134.8104    149.9669    -40.8883      7.5086      7.4178
   302.5000    131.7660    144.8702    -42.1772      7.6875      7.5892
   302.0000    128.7130    145.1177    -41.9680      7.9244      7.7692
   301.5000    125.6701    148.7014    -40.7507      8.1982      7.9573
   301.0000    122.4678    146.7774    -41.6111      8.4512      8.1654
   300.5000    119.3430    138.8815    -45.3205      8.6430      8.3792
   300.0000    116.7878    134.3581    -46.3533      8.7744      8.5625
   299.5000    115.0467    137.2500    -43.7169      8.8536      8.6921
   299.0000    113.9064    141.7371    -41.3540      8.9077      8.7791
   298.5000    113.0070    141.7054    -39.9361      8.9750      8.8490
   298.0000    112.2348    136.2534    -41.0960      9.0678      8.9099
   297.5000    111.7692    131.1186    -45.5606      9.1667      8.9470
   297.0000    111.6409    131.4665    -49.0995      9.2465      8.9573
   296.5000    111.7169    134.8647    -50.5452      9.2933      8.9512
   296.0000    111.8771    136.0125    -49.8361      9.3105      8.9384
   295.5000    111.9450    134.0447    -46.2673      9.2960      8.9330
   295.0000    111.9520    130.1232    -43.2051      9.2337      8.9324
   294.5000    112.1913    127.1806    -43.0419      9.1399      8.9134
   294.0000    112.6513    129.1592    -42.3795      9.0714      8.8769
   293.5000    112.7434    133.4446    -40.7547      9.0749      8.8697
   293.0000    112.1055    134.8447    -39.6372      9.1517      8.9202
   292.5000    110.9894    132.9171    -39.6128      9.2706      9.0099
   292.0000    109.8482    130.7226    -39.4197      9.3862      9.1035
   291.5000    108.8510    131.5650    -36.0504      9.4713      9.1869
   291.0000    108.0327    135.5842    -33.8757      9.5356      9.2565
   290.5000    107.3299    139.5927    -38.0054      9.5940      9.3171
   290.0000    106.7610    139.3356    -44.4013      9.6377      9.3667
   289.5000    106.3722    137.0317    -47.7117      9.6516      9.4009
   289.0000    106.1231    135.6241    -49.0110      9.6494      9.4230
   288.5000    105.8965    136.3719    -48.4798      9.6543      9.4432
   288.0000    105.5862    134.8735    -46.4765      9.6737      9.4709
   287.5000    105.0385    130.9244    -44.5117      9.7022      9.5203
   287.0000    104.2540    127.8434    -42.8220      9.7331      9.5920
   286.5000    103.3223    126.6148    -45.4557      9.7632      9.6784
   286.0000    102.2864    128.4197    -52.0159      9.8054      9.7765
   285.5000    101.2061    134.2625    -51.3867      9.8832      9.8808
   285.0000    100.2677    139.4061    -43.3344     10.0024      9.9733
   284.5000     99.7220    139.3386    -42.1403     10.1352     10.0279
   284.0000     99.5174    136.1010    -49.0879     10.2478     10.0485
   283.5000     99.4088    133.8344    -49.8117     10.3112     10.0595
   283.0000     99.3745    130.1522    -43.4164     10.3187     10.0629
   282.5000     99.6190    123.0383    -40.0767     10.2551     10.0382
   282.0000    100.2928    119.4376    -41.7960     10.1221      9.9708
   281.5000    101.5587    122.9150    -43.5692      9.9777      9.8465
   281.0000    103.1352    125.2892    -44.6575      9.8757      9.6960
   280.5000    104.4673    126.5546    -44.1978      9.7917      9.5724
   280.0000    105.5440    130.2972    -39.7186      9.6809      9.4747
   279.5000    106.7121    132.3812    -36.8095      9.5622      9.3710
   279.0000    107.9485    131.2376    -41.1335      9.4706      9.2637
   278.5000    109.1613    130.8370    -47.2427      9.3993      9.1608
   278.0000    110.4953    131.9845    -48.3147      9.3164      9.0502
   277.5000    112.0788    134.5435    -46.2221      9.1990      8.9223
   277.0000    113.8428    137.8749    -46.1852      9.0471      8.7840
   276.5000    115.4819    138.8503    -47.6340      8.8812      8.6594
   276.0000    116.8662    136.6622    -47.7017      8.7159      8.5568
   275.5000    118.0996    136.8961    -45.3669      8.5660      8.4674
   275.0000    119.1913    141.4861    -43.5247      8.4495      8.3899
   274.5000    119.8307    146.8941    -43.6385      8.3820      8.3451
   274.0000    119.8951    146.0523    -43.4183      8.3639      8.3406
   273.5000    119.7325    139.9752    -41.5785      8.3746      8.3520
   273.0000    119.8556    135.8754    -40.8926      8.3898      8.3434
   272.5000    120.5242    135.3466    -39.8586      8.4043      8.2971
   272.0000    121.5455    135.7256    -35.9888      8.4093      8.2274
   271.5000    122.6246    136.0945    -34.7035      8.3819      8.1550
   271.0000    123.6962    134.7905    -38.6069      8.3204      8.0843
   270.5000    124.9217    130.6241    -42.4780      8.2400      8.0050
   270.0000    126.4092    126.4016    -45.3855      8.1336      7.9108
   269.5000    128.2431    123.6070    -50.8328      7.9887      7.7977
   269.0000    130.2741    123.1324    -53.5010      7.8360      7.6761
   268.5000    132.1688    127.6169    -48.7854      7.7246      7.5661
   268.0000    133.7150    132.5455    -44.0097      7.6689      7.4786
   267.5000    134.8790    132.9261    -44.4342      7.6373      7.4141
   267.0000    135.7494    130.9948    -43.9279      7.5888      7.3665
   266.5000    136.5589    131.0202    -39.6857      7.5096      7.3228
   266.0000    137.2386    130.3911    -40.6574      7.4202      7.2866
   265.5000    137.6784    126.4948    -48.4941      7.3525      7.2633
   265.0000    138.0658    123.8177    -48.5502      7.3171      7.2429
   264.5000    138.4957    126.0175    -37.8636      7.2957      7.2204
   264.0000    138.8439    130.4486    -34.7252      7.2721      7.2023
   263.5000    139.1310    134.2825    -42.8549      7.2602      7.1875
   263.0000    139.3571    135.3339    -45.8229      7.2657      7.1758
   262.5000    139.5242    134.0261    -41.2311      7.2708      7.1672
   262.0000    139.8089    132.5425    -38.3315      7.2661      7.1526
   261.5000    140.1984    132.5868    -37.7108      7.2538      7.1328
   261.0000    140.5487    133.3634    -38.3312      7.2291      7.1150
   260.5000    140.8638    133.9665    -40.8035      7.1908      7.0991
   260.0000    141.3515    135.0602    -41.0109      7.1432      7.0746
   259.5000    142.0994    135.4773    -39.1538      7.0994      7.0373
   259.0000    142.7565    136.8394    -41.0152      7.0831      7.0049
   258.5000    142.7852    140.1861    -46.1422      7.1048      7.0035
   258.0000    142.1725    141.7169    -47.8054      7.1411      7.0337
   257.5000    141.2018    137.0530    -45.2242      7.1682      7.0821
   257.0000    140.0173    129.4398    -39.2782      7.1868      7.1420
   256.5000    138.6931    125.1053    -32.7597      7.2163      7.2102
   256.0000    137.2071    125.8734    -31.1826      7.2733      7.2883
   255.5000    135.3646    130.7187    -35.3660      7.3637      7.3875
   255.0000    133.2312    134.2506    -41.0207      7.4793      7.5057
   254.5000    131.1361    134.0025    -44.9686      7.6045      7.6257
   254.0000    129.4362    132.8985    -46.8675      7.7257      7.7258
   253.5000    128.3687    135.2080    -48.3227      7.8368      7.7901
   253.0000    127.8663    138.8574    -50.6498      7.9219      7.8207
   252.5000    127.8151    140.2032    -51.2778      7.9489      7.8238
   252.0000    128.3759    139.1510    -49.6110      7.9134      7.7896
   251.5000    129.6367    138.2292    -50.9811      7.8494      7.7139
   251.0000    131.1993    137.2673    -53.8670      7.7767      7.6220
   250.5000    132.6542    135.6150    -51.6908      7.6861      7.5384
