~VERSION INFORMATION
 VERS.               2.10:   CWLS LOG ASCII STANDARD - VERSION 2.10
 WRAP.                 NO:   ONE LINE PER DEPTH STEP
~WELL INFORMATION
#MNEM.UNIT      DATA TYPE    INFORMATION
#----------   ------------   ------------------------------
 STRT.F         2389.7727:   START DEPTH
 STOP.F         5660.0845:   STOP DEPTH
 STEP.F            0.5000:   STEP LENGTH
 NULL.          -999.2500:   NO VALUE
 COMP. Lawrence Allison and Associates:   COMPANY
 WELL.            43 X 10:   WELL
 FLD .           N.P.R. 3:   FIELD
 LOC . 10-38N-78W-NATRONA-WY:   LOCATION
 STAT.                 WY:   STATE
 COUN.            Natrona:   COUNTY
 SRVC.      Dresser Atlas:   SERVICE COMPANY
 DATE.                   :   LOGDATE
 APIN.         4902511207:   API NUMBER
~CURVE INFORMATION
#MNEM.UNIT       API CODE    CURVE DESCRIPTION
#----------   ------------   ------------------------------
 DEPT.F                  :
 DPHI.none   42 890 12 00:   Den. Porosity, Ss [%]
 NPHI.none   42 890 03 00:   Neu. Porosity, Ss [%]
 RHOB.gm/cc  42 350 01 00:   Bulk Density
 GR  .GAPI   42 310 00 00:   Gamma Ray
~PARAMETER INFORMATION
#MNEM.UNIT          VALUE    DESCRIPTION
#----------   ------------   ------------------------------
 EKB .F         5215.0000:   Kelly bushing
 EGL .F         5203.0000:   Ground level
 EDF .F            0.0000:   Drilling floor
 EPD .F           10.0000:   Permanent datum
 TD  .F         3458.0000:   Total depth
 NRUN.             1.0000:   Number of Runs
#--RUN 1---   ------------   The following are for Run 1---
 RUN .             1.0000:   Run 1
 DATE.mm/dd/yyyy 02/19/1985:   Date Logged
 DD  .ft             5650:   Depth Driller
 DL  .ft             5649:   Depth Logger
 BLI .ft             5647:   Bottom Log Interval
 TLI .ft             2400:   Top Log Interval
 CSS .inch          9.625:   Casing Size
 CTD1.ft              510:   Casing Driller 1
 CTL1.ft       not logged:   Casing Logger 1
 BS  .inch            8.5:   Bit Size
 DFT .            kcl gel:   Type Fluid In Hole
 DFD .lb/gal          9.5:   Mud Weight
 DFV .sec              44:   Viscosity
 DFPH.                8.5:   pH
 DFL .cc              9.0:   Fluid Loss
 WSS .           flowline:   Source Of Sample
 RM  .ohmm            .32:   Rm
 EMT .F                74:   Rm Meas. Temp.
 RMF .ohmm            .26:   Rmf
 MFT .F                74:   Rmf Meas. Temp.
 RMC .ohmm            .40:   Rmc
 MCST.F                74:   Rmc Meas. Temp.
 MFSS.               meas:   Source Rmf.
 MCSS.               calc:   Source Rmc.
 RMB .ohmm            .14:   Rm. At BHT
 BHT .F               164:   BHT.
 TCS .hh:mm        8 hrs.:   Time Circ. Stopped
 MRT .F               170:   Maximum Recorded Temp.
 LUL .               Glte:   Logging Unit Location
 ENGI.               Mack:   Recorded By
 WITN.         Mr. Strong:   Witnessed By
 DGBY.              Burke:   Digitized By
~T 2 Tops
First Wall Creek                 2512.0
Second Wall Creek                2912.0
~OTHER INFORMATION
# Density Matrix = 2.65
# Neutron Matrix = Sandstone
~A  DEPTH     DPHI       NPHI       RHOB         GR
# ...
 5601.7720    10.2079    11.3073     2.4943    18.6060
 5602.2720     8.3185    10.8267     2.4774    18.5982
 5602.7720     7.7702    10.6385     2.4814    18.5903
 5603.2720     7.5155    10.5123     2.4954    19.2038
 5603.7720     7.3905    10.4707     2.5133    18.5746
 5604.2720     7.3353     9.9555     2.5272    17.3245
 5604.7720     6.8103     9.7615     2.5330    16.6955
 5605.2720     6.8899     9.6742     2.5362    16.6876
 5605.7720     7.1702     9.6149     2.5326    17.9220
 5606.2720     7.0688     9.6177     2.5312    19.1564
 5606.7720     6.4685     9.7445     2.5375    19.1485
 5607.2720     5.1362    10.4294     2.5485    18.5195
 5607.7720     2.4169    12.0824     2.5564    16.6483
 5608.2720     1.4317    13.7794     2.5802    14.1560
 5608.7720     1.0070    15.4763     2.6050    11.0425
 5609.2720     0.7613    17.0365     2.6297     8.5502
 5609.7720     0.5156    17.4734     2.6408     7.5488
 5610.2720     0.3910    17.2841     2.6439     6.3137
 5610.7720     0.3873    16.8028     2.6440     5.7651
 5611.2720     0.0811    16.3443     2.6442     6.3634
 5611.7720    -0.2857    16.0990     2.6551     8.2041
 5612.2720    -0.0758    15.7917     2.6599     9.4218
 5612.7720     1.0091    15.6084     2.6569     9.7396
 5613.2720     2.5139    15.7352     2.6342     9.4662
 5613.7720     4.0188    16.0484     2.5976     7.3602
 5614.2720     5.0807    16.1805     2.5915     6.6107
 5614.7720     5.1984    16.0842     2.5863     6.6029
 5615.2720     5.2551    15.5447     2.5749     7.4199
 5615.7720     4.7051    14.5093     2.5695     8.0173
 5616.2720     4.2032    13.4339     2.5746    10.0293
 5616.7720     3.7016    12.3256     2.5883    11.8549
 5617.2720     3.1848    11.3333     2.6008    13.5373
 5617.7720     2.9367    10.5891     2.6041    14.1350
 5618.2720     3.3187     9.8373     2.5995    15.4652
 5618.7720     5.0275     9.5285     2.5609    17.1004
 5619.2720     6.7362     9.4005     2.5502    17.7917
 5619.7720     8.4450     9.3488     2.5455    18.3269
 5620.2720     9.9974     9.6330     2.5372    16.9818
 5620.7720    10.1148     9.8888     2.5207    14.5208
 5621.2720    10.2927    10.1087     2.4952    12.0399
 5621.7720    10.5916    10.3385     2.4866     9.5998
 5622.2720     9.1128    10.6611     2.4775     8.9708
 5622.7720     6.3386    11.5194     2.4752     8.9630
 5623.2720     3.5643    12.2016     2.4903     8.9551
 5623.7720     0.7901    13.5659     2.5330     8.9472
 5624.2720    -0.3204    15.9225     2.5800    10.1816
 5624.7720    -0.6266    15.9225     2.6271    10.7955
 5625.2720    -1.8405    15.7364     2.6557    10.1659
 5625.7720    -3.3570    15.4884     2.6651    10.1580
 5626.2720    -3.9053    14.9769     2.6704     9.5290
 5626.7720    -5.6719    14.0961     2.7282    10.1433
 5627.2720    -5.9851    13.0698     2.7439    12.6189
 5627.7720    -6.1553    13.0840     2.7548    13.8533
 5628.2720    -6.0379    13.0056     2.7588    13.2243
 5628.7720    -5.9810    12.2121     2.7546    12.5953
 5629.2720    -6.5311    11.4778     2.7529    11.9663
 5629.7720    -7.4157    10.9342     2.7539    12.9551
 5630.2720    -9.4431    10.6796     2.8059    14.5325
 5630.7720    -8.9626    10.5891     2.8122    17.2570
 5631.2720    -7.5744    11.5194     2.8046    18.1479
 5631.7720    -6.5493    13.6899     2.7846    17.8284
 5632.2720    -5.4032    14.3721     2.7677    16.5934
 5632.7720    -4.9227    14.3811     2.7554    15.9807
 5633.2720    -4.5513    14.1240     2.7444    15.6324
 5633.7720    -4.3248    13.8760     2.7343    15.6246
 5634.2720    -4.8981    13.8140     2.7244    15.6169
 5634.7720    -5.1793    13.9958     2.7218    15.8275
 5635.2720    -4.2420    14.5581     2.7362    17.6679
 5635.7720    -3.1451    14.4252     2.7414    19.0745
 5636.2720    -3.0127    13.7599     2.7353    21.5193
 5636.7720    -3.8644    13.3758     2.7069    23.1879
 5637.2720    -4.1706    13.0180     2.7117    24.2675
 5637.7720    -4.2953    12.8837     2.7180    24.2733
 5638.2720    -4.7830    13.0413     2.7274    24.2791
 5638.7720    -5.3313    13.1938     2.7338    24.2850
 5639.2720    -5.3982    13.4419     2.7479    24.2908
 5639.7720    -4.9216    13.1938     2.7557    24.2966
 5640.2720    -3.3294     0.7599     2.7473    24.3024
 5640.7720    -3.2279     0.4069     2.7346    24.3082
 5641.2720    -3.2320     0.6517     2.7088    24.3140
 5641.7720    -3.3406    10.8116     2.7051    24.3199
 5642.2720    -3.5619    25.3925     2.7108    24.3257
 5642.7720    -4.9099    12.6661     2.7264    24.3315
 5643.2720    -6.6367  -999.2500     2.7402    24.3373
 5643.7720    -7.3665  -999.2500     2.7662    24.3431
 5644.2720    -7.8543  -999.2500     2.7864    24.3489
 5644.7720    -8.1000  -999.2500     2.7943    24.3547
 5645.2720    -6.4697  -999.2500     2.7960    24.3606
 5645.7720    -6.0497  -999.2500     2.7868    24.3664
 5646.2720    -6.1858  -999.2500     2.7727    24.3722
 5646.7720    -6.5666  -999.2500     2.7471    24.3780
 5647.2720    -6.9345  -999.2500     2.6887    24.3838
 5647.7720    -7.1898  -999.2500     2.6717    24.3896
 5648.2720    -7.4223  -999.2500     2.6459    24.3955
 5648.7720    -7.9292  -999.2500     2.6450    24.4013
 5649.2720    -8.4108  -999.2500     2.6505    24.4071
 5649.7720    -8.6828  -999.2500     2.6594    24.4129
 5650.2720    -8.8680  -999.2500  -999.2500    24.4187
 5650.7720    -9.0532  -999.2500  -999.2500    24.4245
 5651.2720    -9.1779  -999.2500  -999.2500    24.4304
 5651.7720    -9.5446  -999.2500  -999.2500    24.4362
 5652.2720    -9.7298  -999.2500  -999.2500    24.4420
 5652.7720  -999.2500  -999.2500  -999.2500    24.4478
 5653.2720  -999.2500  -999.2500  -999.2500    24.4536
 5653.7720  -999.2500  -999.2500  -999.2500    24.4594
 5654.2720  -999.2500  -999.2500  -999.2500    24.4653
 5654.7720  -999.2500  -999.2500     2.6947    24.4711
 5655.2720  -999.2500  -999.2500     2.7011    24.4769
 5655.7720  -999.2500  -999.2500     2.6996    24.4827
 5656.2720  -999.2500  -999.2500     2.6889    24.4885
 5656.7720  -999.2500  -999.2500     2.6565    24.4943
 5657.2720  -999.2500  -999.2500     2.6583    24.5001
 5657.7720  -999.2500  -999.2500  -999.2500    24.5060
 5658.2720  -999.2500  -999.2500  -999.2500    24.5118
 5658.7720  -999.2500  -999.2500  -999.2500    24.5176
 5659.2720  -999.2500  -999.2500  -999.2500    24.5234
 5659.7720  -999.2500  -999.2500  -999.2500    24.5292
