~VERSION INFORMATION
 VERS.               2.10:   CWLS LOG ASCII STANDARD - VERSION 2.10
 WRAP.                 NO:   ONE LINE PER DEPTH STEP
~WELL INFORMATION
#MNEM.UNIT      DATA TYPE    INFORMATION
#----------   ------------   ------------------------------
 STRT.F         2398.5081:   START DEPTH
 STOP.F         5645.6445:   STOP DEPTH
 STEP.F            0.5000:   STEP LENGTH
 NULL.          -999.2500:   NO VALUE
 COMP. Lawrence Allison and Associates:   COMPANY
 WELL.          43 TPX 10:   WELL
 FLD .           N.P.R. 3:   FIELD
 LOC . 10-38N-78W-NATRONA-WY:   LOCATION
 STAT.                 WY:   STATE
 COUN.            Natrona:   COUNTY
 SRVC.      Dresser Atlas:   SERVICE COMPANY
 DATE.                   :   LOGDATE
 APIN.         4902511207:   API NUMBER
~CURVE INFORMATION
#MNEM.UNIT       API CODE    CURVE DESCRIPTION
#----------   ------------   ------------------------------
 DEPT.F                  :
 DT  .us/f   60 520 00 00:   Delta t
 GR  .API    60 310 00 00:   Gamma Ray
 PORA.None               :   Porosity
~PARAMETER INFORMATION
#MNEM.UNIT          VALUE    DESCRIPTION
#----------   ------------   ------------------------------
 EKB .F         5215.0000:   Kelly bushing
 EGL .F         5203.0000:   Ground level
 EDF .F            0.0000:   Drilling floor
 EPD .F           10.0000:   Permanent datum
 TD  .F         3340.0000:   Total depth
 NRUN.             1.0000:   Number of Runs
#--RUN 1---   ------------   The following are for Run 1---
 RUN .             1.0000:   Run 1
 DATE.mm/dd/yyyy 02/19/1985:   Date Logged
 DD  .ft             5650:   Depth Driller
 DL  .ft             5649:   Depth Logger
 BLI .ft             5640:   Bottom Log Interval
 TLI .ft             2440:   Top Log Interval
 CSS .inch          9.625:   Casing Size
 CTD1.ft              510:   Casing Driller 1
 BS  .inch            8.5:   Bit Size
 DFT .            kcl gel:   Type Fluid In Hole
 DFD .lb/gal          9.5:   Mud Weight
 DFV .sec              44:   Viscosity
 DFPH.                8.5:   pH
 DFL .cc              9.0:   Fluid Loss
 WSS .           flowline:   Source Of Sample
 RM  .ohmm            .32:   Rm
 EMT .F                74:   Rm Meas. Temp.
 RMF .ohmm            .26:   Rmf
 MFT .F                74:   Rmf Meas. Temp.
 RMC .ohmm            .40:   Rmc
 MCST.F                74:   Rmc Meas. Temp.
 MFSS.               meas:   Source Rmf.
 MCSS.               calc:   Source Rmc.
 RMB .ohmm            .14:   Rm. At BHT
 BHT .F               164:   BHT.
 TCS .hh:mm        11 hrs:   Time Circ. Stopped
 MRT .F               164:   Maximum Recorded Temp.
 LUL .              Gltte:   Logging Unit Location
 ENGI.               Mack:   Recorded By
 WITN.          Mr. Strog:   Witnessed By
 DGBY.              Burke:   Digitized By
~T 1 Tops
First Wall Creek                 2512.0
~OTHER INFORMATION
# Repeat recorded off depth.
~A  DEPTH       DT         GR       PORA
# ...
 5583.5080    58.0709    20.7832     4.6085
 5584.0080    57.1415    21.8067     4.1437
 5584.5080    56.0569    25.0731     2.9669
 5585.0080    54.6620    24.6012     1.6006
 5585.5080    53.1119    24.1294     1.1358
 5586.0080    52.3377    24.1559     0.8572
 5586.5080    52.2616    24.6810     0.6096
 5587.0080    52.4963    25.2333     0.8585
 5587.5080    53.6615    27.9806     1.7591
 5588.0080    55.3698    29.7517     2.3913
 5588.5080    55.8368    31.7721     3.1261
 5589.0080    56.1487    32.0479     3.4991
 5589.5080    56.4606    30.0807     3.7480
 5590.0080    56.8500    28.8603     3.9349
 5590.5080    57.1622    28.8877     4.3080
 5591.0080    57.5517    30.4699     4.6810
 5591.5080    58.3290    29.3104     5.2902
 5592.0080    62.1968    24.5213     8.7492
 5592.5080    66.7596    19.7321    12.2081
 5593.0080    71.3224    16.0652    16.1346
 5593.5080    74.4720    16.0926    16.9732
 5594.0080    74.6283    16.6237    16.6635
 5594.5080    72.3028    17.3980    14.7402
 5595.0080    70.8304    21.4821    14.8964
 5595.5080    73.8575    28.0157    15.6359
 5596.0080    75.2569    34.5494    17.5353
 5596.5080    73.3346    41.0831    15.9566
 5597.0080    70.7364    48.1872    13.7334
 5597.5080    67.8848    50.4568    11.5103
 5598.0080    65.5647    50.7326     9.9042
 5598.5080    64.8680    48.7425     9.7497
 5599.0080    65.2575    40.3909    10.0246
 5599.5080    66.4227    30.1314    11.1476
 5600.0080    66.8897    27.9173    11.6758
 5600.5080    67.0464    26.2000    11.5213
 5601.0080    66.3285    24.7319    10.3738
 5601.5080    65.1880    24.5031     9.6918
 5602.0080    64.6461    24.7864     9.4753
 5602.5080    64.3373    25.5613     9.4108
 5603.0080    64.2613    26.0877     9.3525
 5603.5080    64.5735    25.1242     9.5706
 5604.0080    64.8078    23.1577     9.8816
 5604.5080    65.0429    22.1880    10.0064
 5605.0080    65.1988    21.7100    10.0691
 5605.5080    64.9680    21.4880     9.6784
 5606.0080    64.6592    21.7713     9.1284
 5606.5080    64.0401    22.7954     8.5784
 5607.0080    63.3434    23.3299     8.0283
 5607.5080    61.2503    22.0280     7.0002
 5608.0080    60.5536    17.4011     6.7216
 5608.5080    60.9604    15.9330     6.7533
 5609.0080    61.7984    14.7142     7.8401
 5609.5080    62.5757    14.4854     8.3372
 5610.0080    62.8876    14.5194     8.8034
 5610.5080    63.5097    14.5466     9.2385
 5611.0080    63.8992    14.8231     9.3951
 5611.5080    64.0559    15.1415     9.5852
 5612.0080    64.5229    14.3860     9.6129
 5612.5080    64.0593    13.9148     9.1792
 5613.0080    63.3627    13.6860     8.5282
 5613.5080    62.4332    14.2185     8.0324
 5614.0080    61.5038    14.7441     7.3503
 5614.5080    60.5744    15.5191     6.5442
 5615.0080    59.4123    16.0448     5.9863
 5615.5080    58.7911    17.3274     5.4904
 5616.0080    58.8075    19.4073     5.3980
 5616.5080    59.3397    21.3669     5.4971
 5617.0080    60.0394    22.6403     5.7719
 5617.5080    61.0495    24.6613     6.0828
 5618.0080    62.4475    25.6854     7.2627
 5618.5080    63.5351    26.2043     8.4115
 5619.0080    64.1573    23.9953     9.0328
 5619.5080    64.2365    20.7827     9.2507
 5620.0080    63.9281    18.7835     9.3755
 5620.5080    63.1538    17.5973     9.0657
 5621.0080    62.2244    17.8806     7.9051
 5621.5080    61.5277    19.1540     7.3916
 5622.0080    60.7535    19.9289     7.0509
 5622.5080    60.0568    20.4546     6.4310
 5623.0080    59.4143    20.7242     5.9972
 5623.5080    58.1983    19.0137     5.2531
 5624.0080    57.3465    18.0435     4.7572
 5624.5080    55.7965    17.3236     3.4235
 5625.0080    53.3154    17.6069     2.8006
 5625.5080    51.9981    18.1326     0.7251
 5626.0080    51.3015    19.1567     0.1052
 5626.5080    51.3866    21.1777     0.0127
 5627.0080    51.6924    22.2019     0.1065
 5627.5080    51.3840    22.4783     0.1031
 5628.0080    50.9201    19.5149    -0.2954
 5628.5080    50.3786    20.3154    -0.5430
 5629.0080    50.6129    21.5643    -0.6356
 5629.5080    52.0108    21.5972    -0.3866
 5630.0080    53.2537    21.3684     0.3278
 5630.5080    54.2169  -999.2500     1.3836
 5631.0080    54.8863  -999.2500     2.3152
 5631.5080    54.8103  -999.2500     2.4400
 5632.0080    54.5015  -999.2500     2.2524
 5632.5080    53.8824  -999.2500     2.0887
 5633.0080    52.7978  -999.2500     1.2009
 5633.5080    52.4114  -999.2500     0.8291
 5634.0080    52.0956    18.8495     0.6745
 5634.5080    52.1046    18.8445     0.6131
 5635.0080    52.0282    18.8403     0.6139
 5635.5080    51.9521    18.8361     0.6146
 5636.0080    51.7213    18.8318     0.5842
 5636.5080    51.5678    18.8276     0.4604
 5637.0080    51.4142    18.8233     0.1478
 5637.5080    51.2605    18.8191     0.2140
 5638.0080    51.4175    18.8148     0.2457
 5638.5080    51.7294    18.8106     0.3394
 5639.0080    51.9637    18.8063     0.4642
 5639.5080    52.2755    18.8021     0.5890
 5640.0080    52.5874    18.7978     0.7138
 5640.5080    52.5889    18.7936     0.8386
 5641.0080    52.5905    18.7893     0.8082
 5641.5080    52.5144    18.7851     0.6537
 5642.0080    52.5164    18.7808     0.8096
 5642.5080    52.3624    18.7766     0.7793
 5643.0080    51.5109    18.7723     0.2214
 5643.5080    49.2627    18.7681    -0.7089
 5644.0080    47.7902    18.7638    -1.8254
 5644.5080    49.3106    18.7596    -2.2283
 5645.0080    50.8966    18.7553    -1.5758
 5645.5080    51.9842  -999.2500     0.1627
