~VERSION INFORMATION
 VERS.               2.10:   CWLS LOG ASCII STANDARD - VERSION 2.10
 WRAP.                 NO:   ONE LINE PER DEPTH STEP
~WELL INFORMATION
#MNEM.UNIT      DATA TYPE    INFORMATION
#----------   ------------   ------------------------------
 STRT.F         2399.8379:   START DEPTH
 STOP.F         5667.9595:   STOP DEPTH
 STEP.F            0.5000:   STEP LENGTH
 NULL.          -999.2500:   NO VALUE
 COMP. Lawrence Allison & Associates:   COMPANY
 WELL.          43-TPX-10:   WELL
 FLD .           N.P.R. 3:   FIELD
 LOC . 10-38N-78W-NATRONA-WY:   LOCATION
 STAT.                 WY:   STATE
 COUN.            Natrona:   COUNTY
 SRVC.      Dresser Atlas:   SERVICE COMPANY
 DATE.                   :   LOGDATE
 APIN.         4902511207:   API NUMBER
~CURVE INFORMATION
#MNEM.UNIT       API CODE    CURVE DESCRIPTION
#----------   ------------   ------------------------------
 DEPT.F                  :
 LLD .ohmm   11 220 04 00:   Dual Laterolog, Deep
 LLS .ohmm   11 220 06 00:   Dual Laterolog, shallow
 MNOR.ohmm   15 252 02 00:   Microlog, normal 2"
 GR  .GAPI   06 310 01 00:   Gamma Ray
 SP  .mV     06 010 01 00:   Spontaneous Potential
~PARAMETER INFORMATION
#MNEM.UNIT          VALUE    DESCRIPTION
#----------   ------------   ------------------------------
 EKB .F         5215.0000:   Kelly bushing
 EGL .F         5203.0000:   Ground level
 EDF .F            0.0000:   Drilling floor
 EPD .F           10.0000:   Permanent datum
 TD  .F         5260.0000:   Total depth
 NRUN.             1.0000:   Number of Runs
#--RUN 1---   ------------   The following are for Run 1---
 RUN .             1.0000:   Run 1
 DATE.mm/dd/yyyy 02/19/85:   Date Logged
 DD  .ft             5650:   Depth Driller
 DL  .ft             5649:   Depth Logger
 BLI .ft             5646:   Bottom Log Interval
 TLI .ft              511:   Top Log Interval
 CSS .inch          9-5/8:   Casing Size
 CTD1.ft              510:   Casing Driller 1
 CTL1.ft              511:   Casing Logger 1
 BS  .inch            8.5:   Bit Size
 DFT .            kcl-gel:   Type Fluid In Hole
 DFD .lb/gal          9.5:   Mud Weight
 DFV .sec              44:   Viscosity
 DFPH.                8.5:   pH
 DFL .cc              9.0:   Fluid Loss
 WSS .           flowline:   Source Of Sample
 RM  .ohmm            .32:   Rm
 EMT .F                74:   Rm Meas. Temp.
 RMF .ohmm            .26:   Rmf
 MFT .F                74:   Rmf Meas. Temp.
 RMC .ohmm            .40:   Rmc
 MCST.F                74:   Rmc Meas. Temp.
 MFSS.              meas.:   Source Rmf.
 MCSS.              calc.:   Source Rmc.
 RMB .ohmm            .14:   Rm. At BHT
 BHT .F               164:   BHT.
 TCS .hh:mm         5 hrs:   Time Circ. Stopped
 MRT .F               164:   Maximum Recorded Temp.
 LUL .               Glte:   Logging Unit Location
 ENGI.               Mack:   Recorded By
 WITN.         Mr. Strong:   Witnessed By
 DGBY.              Burke:   Digitized By
~T 1 Tops
First Wall Creek                 2512.0
~A  DEPTH      LLD        LLS       MNOR         GR         SP
# ...
 3253.8380    10.0129     9.4072    10.1609   109.4786    53.7792
 3254.3380    10.4282     9.2791    10.1386   109.7148    53.1646
 3254.8380    10.4291     9.0854     9.1972   108.5913    52.3930
 3255.3380    10.1361     8.7088     8.6260   107.4238    51.6019
 3255.8380     9.9218     8.5270     8.4444   106.2868    51.3164
 3256.3380     9.6433     8.4099     8.4455   105.4086    50.8574
 3256.8380     9.4396     8.3551     8.0925   104.7301    50.5508
 3257.3380     9.3732     8.3592     7.8657   105.6714    50.2473
 3257.8380     9.2304     8.1818     7.8668   108.0174    50.2533
 3258.3380     8.8541     7.9028     7.8122   109.1146    49.9483
 3258.8380     8.6054     7.5743     7.1717   108.9131    49.4878
 3259.3380     8.0126     7.3117     7.0205   107.9987    49.3383
 3259.8380     7.3549     6.9082     7.0217   106.6241    49.1888
 3260.3380     6.9468     6.7157     6.6328   106.1348    49.3518
 3260.8380     6.8489     6.6235     5.7922   106.3848    49.3578
 3261.3380     7.1023     6.8690     5.8345   109.1336    49.2068
 3261.8380     7.8828     7.3361     6.3089   107.5999    49.0586
 3262.3380     9.1827     7.8220     8.3402   104.4519    49.2204
 3262.8380     9.1835     8.1110     9.0875   108.8307    49.2266
 3263.3380     8.3696     8.0571     8.7700   111.3805    49.3895
 3263.8380     7.3601     7.2925     6.8318   114.4615    49.3955
 3264.3380     6.7559     6.3685     5.8395   114.4652    49.4015
 3264.8380     6.4269     5.8893     5.3608   114.6773    49.4075
 3265.3380     5.8528     5.1800     4.6766   116.3459    49.7246
 3265.8380     5.5259     4.9629     3.3359   116.4693    49.7306
 3266.3380     5.5726     4.8966     2.7217   114.7780    49.7367
 3266.8380     5.8172     5.0059     3.4949   111.6679    50.2107
 3267.3380     5.9437     5.1538     4.1192   112.1723    50.8388
 3267.8380     5.6948     5.2307     4.9602   115.2922    50.8448
 3268.3380     5.4563     4.9068     5.3662   118.8650    50.5383
 3268.8380     5.3794     4.6693     4.9262   123.1608    50.3903
 3269.3380     5.4588     4.3802     5.1083   127.9924    50.2406
 3269.8380     5.5363     4.2893     5.3304   126.0620    49.1582
 3270.3380     5.3809     4.2608     5.2181   121.1442    48.6976
 3270.8380     5.1188     4.2325     4.8592   117.3130    48.3941
 3271.3380     4.4694     4.1451     4.2874   117.0084    48.4001
 3271.8380     4.2822     3.9445     3.0638   116.9193    48.4062
 3272.3380     4.1619     3.7269     1.9772   117.3272    48.5677
 3272.8380     4.1326     3.7287     2.0937   118.0023    48.8848
 3273.3380     4.1959     3.8115     2.8388   120.9055    49.5129
 3273.8380     4.6172     3.9523     4.5607   121.1320    49.8300
 3274.3380     4.9071     4.0113     4.4967   119.8461    50.1485
 3274.8380     5.0138     4.1008     4.5295   117.4028    50.4656
 3275.3380     5.1966     4.2522     4.7964   114.2213    50.6271
 3275.8380     5.5028     4.7704     5.0823   107.3259    50.6331
 3276.3380     5.7035     5.0180     5.1163   107.0395    50.6391
 3276.8380     5.9114     5.2033     5.3410   110.1683    50.6452
 3277.3380     6.0850     5.3189     5.5359   110.9007    50.6512
 3277.8380     6.3126     5.3982     5.6565   111.1115    50.1710
 3278.3380     6.5821     5.4397     5.6979   111.1146    50.0411
 3278.8380     6.7735     5.5611     5.8220   111.1177    49.8916
 3279.3380     6.8716     5.6440     5.8646   112.6836    49.7436
 3279.8380     6.8722     5.8107     5.7822   111.8726    49.7497
 3280.3380     6.8728     6.0254     5.8664   109.7133    49.7557
 3280.8380     6.9227     6.1152     5.9516   108.6306    49.7617
 3281.3380     6.9747     6.1182     5.9950   108.4911    49.6122
 3281.8380     7.0739     6.0776     5.9532   107.9817    49.6197
 3282.3380     7.0747     6.1244     6.0829   107.3901    49.6257
 3282.8380     7.1260     6.0843     6.3049   107.3927    49.4747
 3283.3380     7.1777     6.0000     6.3965   107.7174    49.3267
 3283.8380     7.1271     6.0037     6.0783   108.9505    49.3328
 3284.3380     6.9270     6.0500     5.9573   109.2766    49.4943
 3284.8380     7.0777     6.2735     6.0441   107.4054    49.6558
 3285.3380     7.1821     6.4128     6.2646   105.8851    49.6621
 3285.8380     7.4064     6.6497     6.4932   105.5361    49.6694
 3286.3380     7.6041     6.7489     6.6347   106.7899    49.8309
 3286.8380     7.7142     6.9482     6.6831   107.5725    49.8370
 3287.3380     7.6599     7.0016     7.3423   108.0879    49.9985
 3287.8380     7.4448     6.9551     7.6018   107.7369    50.0045
 3288.3380     7.0317     6.7629     6.7340   106.8554    50.3216
 3288.8380     6.8832     6.3898     6.3611   106.4755    50.6387
 3289.3380     6.7861     6.2125     6.1388   106.1834    50.6462
 3289.8380     6.7306     6.0401     5.9244   108.8958    50.6522
 3290.3380     6.5961     5.9147     5.7583   109.9397    50.3457
 3290.8380     6.5030     5.8754     5.7182   111.2168    49.8851
 3291.3380     6.5504     5.9206     5.8012   115.3437    49.4261
 3291.8380     6.6452     6.0527     5.9703   117.7617    48.9655
 3292.3380     6.7413     6.1871     6.1441   118.5568    48.1940
 3292.8380     6.5991     6.1460     6.1890   118.3381    47.8889
 3293.3380     6.4137     6.0609     6.2342   117.7712    47.8965
 3293.8380     6.3612     5.9777     6.2351   117.9161    47.9025
 3294.3380     6.3238     5.9380     6.1916   118.7742    48.0640
 3294.8380     6.2346     5.9416     6.1925   120.5932    48.3811
 3295.3380     6.1907     5.9872     6.1933   123.7222    48.8537
 3295.8380     6.1034     5.8980     6.1944   126.2375    49.1707
 3296.3380     6.1041     5.7824     6.1509   128.3927    49.1768
 3296.8380     6.2369     5.8275     6.1080   130.7894    49.1843
 3297.3380     6.4661     5.9144     6.2861   130.9411    49.1903
 3297.8380     6.7639     6.2660     6.6565   129.2679    49.0408
 3298.3380     6.9444     6.4051     6.9024   126.9079    49.0468
 3298.8380     6.8955     6.5006     6.5142   124.6805    49.0528
 3299.3380     6.7498     6.5506     6.3800   124.6834    49.0588
 3299.8380     6.7990     6.5539     6.3811   124.4045    49.2204
 3300.3380     6.8987     6.6049     6.7095   120.9916    49.5350
 3300.8380     7.0001     6.6081     6.9550   119.3500    49.5378
 3301.3380     6.9524     6.6588     6.9072   122.3151    49.5400
 3301.8380     6.9044     6.5674     6.7629   126.2621    49.5423
 3302.3380     6.7606     6.4303     6.6212   127.9287    49.5446
 3302.8380     6.5697     6.3428     6.3451   125.0178    49.3907
 3303.3380     6.3811     6.3007     6.2121   125.0927    49.0825
 3303.8380     6.2112     6.2074     6.1690   130.1242    48.3072
 3304.3380     6.1684     6.0852     6.1709   133.8395    48.1539
 3304.8380     6.2595     5.9596     6.0416   133.4375    48.1567
 3305.3380     6.0850     5.8770     5.7896   131.0028    48.1590
 3305.8380     5.9573     5.7557     5.7914   130.3125    48.1613
 3306.3380     5.9171     5.6760     5.8343   130.9375    48.0074
 3306.8380     5.9189     5.5987     5.7120   132.6959    48.0103
 3307.3380     5.9153     5.5219     5.5920   132.8125    48.0125
 3307.8380     5.8803     5.4461     5.5937   130.0000    48.3258
 3308.3380     5.9248     5.4099     5.7162   128.5976    48.3513
 3308.8380     5.8839     5.5307     5.9254   123.2261    48.6420
 3309.3380     5.8861     5.7350     5.8428   121.8750    49.1108
 3309.8380     5.9727     5.9045     5.8446   125.1435    49.5796
 3310.3380     6.0173     6.0355     5.9300   128.5634    49.8929
 3310.8380     6.0623     6.0819     6.1471   132.8125    49.8952
 3311.3380     6.3340     6.0849     6.1926   135.0000    49.8974
 3311.8380     6.4689     5.9953     6.1941   133.7016    49.9054
 3312.3380     6.3336     5.7116     6.1515   129.0625    50.0827
 3312.8380     6.0702     5.4742     5.8950   132.5574    50.5269
 3313.3380     5.8172     5.1721     4.1619   137.1875    50.8402
 3313.8380     5.3791     4.9218     3.1467   137.5000    50.8424
 3314.3380     5.1182     4.8537     2.9305   135.6652    51.0002
