~VERSION INFORMATION
 VERS.               2.10:   CWLS LOG ASCII STANDARD - VERSION 2.10
 WRAP.                 NO:   ONE LINE PER DEPTH STEP
~WELL INFORMATION
#MNEM.UNIT      DATA TYPE    INFORMATION
#----------   ------------   ------------------------------
 STRT.F         2389.7727:   START DEPTH
 STOP.F         5660.0845:   STOP DEPTH
 STEP.F            0.5000:   STEP LENGTH
 NULL.          -999.2500:   NO VALUE
 COMP. Lawrence Allison and Associates:   COMPANY
 WELL.            43 X 10:   WELL
 FLD .           N.P.R. 3:   FIELD
 LOC . 10-38N-78W-NATRONA-WY:   LOCATION
 STAT.                 WY:   STATE
 COUN.            Natrona:   COUNTY
 SRVC.      Dresser Atlas:   SERVICE COMPANY
 DATE.                   :   LOGDATE
 APIN.         4902511207:   API NUMBER
~CURVE INFORMATION
#MNEM.UNIT       API CODE    CURVE DESCRIPTION
#----------   ------------   ------------------------------
 DEPT.F                  :
 DPHI.none   42 890 12 00:   Den. Porosity, Ss [%]
 NPHI.none   42 890 03 00:   Neu. Porosity, Ss [%]
 RHOB.gm/cc  42 350 01 00:   Bulk Density
 GR  .GAPI   42 310 00 00:   Gamma Ray
~PARAMETER INFORMATION
#MNEM.UNIT          VALUE    DESCRIPTION
#----------   ------------   ------------------------------
 EKB .F         5215.0000:   Kelly bushing
 EGL .F         5203.0000:   Ground level
 EDF .F            0.0000:   Drilling floor
 EPD .F           10.0000:   Permanent datum
 TD  .F         3458.0000:   Total depth
 NRUN.             1.0000:   Number of Runs
#--RUN 1---   ------------   The following are for Run 1---
 RUN .             1.0000:   Run 1
 DATE.mm/dd/yyyy 02/19/1985:   Date Logged
 DD  .ft             5650:   Depth Driller
 DL  .ft             5649:   Depth Logger
 BLI .ft             5647:   Bottom Log Interval
 TLI .ft             2400:   Top Log Interval
 CSS .inch          9.625:   Casing Size
 CTD1.ft              510:   Casing Driller 1
 CTL1.ft       not logged:   Casing Logger 1
 BS  .inch            8.5:   Bit Size
 DFT .            kcl gel:   Type Fluid In Hole
 DFD .lb/gal          9.5:   Mud Weight
 DFV .sec              44:   Viscosity
 DFPH.                8.5:   pH
 DFL .cc              9.0:   Fluid Loss
 WSS .           flowline:   Source Of Sample
 RM  .ohmm            .32:   Rm
 EMT .F                74:   Rm Meas. Temp.
 RMF .ohmm            .26:   Rmf
 MFT .F                74:   Rmf Meas. Temp.
 RMC .ohmm            .40:   Rmc
 MCST.F                74:   Rmc Meas. Temp.
 MFSS.               meas:   Source Rmf.
 MCSS.               calc:   Source Rmc.
 RMB .ohmm            .14:   Rm. At BHT
 BHT .F               164:   BHT.
 TCS .hh:mm        8 hrs.:   Time Circ. Stopped
 MRT .F               170:   Maximum Recorded Temp.
 LUL .               Glte:   Logging Unit Location
 ENGI.               Mack:   Recorded By
 WITN.         Mr. Strong:   Witnessed By
 DGBY.              Burke:   Digitized By
~T 2 Tops
First Wall Creek                 2512.0
Second Wall Creek                2912.0
~OTHER INFORMATION
# Density Matrix = 2.65
# Neutron Matrix = Sandstone
~A  DEPTH     DPHI       NPHI       RHOB         GR
# ...
 4068.7730     3.9374    11.8189     2.5791    42.5972
 4069.2730     3.9395    12.6213     2.5822    45.1411
 4069.7730     4.1271    14.2492     2.5774    47.8453
 4070.2730     4.4943    15.8702     2.5741    58.6823
 4070.7730     4.7541    17.8872     2.5679    73.6998
 4071.2730     4.9161    19.5476     2.5650    83.2650
 4071.7730     4.8777    19.9633     2.5668    84.7303
 4072.2730     3.9229    20.1851     2.5731    84.0909
 4072.7730     3.1388    20.3373     2.5900    81.9203
 4073.2730     3.4456    20.3391     2.5927    79.9914
 4073.7730     4.1546    20.5888     2.5883    96.4638
 4074.2730     4.7856    22.0789     2.5783   107.0077
 4074.7730     5.4165    23.0109     2.5647   113.8249
 4075.2730     6.0830    23.1987     2.5560   115.6732
 4075.7730     6.0245    23.5174     2.5553   116.2803
 4076.2730     5.7845    24.0864     2.5583   113.7797
 4076.7730     5.8543    24.3201     2.5552   110.0379
 4077.2730     5.8135    23.6151     2.5520   110.0228
 4077.7730     5.4051    22.5361     2.5566   111.3616
 4078.2730     4.7568    22.4649     2.5783   112.4771
 4078.7730     3.3294    23.0129     2.5844   106.9692
 4079.2730     2.4368    23.0889     2.5922   102.9603
 4079.7730     2.1084    22.9959     2.6045   100.0121
 4080.2730     2.2314    22.7827     2.6122    98.1311
 4080.7730     2.5966    22.4124     2.6122    97.8334
 4081.2730     2.9012    21.3598     2.6105    95.6002
 4081.7730     3.1453    20.6174     2.6088    91.4287
 4082.2730     3.2683    19.7509     2.6020    88.7465
 4082.7730     3.1424    19.1945     2.5965    89.3525
 4083.2730     3.0909    18.8861     2.5968    71.3251
 4083.7730     3.4738    18.3830     2.5995    65.7199
 4084.2730     3.8997    18.0153     2.5984    65.6252
 4084.7730     3.9442    17.8990     2.5889    68.1742
 4085.2730     3.7501    18.4890     2.5854    71.2647
 4085.7730     2.9737    19.7564     2.5846    78.1128
 4086.2730     2.9589    20.5528     2.5955    78.0661
 4086.7730     3.1667    20.3974     2.6017    77.3238
 4087.2730     3.0477    20.5076     2.6023    75.4075
 4087.7730     2.9287    21.5198     2.5960    73.3114
 4088.2730     2.7492    22.1911     2.5976    72.4139
 4088.7730     2.6302    22.1308     2.6022    72.9082
 4089.2730     2.5717    21.6984     2.6068    75.1591
 4089.7730     2.9329    21.5141     2.6083    78.9452
 4090.2730     3.6008    21.5158     2.6051    83.5288
 4090.7730     4.4538    21.6416     2.5942    87.2404
 4091.2730     4.0829    21.5813     2.5725    86.6043
 4091.7730     3.0301    20.4578     2.5709    79.4464
 4092.2730     1.6958    18.7066     2.5755    70.2925
 4092.7730     0.3616    15.7850     2.5941    61.1387
 4093.2730    -1.1628    13.7745     2.6204    51.7613
 4093.7730    -1.5978    13.1561     2.6451    45.5288
 4094.2730    -0.6798    13.0958     2.6652    50.0420
 4094.7730     0.0410    13.5231     2.6698    54.3619
 4095.2730     0.7618    14.4704     2.6419    57.6439
 4095.7730     1.4669    15.3543     2.6261    60.0695
 4096.2720     1.9463    15.9998     2.6184    62.4206
 4096.7720     1.9982    17.2598     2.6170    64.0782
 4097.2720     1.5377    17.0244     2.6214    63.7925
 4097.7720     1.1307    16.7112     2.6315    62.1935
 4098.2720     0.7666    16.1060     2.6385    59.9603
 4098.7720     0.6834    15.5309     2.6349    59.0414
 4099.2720     1.2227    15.5946     2.6311    61.5108
 4099.7720     1.6483    16.0304     2.6247    65.4748
 4100.2720     2.0363    17.2678     2.6147    70.8976
 4100.7720     2.7264    18.6924     2.6031    73.6812
 4101.2720     3.4165    20.0194     2.5914    75.8317
 4101.7720     3.7745    20.6484     2.5883    75.8535
 4102.2720     3.3053    21.2773     2.5910    77.9351
 4102.7720     3.0209    22.1379     2.5975    80.2448
 4103.2720     3.1761    22.8268     2.5929    79.6454
 4103.7720     3.6018    22.4545     2.5882    79.6671
 4104.2720     3.8459    20.5966     2.5882    81.5560
 4104.7720     4.0900    20.1030     2.5866    80.3348
 4105.2720     4.6366    20.0433     2.5773    74.7658
 4105.7720     4.8810    20.2322     2.5695    76.0291
 4106.2720     4.4200    20.1107     2.5819    80.3979
 4106.7720     3.5678    19.6791     2.5958    81.0401
 4107.2720     2.8623    19.4766     2.6020    73.5203
 4107.7720     2.6735    18.8688     2.6066    67.9767
 4108.2720     2.4237    17.7570     2.6069    67.4387
 4108.7720     2.2350    17.1308     2.6110    66.4109
 4109.2720     2.0462    17.0872     2.6174    62.9518
 4109.7720     1.7513    17.1147     2.6174    64.0569
 4110.2720     1.6928    18.2562     2.6174    73.9098
 4110.7720     6.5637    19.8176     2.6127    79.0116
 4111.2720     5.8354    21.3790     2.5692    83.8604
 4111.7720     4.9255    22.9057     2.5584    88.0935
 4112.2720     4.9234    24.5851     2.5552    89.3568
 4112.7720     4.8607    25.8788     2.5614    91.2412
 4113.2720     4.9796    25.9149     2.5678    90.0200
 4113.7720     5.2200    25.7940     2.5742    86.9355
 4114.2720     5.4722    25.4865     2.5769    86.3348
 4114.7720     5.9548    24.8069     2.5732    86.3566
 4115.2720     6.1207    24.1015     2.5700    86.4745
 4115.7720     5.9974    24.3605     2.5637    92.8728
 4116.2720     6.0663    24.6285     2.5548   100.9622
 4116.7720     6.1747    25.0032     2.5566   103.8320
 4117.2720     6.1723    25.0677     2.5581    99.9097
 4117.7720     6.0158    24.4091     2.5565    96.4207
 4118.2720     5.7675    23.3004     2.5534    96.4466
 4118.7720     5.5399    23.2149     2.5534    96.7983
 4119.2720     5.3541    23.7949     2.5551    97.7366
 4119.7720     5.1685    24.6057     2.5583    98.3788
 4120.2720     5.3114    25.3031     2.5630   100.2632
 4120.7720     5.8226    24.1357     2.5663   100.2842
 4121.2720     5.9435    23.4150     2.5695    99.6842
 4121.7720     5.9710    23.2315     2.5671    95.3574
 4122.2720     5.8129    22.9860     2.5610    89.7884
 4122.7720     5.7242    22.9262     2.5548    87.9461
 4123.2720     5.7829    22.9291     2.5516    87.3460
 4123.7720     6.8091    23.9239     2.5594    89.2324
 4124.2720     7.2309    24.1125     2.5547    88.1737
 4124.7720     7.1679    24.2428     2.5420    86.7881
 4125.2720     7.1052    24.3658     2.5374    88.0553
 4125.7720     6.9820    24.4302     2.5360    86.8348
 4126.2720     5.7696    24.2767     2.5365    87.4777
 4126.7720     5.5859    23.8789     2.5403    86.7905
 4127.2720     5.4627    22.5625     2.5475    84.4194
 4127.7720     5.4000    21.3973     2.5570    76.9870
 4128.2720     5.3374    21.8457     2.5622    74.5212
 4128.7720     4.7301    22.3382     2.5622    75.7869
 4129.2720     5.0356    22.4648     2.5638    82.0192
 4129.7720     5.2795    22.5294     2.5668    85.1458
 4130.2720     5.8128    22.4569     2.5746    85.2009
 4130.7720     5.5861    23.2787     2.5809    87.8442
 4131.2720     5.1107    23.4673     2.5802    91.0918
 4131.7720     4.7521    23.8419     2.5737    94.3423
 4132.2720     4.2765    24.5925     2.5693    97.0553
 4132.7720     4.3056    24.6534     2.5620    96.2383
 4133.2720     4.4451    24.5820     2.5699    93.8386
 4133.7720     4.7702    24.1732     2.5821    89.1139
 4134.2720     5.0538    23.2584     2.5868    84.3812
 4134.7720     4.9786    22.5930     2.5852    82.2613
 4135.2720     4.5002    22.9106     2.5821    84.7668
 4135.7720     4.1002    24.5519     2.5821    89.7568
 4136.2720     3.6672    24.9204     2.5802    92.2623
 4136.7720     3.6108    25.4191     2.5712    92.9045
 4137.2720     3.8199    26.7240     2.5734    92.9256
 4137.7720     3.7219    26.4784     2.5818    91.7025
 4138.2720     3.1751    24.8066     2.5909    89.8621
 4138.7720     2.8099    24.0649     2.5936    89.8845
 4139.2720     2.5657    24.0046     2.5936    89.0410
 4139.7720     2.4425    25.0776     2.5989    87.2811
 4140.2720     2.5613    25.1269     2.6051    80.6295
 4140.7720     2.8618    24.2517     2.6097    82.7611
 4141.2720     2.9201    23.8296     2.6128    84.6329
