~VERSION INFORMATION
 VERS.               2.10:   CWLS LOG ASCII STANDARD - VERSION 2.10
 WRAP.                 NO:   ONE LINE PER DEPTH STEP
~WELL INFORMATION
#MNEM.UNIT      DATA TYPE    INFORMATION
#----------   ------------   ------------------------------
 STRT.F         2398.5081:   START DEPTH
 STOP.F         5645.6445:   STOP DEPTH
 STEP.F            0.5000:   STEP LENGTH
 NULL.          -999.2500:   NO VALUE
 COMP. Lawrence Allison and Associates:   COMPANY
 WELL.          43 TPX 10:   WELL
 FLD .           N.P.R. 3:   FIELD
 LOC . 10-38N-78W-NATRONA-WY:   LOCATION
 STAT.                 WY:   STATE
 COUN.            Natrona:   COUNTY
 SRVC.      Dresser Atlas:   SERVICE COMPANY
 DATE.                   :   LOGDATE
 APIN.         4902511207:   API NUMBER
~CURVE INFORMATION
#MNEM.UNIT       API CODE    CURVE DESCRIPTION
#----------   ------------   ------------------------------
 DEPT.F                  :
 DT  .us/f   60 520 00 00:   Delta t
 GR  .API    60 310 00 00:   Gamma Ray
 PORA.None               :   Porosity
~PARAMETER INFORMATION
#MNEM.UNIT          VALUE    DESCRIPTION
#----------   ------------   ------------------------------
 EKB .F         5215.0000:   Kelly bushing
 EGL .F         5203.0000:   Ground level
 EDF .F            0.0000:   Drilling floor
 EPD .F           10.0000:   Permanent datum
 TD  .F         3340.0000:   Total depth
 NRUN.             1.0000:   Number of Runs
#--RUN 1---   ------------   The following are for Run 1---
 RUN .             1.0000:   Run 1
 DATE.mm/dd/yyyy 02/19/1985:   Date Logged
 DD  .ft             5650:   Depth Driller
 DL  .ft             5649:   Depth Logger
 BLI .ft             5640:   Bottom Log Interval
 TLI .ft             2440:   Top Log Interval
 CSS .inch          9.625:   Casing Size
 CTD1.ft              510:   Casing Driller 1
 BS  .inch            8.5:   Bit Size
 DFT .            kcl gel:   Type Fluid In Hole
 DFD .lb/gal          9.5:   Mud Weight
 DFV .sec              44:   Viscosity
 DFPH.                8.5:   pH
 DFL .cc              9.0:   Fluid Loss
 WSS .           flowline:   Source Of Sample
 RM  .ohmm            .32:   Rm
 EMT .F                74:   Rm Meas. Temp.
 RMF .ohmm            .26:   Rmf
 MFT .F                74:   Rmf Meas. Temp.
 RMC .ohmm            .40:   Rmc
 MCST.F                74:   Rmc Meas. Temp.
 MFSS.               meas:   Source Rmf.
 MCSS.               calc:   Source Rmc.
 RMB .ohmm            .14:   Rm. At BHT
 BHT .F               164:   BHT.
 TCS .hh:mm        11 hrs:   Time Circ. Stopped
 MRT .F               164:   Maximum Recorded Temp.
 LUL .              Gltte:   Logging Unit Location
 ENGI.               Mack:   Recorded By
 WITN.          Mr. Strog:   Witnessed By
 DGBY.              Burke:   Digitized By
~T 1 Tops
First Wall Creek                 2512.0
~OTHER INFORMATION
# Repeat recorded off depth.
~A  DEPTH       DT         GR       PORA
# ...
 4127.5080    90.2175    73.5119    28.4694
 4128.0080    90.1497    72.5367    28.2827
 4128.5080    90.2272    72.0600    27.4754
 4129.0080    88.4428    69.8387    26.3226
 4129.5080    86.2705    65.8729    24.7685
 4130.0080    84.0205    63.1532    23.1916
 4130.5080    83.0895    61.9288    22.9430
 4131.0080    83.3256    63.4513    23.3769
 4131.5080    83.9662    65.4668    23.7831
 4132.0080    85.3829    66.9838    25.0898
 4132.5080    87.0073    67.7532    26.3965
 4133.0080    88.6318    68.5226    27.7815
 4133.5080    90.4590    70.0396    28.6810
 4134.0080    91.8553    73.5674    29.1468
 4134.5080    91.7001    74.8570    29.3157
 4135.0080    90.6757    77.3376    28.1209
 4135.5080    89.5276    77.6085    27.6550
 4136.0080    88.9845    76.3841    27.3442
 4136.5080    88.9068    72.4183    27.1887
 4137.0080    90.4217    70.1988    28.0571
 4137.5080    92.9983    68.9690   -49.3678
 4138.0080    94.8026    71.4884   -48.4683
 4138.5080    94.4146    75.2484   -48.5309
 4139.0080    93.8714    77.2651   -49.2761
 4139.5080    92.9404    78.7817    29.9166
 4140.0080    91.8534    78.3096    29.1714
 4140.5080    90.8252    76.5868    28.5193
 4141.0080    89.8369    72.5249    27.7120
 4141.5080    89.3713    68.1531    27.7761
 4142.0080    89.8367    67.4326    28.2385
 4142.5080    91.0009    67.7035    29.8517
 4143.0080    92.9562    68.7221   -48.8453
 4143.5080    95.1118    72.7314   -48.2563
 4144.0080    95.4220    75.4945   -47.9774
 4144.5080    95.1116    76.5131   -48.0710
 4145.0080    94.1806    75.5434   -48.3197
 4145.5080    93.1719    75.3104   -49.4993
 4146.0080    92.1633    75.5868    30.0348
 4146.5080    91.2321    74.6116    29.1343
 4147.0080    91.2322    73.6311    28.9734
 4147.5080    91.5424    73.6582    29.4127
 4148.0080    91.1544    73.9293    29.0708
 4148.5080    89.6027    73.3677    27.7670
 4149.0080    88.9819    69.4920    27.1459
 4149.5080    88.7491    65.5262    27.1146
 4150.0080    89.6800    64.2964    27.8588
 4150.5080    90.4580    65.5696    28.4790
 4151.0080    90.4556    69.0804    28.4162
 4151.5080    88.3608    71.0959    27.7552
 4152.0080    85.9558    70.3468    26.5996
 4152.5080    85.1799    69.3948    25.4440
 4153.0080    84.0937    70.1696    24.2563
 4153.5080    83.4729    71.4374    23.4787
 4154.0080    83.7056    71.2099    23.2934
 4154.5080    85.7396    69.2378    24.6893
 4155.0080    87.1189    66.5181    26.1473
 4155.5080    87.8170    63.2954    26.5194
 4156.0080    87.0028    62.5740    25.3086
 4156.5080    83.7147    61.1058    23.1353
 4157.0080    80.4267    59.8815    20.7673
 4157.5080    77.2165    58.9063    18.7415
 4158.0080    76.8778    59.4264    18.4486
 4158.5080    78.2544    60.6943    18.8826
 4159.0080    80.3801    60.9652    20.3931
 4159.5080    82.5058    62.0342    22.5102
 4160.0080    84.0923    66.9954    24.0016
 4160.5080    84.3250    69.0108    23.6907
 4161.0080    83.1602    68.5341    23.2248
 4161.5080    81.4466    67.0605    21.8966
 4162.0080    79.7331    67.0822    20.4793
 4162.5080    78.0234    67.3880    19.3755
 4163.0080    77.8078    66.3780    19.0957
 4163.5080    80.6876    65.1536    20.9272
 4164.0080    86.8164    65.6792    26.5886
 4164.5080    92.9451    70.4361   -49.2376
 4165.0080    97.4350    72.9500   -46.7867
 4165.5080    96.7367    72.7171   -47.8558
 4166.0080    92.3104    70.7505    29.8610
 4166.5080    85.9919    68.7784    25.4664
 4167.0080    80.5223    67.2944    21.2952
 4167.5080    80.5998    66.0858    21.0155
 4168.0080    80.9100    65.6091    21.3874
 4168.5080    82.3063    65.6308    22.2869
 4169.0080    83.1596    66.1510    23.2794
 4169.5080    83.8577    67.6680    23.6203
 4170.0080    83.6971    69.9327    23.1543
 4170.5080    82.2845    71.2006    22.2229
 4171.0080    79.9819    70.2012    21.1674
 4171.5080    77.7459    68.5080    19.5744
 4172.0080    75.5098    65.5390    17.3963
 4172.5080    73.2737    63.0686    15.3940
 4173.0080    71.3667    60.0996    14.8970
 4173.5080    71.2115    57.1307    14.7726
 4174.0080    71.9096    53.9125    15.5168
 4174.5080    73.2284    52.1805    16.8399
 4175.0080    76.5065    52.3229    19.0703
 4175.5080    79.9020    55.4784    21.3008
 4176.0080    83.2976    61.4814    23.5312
 4176.5080    86.6931    68.7306    25.7616
 4177.0080    89.4673    72.2414    27.8646
 4177.5080    88.4334    75.2537    26.4988
 4178.0080    85.7309    72.5340    24.4221
 4178.5080    81.7847    65.0441    21.7371
 4179.0080    77.8385    63.6160    19.0520
 4179.5080    75.6324    58.7845    17.6488
 4180.0080    76.3305    53.9347    18.3971
 4180.5080    77.0286    53.7018    18.8932
 4181.0080    77.7267    56.4704    19.5754
 4181.5080    79.2006    58.7351    21.0645
 4182.0080    81.0929    59.2552    21.9640
 4182.5080    83.2159    59.5268    22.7393
 4183.0080    85.3390    60.3010    25.3536
 4183.5080    87.0358    65.0579    25.8415
 4184.0080    86.7254    66.0765    25.7169
 4184.5080    86.2598    67.8428    25.3441
 4185.0080    86.8027    69.8582    25.7160
 4185.5080    87.5784    70.6478    26.4510
 4186.0080    88.3003    70.1509    27.3171
 4186.5080    89.4532    73.1687    28.2282
 4187.0080    90.6061    76.6795    28.9414
 4187.5080    91.7590    76.9504    29.4996
 4188.0080    92.7758    77.2214    29.8405
 4188.5080    93.0860    79.9845    29.8423
 4189.0080    92.6204    81.2523    29.3704
 4189.5080    91.7670    81.2741    29.3426
 4190.0080    91.7539    80.7484    29.7765
 4190.5080    92.3098    79.5729  -999.2500
 4191.0080    92.3873    83.8368   -49.8830
 4191.5080    90.2925    86.6000  -999.2500
 4192.0080    86.2279    87.8678  -999.2500
 4192.5080    81.2168    82.9051  -999.2500
 4193.0080    76.2057    74.6759  -999.2500
 4193.5080    71.1946    66.4587  -999.2500
 4194.0080    68.1819    60.9233    12.5813
 4194.5080    67.7163    58.5737    11.7739
 4195.0080    68.8858    55.3556    11.9704
 4195.5080    73.3794    52.8851    14.5521
 4196.0080    75.2412    53.6544    17.2031
 4196.5080    74.4654    60.6543    17.2957
 4197.0080    72.9137    59.9284    15.3091
 4197.5080    71.2068    52.3992    14.5019
 4198.0080    70.7413    49.5100    14.5636
 4198.5080    71.2854    49.2770    14.5630
 4199.0080    71.2730    49.3042    14.5315
 4199.5080    70.7410    48.0798    14.3139
 4200.0080    70.4498    46.1023    14.0610
 4200.5080    70.2938    46.3804    14.0336
 4201.0080    70.9130    47.8975    14.1883
 4201.5080    71.8428    51.1591    14.8706
 4202.0080    72.6951    50.6823    15.5528
 4202.5080    72.9267    49.3836    15.8937
 4203.0080    72.5374    45.7467    15.8621
 4203.5080    72.3035    42.7777    15.4272
 4204.0080    73.1558    38.5627    15.3338
 4204.5080    74.8614    35.3445    16.2981
 4205.0080    75.9464    32.1263    17.6675
 4205.5080    76.1780    32.1480    18.3101
 4206.0080    75.8665    34.1748    18.2475
 4206.5080    75.2861    35.4709    17.9572
 4207.0080    74.3124    36.2061    17.2532
 4207.5080    73.8458    41.2122    16.6630
 4208.0080    73.9226    44.2246    16.5383
 4208.5080    73.9212    44.7393    16.5378
 4209.0080    73.7649    40.0312    16.4441
 4209.5080    73.4534    36.3146    16.1332
 4210.0080    72.8085    36.3368    15.6634
 4210.5080    72.0545    38.3572    15.2168
 4211.0080    71.5103    40.1234    14.7039
 4211.5080    71.1213    43.3850    14.3930
 4212.0080    70.8874    47.8927    14.2063
 4212.5080    70.7314    54.1449    14.1126
 4213.0080    71.1955    55.6619    14.1431
 4213.5080    71.7410    55.4230    14.5770
 4214.0080    71.9690    54.7084    15.0190
 4214.5080    72.1230    55.2340    15.2894
 4215.0080    71.8113    56.0034    15.2268
 4215.5080    71.4223    55.5266    14.9780
 4216.0080    71.0333    54.8006    14.7602
 4216.5080    70.7218    54.3239    14.4493
 4217.0080    70.4104    54.3456    13.9212
 4217.5080    70.5644    54.6172    13.8586
 4218.0080    71.6491    56.1390    14.2787
