~VERSION INFORMATION
 VERS.               2.10:   CWLS LOG ASCII STANDARD - VERSION 2.10
 WRAP.                 NO:   ONE LINE PER DEPTH STEP
~WELL INFORMATION
#MNEM.UNIT      DATA TYPE    INFORMATION
#----------   ------------   ------------------------------
 STRT.F         2389.7727:   START DEPTH
 STOP.F         5660.0845:   STOP DEPTH
 STEP.F            0.5000:   STEP LENGTH
 NULL.          -999.2500:   NO VALUE
 COMP. Lawrence Allison and Associates:   COMPANY
 WELL.            43 X 10:   WELL
 FLD .           N.P.R. 3:   FIELD
 LOC . 10-38N-78W-NATRONA-WY:   LOCATION
 STAT.                 WY:   STATE
 COUN.            Natrona:   COUNTY
 SRVC.      Dresser Atlas:   SERVICE COMPANY
 DATE.                   :   LOGDATE
 APIN.         4902511207:   API NUMBER
~CURVE INFORMATION
#MNEM.UNIT       API CODE    CURVE DESCRIPTION
#----------   ------------   ------------------------------
 DEPT.F                  :
 DPHI.none   42 890 12 00:   Den. Porosity, Ss [%]
 NPHI.none   42 890 03 00:   Neu. Porosity, Ss [%]
 RHOB.gm/cc  42 350 01 00:   Bulk Density
 GR  .GAPI   42 310 00 00:   Gamma Ray
~PARAMETER INFORMATION
#MNEM.UNIT          VALUE    DESCRIPTION
#----------   ------------   ------------------------------
 EKB .F         5215.0000:   Kelly bushing
 EGL .F         5203.0000:   Ground level
 EDF .F            0.0000:   Drilling floor
 EPD .F           10.0000:   Permanent datum
 TD  .F         3458.0000:   Total depth
 NRUN.             1.0000:   Number of Runs
#--RUN 1---   ------------   The following are for Run 1---
 RUN .             1.0000:   Run 1
 DATE.mm/dd/yyyy 02/19/1985:   Date Logged
 DD  .ft             5650:   Depth Driller
 DL  .ft             5649:   Depth Logger
 BLI .ft             5647:   Bottom Log Interval
 TLI .ft             2400:   Top Log Interval
 CSS .inch          9.625:   Casing Size
 CTD1.ft              510:   Casing Driller 1
 CTL1.ft       not logged:   Casing Logger 1
 BS  .inch            8.5:   Bit Size
 DFT .            kcl gel:   Type Fluid In Hole
 DFD .lb/gal          9.5:   Mud Weight
 DFV .sec              44:   Viscosity
 DFPH.                8.5:   pH
 DFL .cc              9.0:   Fluid Loss
 WSS .           flowline:   Source Of Sample
 RM  .ohmm            .32:   Rm
 EMT .F                74:   Rm Meas. Temp.
 RMF .ohmm            .26:   Rmf
 MFT .F                74:   Rmf Meas. Temp.
 RMC .ohmm            .40:   Rmc
 MCST.F                74:   Rmc Meas. Temp.
 MFSS.               meas:   Source Rmf.
 MCSS.               calc:   Source Rmc.
 RMB .ohmm            .14:   Rm. At BHT
 BHT .F               164:   BHT.
 TCS .hh:mm        8 hrs.:   Time Circ. Stopped
 MRT .F               170:   Maximum Recorded Temp.
 LUL .               Glte:   Logging Unit Location
 ENGI.               Mack:   Recorded By
 WITN.         Mr. Strong:   Witnessed By
 DGBY.              Burke:   Digitized By
~T 2 Tops
First Wall Creek                 2512.0
Second Wall Creek                2912.0
~OTHER INFORMATION
# Density Matrix = 2.65
# Neutron Matrix = Sandstone
~A  DEPTH     DPHI       NPHI       RHOB         GR
# ...
 3046.7730    13.2646    23.2910     2.4219   111.3653
 3047.2730    13.1387    23.8417     2.4216   113.0137
 3047.7730    13.2574    25.4229     2.4218   114.2685
 3048.2730    13.4373    26.4254     2.4266   115.5220
 3048.7730    13.8007    26.5135     2.4365   111.3705
 3049.2730    13.6748    26.3369     2.4439   105.6913
 3049.7730    12.8761    24.2331     2.4434   101.2661
 3050.2730    12.5667    23.6064     2.4456   101.8565
 3050.7730    12.3796    23.4226     2.4572   103.7009
 3051.2730    12.3690    23.0529     2.4821   103.0374
 3051.7730    11.5012    21.3187     2.4821   103.0009
 3052.2730    10.2576    21.0730     2.4774   104.8636
 3052.7730     9.9796    21.6823     2.4712   106.8003
 3053.2730    10.0772    23.2485     2.4459   109.3472
 3053.7730    10.2942    22.0725     2.4417   111.2651
 3054.2730    10.4722    20.9586     2.4540   112.2227
 3054.7730    12.0914    20.3935     2.4867   108.0089
 3055.2730    12.4085    20.0878     2.5081    96.6023
 3055.7730    11.8403    19.9238     2.5203    81.3799
 3056.2730    10.5706    19.2156     2.5253    80.7164
 3056.7730     8.7761    18.7996     2.5268    81.3069
 3057.2730     7.8221    18.9816     2.5283    83.1512
 3057.7730     7.4965    19.1803     2.5283    83.1143
 3058.2730     7.5546    19.3658     2.5248    82.4497
 3058.7730     7.6347    19.8642     2.5150    83.2182
 3059.2730     7.7561    20.3006     2.5092    87.1469
 3059.7730     7.8775    20.7991     2.5081    90.9831
 3060.2730     8.1843    20.7394     2.5103    93.7870
 3060.7730     8.3650    20.6157     2.5127    93.3063
 3061.2730     8.4487    20.2296     2.5111    92.6042
 3061.7730     8.3839    19.9179     2.5080    93.1604
 3062.2730     8.3192    19.5937     2.5095    93.4340
 3062.7730     8.4991    18.7917     2.5188    92.1356
 3063.2730     8.4343    18.0249     2.5317    89.5913
 3063.7730     7.9414    17.8819     2.5407    88.9278
 3064.2730     7.2039    17.4067     2.5420    93.9069
 3064.7730     6.6498    16.8951     2.5330    98.8861
 3065.2730     6.2793    16.9963     2.5249   101.9844
 3065.7730     6.7698    18.1804     2.5126   102.5858
 3066.2730     7.8113    19.6725     2.5031   101.2835
 3066.7730     8.2990    20.8109     2.5000   102.0028
 3067.2730     8.4668    21.3821     2.4969   104.6496
 3067.7730     8.5968    21.5502     2.4937   106.1905
 3068.2730     8.7182    21.6009     2.4922   104.0900
 3068.7730     8.9008    21.0286     2.4964   103.6033
 3069.2730     9.0640    20.5968     2.5151   103.5657
 3069.7730     8.8626    20.7231     2.5243   103.5281
 3070.2730     8.2920    21.1596     2.5308   103.4905
 3070.7730     7.3166    21.4099     2.5294   103.4528
 3071.2730     7.2146    21.6266     2.5122   103.6385
 3071.7730     7.4610    22.9122     2.5153    99.6104
 3072.2730     7.8175    22.9672     2.5199    93.9313
 3072.7730     7.8139    22.7882     2.5199    95.1519
 3073.2730     7.7491    22.2172     2.5151    96.3661
 3073.7730     7.7455    21.9237     2.5133    97.5835
 3074.2730     7.9254    21.8953     2.5120    96.2911
 3074.7730     8.0445    22.1117     2.5120    94.9611
 3075.2730     8.1017    22.1761     2.5059    94.2593
 3075.7730     8.5263    22.1784     2.4922    94.3026
 3076.2730     9.7459    22.1187     2.4840    94.5678
 3076.7730     9.9870    21.9349     2.4840    96.4858
 3077.2730     9.9805    21.6159     2.4887    98.1758
 3077.7730     9.8462    21.1954     2.4933    98.5375
 3078.2730     9.5841    21.3348     2.4996    97.5695
 3078.7730     9.0829    21.0540     2.5025    97.2625
 3079.2730     8.8540    19.8931     2.5045    98.4246
 3079.7730     8.7252    19.6605     2.5105    96.5000
 3080.2730     8.5388    19.3426     2.5264    94.5826
 3080.7730     8.0568    18.3576     2.5312    93.2921
 3081.2730     7.5655    18.1115     2.5365    91.3748
 3081.7730     7.0206    18.3002     2.5443    88.8304
 3082.2730     6.7056    18.9227     2.5427    83.7782
 3082.7730     6.0849    19.2351     2.5287    82.4877
 3083.2730     6.2188    19.6127     2.5239    83.7052
 3083.7730     6.8157    19.8599     2.5209    83.7561
 3084.2730     7.1791    19.4166     2.5178    84.3827
 3084.7730     7.4201    19.3063     2.5236    85.6369
 3085.2730     7.4165    19.6007     2.5308    87.5180
 3085.7730     6.4955    20.0124     2.5372    89.1652
 3086.2730     6.2473    20.3681     2.5409    86.4061
 3086.7730     6.1214    20.0609     2.5378    85.0102
 3087.2730     6.6071    20.3733     2.5347    87.2439
 3087.7730     6.7870    20.9958     2.5331    90.2547
 3088.2730     7.0322    21.0601     2.5282    91.4721
 3088.7730     7.2127    20.2562     2.5238    90.8087
 3089.2730     7.3341    19.6991     2.5253    90.1452
 3089.7730     7.4454    19.3306     2.5309    86.3469
 3090.2730     7.4414    19.4676     2.5408    85.5890
 3090.7730     7.1880    19.6921     2.5349    92.5434
 3091.2730     6.3145    20.6603     2.5159    96.4034
 3091.7730     6.3938    21.5259     2.5019   102.0678
 3092.2730     6.7041    21.7300     2.5004   105.0728
 3092.7730     7.0757    21.8257     2.5019   104.7924
 3093.2730     7.8666    21.9526     2.5066   102.4469
 3093.7730     8.3981    21.8308     2.5111    98.2756
 3094.2730     8.3722    20.9649     2.5056    94.1043
 3094.7730     8.0193    20.2851     2.5012    91.6619
 3095.2730     7.8934    20.4114     2.4979    89.3385
 3095.7730     8.1345    20.9304     2.4962    87.1519
 3096.2730     8.2532    21.5693     2.4955    88.9886
 3096.7730     8.4331    20.8480     2.4986    90.8330
 3097.2730     8.7968    19.8513     2.5048    90.7965
 3097.7730     8.7317    18.9966     2.5079    89.5060
 3098.2730     8.6058    19.1825     2.5094    86.9617
 3098.7730     8.3576    19.6361     2.5109    87.5532
 3099.2730     7.9854    19.9969     2.5188    88.1426
 3099.7730     7.8610    20.0612     2.5328    88.1049
 3100.2730     7.5844    19.6801     2.5449    86.6582
 3100.7730     6.7965    19.2142     2.5363    83.0091
 3101.2730     6.1990    18.8450     2.5232    83.7612
 3101.7730     7.5952    19.0362     2.5107    85.0175
 3102.2730     8.3083    19.6924     2.5107    86.5245
 3102.7730     8.2148    20.1299     2.5107    88.7836
 3103.2730     8.0111    20.5534     2.5122    91.0039
 3103.7730     8.1828    21.0737     2.5122    95.2960
 3104.2730     8.2655    21.2552     2.5183    96.5106
 3104.7730     7.7730    20.9439     2.5354    96.6371
 3105.2730     6.8077    21.2465     2.5384    93.9239
 3105.7730     6.6286    21.9114     2.5384    92.6306
 3106.2730     7.1835    21.9763     2.5322    93.2192
 3106.7730     7.6772    21.4211     2.5259    99.4682
 3107.2730     8.0485    20.6178     2.5197   101.2898
 3107.7730     8.2365    20.7447     2.5083    98.5470
 3108.2730     8.5155    21.8906     2.4977    94.5210
 3108.7730     9.1315    22.5573     2.4939    92.3884
 3109.2730     9.5178    22.4899     2.4859    94.0504
 3109.7730     9.9237    22.6530     2.4711    97.8578
 3110.2730    10.3514    23.5490     2.4637   100.1000
 3110.7730    10.6176    24.7938     2.4630   101.3556
 3111.2730    10.7494    24.8589     2.4621   102.2088
 3111.7730    10.9039    24.6758     2.4664   102.7963
 3112.2730    10.6025    24.8034     2.4729   103.3884
 3112.7730    10.5458    24.7442     2.4759   100.8366
 3113.2730    10.3667    24.4371     2.4790    99.5433
 3113.7730     9.5148    22.8365     2.4867    96.3691
 3114.2730     8.2452    21.6522     2.4960    92.5152
 3114.7730     6.4897    21.4075     2.5378    90.5765
 3115.2730     6.0418    21.2864     2.5487    89.2394
 3115.7730     6.4556    21.4134     2.5437    87.9018
 3116.2730     8.0896    21.7884     2.5329    85.9369
 3116.7730     8.8010    22.8552     2.5068    87.4419
 3117.2730     8.9989    23.0967     2.4985    90.6640
 3117.7730     9.3077    22.8979     2.4989    94.2108
 3118.2730     9.2509    21.9509     2.4946    95.6340
 3118.7730     9.3165    21.8649     2.4940    92.8205
 3119.2730     9.3821    21.9235     2.4980    90.2733
