~VERSION INFORMATION
 VERS.               2.10:   CWLS LOG ASCII STANDARD - VERSION 2.10
 WRAP.                 NO:   ONE LINE PER DEPTH STEP
~WELL INFORMATION
#MNEM.UNIT      DATA TYPE    INFORMATION
#----------   ------------   ------------------------------
 STRT.F         2399.8379:   START DEPTH
 STOP.F         5667.9595:   STOP DEPTH
 STEP.F            0.5000:   STEP LENGTH
 NULL.          -999.2500:   NO VALUE
 COMP. Lawrence Allison & Associates:   COMPANY
 WELL.          43-TPX-10:   WELL
 FLD .           N.P.R. 3:   FIELD
 LOC . 10-38N-78W-NATRONA-WY:   LOCATION
 STAT.                 WY:   STATE
 COUN.            Natrona:   COUNTY
 SRVC.      Dresser Atlas:   SERVICE COMPANY
 DATE.                   :   LOGDATE
 APIN.         4902511207:   API NUMBER
~CURVE INFORMATION
#MNEM.UNIT       API CODE    CURVE DESCRIPTION
#----------   ------------   ------------------------------
 DEPT.F                  :
 LLD .ohmm   11 220 04 00:   Dual Laterolog, Deep
 LLS .ohmm   11 220 06 00:   Dual Laterolog, shallow
 MNOR.ohmm   15 252 02 00:   Microlog, normal 2"
 GR  .GAPI   06 310 01 00:   Gamma Ray
 SP  .mV     06 010 01 00:   Spontaneous Potential
~PARAMETER INFORMATION
#MNEM.UNIT          VALUE    DESCRIPTION
#----------   ------------   ------------------------------
 EKB .F         5215.0000:   Kelly bushing
 EGL .F         5203.0000:   Ground level
 EDF .F            0.0000:   Drilling floor
 EPD .F           10.0000:   Permanent datum
 TD  .F         5260.0000:   Total depth
 NRUN.             1.0000:   Number of Runs
#--RUN 1---   ------------   The following are for Run 1---
 RUN .             1.0000:   Run 1
 DATE.mm/dd/yyyy 02/19/85:   Date Logged
 DD  .ft             5650:   Depth Driller
 DL  .ft             5649:   Depth Logger
 BLI .ft             5646:   Bottom Log Interval
 TLI .ft              511:   Top Log Interval
 CSS .inch          9-5/8:   Casing Size
 CTD1.ft              510:   Casing Driller 1
 CTL1.ft              511:   Casing Logger 1
 BS  .inch            8.5:   Bit Size
 DFT .            kcl-gel:   Type Fluid In Hole
 DFD .lb/gal          9.5:   Mud Weight
 DFV .sec              44:   Viscosity
 DFPH.                8.5:   pH
 DFL .cc              9.0:   Fluid Loss
 WSS .           flowline:   Source Of Sample
 RM  .ohmm            .32:   Rm
 EMT .F                74:   Rm Meas. Temp.
 RMF .ohmm            .26:   Rmf
 MFT .F                74:   Rmf Meas. Temp.
 RMC .ohmm            .40:   Rmc
 MCST.F                74:   Rmc Meas. Temp.
 MFSS.              meas.:   Source Rmf.
 MCSS.              calc.:   Source Rmc.
 RMB .ohmm            .14:   Rm. At BHT
 BHT .F               164:   BHT.
 TCS .hh:mm         5 hrs:   Time Circ. Stopped
 MRT .F               164:   Maximum Recorded Temp.
 LUL .               Glte:   Logging Unit Location
 ENGI.               Mack:   Recorded By
 WITN.         Mr. Strong:   Witnessed By
 DGBY.              Burke:   Digitized By
~T 1 Tops
First Wall Creek                 2512.0
~A  DEPTH      LLD        LLS       MNOR         GR         SP
# ...
 5632.8380   125.5845    86.8677    18.4692  -999.2500    57.9945
 5633.3380   125.5528    85.6135    26.0159  -999.2500    57.9967
 5633.8380   125.5211    85.5938    30.6556  -999.2500    57.9989
 5634.3380   125.4894    85.5737    34.6079  -999.2500    58.0011
 5634.8380   125.4577    85.5496    28.2470  -999.2500    58.0033
 5635.3380   125.4261    86.1491    20.6925  -999.2500    58.0055
 5635.8380   125.3944    85.5102    21.5959  -999.2500    58.0077
 5636.3380   125.3627    85.4906    30.8577  -999.2500    58.0099
 5636.8380   125.3310    86.0897    53.0854  -999.2500    58.0121
 5637.3380   125.2993    86.0650    73.7163  -999.2500    58.0143
 5637.8380   125.2677    86.6632    93.9625  -999.2500    58.0165
 5638.3380   125.2360    86.6433    76.1804  -999.2500    58.0187
 5638.8380   125.2043    86.6228    61.3405  -999.2500    58.0209
 5639.3380   125.1726    86.5984    46.5006  -999.2500    58.0231
 5639.8380   125.1409    86.5785    31.5016  -999.2500    58.0253
 5640.3380   125.1093    86.5812    30.5781  -999.2500    58.0275
 5640.8380   125.0776    86.5941    28.2953  -999.2500    58.0297
 5641.3380   125.0459    86.6070    24.0183  -999.2500    58.0319
 5641.8380   125.0142    86.6198    17.2811  -999.2500    58.0341
 5642.3380   125.0103    86.6327    10.5439  -999.2500    58.0363
 5642.8380   122.3841    86.6456     9.3508  -999.2500    58.0385
 5643.3380   117.2743    86.6585    24.1359  -999.2500    58.0407
 5643.8380   117.2888    86.6713    33.3231  -999.2500    58.0429
 5644.3380   119.0839    86.6842    37.0860  -999.2500    58.0451
 5644.8380   123.3244    86.6971    36.0380  -999.2500    58.0473
 5645.3380   125.1082    86.7099    29.9291  -999.2500    58.0495
 5645.8380   125.1242    86.7228    22.4516  -999.2500    58.0517
 5646.3380   125.1401    86.7357    18.9609  -999.2500    58.0539
 5646.8380   125.1560    86.7486    16.0758  -999.2500    58.0561
 5647.3380   125.1720    86.7614    15.7334  -999.2500    58.0583
 5647.8380   125.1879    86.7743    15.8449  -999.2500    58.0604
 5648.3380   125.2038    86.7872    15.8427  -999.2500    58.0626
 5648.8380   125.2198    86.8001    15.3950  -999.2500    58.0648
 5649.3380   125.2357    86.8129    15.2838  -999.2500    58.0670
 5649.8380   125.2524    86.8258    15.5020  -999.2500    58.0692
 5650.3380   125.2204    86.8387    15.8359  -999.2500    58.0714
 5650.8380   125.1869    86.8515    16.0619  -999.2500    58.0736
 5651.3380   125.1533    86.8644    15.7194  -999.2500    58.0758
 5651.8380   125.1198    86.8773    15.4948  -999.2500    58.0780
 5652.3380   125.0863    86.8902    15.3829  -999.2500    58.0802
 5652.8380   125.0527    86.9030    15.4919  -999.2500    58.0824
 5653.3380   125.0192    86.9159    15.6008  -999.2500    58.0846
 5653.8380   124.9856    86.9288    15.7109  -999.2500    58.0868
 5654.3380   124.9521    86.9417    15.8217  -999.2500    58.0890
 5654.8380   124.9186    86.9545    15.6725  -999.2500    58.0912
 5655.3380   124.8850    86.9674    15.3725  -999.2500    58.0934
 5655.8380   124.8515    86.9803    15.3708  -999.2500    58.0956
 5656.3380   124.8179    86.9931    15.7019  -999.2500    58.0978
 5656.8380   124.7844    87.0060    15.9264  -999.2500    58.1000
 5657.3380   124.7509    87.0189    15.8110  -999.2500    58.1022
 5657.8380   124.7173    87.0318    15.4743  -999.2500    58.1044
 5658.3380   124.6838    87.0446    15.3625  -999.2500    58.1066
 5658.8380   124.6502    87.0575    15.4816  -999.2500    58.1088
 5659.3380   124.6167    87.0704    15.6917  -999.2500    58.1110
 5659.8380   124.5832    87.0833    15.6896  -999.2500    58.1132
 5660.3380   124.5496    87.0961    15.5763  -999.2500    58.1154
 5660.8380   124.5161    87.1090    15.5746  -999.2500    58.1176
 5661.3380   124.4825    87.1219    15.6849  -999.2500    58.1198
 5661.8380   124.4490    87.1348    15.6828  -999.2500    58.1220
 5662.3380   124.4155    87.1476    15.6811  -999.2500    58.1242
 5662.8380   124.3819    87.1605    15.7917  -999.2500    58.1264
 5663.3380   124.3484    87.1734    15.7727  -999.2500    58.1286
 5663.8380   124.3148    87.1862    15.6756  -999.2500    58.1308
 5664.3380   124.2813    87.1991    15.6739  -999.2500    58.1330
 5664.8380   124.2478    87.2120    15.6722  -999.2500    58.1352
 5665.3380   124.2142    87.2249    15.3384  -999.2500    58.1374
 5665.8380   124.1807    87.2377    15.2276  -999.2500    58.1396
 5666.3380   124.1471    87.2506    15.2260  -999.2500    58.1418
 5666.8380   124.1136    87.2635    15.2243  -999.2500    58.1440
 5667.3380   124.0801    87.2763    15.2226  -999.2500    58.1462
 5667.8380   124.0460    87.2892    15.2206  -999.2500    58.1488
