~VERSION INFORMATION
 VERS.               2.10:   CWLS LOG ASCII STANDARD - VERSION 2.10
 WRAP.                 NO:   ONE LINE PER DEPTH STEP
~WELL INFORMATION
#MNEM.UNIT      DATA TYPE    INFORMATION
#----------   ------------   ------------------------------
 STRT.F         2399.8379:   START DEPTH
 STOP.F         5667.9595:   STOP DEPTH
 STEP.F            0.5000:   STEP LENGTH
 NULL.          -999.2500:   NO VALUE
 COMP. Lawrence Allison & Associates:   COMPANY
 WELL.          43-TPX-10:   WELL
 FLD .           N.P.R. 3:   FIELD
 LOC . 10-38N-78W-NATRONA-WY:   LOCATION
 STAT.                 WY:   STATE
 COUN.            Natrona:   COUNTY
 SRVC.      Dresser Atlas:   SERVICE COMPANY
 DATE.                   :   LOGDATE
 APIN.         4902511207:   API NUMBER
~CURVE INFORMATION
#MNEM.UNIT       API CODE    CURVE DESCRIPTION
#----------   ------------   ------------------------------
 DEPT.F                  :
 LLD .ohmm   11 220 04 00:   Dual Laterolog, Deep
 LLS .ohmm   11 220 06 00:   Dual Laterolog, shallow
 MNOR.ohmm   15 252 02 00:   Microlog, normal 2"
 GR  .GAPI   06 310 01 00:   Gamma Ray
 SP  .mV     06 010 01 00:   Spontaneous Potential
~PARAMETER INFORMATION
#MNEM.UNIT          VALUE    DESCRIPTION
#----------   ------------   ------------------------------
 EKB .F         5215.0000:   Kelly bushing
 EGL .F         5203.0000:   Ground level
 EDF .F            0.0000:   Drilling floor
 EPD .F           10.0000:   Permanent datum
 TD  .F         5260.0000:   Total depth
 NRUN.             1.0000:   Number of Runs
#--RUN 1---   ------------   The following are for Run 1---
 RUN .             1.0000:   Run 1
 DATE.mm/dd/yyyy 02/19/85:   Date Logged
 DD  .ft             5650:   Depth Driller
 DL  .ft             5649:   Depth Logger
 BLI .ft             5646:   Bottom Log Interval
 TLI .ft              511:   Top Log Interval
 CSS .inch          9-5/8:   Casing Size
 CTD1.ft              510:   Casing Driller 1
 CTL1.ft              511:   Casing Logger 1
 BS  .inch            8.5:   Bit Size
 DFT .            kcl-gel:   Type Fluid In Hole
 DFD .lb/gal          9.5:   Mud Weight
 DFV .sec              44:   Viscosity
 DFPH.                8.5:   pH
 DFL .cc              9.0:   Fluid Loss
 WSS .           flowline:   Source Of Sample
 RM  .ohmm            .32:   Rm
 EMT .F                74:   Rm Meas. Temp.
 RMF .ohmm            .26:   Rmf
 MFT .F                74:   Rmf Meas. Temp.
 RMC .ohmm            .40:   Rmc
 MCST.F                74:   Rmc Meas. Temp.
 MFSS.              meas.:   Source Rmf.
 MCSS.              calc.:   Source Rmc.
 RMB .ohmm            .14:   Rm. At BHT
 BHT .F               164:   BHT.
 TCS .hh:mm         5 hrs:   Time Circ. Stopped
 MRT .F               164:   Maximum Recorded Temp.
 LUL .               Glte:   Logging Unit Location
 ENGI.               Mack:   Recorded By
 WITN.         Mr. Strong:   Witnessed By
 DGBY.              Burke:   Digitized By
~T 1 Tops
First Wall Creek                 2512.0
~A  DEPTH      LLD        LLS       MNOR         GR         SP
# ...
 4534.8380   334.5471   364.3474   207.0160    12.4625    73.5416
 4535.3380   282.6326   301.3109   150.5648    15.3318    73.2325
 4535.8380   230.6842   238.1215    91.0926    16.8404    72.9228
 4536.3380   178.7357   174.9321    83.6199    18.4963    72.3031
 4536.8380   125.7760   103.2899   105.0921    23.1586    71.8384
 4537.3380   107.8226    90.4146    87.2141    30.6842    71.2063
 4537.8380    87.0627    75.5510    70.3415    35.0593    70.1319
 4538.3380    66.3028    60.6874    53.4689    36.9280    69.8223
 4538.8380    45.1190    45.8238    36.5963    41.0348    69.2026
 4539.3380    28.0928    30.9602    25.9092    46.6189    68.8929
 4539.8380    23.1654    22.4595    16.5461    49.4992    68.7393
 4540.3380    21.2581    20.9033    15.5176    54.1057    68.4306
 4540.8380    19.7879    19.7354    16.1981    59.7582    68.1215
 4541.3380    18.4194    18.9013    17.5368    62.9449    67.3083
 4541.8380    17.8870    18.2325    19.1365    65.8685    66.4150
 4542.3380    17.5080    16.9603    20.0726    71.4513    66.1053
 4542.8380    17.3770    16.2518    19.3703    81.1212    65.7966
 4543.3380    17.7006    16.4822    19.0968    90.7910    65.3320
 4543.8380    18.2378    17.4481    20.3663   100.4608    64.2452
 4544.3380    18.7749    19.7006    24.3482   109.9894    63.6250
 4544.8380    19.3120    22.2438    26.3398   113.5462    63.6269
 4545.3380    21.0992    22.7224    26.7208   112.7103    63.6288
 4545.8380    22.0930    19.5458    25.2203   111.3673    63.7866
 4546.3380    20.4171    17.5520    20.5211   104.8888    63.7885
 4546.8380    18.6029    16.1036    18.4381   100.1258    63.7904
 4547.3380    17.9448    15.9848    18.4400   103.2565    63.9478
 4547.8380    17.6841    16.5623    18.5736   106.4016    63.9497
 4548.3380    17.9353    18.5670    21.1226   115.8931    63.7960
 4548.8380    19.1341    20.3723    23.0140   115.7708    63.4869
 4549.3380    22.6431    20.9601    25.1012   114.3778    63.3333
 4549.8380    24.3350    21.2558    25.6501   112.8423    62.8690
 4550.3380    24.3235    21.5569    25.8060   102.3475    62.4044
 4550.8380    24.4906    21.7065    26.3668    99.7698    62.2503
 4551.3380    25.1871    21.8860    27.3274    98.8587    62.2526
 4551.8380    27.4262    23.9808    28.9361    97.0493    62.0989
 4552.3380    29.8643    25.7816    31.5271    94.7229    61.9453
 4552.8380    32.0917    28.0566    34.5453    85.4312    62.1197
 4553.3380    34.5348    30.3315    37.7282    72.4061    62.7272
 4553.8380    36.9779    32.6064    40.9111    63.4875    63.0401
 4554.3380    39.4210    34.8814    44.0940    59.9466    63.1975
 4554.8380    41.8641    37.5851    47.2769    55.5144    63.6660
 4555.3380    44.4122    38.3914    49.1088    53.7310    63.8234
 4555.8380    47.3371    38.1083    48.7624    52.0277    63.8252
 4556.3380    47.6578    36.7599    48.4194    51.7782    63.8297
 4556.8380    45.9673    34.9552    47.7379    52.8518    63.8290
 4557.3380    41.8829    32.0708    46.7301    55.9038    63.6620
 4557.8380    37.8904    29.8486    45.7434    60.2304    63.4640
 4558.3380    34.5237    25.6470    43.5171    65.0648    63.2660
 4558.8380    31.0109    22.6427    37.9969    73.5144    63.0680
 4559.3380    22.6184    18.0726    31.8330    78.6822    62.8700
 4559.8380    17.8959    13.7661    25.6633    89.3763    62.6720
 4560.3380    15.2925    12.9969    23.0194   102.5538    62.4740
 4560.8380    14.6467    13.0871    21.1676   115.7314    62.2760
 4561.3380    14.5371    14.2572    22.8990   128.9089    62.0779
 4561.8380    15.1667    17.1686    26.2281   125.1157    61.6530
 4562.3380    16.6332    19.9997    30.2565   115.8124    61.2070
 4562.8380    18.7283    22.9577    33.9208   106.5092    61.0528
 4563.3380    29.6060    25.9519    41.7277    97.2060    60.8992
 4563.8380    32.0089    28.3056    45.1407    86.8490    60.9016
 4564.3380    32.4594    28.0952    44.7848    81.7001    60.9034
 4564.8380    31.9848    26.5255    42.9480    78.6705    60.7498
 4565.3380    29.7728    24.3367    41.1504    77.8008    60.7517
 4565.8380    28.9232    23.6441    37.5059    77.4922    60.7536
 4566.3380    28.3017    23.1363    33.2218    80.3896    60.7559
 4566.8380    28.2888    23.2968    33.7023    85.9400    60.9133
 4567.3380    29.0961    25.6367    36.4589    86.5679    60.9152
 4567.8380    31.2342    29.6982    38.6052    84.6986    61.2281
 4568.3380    34.0108    31.2162    42.4374    83.5123    61.3855
 4568.8380    35.2319    31.8878    45.1797    81.1966    61.5429
 4569.3380    35.4703    28.6334    43.5989    78.7754    61.5449
 4569.8380    33.9691    27.0335    39.5059    77.3419    61.2357
 4570.3380    30.0807    25.1604    34.7644    76.9089    60.6159
 4570.8380    28.2008    23.5852    30.0229    79.4146    60.1513
 4571.3380    25.8789    22.2674    25.5307    81.1030    59.8416
 4571.8380    24.2615    22.2792    25.3506    85.8652    59.0664
 4572.3380    24.6006    23.3985    25.1724    89.5844    58.9127
 4572.8380    26.4587    24.0736    27.6235    89.3666    58.6036
 4573.3380    26.9690    23.2203    27.8237    92.6896    58.4499
 4573.8380    26.0124    21.9229    26.1618    98.8181    58.7633
 4574.3380    24.0414    18.1964    21.8308   101.8201    59.5428
 4574.8380    19.8246    17.3031    19.6148   106.0142    59.8558
 4575.3380    18.8525    17.1755    19.8990   109.5406    60.3242
 4575.8380    19.1271    19.2572    21.3734   112.2728    60.3261
 4576.3380    22.1925    20.7184    23.7915   109.4660    60.1724
 4576.8380    24.1654    22.5252    25.3725   106.1011    60.3299
 4577.3380    25.5740    23.5078    25.3746   100.2642    60.5098
 4577.8380    24.6692    22.8388    24.8099    94.7927    60.9562
 4578.3380    22.9631    21.7176    23.1297    92.3329    61.2691
 4578.8380    21.3750    19.5301    20.4603    91.0513    61.2710
 4579.3380    18.9956    16.4578    17.0095    95.7445    61.4284
 4579.8380    14.6370    12.8704    14.7547   104.8213    61.8968
 4580.3380    13.9192    12.2386    14.4432   117.0030    62.0542
 4580.8380    13.8164    13.4286    15.2935   107.7838    62.2117
 4581.3380    14.8303    16.4358    19.8946    98.8015    62.2140
 4581.8380    19.9994    21.3109    26.2531    89.8192    62.2159
 4582.3380    25.1518    26.2945    33.3122    80.8369    62.2178
 4582.8380    30.4864    28.8511    34.0363    72.0576    62.2196
 4583.3380    34.0965    29.0513    33.5565    68.5938    62.3770
 4583.8380    31.8450    27.2308    30.5845    72.7794    62.3789
 4584.3380    28.3038    24.9838    29.3044    77.4579    62.3808
 4584.8380    25.9734    22.4354    27.8781    80.4833    62.3827
 4585.3380    23.0003    18.2262    25.3319    92.2791    62.3850
 4585.8380    18.4329    15.3461    16.6602   102.9431    62.3869
 4586.3380    16.4397    14.8031    15.1989   107.3726    62.5443
 4586.8380    15.8480    14.4851    14.7722   111.1377    62.8573
 4587.3380    15.6277    14.5856    18.9674   102.6730    63.0147
 4587.8380    17.3832    15.9650    21.5704    87.9667    63.4831
 4588.3380    21.0648    19.2707    23.0039    78.4283    64.1077
 4588.8380    22.6127    20.6953    22.5182    75.6713    64.7311
 4589.3380    23.7608    21.2924    21.2698    72.0877    65.3555
 4589.8380    24.0930    21.2859    21.2716    69.5902    65.5129
 4590.3380    24.4296    21.2808    21.2738    67.3407    65.2037
 4590.8380    23.7316    21.2756    21.4279    64.9144    65.2056
 4591.3380    23.3868    20.8186    21.2773    63.9622    65.2075
 4591.8380    22.8833    20.3703    20.8276    63.6730    65.0538
 4592.3380    22.3907    19.9166    19.9563    66.4912    64.7447
 4592.8380    21.7530    19.2274    19.1210    68.0087    64.5910
 4593.3380    21.2822    18.5470    18.7174    70.1004    64.4374
 4593.8380    20.9754    18.4103    18.7190    73.6929    64.1283
 4594.3380    21.4188    18.5380    19.9633    78.6149    63.8191
 4594.8380    22.1876    19.0717    20.9881    75.1798    63.0438
 4595.3380    22.8207    19.3419    21.5979    71.2072    63.2012
