~VERSION INFORMATION
 VERS.               2.10:   CWLS LOG ASCII STANDARD - VERSION 2.10
 WRAP.                 NO:   ONE LINE PER DEPTH STEP
~WELL INFORMATION
#MNEM.UNIT      DATA TYPE    INFORMATION
#----------   ------------   ------------------------------
 STRT.F         2399.8379:   START DEPTH
 STOP.F         5667.9595:   STOP DEPTH
 STEP.F            0.5000:   STEP LENGTH
 NULL.          -999.2500:   NO VALUE
 COMP. Lawrence Allison & Associates:   COMPANY
 WELL.          43-TPX-10:   WELL
 FLD .           N.P.R. 3:   FIELD
 LOC . 10-38N-78W-NATRONA-WY:   LOCATION
 STAT.                 WY:   STATE
 COUN.            Natrona:   COUNTY
 SRVC.      Dresser Atlas:   SERVICE COMPANY
 DATE.                   :   LOGDATE
 APIN.         4902511207:   API NUMBER
~CURVE INFORMATION
#MNEM.UNIT       API CODE    CURVE DESCRIPTION
#----------   ------------   ------------------------------
 DEPT.F                  :
 LLD .ohmm   11 220 04 00:   Dual Laterolog, Deep
 LLS .ohmm   11 220 06 00:   Dual Laterolog, shallow
 MNOR.ohmm   15 252 02 00:   Microlog, normal 2"
 GR  .GAPI   06 310 01 00:   Gamma Ray
 SP  .mV     06 010 01 00:   Spontaneous Potential
~PARAMETER INFORMATION
#MNEM.UNIT          VALUE    DESCRIPTION
#----------   ------------   ------------------------------
 EKB .F         5215.0000:   Kelly bushing
 EGL .F         5203.0000:   Ground level
 EDF .F            0.0000:   Drilling floor
 EPD .F           10.0000:   Permanent datum
 TD  .F         5260.0000:   Total depth
 NRUN.             1.0000:   Number of Runs
#--RUN 1---   ------------   The following are for Run 1---
 RUN .             1.0000:   Run 1
 DATE.mm/dd/yyyy 02/19/85:   Date Logged
 DD  .ft             5650:   Depth Driller
 DL  .ft             5649:   Depth Logger
 BLI .ft             5646:   Bottom Log Interval
 TLI .ft              511:   Top Log Interval
 CSS .inch          9-5/8:   Casing Size
 CTD1.ft              510:   Casing Driller 1
 CTL1.ft              511:   Casing Logger 1
 BS  .inch            8.5:   Bit Size
 DFT .            kcl-gel:   Type Fluid In Hole
 DFD .lb/gal          9.5:   Mud Weight
 DFV .sec              44:   Viscosity
 DFPH.                8.5:   pH
 DFL .cc              9.0:   Fluid Loss
 WSS .           flowline:   Source Of Sample
 RM  .ohmm            .32:   Rm
 EMT .F                74:   Rm Meas. Temp.
 RMF .ohmm            .26:   Rmf
 MFT .F                74:   Rmf Meas. Temp.
 RMC .ohmm            .40:   Rmc
 MCST.F                74:   Rmc Meas. Temp.
 MFSS.              meas.:   Source Rmf.
 MCSS.              calc.:   Source Rmc.
 RMB .ohmm            .14:   Rm. At BHT
 BHT .F               164:   BHT.
 TCS .hh:mm         5 hrs:   Time Circ. Stopped
 MRT .F               164:   Maximum Recorded Temp.
 LUL .               Glte:   Logging Unit Location
 ENGI.               Mack:   Recorded By
 WITN.         Mr. Strong:   Witnessed By
 DGBY.              Burke:   Digitized By
~T 1 Tops
First Wall Creek                 2512.0
~A  DEPTH      LLD        LLS       MNOR         GR         SP
# ...
 5388.8380    70.4024    44.1709    46.1868    14.0972    22.3000
 5389.3380    67.9445    42.6726    47.5067    14.9773    21.6787
 5389.8380    68.9326    43.2893    51.3686    15.6962    20.9016
 5390.3380    74.0367    45.8416    53.3038    16.5924    20.5915
 5390.8380    78.9539    49.5978    55.9157    16.4755    20.5923
 5391.3380    82.4161    49.9554    57.9258    15.9570    20.4214
 5391.8380    83.0180    49.6013    58.3242    15.6502    19.9717
 5392.3380    82.4399    48.5021    54.6734    15.6489    19.5061
 5392.8380    78.4411    44.8761    54.2586    15.9599    19.0403
 5393.3380    74.6337    43.6112    51.5937    16.4699    18.5745
 5393.8380    71.5190    42.0797    48.0202    17.2070    18.2640
 5394.3380    69.0246    40.6020    45.8230    17.2051    18.1092
 5394.8380    68.5418    37.5297    36.7550    17.0171    18.1102
 5395.3380    68.5541    35.6972    35.7893    16.5773    18.1109
 5395.8380    65.1858    34.9402    36.5502    16.8880    18.1280
 5396.3380    60.5403    33.4268    30.1303    17.3731    18.2682
 5396.8380    52.1967    29.3508    23.2332    17.8880    18.2689
 5397.3380    42.0874    23.4558    15.4207    18.4457    18.1142
 5397.8380    31.9780    17.5607     8.8134    17.9702    18.1149
 5398.3380    26.9679    12.8317     8.0291    17.5052    18.1157
 5398.8380    25.6589    12.9243     8.8067    17.1910    18.1164
 5399.3380    28.7642    16.6036    19.1705    16.7281    18.1172
 5399.8380    36.6587    19.4354    22.5832    15.7543    18.2735
 5400.3380    41.6838    20.1484    22.9031    14.4808    18.2765
 5400.8380    42.2870    20.0109    22.0966    16.9005    18.4358
 5401.3380    40.5237    19.1336    22.0936    17.8037    18.2841
 5401.8380    37.2066    17.2322    21.4686    18.4260    18.2888
 5402.3380    33.4382    15.9359    19.1353    19.0933    17.8260
 5402.8380    29.8177    14.6396    16.7076    19.5454    17.6733
 5403.3380    28.1209    13.3433    14.2799    18.6203    17.5215
 5403.8380    25.6978    12.0470    11.7785    17.4760    17.5262
 5404.3380    24.6253    10.7507    11.3642    16.7554    17.6855
 5404.8380    23.9365    10.0929    11.5261    15.8140    17.5337
 5405.3380    22.9376     9.7351    10.6536    15.5915    17.3570
 5405.8380    22.4547     9.2027     9.9892    15.5885    17.2302
 5406.3380    20.6174     8.6314    10.0594    14.8828    17.2349
 5406.8380    19.0640     8.2122     9.7049    15.2696    17.3942
 5407.3380    17.7247     7.7577     8.7806    16.3755    17.5534
 5407.8380    16.7747     7.3283     8.2919    17.1389    17.7127
 5408.3380    16.3054     7.0225     8.4100    15.5726    17.8720
 5408.8380    15.5140     6.7777     9.0312    13.0717    18.3424
 5409.3380    14.8665     6.5296     9.2255    12.0828    18.3470
 5409.8380    14.1449     6.1800     8.9344    12.7506    18.3508
 5410.3380    13.6516     6.0501     7.8259    14.5908    18.3545
 5410.8380    13.3646     6.0089     7.1823    14.9324    18.3583
 5411.3380    13.7691     6.5035     6.5917    13.6787    18.6731
 5411.8380    15.0914     6.7426     6.8303    13.6760    18.9879
 5412.3380    15.6413     6.7931     7.7107    13.6880    19.1473
 5412.8380    15.9812     6.7952     7.8766    14.6067    19.1519
 5413.3380    14.7785     6.7974     6.9037    15.2433    19.4667
 5413.8380    13.8734     6.7034     6.5872    16.1635    20.2481
 5414.3380    13.3899     6.6096     6.8256    16.1604    21.0294
 5414.8380    13.4886     6.5177     6.5383    15.7515    21.8108
 5415.3380    14.0805     6.5203     6.0006    15.5290    22.1256
 5415.8380    14.6984     6.6639     5.3904    16.2125    22.2849
 5416.3380    15.9001     7.0587     4.9471    16.7734    22.2888
 5416.8380    17.2001     8.0027     5.1841    16.4571    22.2933
 5417.3380    19.2815     9.8616     6.5536    15.7984    22.4526
 5417.8380    26.5788    21.4980    16.6927    14.8266    23.3895
 5418.3380    48.4041    30.8709    26.8319    14.2601    24.3264
 5418.8380    75.2864    33.8914    33.9819    14.2573    24.6412
 5419.3380    79.1522    34.8864    35.9744    14.3469    24.6468
 5419.8380    79.1659    35.4004    19.0531    15.1881    24.3182
 5420.3380    77.5009    36.4398    16.2812    16.6834    23.8749
 5420.8380    80.3305    38.1171    16.3956    18.3995    23.5685
 5421.3380    83.8554    42.0766    14.4158    19.8662    23.5723
 5421.8380   113.3861    46.1934    10.9619    22.7915    23.2640
 5422.3380   172.0738    55.2606     6.6634    31.0398    23.4243
 5422.8380   230.7614    83.6912     5.4182    40.7942    23.5836
 5423.3380   289.4491   122.3827    24.3192    40.1525    24.0540
 5423.8380   348.1367   161.0741    80.2161    37.6635    24.6807
 5424.3380   454.7284   207.9507   137.5040    36.9255    24.9955
 5424.8380   532.0330   236.6136   129.8522    37.4382    24.9992
 5425.3380   631.4179   256.0727   120.0275    38.2790    25.1585
 5425.8380   707.8276   333.8065   113.3286    38.9010    25.1623
 5426.3380   870.5342   390.8468   120.7180    38.4301    25.3215
 5426.8380  1117.4291   461.3824   157.3677    37.6446    25.4809
 5427.3380  1166.4625   576.7680   164.2387    37.1578    25.4855
 5427.8380  1102.0382   601.0724   151.8071    37.3235    25.4893
 5428.3380   871.1732   540.0602   127.8832    40.4476    25.8041
 5428.8380   739.5579   481.7811    98.1804    40.7573    26.1189
 5429.3380   659.9507   435.9866    94.0504    41.2058    26.2782
 5429.8380   646.0983   394.5450   101.5762    42.9381    26.4374
 5430.3380   637.0344   380.5856   121.5776    43.7005    26.5967
 5430.8380   619.2595   375.2215   129.6285    43.8699    26.6006
 5431.3380   571.3612   349.7041   141.2099    43.2412    26.7607
 5431.8380   496.6680   307.5333   114.4403    41.8030    26.9200
 5432.3380   381.5840   274.3466    73.8781    36.9971    27.2348
 5432.8380   350.3591   244.7411    57.4074    30.6224    28.0161
 5433.3380   333.3624   236.2122    50.1179    24.2478    28.6420
 5433.8380   328.6857   234.5980    54.5937    17.8731    29.1123
 5434.3380   331.1087   238.0572    64.9252    11.4984    29.1162
 5434.8380   338.3246   246.9729    74.7209     8.5322    29.2763
 5435.3380   350.9265   252.2610    78.5394     8.2166    29.2801
 5435.8380   368.6837   265.3026    86.1663     8.6914    29.2838
 5436.3380   393.1812   285.0736    95.2113    10.3977    29.2876
 5436.8380   428.3703   306.3180   136.1840     9.9056    29.4469
 5437.3380   480.2086   324.4681   180.7697     9.4541    29.6061
 5437.8380   546.0502   338.8094   225.3554     9.7633    29.7724
 5438.3380   643.4503   366.7059   273.7497     9.7604    29.9256
 5438.8380   706.0953   431.8419   285.6922     9.7573    30.0849
 5439.3380   777.7360   492.0530   287.7011     9.7538    30.0887
 5439.8380   932.7159   536.3440   331.8142     9.5837    30.5590
 5440.3380  1023.4628   605.9195   390.8546    10.1328    31.4959
 5440.8380  1123.0387   674.7928   470.6501    11.9318    31.4996
 5441.3380  1197.6599   709.6789   463.9132    15.4679    31.6589
 5441.8380  1215.0676   735.7620   398.8425    19.5067    32.4618
 5442.3380  1206.6449   720.1329   287.1386    20.9848    33.2226
 5442.8380  1130.8274   647.9206   175.4347    20.9823    33.5374
 5443.3380   985.2802   577.4382    86.5974    20.9791    34.0077
 5443.8380   809.9321   500.5885    81.1994    20.9760    35.1001
 5444.3380   677.8353   449.7760   173.6532    21.0712    36.5036
 5444.8380   613.5579   407.0237   289.3152    21.2823    37.1294
 5445.3380   571.4155   384.4954   243.7125    21.4714    38.3919
 5445.8380   567.4545   376.4446   245.4674    22.9212    40.2483
 5446.3380   596.6183   387.7370   353.7286    22.2102    41.9628
 5446.8380   636.8139   453.7488   476.9922    20.4280    42.7441
 5447.3380   688.3113   512.6099   600.2558    19.2568    44.5973
 5447.8380   760.6826   535.2669   666.4808    18.1383    46.7034
 5448.3380   805.4643   550.9826   685.6711    17.3496    48.8095
 5448.8380   794.1990   495.0548   595.4974    16.8305    50.5580
 5449.3380   703.6760   481.2345   407.3700    16.2538    52.0951
