~VERSION INFORMATION
 VERS.               2.10:   CWLS LOG ASCII STANDARD - VERSION 2.10
 WRAP.                 NO:   ONE LINE PER DEPTH STEP
~WELL INFORMATION
#MNEM.UNIT      DATA TYPE    INFORMATION
#----------   ------------   ------------------------------
 STRT.F         2399.8379:   START DEPTH
 STOP.F         5667.9595:   STOP DEPTH
 STEP.F            0.5000:   STEP LENGTH
 NULL.          -999.2500:   NO VALUE
 COMP. Lawrence Allison & Associates:   COMPANY
 WELL.          43-TPX-10:   WELL
 FLD .           N.P.R. 3:   FIELD
 LOC . 10-38N-78W-NATRONA-WY:   LOCATION
 STAT.                 WY:   STATE
 COUN.            Natrona:   COUNTY
 SRVC.      Dresser Atlas:   SERVICE COMPANY
 DATE.                   :   LOGDATE
 APIN.         4902511207:   API NUMBER
~CURVE INFORMATION
#MNEM.UNIT       API CODE    CURVE DESCRIPTION
#----------   ------------   ------------------------------
 DEPT.F                  :
 LLD .ohmm   11 220 04 00:   Dual Laterolog, Deep
 LLS .ohmm   11 220 06 00:   Dual Laterolog, shallow
 MNOR.ohmm   15 252 02 00:   Microlog, normal 2"
 GR  .GAPI   06 310 01 00:   Gamma Ray
 SP  .mV     06 010 01 00:   Spontaneous Potential
~PARAMETER INFORMATION
#MNEM.UNIT          VALUE    DESCRIPTION
#----------   ------------   ------------------------------
 EKB .F         5215.0000:   Kelly bushing
 EGL .F         5203.0000:   Ground level
 EDF .F            0.0000:   Drilling floor
 EPD .F           10.0000:   Permanent datum
 TD  .F         5260.0000:   Total depth
 NRUN.             1.0000:   Number of Runs
#--RUN 1---   ------------   The following are for Run 1---
 RUN .             1.0000:   Run 1
 DATE.mm/dd/yyyy 02/19/85:   Date Logged
 DD  .ft             5650:   Depth Driller
 DL  .ft             5649:   Depth Logger
 BLI .ft             5646:   Bottom Log Interval
 TLI .ft              511:   Top Log Interval
 CSS .inch          9-5/8:   Casing Size
 CTD1.ft              510:   Casing Driller 1
 CTL1.ft              511:   Casing Logger 1
 BS  .inch            8.5:   Bit Size
 DFT .            kcl-gel:   Type Fluid In Hole
 DFD .lb/gal          9.5:   Mud Weight
 DFV .sec              44:   Viscosity
 DFPH.                8.5:   pH
 DFL .cc              9.0:   Fluid Loss
 WSS .           flowline:   Source Of Sample
 RM  .ohmm            .32:   Rm
 EMT .F                74:   Rm Meas. Temp.
 RMF .ohmm            .26:   Rmf
 MFT .F                74:   Rmf Meas. Temp.
 RMC .ohmm            .40:   Rmc
 MCST.F                74:   Rmc Meas. Temp.
 MFSS.              meas.:   Source Rmf.
 MCSS.              calc.:   Source Rmc.
 RMB .ohmm            .14:   Rm. At BHT
 BHT .F               164:   BHT.
 TCS .hh:mm         5 hrs:   Time Circ. Stopped
 MRT .F               164:   Maximum Recorded Temp.
 LUL .               Glte:   Logging Unit Location
 ENGI.               Mack:   Recorded By
 WITN.         Mr. Strong:   Witnessed By
 DGBY.              Burke:   Digitized By
~T 1 Tops
First Wall Creek                 2512.0
~A  DEPTH      LLD        LLS       MNOR         GR         SP
# ...
 2643.8380    18.6723    14.2249    14.9610    71.2183    68.1875
 2644.3380    18.6788    14.2436    13.7367    68.5428    67.8646
 2644.8380    18.5522    13.9324    12.8857    68.7500    67.7345
 2645.3380    18.2953    13.8379    12.1730    69.9856    67.7430
 2645.8380    18.1714    14.0434    12.2649    72.4587    67.7497
 2646.3380    18.7064    14.6647    13.5632    77.8125    67.7565
 2646.8380    19.3935    15.2042    15.9003    79.7922    67.7633
 2647.3380    19.9610    15.2090    14.5717    81.6572    67.6146
 2647.8380    19.4070    14.7823    12.7270    82.8125    66.6882
 2648.3380    18.8650    14.3581    11.9385    81.8009    66.3654
 2648.8380    18.3414    13.6764    11.5225    80.2700    66.0797
 2649.3380    17.5714    13.4868    11.9458    79.0625    66.0882
 2649.8380    17.3141    13.4914    12.1212    77.5321    66.2505
 2650.3380    16.7333    13.4961    11.7768    75.5694    66.4128
 2650.8380    16.6185    13.5008    11.3737    71.5625    66.5751
 2651.3380    16.8650    13.4090    11.2962    69.1443    67.0485
 2651.8380    17.4845    13.4139    11.6279    66.8750    67.3663
 2652.3380    17.9977    13.7274    12.3151    67.7036    67.3733
 2652.8380    19.4762    15.1611    13.7114    68.1250    67.3816
 2653.3380    20.4822    17.1284    15.0495    68.9491    67.3884
 2653.8380    22.9853    22.0114    19.6057    65.2968    67.0841
 2654.3380    25.3987    23.4839    25.9088    62.8125    66.1578
 2654.8380    25.5897    22.0267    22.3097    63.5033    65.8535
 2655.3380    24.3497    18.8245    17.5574    65.1756    64.7166
 2655.8380    22.5170    17.6565    12.9747    68.1250    63.5045
 2656.3380    19.5258    15.6234    12.6132    70.1357    61.3263
 2656.8380    16.9315    14.3103    12.2608    75.3125    60.1281
 2657.3380    16.4588    13.8575    12.1781    72.5000    59.9777
 2657.8380    16.4659    13.6665    12.3571    70.4564    60.1417
 2658.3380    16.4716    13.6712    12.7288    70.3125    60.6150
 2658.8380    16.4773    13.7742    12.4541    70.3125    61.8660
 2659.3380    16.8402    13.7790    11.9355    71.7260    62.0283
 2659.8380    16.7261    13.8828    12.0246    75.7271    62.5016
 2660.3380    16.6128    13.7886    12.4654    76.2500    63.3050
 2660.8380    16.5002    13.4808    12.0319    75.7892    64.3831
 2661.3380    16.3885    12.9386    11.4488    74.0735    64.7010
 2661.8380    16.3956    12.9431    11.4531    68.1250    65.1743
 2662.3380    16.4013    13.0406    11.9081    69.5084    65.6477
 2662.8380    16.5246    13.2332    12.8470    75.1529    65.8100
 2663.3380    16.6489    13.4286    12.9420    77.5000    65.9723
 2663.8380    16.8945    13.6269    12.7623    80.0718    66.1346
 2664.3380    17.0423    13.8282    13.1370    82.5000    66.1416
 2664.8380    17.7748    14.0373    13.9135    77.1189    65.9926
 2665.3380    18.2965    14.2398    14.6309    71.9451    65.6901
 2665.8380    18.3028    14.3481    15.3903    66.8543    65.5414
 2666.3380    17.7933    14.0482    16.1800    65.0000    64.7700
 2666.8380    16.6909    13.7546    15.2863    63.8469    64.6212
 2667.3380    16.3426    13.2758    13.2562    59.9999    64.7852
 2667.8380    16.0015    12.9045    11.9135    54.5063    64.6348
 2668.3380    15.7800    12.7265    12.0885    49.0128    64.4861
 2668.8380    16.0140    13.1008    14.6631    47.6082    64.4946
 2669.3380    16.7213    13.4969    16.0941    55.2566    64.6569
 2669.8380    16.9679    13.7845    16.3305    65.6042    64.6637
 2670.3380    16.9738    13.2098    11.2700    75.9518    64.8260
 2670.8380    15.6962    12.2140    10.3477    86.2995    64.6651
 2671.3380    14.0054    11.6213    10.4250    90.6518    64.2191
 2671.8380    13.4223    11.2972    10.5029    84.8688    63.7594
 2672.3380    13.0464    10.9030    10.5814    83.7500    62.9885
 2672.8380    12.4946    10.5998    10.8912    84.0625    62.2177
 2673.3380    12.1572    10.3044    11.0512    86.0073    61.6024
 2673.8380    12.0749    10.2344    10.7348    88.1748    60.8316
 2674.3380    12.0801    10.1650    10.5188    88.6256    60.3181
 2674.8380    11.9972    10.0249    10.9052    84.9969    59.5552
 2675.3380    11.8311    10.0284    11.0646    85.0501    58.7923
 2675.8380    11.7509     9.8893    10.8342    85.0000    58.0294
 2676.3380    10.9453     9.2756    10.1630    84.6875    57.4452
 2676.8380    10.5649     8.8255     9.8095    84.7678    56.3633
 2677.3380    10.4933     8.6407     9.4665    85.6250    55.5869
 2677.8380    10.3489     8.4530     9.2046    86.5249    54.6411
 2678.3380    10.2047     8.4030     9.5427    87.9617    53.8971
 2678.8380    10.1356     8.4067    10.0348    90.3125    53.2818
 2679.3380    10.2127     8.5921    10.7807    91.7478    52.5093
 2679.8380    10.6637     8.8447    11.4179    88.5923    52.2067
 2680.3380    11.4576     9.5042    12.1794    82.8125    51.9007
 2680.8380    12.6674    10.1400    13.1785    71.6784    51.7536
 2681.3380    13.2273    10.5130    13.9622    64.0336    51.7606
 2681.8380    14.4165    10.9896    14.8893    61.8750    51.7676
 2682.3380    15.3794    11.7976    16.9363    59.4575    50.9982
 2682.8380    18.8407    12.4080    20.3972    56.5625    50.6922
 2683.3380    21.0756    13.4289    19.6878    57.6925    50.7007
 2683.8380    18.0177    13.8225    15.8967    60.1297    50.7075
 2684.3380    16.5429    13.1528    13.9837    66.8750    50.5570
 2684.8380    15.1888    12.4253    12.1266    73.3526    50.4099
 2685.3380    14.1463    12.0788    11.7049    75.3992    50.1002
 2685.8380    13.8511    11.3300    12.5759    75.6250    49.6460
 2686.3380    13.7571    10.9355    13.4146    75.8092    49.3417
 2686.8380    13.5652    10.7070    13.2284    76.7152    48.7281
 2687.3380    12.8870    10.3342    11.3900    79.0625    48.5777
 2687.8380    10.9577     9.6238    10.2363    85.4023    48.2751
 2688.3380     9.9892     8.7719     9.5338    92.1470    48.1264
 2688.8380     9.5051     7.8749     9.2022    98.8917    47.9775
 2689.3380     8.8527     7.0321     8.9238   105.6365    47.8230
 2689.8380     8.4842     6.4096     8.4518   112.3812    47.1885
 2690.3380     8.6710     6.1424     8.7622   118.4375    46.4445
 2690.8380     9.1843     6.0567    10.1827   111.8790    46.1386
 2691.3380     9.9388     5.9732    10.4801   105.9279    45.9898
 2691.8380     9.5715     6.0182     9.0889   104.0198    46.1538
 2692.3380     8.9356     6.1509     7.4976   103.4375    46.1606
 2692.8380     8.0302     6.1973     7.0817   102.8448    46.1674
 2693.3380     7.8619     6.2888     6.9355   101.0881    46.1742
 2693.8380     7.9786     6.6147     9.0359    94.3824    46.1812
 2694.3380     8.3907     7.6352    10.8049    82.8244    46.5005
 2694.8380    10.4748     8.5034    11.7750    79.6875    46.5073
 2695.3380    12.0021     9.0076    11.0455    83.4375    47.1362
 2695.8380    12.3545     9.7487    10.8914    84.1823    47.7650
 2696.3380    12.3598     9.5450    10.8180    85.3489    48.0829
 2696.8380    11.9301     9.0170    10.3637    87.1875    48.2452
 2697.3380    11.1113     8.5794     9.7259    86.8750    48.4132
 2697.8380    10.9565     8.4604     9.8688    86.8750    48.5701
 2698.3380    11.1190     8.5861    10.3777    87.0819    48.5783
 2698.8380    11.6101     8.7755    10.6816    84.1898    48.8961
 2699.3380    11.7813     9.1637    10.6848    83.7338    49.2139
 2699.8380    12.1271     9.7767    10.7646    86.1808    49.5317
 2700.3380    12.3942     9.9211    10.6152    88.1693    49.3802
 2700.8380    11.7118     9.8543    10.3744    89.3750    48.7637
 2701.3380    10.6011     9.5113     8.1416    88.6891    47.8351
 2701.8380     9.5274     7.6215     2.8974    87.7334    47.3461
 2702.3380     8.8740     7.1486     2.2736    89.6875    47.2221
 2702.8380     8.6884     6.9493     2.2101    92.8934    47.2277
 2703.3380     8.9447     7.0016     3.2999    94.5130    47.5433
 2703.8380     9.9721     8.0242     9.5581    94.7261    48.3254
 2704.3380    10.8691     9.3330    10.6418    93.8961    48.7965
