~VERSION INFORMATION
 VERS.               2.10:   CWLS LOG ASCII STANDARD - VERSION 2.10
 WRAP.                 NO:   ONE LINE PER DEPTH STEP
~WELL INFORMATION
#MNEM.UNIT      DATA TYPE    INFORMATION
#----------   ------------   ------------------------------
 STRT.F         2399.8379:   START DEPTH
 STOP.F         5667.9595:   STOP DEPTH
 STEP.F            0.5000:   STEP LENGTH
 NULL.          -999.2500:   NO VALUE
 COMP. Lawrence Allison & Associates:   COMPANY
 WELL.          43-TPX-10:   WELL
 FLD .           N.P.R. 3:   FIELD
 LOC . 10-38N-78W-NATRONA-WY:   LOCATION
 STAT.                 WY:   STATE
 COUN.            Natrona:   COUNTY
 SRVC.      Dresser Atlas:   SERVICE COMPANY
 DATE.                   :   LOGDATE
 APIN.         4902511207:   API NUMBER
~CURVE INFORMATION
#MNEM.UNIT       API CODE    CURVE DESCRIPTION
#----------   ------------   ------------------------------
 DEPT.F                  :
 LLD .ohmm   11 220 04 00:   Dual Laterolog, Deep
 LLS .ohmm   11 220 06 00:   Dual Laterolog, shallow
 MNOR.ohmm   15 252 02 00:   Microlog, normal 2"
 GR  .GAPI   06 310 01 00:   Gamma Ray
 SP  .mV     06 010 01 00:   Spontaneous Potential
~PARAMETER INFORMATION
#MNEM.UNIT          VALUE    DESCRIPTION
#----------   ------------   ------------------------------
 EKB .F         5215.0000:   Kelly bushing
 EGL .F         5203.0000:   Ground level
 EDF .F            0.0000:   Drilling floor
 EPD .F           10.0000:   Permanent datum
 TD  .F         5260.0000:   Total depth
 NRUN.             1.0000:   Number of Runs
#--RUN 1---   ------------   The following are for Run 1---
 RUN .             1.0000:   Run 1
 DATE.mm/dd/yyyy 02/19/85:   Date Logged
 DD  .ft             5650:   Depth Driller
 DL  .ft             5649:   Depth Logger
 BLI .ft             5646:   Bottom Log Interval
 TLI .ft              511:   Top Log Interval
 CSS .inch          9-5/8:   Casing Size
 CTD1.ft              510:   Casing Driller 1
 CTL1.ft              511:   Casing Logger 1
 BS  .inch            8.5:   Bit Size
 DFT .            kcl-gel:   Type Fluid In Hole
 DFD .lb/gal          9.5:   Mud Weight
 DFV .sec              44:   Viscosity
 DFPH.                8.5:   pH
 DFL .cc              9.0:   Fluid Loss
 WSS .           flowline:   Source Of Sample
 RM  .ohmm            .32:   Rm
 EMT .F                74:   Rm Meas. Temp.
 RMF .ohmm            .26:   Rmf
 MFT .F                74:   Rmf Meas. Temp.
 RMC .ohmm            .40:   Rmc
 MCST.F                74:   Rmc Meas. Temp.
 MFSS.              meas.:   Source Rmf.
 MCSS.              calc.:   Source Rmc.
 RMB .ohmm            .14:   Rm. At BHT
 BHT .F               164:   BHT.
 TCS .hh:mm         5 hrs:   Time Circ. Stopped
 MRT .F               164:   Maximum Recorded Temp.
 LUL .               Glte:   Logging Unit Location
 ENGI.               Mack:   Recorded By
 WITN.         Mr. Strong:   Witnessed By
 DGBY.              Burke:   Digitized By
~T 1 Tops
First Wall Creek                 2512.0
~A  DEPTH      LLD        LLS       MNOR         GR         SP
 2399.8380  -999.2500     5.5433  -999.2500  -999.2500  -999.2500
 2400.3380     5.8264     4.7986     5.7324   134.0572  -999.2500
 2400.8380     5.3863     4.3183     5.1484   134.9886  -999.2500
 2401.3380     5.0507     4.3487     5.1469   125.3435  -999.2500
 2401.8380     5.3307     4.8736     6.5648   119.7425  -999.2500
 2402.3380     7.2640     5.6601     8.3586   110.4090  -999.2500
 2402.8380     7.7445     6.5734     8.8474    99.7486  -999.2500
 2403.3380     7.9113     6.9092     8.1604    96.7180  -999.2500
 2403.8380     7.7983     6.7621     6.3375    95.7827  -999.2500
 2404.3380     7.6871     6.6174     4.8181    94.5362  -999.2500
 2404.8380     7.6317     6.4255     5.0999    93.9119  -999.2500
 2405.3380     7.4164     6.2500     6.5928    93.9096  -999.2500
 2405.8380     6.9504     5.9877     7.0793    95.1515  -999.2500
 2406.3380     6.6477     5.7774     6.7801    98.2597  -999.2500
 2406.8380     6.4747     5.4178     6.5405    98.2574  -999.2500
 2407.3380     6.5206     5.3406     6.5855    97.3215  -999.2500
 2407.8380     6.7083     5.4555     6.8811    96.3861  -999.2500
 2408.3380     6.9016     5.6127     7.1706    96.6949  -999.2500
 2408.8380     6.8032     5.7334     6.9168    99.1809  -999.2500
 2409.3380     6.5643     5.6054     6.7201   101.3560  -999.2500
 2409.8380     6.5636     5.5709     6.8149   102.5979  -999.2500
 2410.3380     6.9110     5.6503     7.1622   101.6625  -999.2500
 2410.8380     7.4605     5.8548     7.5271    93.2263  -999.2500
 2411.3380     7.8415     6.2421     7.7985    91.0820  -999.2500
 2411.8380     8.2418     6.6550     8.1376    89.5245  -999.2500
 2412.3380     8.4193     6.8958     8.4310    88.5891  -999.2500
 2412.8380     8.3584     6.8950     8.3086    88.2758  -999.2500
 2413.3380     8.0076     6.8914     8.1302    90.1398  -999.2500
 2413.8380     7.7264     6.6998     7.8429    94.1811  -999.2500
 2414.3380     7.6163     6.6041     7.7850    96.6678  -999.2500
 2414.8380     7.6699     6.4178     7.7828    96.6648  -999.2500
 2415.3380     7.6690     6.3263     7.7807    96.6621  -999.2500
 2415.8380     7.7785     6.3256     7.7785    99.1482  -999.2500
 2416.3380     7.8893     6.3702     7.8321   104.4336  -999.2500
 2416.8380     7.8883     6.5072     8.0036   105.9865  -999.2500
 2417.3380     7.9441     6.6948     8.7119   108.4732  -999.2500
 2417.8380     7.8867     6.7420     8.6476   105.9820  -999.2500
 2418.3380     7.6642     6.4129     7.6570   102.5432  -999.2500
 2418.8380     7.5012     6.3215     7.6549   100.0237  -999.2500
 2419.3380     7.4392     6.1871     7.7634    97.5765  -999.2500
 2419.8380     7.3935     6.1865     8.2169    93.2197  -999.2500
 2420.3380     7.4987     6.3647     8.8225    91.9733  -999.2500
 2420.8380     7.4979     6.4098     9.2721    93.2152  -999.2500
 2421.3380     7.3385     6.3182     9.1910    94.4576  -999.2500
 2421.8380     7.0305     6.1839     8.1873    94.1438  -999.2500
 2422.3380     6.7836     5.9625     7.9739    93.1820  -999.2500
 2422.8380     6.6394     5.7571     7.9149    91.6508  -999.2500
 2423.3380     6.6862     5.6750     7.9700    92.2702  -999.2500
 2423.8380     6.7813     5.7150     7.7984    95.0673  -999.2500
 2424.3380     6.9768     5.7966     7.8521    98.4865  -999.2500
 2424.8380     7.2809     5.9635     7.9628   100.6621  -999.2500
 2425.3380     7.5983     6.1792     8.4889   100.0372  -999.2500
 2425.8380     7.7068     6.3573     8.7324    98.1687  -999.2500
 2426.3380     7.4360     6.4482     8.6576    98.1664  -999.2500
 2426.8380     7.3299     6.4364     8.3610    95.8826  -999.2500
 2427.3380     7.2771     6.2207     8.1815    94.7399  -999.2500
 2427.8380     7.2763     6.1759     8.1211    96.9149  -999.2500
 2428.3380     7.3274     6.1752     8.1188    98.7789  -999.2500
 2428.8380     7.4319     6.1746     8.1753   100.0208    46.2782
 2429.3380     7.4843     6.2181     8.2311   100.6412    46.1213
 2429.8380     7.3252     6.1733     8.0543    96.9058    46.2757
 2430.3380     7.1694     6.1288     7.8790    93.7931    46.2743
 2430.8380     7.0674     6.0846     7.7038    93.1683    46.5842
 2431.3380     7.2192     6.0779     7.4392    93.7887    47.2051
 2431.8380     7.3759     5.9971     7.3317    95.3410    47.0485
 2432.3380     7.4796     5.9539     7.2780    98.4492    47.2032
 2432.8380     7.3204     5.9533     7.3802   100.6242    47.2017
 2433.3380     7.2160     5.9526     7.4315   100.6220    47.2006
 2433.8380     7.0124     5.9097     7.1174   100.9307    47.1992
 2434.3380     6.8146     5.7841     6.9151   102.8374    47.3539
 2434.8380     6.6697     5.6611     6.7650   104.9698    47.3525
 2435.3380     6.4355     5.5389     6.6145   104.3448    47.3513
 2435.8380     6.2095     5.4555     6.2964   104.9647    47.3502
 2436.3380     5.9463     5.2324     6.0307   109.0060    47.3491
 2436.8380     5.8151     5.1578     5.7762   111.8031    47.6590
 2437.3380     5.7804     5.1206     5.7746   111.1787    47.5023
 2437.8380     6.0323     5.0837     6.2894   107.1329    47.5009
 2438.3380     6.2952     5.1562     7.0486   105.2387    47.4998
 2438.8380     6.6640     5.3809     7.1480   104.6395    47.1876
 2439.3380     6.7592     5.6961     6.9946   106.1924    47.1865
 2439.8380     6.6626     5.7773     6.8934   105.8791    46.8744
 2440.3380     6.6619     5.6948     6.8911   105.8769    46.5622
 2440.8380     6.6612     5.6538     6.8892   105.8746    46.2402
 2441.3380     6.6604     5.6130     6.8873   110.5380    46.0931
 2441.8380     6.6125     5.5330     6.8853   110.5451    46.0919
 2442.3380     6.6117     5.4931     6.8834   108.6082    46.0908
 2442.8380     6.6110     5.4535     6.9313   106.4871    46.2452
 2443.3380     6.5167     5.4530     6.9289   106.7964    46.3999
 2443.8380     6.3782     5.4137     6.7802   105.2384    46.5540
 2444.3380     6.2426     5.4131     6.7300   102.1257    47.1749
 2444.8380     6.2419     5.3739     6.7277   101.5014    47.3516
 2445.3380     6.2412     5.3352     6.7259   104.2985    47.7948
 2445.8380     6.2405     5.2968     6.6762   108.9619    48.2602
 2446.3380     6.2398     5.2586     6.4402   110.5148    48.1033
 2446.8380     6.2392     5.2958     6.3926   107.7126    48.1022
 2447.3380     6.3281     5.3330     6.4832   105.5331    48.2568
 2447.8380     6.6512     5.4867     6.9606   103.5933    47.9444
 2448.3380     7.1930     5.7259     7.2118   100.8957    47.6184
 2448.8380     7.7237     6.1093     7.5685    98.1981    47.3198
 2449.3380     8.1820     6.5548     8.6155    95.5005    47.1631
 2449.8380     8.5427     6.8895     8.9901    95.8796    47.3178
 2450.3380     8.4708     7.2413     8.7971    93.6995    47.3164
 2450.8380     8.2907     7.1380     8.3659    94.3193    47.0042
 2451.3380     8.2899     7.0866     8.2450    98.3606    47.0031
 2451.8380     8.2890     6.9855     8.1847   100.8467    47.0019
 2452.3380     8.3477     6.9352     8.2995   102.3997    47.0008
 2452.8380     8.4664     7.0355     8.4165   103.0745    47.1552
 2453.3380     8.7104     7.3018     8.6709   107.0602    47.3096
 2453.8380     8.8346     7.6061     8.9063   111.1015    47.3082
 2454.3380     8.8334     7.4976     8.7770   112.0329    47.1515
 2454.8380     8.6456     7.3907     8.5275   113.2742    46.9949
 2455.3380     8.4017     7.1822     8.3444   113.5836    46.9938
 2455.8380     8.1647     6.9796     8.1653   113.5808    47.1482
 2456.3380     8.0482     6.8800     7.9901   110.1570    47.1467
 2456.8380     8.0474     6.8793     8.0451   104.7415    47.1456
 2457.3380     8.1621     6.9774     8.2170   100.8207    47.6110
 2457.8380     8.3973     7.0266     8.4527   100.5080    48.3875
 2458.3380     8.5170     7.0257     8.5109   102.0609    48.8530
 2458.8380     8.2177     6.9750     8.0356   101.1250    49.0074
 2459.3380     7.6515     6.6823     7.5874   100.8116    49.0062
 2459.8380     7.5964     6.3563     7.4245   102.0536    48.8493
 2460.3380     7.4880     6.2657     7.4225   103.2955    48.8482
