~VERSION INFORMATION
 VERS.               2.10:   CWLS LOG ASCII STANDARD - VERSION 2.10
 WRAP.                 NO:   ONE LINE PER DEPTH STEP
~WELL INFORMATION
#MNEM.UNIT      DATA TYPE    INFORMATION
#----------   ------------   ------------------------------
 STRT.F         2399.8379:   START DEPTH
 STOP.F         5667.9595:   STOP DEPTH
 STEP.F            0.5000:   STEP LENGTH
 NULL.          -999.2500:   NO VALUE
 COMP. Lawrence Allison & Associates:   COMPANY
 WELL.          43-TPX-10:   WELL
 FLD .           N.P.R. 3:   FIELD
 LOC . 10-38N-78W-NATRONA-WY:   LOCATION
 STAT.                 WY:   STATE
 COUN.            Natrona:   COUNTY
 SRVC.      Dresser Atlas:   SERVICE COMPANY
 DATE.                   :   LOGDATE
 APIN.         4902511207:   API NUMBER
~CURVE INFORMATION
#MNEM.UNIT       API CODE    CURVE DESCRIPTION
#----------   ------------   ------------------------------
 DEPT.F                  :
 LLD .ohmm   11 220 04 00:   Dual Laterolog, Deep
 LLS .ohmm   11 220 06 00:   Dual Laterolog, shallow
 MNOR.ohmm   15 252 02 00:   Microlog, normal 2"
 GR  .GAPI   06 310 01 00:   Gamma Ray
 SP  .mV     06 010 01 00:   Spontaneous Potential
~PARAMETER INFORMATION
#MNEM.UNIT          VALUE    DESCRIPTION
#----------   ------------   ------------------------------
 EKB .F         5215.0000:   Kelly bushing
 EGL .F         5203.0000:   Ground level
 EDF .F            0.0000:   Drilling floor
 EPD .F           10.0000:   Permanent datum
 TD  .F         5260.0000:   Total depth
 NRUN.             1.0000:   Number of Runs
#--RUN 1---   ------------   The following are for Run 1---
 RUN .             1.0000:   Run 1
 DATE.mm/dd/yyyy 02/19/85:   Date Logged
 DD  .ft             5650:   Depth Driller
 DL  .ft             5649:   Depth Logger
 BLI .ft             5646:   Bottom Log Interval
 TLI .ft              511:   Top Log Interval
 CSS .inch          9-5/8:   Casing Size
 CTD1.ft              510:   Casing Driller 1
 CTL1.ft              511:   Casing Logger 1
 BS  .inch            8.5:   Bit Size
 DFT .            kcl-gel:   Type Fluid In Hole
 DFD .lb/gal          9.5:   Mud Weight
 DFV .sec              44:   Viscosity
 DFPH.                8.5:   pH
 DFL .cc              9.0:   Fluid Loss
 WSS .           flowline:   Source Of Sample
 RM  .ohmm            .32:   Rm
 EMT .F                74:   Rm Meas. Temp.
 RMF .ohmm            .26:   Rmf
 MFT .F                74:   Rmf Meas. Temp.
 RMC .ohmm            .40:   Rmc
 MCST.F                74:   Rmc Meas. Temp.
 MFSS.              meas.:   Source Rmf.
 MCSS.              calc.:   Source Rmc.
 RMB .ohmm            .14:   Rm. At BHT
 BHT .F               164:   BHT.
 TCS .hh:mm         5 hrs:   Time Circ. Stopped
 MRT .F               164:   Maximum Recorded Temp.
 LUL .               Glte:   Logging Unit Location
 ENGI.               Mack:   Recorded By
 WITN.         Mr. Strong:   Witnessed By
 DGBY.              Burke:   Digitized By
~T 1 Tops
First Wall Creek                 2512.0
~A  DEPTH      LLD        LLS       MNOR         GR         SP
# ...
 2826.8380     7.6005     6.4224     7.7651   100.3966    48.3358
 2827.3380     7.8800     6.5152     8.0510   102.0008    47.2856
 2827.8380     8.0540     6.5622     8.1706   103.8796    47.4430
 2828.3380     8.1150     6.6096     8.0592   105.0888    47.4445
 2828.8380     8.0030     6.5158     7.8358   106.5765    47.6015
 2829.3380     7.7742     6.4234     7.4041   108.8417    47.6030
 2829.8380     7.4047     6.1979     6.7992   111.9916    47.9156
 2830.3380     6.8477     5.6268     6.1078   115.1810    48.5392
 2830.8380     5.7298     4.7284     4.1981   115.7214    49.1669
 2831.3380     5.0044     3.8300     1.9380   115.1986    49.8301
 2831.8380     4.4976     2.8787     0.7034   111.4104    50.8769
 2832.3380     3.1030     2.5110     0.5804   107.9137    51.6560
 2832.8380     2.7488     2.4277     0.6192   105.4346    52.7462
 2833.3380     2.6919     2.4104     0.8481   103.1111    53.6808
 2833.8380     2.7320     2.6456     2.0125   101.6685    54.3044
 2834.3380     3.2911     5.0380     3.6300   100.4764    54.9280
 2834.8380     4.8037     5.5293     5.2474    99.7806    54.9295
 2835.3380     6.1769     5.9398     6.7447    99.1732    55.0938
 2835.8380     7.0779     6.1564     6.9357    99.1745    55.2436
 2836.3380     7.1315     6.3354     6.9389    99.1761    54.6234
 2836.8380     7.1343     6.2825     6.9917    97.2011    54.3139
 2837.3380     7.3448     6.2013     7.4591    95.4289    53.5378
 2837.8380     7.5069     6.1572     7.5160   100.7433    52.6062
 2838.3380     7.3507     6.1136     7.4128   107.8437    51.5190
 2838.8380     7.1464     5.9413     7.2073   109.5540    50.5874
 2839.3380     6.8983     5.7326     7.0495   109.8106    49.9669
 2839.8380     6.7547     5.5710     6.6697   109.9581    49.8026
 2840.3380     6.6141     5.4140     6.6245   112.3135    49.5037
 2840.8380     6.4764     5.3336     6.5803   111.3779    49.1942
 2841.3380     6.4796     5.4144     6.5364   109.0808    49.0398
 2841.8380     6.5755     5.5719     6.7778   107.3075    49.1968
 2842.3380     7.0150     5.8165     7.0777   107.2186    49.1987
 2842.8380     7.2213     5.9430     7.3382   110.2184    49.5113
 2843.3380     7.1727     6.0288     7.2374   112.3230    49.9793
 2843.8380     6.8255     5.6936     6.9313   115.8267    50.9140
 2844.3380     6.4029     5.1880     6.1476   124.7182    51.2266
 2844.8380     5.8966     4.7601     4.0753   135.3125    51.6950
 2845.3380     5.0153     4.4880     1.5278   145.9068    52.6296
 2845.8380     4.2535     3.8969     0.7599   149.1854    52.9422
 2846.3380     3.5443     2.9480     0.6137   135.8093    53.4102
 2846.8380     3.1178     2.6291     0.5882   122.4331    53.7228
 2847.3380     3.0312     2.5734     0.6504   115.9700    54.1909
 2847.8380     3.0984     2.8092     1.8464   114.2122    54.8145
 2848.3380     3.3531     3.6049     3.9929   112.9237    54.8160
 2848.8380     5.2156     5.1526     6.1729   111.7151    54.8175
 2849.3380     6.8080     5.8612     7.0755   111.7167    54.8194
 2849.8380     7.1091     6.1186     7.4922   109.9033    54.6650
 2850.3380     7.2143     6.3417     7.2852   106.4074    54.0448
 2850.8380     7.3210     6.2967     7.4463   104.7406    53.2687
 2851.3380     7.6447     6.2969     7.5568   103.4567    52.4926
 2851.8380     7.7066     6.2972     7.5602   102.6621    51.5610
 2852.3380     7.6508     6.3426     7.5090   102.5043    51.4070
 2852.8380     7.6546     6.3884     7.6212   101.5863    52.0328
 2853.3380     7.8797     6.4808     7.7343   100.1669    52.1876
 2853.8380     8.1114     6.5744     7.8541    99.4074    51.4119
 2854.3380     8.3499     6.6694     8.1390    99.2322    50.6358
 2854.8380     8.4131     6.7658     8.2598    99.8591    50.4814
 2855.3380     8.4165     6.8146     8.2635   100.7103    50.4833
 2855.8380     8.4802     6.8149     8.3264   101.7378    50.4848
 2856.3380     8.2984     6.5756     8.2700   103.0777    50.4864
 2856.8380     8.0154     6.4361     8.0993   103.3023    50.6434
 2857.3380     7.8493     6.2997     7.5987   101.4293    50.6449
 2857.8380     7.8525     6.1221     7.4943    98.8466    50.6465
 2858.3380     7.9119     6.0786     7.5515    95.6950    50.6483
 2858.8380     8.0290     6.3456     7.8303    90.8090    50.6498
 2859.3380     8.2651     6.5770     8.2943    90.3439    50.6513
 2859.8380     8.6924     6.8168     8.7233    90.8361    50.6528
 2860.3380     9.2239     7.0150     9.1745    97.6888    50.6544
 2860.8380     9.5471     7.2190     9.6490   100.5815    50.3448
 2861.3380     9.4829     7.1604     9.7215   102.1982    50.1908
 2861.8380     9.1537     6.5313     8.7391   107.3810    50.0368
 2862.3380     8.8360     6.2570     7.7925   106.6417    50.0384
 2862.8380     7.8284     6.1682     7.4142   103.3214    49.5736
 2863.3380     7.4495     6.0375     7.0644   100.9019    49.5751
 2863.8380     7.2410     5.8255     7.0676   109.8254    49.5767
 2864.3380     7.0256     5.6613     6.5367   121.4511    49.5782
 2864.8380     5.4469     5.4625     4.9855   139.1096    49.7352
 2865.3380     4.6973     4.9208     3.0391   157.7989    50.0478
 2865.8380     3.7673     3.7143     0.8617   174.5806    50.3603
 2866.3380     2.6882     2.3989     0.7420   145.2927    50.9952
 2866.8380     2.3817     2.1091     0.8938   118.7174    51.6079
 2867.3380     2.5591     2.0309     1.6761    93.0378    52.8536
 2867.8380     3.0828     2.1704     3.1839    86.7747    53.6327
 2868.3380     5.1958     3.4900     4.6916    86.4234    54.2563
 2868.8380     6.5800     4.8745     6.1994    85.2151    54.7244
 2869.3380     8.0033     6.4882     7.4145    85.4228    54.8814
 2869.8380     8.1015     6.4421     7.5785    86.3439    55.0384
 2870.3380     7.9336     6.3055     7.4744    91.7824    54.1068
 2870.8380     7.6582     6.0841     7.3193    90.8185    53.6271
 2871.3380     7.2356     5.8286     7.0658    86.7852    52.5550
 2871.8380     7.1351     5.5838     6.6298    86.7871    51.4679
 2872.3380     6.9375     5.3490     6.3546    89.4840    51.0024
 2872.8380     6.7904     5.2313     6.0045    92.9632    50.6933
 2873.3380     6.4116     4.8745     5.7959    96.7919    50.3838
 2873.8380     6.2404     4.8054     5.8407    98.5862    50.2294
 2874.3380     6.0238     4.7713     5.8434   101.3603    50.0757
 2874.8380     5.7733     4.7036     5.8044   105.2341    49.7662
 2875.3380     5.6531     4.5711     5.6828   106.8466    49.5947
 2875.8380     5.4181     4.4741     5.4816   109.9271    49.4582
 2876.3380     5.0464     4.3170     5.1485   116.2669    49.6156
 2876.8380     4.5562     4.0757     4.5297   128.4919    49.7726
 2877.3380     3.2899     3.7702     3.4796   141.8303    50.2407
 2877.8380     2.8125     3.0405     2.6991   155.1688    50.7088
 2878.3380     2.6009     2.5986     1.9496   166.8071    51.1769
 2878.8380     2.2879     1.9488     1.2000   148.0667    51.6449
 2879.3380     2.1617     1.5407     0.6511   131.4449    52.2717
 2879.8380     2.0134     1.5298     0.6331   114.8231    52.8922
 2880.3380     2.2581     1.8165     1.0881    99.2792    53.5161
 2880.8380     3.1301     2.6627     3.2418    98.6904    54.4507
 2881.3380     4.8349     3.7193     5.3954    98.9371    55.0743
 2881.8380     6.6035     4.9833     6.4565    99.6415    55.3869
 2882.3380     6.8464     5.4693     6.7904   100.5701    55.6995
 2882.8380     7.0983     5.5483     6.7935   101.0824    54.6123
 2883.3380     6.9473     5.2025     6.7482   102.7605    53.3697
 2883.8380     6.6621     5.1287     6.7032   108.3885    52.2763
 2884.3380     6.6167     5.0923     6.5174   108.7008    51.3035
 2884.8380     6.6674     5.0562     6.3368   106.8277    50.5752
 2885.3380     6.6701     5.0564     6.4776   104.9045    49.9546
 2885.8380     6.7688     5.0606     6.7161   105.3237    49.3341
 2886.3380     7.1188     5.1665     6.9633   111.8325    49.3356
 2886.8380     7.2241     5.3167     7.1683   112.1464    49.3371
 2887.3380     7.0688     5.4323     7.0636   111.3486    49.4941
