~VERSION INFORMATION
 VERS.               2.10:   CWLS LOG ASCII STANDARD - VERSION 2.10
 WRAP.                 NO:   ONE LINE PER DEPTH STEP
~WELL INFORMATION
#MNEM.UNIT      DATA TYPE    INFORMATION
#----------   ------------   ------------------------------
 STRT.F         2389.7727:   START DEPTH
 STOP.F         5660.0845:   STOP DEPTH
 STEP.F            0.5000:   STEP LENGTH
 NULL.          -999.2500:   NO VALUE
 COMP. Lawrence Allison and Associates:   COMPANY
 WELL.            43 X 10:   WELL
 FLD .           N.P.R. 3:   FIELD
 LOC . 10-38N-78W-NATRONA-WY:   LOCATION
 STAT.                 WY:   STATE
 COUN.            Natrona:   COUNTY
 SRVC.      Dresser Atlas:   SERVICE COMPANY
 DATE.                   :   LOGDATE
 APIN.         4902511207:   API NUMBER
~CURVE INFORMATION
#MNEM.UNIT       API CODE    CURVE DESCRIPTION
#----------   ------------   ------------------------------
 DEPT.F                  :
 DPHI.none   42 890 12 00:   Den. Porosity, Ss [%]
 NPHI.none   42 890 03 00:   Neu. Porosity, Ss [%]
 RHOB.gm/cc  42 350 01 00:   Bulk Density
 GR  .GAPI   42 310 00 00:   Gamma Ray
~PARAMETER INFORMATION
#MNEM.UNIT          VALUE    DESCRIPTION
#----------   ------------   ------------------------------
 EKB .F         5215.0000:   Kelly bushing
 EGL .F         5203.0000:   Ground level
 EDF .F            0.0000:   Drilling floor
 EPD .F           10.0000:   Permanent datum
 TD  .F         3458.0000:   Total depth
 NRUN.             1.0000:   Number of Runs
#--RUN 1---   ------------   The following are for Run 1---
 RUN .             1.0000:   Run 1
 DATE.mm/dd/yyyy 02/19/1985:   Date Logged
 DD  .ft             5650:   Depth Driller
 DL  .ft             5649:   Depth Logger
 BLI .ft             5647:   Bottom Log Interval
 TLI .ft             2400:   Top Log Interval
 CSS .inch          9.625:   Casing Size
 CTD1.ft              510:   Casing Driller 1
 CTL1.ft       not logged:   Casing Logger 1
 BS  .inch            8.5:   Bit Size
 DFT .            kcl gel:   Type Fluid In Hole
 DFD .lb/gal          9.5:   Mud Weight
 DFV .sec              44:   Viscosity
 DFPH.                8.5:   pH
 DFL .cc              9.0:   Fluid Loss
 WSS .           flowline:   Source Of Sample
 RM  .ohmm            .32:   Rm
 EMT .F                74:   Rm Meas. Temp.
 RMF .ohmm            .26:   Rmf
 MFT .F                74:   Rmf Meas. Temp.
 RMC .ohmm            .40:   Rmc
 MCST.F                74:   Rmc Meas. Temp.
 MFSS.               meas:   Source Rmf.
 MCSS.               calc:   Source Rmc.
 RMB .ohmm            .14:   Rm. At BHT
 BHT .F               164:   BHT.
 TCS .hh:mm        8 hrs.:   Time Circ. Stopped
 MRT .F               170:   Maximum Recorded Temp.
 LUL .               Glte:   Logging Unit Location
 ENGI.               Mack:   Recorded By
 WITN.         Mr. Strong:   Witnessed By
 DGBY.              Burke:   Digitized By
~T 2 Tops
First Wall Creek                 2512.0
Second Wall Creek                2912.0
~OTHER INFORMATION
# Density Matrix = 2.65
# Neutron Matrix = Sandstone
~A  DEPTH     DPHI       NPHI       RHOB         GR
# ...
 5382.7720    -5.3006     5.9553     2.7463    28.2513
 5383.2720    -5.6004     6.2964     2.7463    27.0181
 5383.7720    -5.8397     6.6692     2.7432    23.3005
 5384.2720    -5.3145     7.0815     2.7400    20.2040
 5384.7720    -4.6077     7.4738     2.7303    17.1074
 5385.2720    -4.4397     8.3528     2.7262    17.8488
 5385.7720    -4.6472     9.7790     2.7316    20.9433
 5386.2720    -4.8930    11.2691     2.7345    25.5861
 5386.7720    -4.8521    11.0228     2.7242    28.9660
 5387.2720    -4.3315    10.9004     2.7005    36.7497
 5387.7720    -3.3705    10.9069     2.6914    63.3754
 5388.2720    -2.6064    10.4698     2.6907    90.0010
 5388.7720    -2.4834    10.2718     2.6913   111.5546
 5389.2720    -2.6011     9.8876     2.6845   116.3875
 5389.7720    -2.4169     9.5173     2.6783   118.4486
 5390.2720    -1.6274     9.3421     2.6737   112.8638
 5390.7720    -1.0196     9.2381     2.6691   112.2504
 5391.2720    -1.3799     9.3854     2.6613   110.3974
 5391.7720    -1.7403    10.1060     2.6615   107.3009
 5392.2720    -1.9191    10.9471     2.6742   101.7199
 5392.7720    -1.7954    11.7882     2.6831   102.3501
 5393.2720    -1.5431    12.6114     2.6673   106.0858
 5393.7720    -0.9580    12.8460     2.6517   108.6114
 5394.2720    -0.4559    12.7570     2.6532   109.8307
 5394.7720    -0.5742    12.5635     2.6574   108.3925
 5395.2720    -0.5106    12.2929     2.6584   105.2264
 5395.7720    -0.3313    13.3277     2.6504   103.3025
 5396.2720     0.1654    14.3670     2.6382   101.5858
 5396.7720     1.5338    15.9127     2.6077   100.3179
 5397.2720     3.3500    17.4584     2.5700    99.0499
 5397.7720     5.1662    18.7160     2.5323   110.2287
 5398.2720     6.9823    18.5676     2.4946   111.3444
 5398.7720     8.7985    16.5737     2.4822   107.4323
 5399.2720    10.6147    14.1683     2.5322   101.2302
 5399.7720     8.5561    13.6118     2.5822    88.8305
 5400.2720     4.6918    14.0477     2.6299    90.7439
 5400.7720     1.0492    15.7858     2.6353    92.0943
 5401.2720     0.6120    16.6557     2.6381    93.7357
 5401.7720     0.5812    16.9084     2.6487    91.8323
 5402.2720    -0.7749    17.2478     2.6732    89.9665
 5402.7720    -2.0171    18.3082     2.6954    95.1564
 5403.2720    -2.5436    19.1276     2.6958    99.8459
 5403.7720    -2.5987    19.5774     2.6870   102.9416
 5404.2720    -1.6924    19.9284     2.6695   101.0689
 5404.7720    -1.1492    20.4740     2.6664    99.1714
 5405.2720    -1.0296    21.0287     2.6665   100.8570
 5405.7720    -1.0311    22.3775     2.6618   104.7140
 5406.2720    -0.9721    23.5575     2.6603   106.5596
 5406.7720    -0.6719    23.8693     2.6526   104.0504
 5407.2720     1.1438    23.1889     2.5877    97.1969
 5407.7720     2.6201    23.1811     2.5834    94.0700
 5408.2720     3.4396    24.9287     2.6208    92.1854
 5408.7720     1.6107    25.3025     2.6354    90.9220
 5409.2720    -0.1947    25.0999     2.6488    87.7951
 5409.7720     0.0459    25.3078     2.6512    82.1801
 5410.2720     0.6496    26.8082     2.6450    79.3429
 5410.7720     1.4954    27.0693     2.6180    68.1150
 5411.2720     2.0457    26.9709     2.6025    62.6863
 5411.7720     2.6359    25.6799     2.5809    59.5018
 5412.2720     3.5211    25.3774     2.5783    54.1248
 5412.7720     3.6680    25.5032     2.5904    54.8999
 5413.2720     2.9217    25.5203     2.5951    56.5693
 5413.7720     2.6120    25.3826     2.5998    54.6847
 5414.2720     2.5135    23.9580     2.6014    58.9111
 5414.7720     2.5120    23.6496     2.6000    62.3826
 5415.2720     3.1759    23.4592     2.5732    62.6900
 5415.7720     5.4680    23.0961     2.5242    62.6683
 5416.2720     8.6193    21.3863     2.5025    57.0523
 5416.7720     6.0510    17.7055     2.5466    52.6833
 5417.2720     3.1402    12.3559     2.6328    49.5564
 5417.7720    -0.2810     9.0153     2.6485    45.1873
 5418.2720    -0.4640     8.6658     2.6454    40.1972
 5418.7720    -0.2839     8.4551     2.6166    35.8281
 5419.2720     0.6522     8.9303     2.5786    38.9124
 5419.7720     2.6342     9.2625     2.5407    38.8912
 5420.2720     4.6161     9.4262     2.5067    37.6277
 5420.7720     6.8507     9.5204     2.5017    34.4622
 5421.2720     8.5437     8.7793     2.5080    31.1342
 5421.7720     8.1791     7.3555     2.5100    19.4839
 5422.2720     7.9961     7.0479     2.5097    11.8631
 5422.7720     8.1157     6.7404     2.5128    10.0552
 5423.2720     7.7343     6.4949     2.5269     9.5471
 5423.7720     7.2146     6.2494     2.5456     9.7182
 5424.2720     5.8133     5.8791     2.5649    10.9676
 5424.7720     4.4120     5.5065     2.5953    11.5956
 5425.2720     3.1751     5.3889     2.6047    11.9447
 5425.7720     2.5839     5.3294     2.6141    11.9229
 5426.2720     1.5322     5.1779     2.6250    11.9012
 5426.7720     0.9626     4.9251     2.6315    11.5131
 5427.2720     0.6585     4.5653     2.6378    11.2327
 5427.7720     0.3545     4.3217     2.6430    11.2115
 5428.2720     0.1110     4.2266     2.6470    11.1902
 5428.7720     0.1095     4.2629     2.6330    11.1690
 5429.2720     0.3501     4.3564     2.6270    11.1477
 5429.7720     1.0809     4.3589     2.6248    11.7476
 5430.2720     1.4423     4.3615     2.6241    12.3475
 5430.7720     1.5056     4.3640     2.6242    12.3263
 5431.2720     1.5546     4.3666     2.6227    13.5473
 5431.7720     1.6136     4.3692     2.6181    14.1819
 5432.2720     1.7420     4.4337     2.6120    14.1248
 5432.7720     2.1440     4.4363     2.6074    14.1030
 5433.2720     2.6089     4.4441     2.6075    14.2037
 5433.7720     2.6361     4.5125     2.6076    15.4527
 5434.2720     2.5738     4.5809     2.6076    16.7027
 5434.7720     2.5724     4.6329     2.6077    17.5403
 5435.2720     2.5709     4.6355     2.6078    18.3462
 5435.7720     2.4484     4.5757     2.6079    18.0533
 5436.2720     2.3257     4.4893     2.6095    16.7602
 5436.7720     2.2016     4.4262     2.6125    15.1714
 5437.2720     2.0143     4.2391     2.6175    15.7707
 5437.7720     1.6908     4.0911     2.6299    16.3701
 5438.2720     0.4144     3.9696     2.6393    15.7237
 5438.7720     0.3216     3.9722     2.6456    13.8391
 5439.2720     0.9630     4.0367     2.6456    13.8179
 5439.7720     2.0684     3.9773     2.6225    13.7966
 5440.2720     2.0076     3.9178     2.6179    13.7754
 5440.7720     1.7069     3.8584     2.6226    13.7541
 5441.2720     1.2818     3.7963     2.6291    14.3546
 5441.7720     0.4332     3.7332     2.6338    14.9539
 5442.2720     0.1291     3.6800     2.6427    13.6900
 5442.7720     0.0672     3.7587     2.6508    13.6683
 5443.2720     0.0657     3.9335     2.6504    14.2690
 5443.7720     0.0642     4.0816     2.6494    14.9769
 5444.2720    -0.0102     4.2119     2.6502    16.0899
 5444.7720    -0.3018     4.2515     2.6527    16.0658
 5445.2720    -0.0177     4.3162     2.6528    15.8472
 5445.7720     0.6987     4.2568     2.6451    14.3276
 5446.2720     1.2672     4.1979     2.6343    12.6397
 5446.7720     1.1165     4.0764     2.6313    11.9683
 5447.2720     0.9291     4.0789     2.6329    11.9223
 5447.7720     0.6570     4.0193     2.6330    13.1720
 5448.2720     0.4135     4.0221     2.6378    15.2882
 5448.7720     0.1094     4.0246     2.6472    15.8919
 5449.2720    -0.0736     4.0272     2.6503    16.4912
 5449.7720    -0.0750     4.1578     2.6511    18.9512
 5450.2720    -0.3186     4.3579     2.6571    23.8989
 5450.7720    -0.4411     4.5312     2.6588    23.8776
 5451.2720    -0.4426     4.5959     2.6590    23.2353
 5451.7720    -0.5866     4.5985     2.6607    21.3507
 5452.2720    -0.6875     4.6011     2.6583    18.8450
 5452.7720    -0.4276     4.6920     2.6555    17.5720
 5453.2720    -0.2195     4.7924     2.6556    18.2197
 5453.7720    -0.0308     4.7613     2.6525    20.0900
 5454.2720     0.4326     4.6122     2.6464    21.4353
 5454.7720     0.6361     4.4907     2.6418    23.0866
 5455.2720     0.6540     4.4933     2.6419    22.9080
