~VERSION INFORMATION
 VERS.               2.10:   CWLS LOG ASCII STANDARD - VERSION 2.10
 WRAP.                 NO:   ONE LINE PER DEPTH STEP
~WELL INFORMATION
#MNEM.UNIT      DATA TYPE    INFORMATION
#----------   ------------   ------------------------------
 STRT.F         2389.7727:   START DEPTH
 STOP.F         5660.0845:   STOP DEPTH
 STEP.F            0.5000:   STEP LENGTH
 NULL.          -999.2500:   NO VALUE
 COMP. Lawrence Allison and Associates:   COMPANY
 WELL.            43 X 10:   WELL
 FLD .           N.P.R. 3:   FIELD
 LOC . 10-38N-78W-NATRONA-WY:   LOCATION
 STAT.                 WY:   STATE
 COUN.            Natrona:   COUNTY
 SRVC.      Dresser Atlas:   SERVICE COMPANY
 DATE.                   :   LOGDATE
 APIN.         4902511207:   API NUMBER
~CURVE INFORMATION
#MNEM.UNIT       API CODE    CURVE DESCRIPTION
#----------   ------------   ------------------------------
 DEPT.F                  :
 DPHI.none   42 890 12 00:   Den. Porosity, Ss [%]
 NPHI.none   42 890 03 00:   Neu. Porosity, Ss [%]
 RHOB.gm/cc  42 350 01 00:   Bulk Density
 GR  .GAPI   42 310 00 00:   Gamma Ray
~PARAMETER INFORMATION
#MNEM.UNIT          VALUE    DESCRIPTION
#----------   ------------   ------------------------------
 EKB .F         5215.0000:   Kelly bushing
 EGL .F         5203.0000:   Ground level
 EDF .F            0.0000:   Drilling floor
 EPD .F           10.0000:   Permanent datum
 TD  .F         3458.0000:   Total depth
 NRUN.             1.0000:   Number of Runs
#--RUN 1---   ------------   The following are for Run 1---
 RUN .             1.0000:   Run 1
 DATE.mm/dd/yyyy 02/19/1985:   Date Logged
 DD  .ft             5650:   Depth Driller
 DL  .ft             5649:   Depth Logger
 BLI .ft             5647:   Bottom Log Interval
 TLI .ft             2400:   Top Log Interval
 CSS .inch          9.625:   Casing Size
 CTD1.ft              510:   Casing Driller 1
 CTL1.ft       not logged:   Casing Logger 1
 BS  .inch            8.5:   Bit Size
 DFT .            kcl gel:   Type Fluid In Hole
 DFD .lb/gal          9.5:   Mud Weight
 DFV .sec              44:   Viscosity
 DFPH.                8.5:   pH
 DFL .cc              9.0:   Fluid Loss
 WSS .           flowline:   Source Of Sample
 RM  .ohmm            .32:   Rm
 EMT .F                74:   Rm Meas. Temp.
 RMF .ohmm            .26:   Rmf
 MFT .F                74:   Rmf Meas. Temp.
 RMC .ohmm            .40:   Rmc
 MCST.F                74:   Rmc Meas. Temp.
 MFSS.               meas:   Source Rmf.
 MCSS.               calc:   Source Rmc.
 RMB .ohmm            .14:   Rm. At BHT
 BHT .F               164:   BHT.
 TCS .hh:mm        8 hrs.:   Time Circ. Stopped
 MRT .F               170:   Maximum Recorded Temp.
 LUL .               Glte:   Logging Unit Location
 ENGI.               Mack:   Recorded By
 WITN.         Mr. Strong:   Witnessed By
 DGBY.              Burke:   Digitized By
~T 2 Tops
First Wall Creek                 2512.0
Second Wall Creek                2912.0
~OTHER INFORMATION
# Density Matrix = 2.65
# Neutron Matrix = Sandstone
~A  DEPTH     DPHI       NPHI       RHOB         GR
# ...
 3265.7730     8.5351    22.3748     2.5021   117.8041
 3266.2730     7.9016    22.8140     2.5036   117.7811
 3266.7730     8.1438    23.1902     2.5160   116.8638
 3267.2730     8.8142    23.5044     2.5222   115.8593
 3267.7730     9.3623    23.8806     2.5139   117.5029
 3268.2730     9.7269    24.3808     2.4936   120.0619
 3268.7730     9.6021    25.4392     2.4880   124.4367
 3269.2730     9.1105    25.8183     2.4899   127.9984
 3269.7730     9.1042    25.7273     2.4931   126.9519
 3270.2730     9.2280    25.2040     2.4972   120.1094
 3270.7730     9.4201    24.4468     2.4913   118.2072
 3271.2730    10.1688    24.4055     2.4684   117.5589
 3271.7730    10.8024    24.7031     2.4559   118.1646
 3272.2730    11.3591    25.8104     2.4599   118.7702
 3272.7730     9.1790    25.9074     2.4815   120.0028
 3273.2730     8.3700    24.5480     2.5017   121.2354
 3273.7730     7.9497    24.0560     2.5140   122.4680
 3274.2730     7.9245    24.0481     2.5202   120.5088
 3274.7730     8.0686    24.0709     2.5217   117.5720
 3275.2730     8.0751    23.6962     2.5186   112.1122
 3275.7730     8.0087    20.5838     2.5138   109.5093
 3276.2730     8.0419    20.0930     2.5141   107.3109
 3276.7730     8.2286    19.9876     2.5154   111.3790
 3277.2730     8.8875    19.8513     2.5134   112.2827
 3277.7730     9.3133    19.6432     2.4978   111.6338
 3278.2730     9.1886    19.5931     2.4951   112.3087
 3278.7730     9.1862    19.7261     2.4958   114.0936
 3279.2730     9.1838    20.0550     2.4974   112.8184
 3279.7730     8.9367    20.3864     2.4988   110.9162
 3280.2730     8.7509    20.9486     2.4966   109.6410
 3280.7730     8.5038    21.2628     2.5027   110.2466
 3281.2730     8.5014    21.1429     2.5105   110.8522
 3281.7730     8.6281    20.7749     2.5104   109.5770
 3282.2730     8.7413    19.9704     2.5057   107.6746
 3282.7730     8.7205    19.8529     2.5042   107.6526
 3283.2730     8.3945    20.1532     2.5088   108.3452
 3283.7730     7.9868    20.5152     2.5152   110.2401
 3284.2730     7.0623    20.8819     2.5244   109.9344
 3284.7730     7.0164    21.3847     2.5289   107.1704
 3285.2730     7.1831    21.3938     2.5265   104.8013
 3285.7730     7.2036    21.3671     2.5241   104.6558
 3286.2730     6.7382    21.4340     2.5247   105.9250
 3286.7730     5.5807    21.6242     2.5354   107.1935
 3287.2730     5.1081    21.6903     2.5465   107.4551
 3287.7730     5.2887    21.5084     2.5559   106.1757
 3288.2730     5.7145    21.3859     2.5519   106.1544
 3288.7730     5.7736    21.8932     2.5519   106.7600
 3289.2730     5.7097    22.2031     2.5534   109.2465
 3289.7730     5.5850    22.2690     2.5564   110.4802
 3290.2730     5.8272    22.0382     2.5502   109.8308
 3290.7730     5.8313    21.9051     2.5440   110.4451
 3291.2730     5.8225    22.0241     2.5440   112.3412
 3291.7730     6.0647    22.4095     2.5470   114.9449
 3292.2730     6.6805    23.2300     2.5452   117.5039
 3292.7730     6.9212    23.2879     2.5321   118.5016
 3293.2730     7.1051    23.1060     2.5260   117.8501
 3293.7730     7.2278    22.6760     2.5216   119.3102
 3294.2730     7.4050    22.6178     2.5162   120.8433
 3294.7730     8.2897    23.6764     2.5062   123.0784
 3295.2730     8.6358    23.8046     2.4964   126.3009
 3295.7730     8.2696    23.4165     2.4951   129.0213
 3296.2730     7.5327    23.0228     2.5142   130.2540
 3296.7730     5.6028    22.5903     2.5591   131.4866
 3297.2730     3.8964    22.3947     2.5777   128.3304
 3297.7730     4.0963    22.6580     2.5637   125.8013
 3298.2730     4.9315    22.0030     2.5420   125.7800
 3298.7730     6.9475    21.5933     2.5264   124.5047
 3299.2730     6.7004    21.5442     2.5264   122.6025
 3299.7730     5.9029    21.8591     2.5303   123.2097
 3300.2730     6.4719    21.9872     2.5456   121.9299
 3300.7730     6.7308    23.1696     2.5434   121.9048
 3301.2730     6.9440    23.4218     2.5403   123.8309
 3301.7730     7.1894    23.5499     2.5356   127.5006
 3302.2730     7.3736    23.2080     2.5308   126.6413
 3302.7730     7.4967    21.6641     2.5260   125.5709
 3303.2730     7.6197    21.5157     2.5244   130.0203
 3303.7730     7.7428    23.1344     2.5216   134.8960
 3304.2730     7.7435    24.7683     2.5216   134.5615
 3304.7730     7.8055    25.5271     2.5231   132.2570
 3305.2730     7.8763    26.0768     2.5239   131.7060
 3305.7730     7.9424    26.2515     2.5246   132.3085
 3306.2730     8.1653    23.8370     2.5184   134.1649
 3306.7730     8.4200    23.4686     2.5137   134.5370
 3307.2730     8.1963    23.5972     2.5153   131.6082
 3307.7730     7.8117    23.6633     2.5246   129.7029
 3308.2730     7.7157    23.6054     2.5261   127.1706
 3308.7730     7.6281    23.5413     2.5245   124.0114
 3309.2730     7.7513    23.4168     2.5214   123.3600
 3309.7730     7.6297    23.3696     2.5245   128.4767
 3310.2730     7.3246    23.4947     2.5293   131.7461
 3310.7730     7.0807    23.6219     2.5322   134.6969
 3311.2730     7.1426    23.9351     2.5245   133.5961
 3311.7730     7.5264    24.5584     2.5074   130.9987
 3312.2730     8.5259    25.6158     2.4888   127.1478
 3312.7730     9.5254    25.6190     2.4779   128.0876
 3313.2730    10.5708    25.4290     2.4732   133.4329
 3313.7730    10.8194    25.2900     2.4782   136.9443
 3314.2730    10.3787    25.0962     2.4960   131.6411
 3314.7730     9.3706    23.8556     2.5011   127.4675
 3315.2730     9.1670    21.6665     2.4900   128.0700
 3315.7730     9.7784    22.0572     2.4819   129.2995
 3316.2730    10.0441    23.6582     2.4815   128.0211
 3316.7730    10.0867    23.8474     2.4886   125.4889
 3317.2730     9.6714    24.0366     2.4990   122.9566
 3317.7730     9.0121    24.1017     2.5103   121.0513
 3318.2730     8.3156    23.9794     2.5134   122.9077
 3318.7730     7.8882    23.3639     2.5118   126.0181
 3319.2730     8.0112    23.5141     2.5056   125.9411
 3319.7730     8.6847    24.5825     2.5009   123.2088
 3320.2730     8.8690    25.6679     2.4947   120.2998
 3320.7730     9.0532    25.3400     2.4870   120.2747
 3321.2730     9.4821    24.9211     2.4869   121.0575
 3321.7730    10.0333    23.3844     2.4873   122.5326
 3322.2730     9.6954    22.5813     2.4920   125.9532
 3322.7730     9.3620    23.0186     2.4962   127.9762
 3323.2730     9.3015    24.8202     2.4895   127.6728
 3323.7730     9.4870    25.5675     2.4776   127.6478
 3324.2730    10.1806    25.8900     2.4627   128.8717
 3324.7730    11.2186    25.4321     2.4326   131.3551
 3325.2730    12.2567    24.6314     2.4341   132.5882
 3325.7730    12.9753    24.4018     2.4387   130.6792
 3326.2730    12.9761    24.5828     2.4666   128.1470
 3326.7730    12.1205    24.6570     2.4697   126.8686
 3327.2730    11.1427    24.0408     2.4650   125.5902
 3327.7730    10.8987    23.4858     2.4541   124.9388
 3328.2730    11.0218    23.1789     2.4524   124.2873
 3328.7730    11.3383    23.1198     2.4510   123.5548
 3329.2730    11.6961    23.6193     2.4617   121.6570
 3329.7730    11.1269    23.5604     2.4696   121.0772
 3330.2730    11.0860    23.5638     2.4667   121.9542
 3330.7730    11.3065    23.6574     2.4634   125.1280
 3331.2730    11.4545    24.3677     2.4634   124.5617
 3331.7730    11.5165    25.5503     2.4572   125.6002
 3332.2730    11.6093    26.4284     2.4509   126.5945
 3332.7730    11.9980    26.7437     2.4494   126.5694
 3333.2730    12.3752    26.4368     2.4540   123.3738
 3333.7730    12.3759    23.8973     2.4586   121.1392
 3334.2730    11.9485    23.7142     2.4695   123.3549
 3334.7730    10.9706    24.2757     2.4727   125.2152
 3335.2730    10.8491    25.2776     2.4763   124.5599
 3335.7730    10.7275    26.3096     2.4822   119.5198
 3336.2730    10.4195    27.3417     2.4849   117.6144
 3336.7730    10.3620    28.3738     2.3789   120.0978
 3337.2730    18.9773    29.4058     2.2247   126.9699
 3337.7730  -999.2500   -48.8826     2.0706   130.7073
 3338.2730  -999.2500   -50.2438     2.0583   139.5444
