~VERSION INFORMATION
 VERS.               2.10:   CWLS LOG ASCII STANDARD - VERSION 2.10
 WRAP.                 NO:   ONE LINE PER DEPTH STEP
~WELL INFORMATION
#MNEM.UNIT      DATA TYPE    INFORMATION
#----------   ------------   ------------------------------
 STRT.F         2389.7727:   START DEPTH
 STOP.F         5660.0845:   STOP DEPTH
 STEP.F            0.5000:   STEP LENGTH
 NULL.          -999.2500:   NO VALUE
 COMP. Lawrence Allison and Associates:   COMPANY
 WELL.            43 X 10:   WELL
 FLD .           N.P.R. 3:   FIELD
 LOC . 10-38N-78W-NATRONA-WY:   LOCATION
 STAT.                 WY:   STATE
 COUN.            Natrona:   COUNTY
 SRVC.      Dresser Atlas:   SERVICE COMPANY
 DATE.                   :   LOGDATE
 APIN.         4902511207:   API NUMBER
~CURVE INFORMATION
#MNEM.UNIT       API CODE    CURVE DESCRIPTION
#----------   ------------   ------------------------------
 DEPT.F                  :
 DPHI.none   42 890 12 00:   Den. Porosity, Ss [%]
 NPHI.none   42 890 03 00:   Neu. Porosity, Ss [%]
 RHOB.gm/cc  42 350 01 00:   Bulk Density
 GR  .GAPI   42 310 00 00:   Gamma Ray
~PARAMETER INFORMATION
#MNEM.UNIT          VALUE    DESCRIPTION
#----------   ------------   ------------------------------
 EKB .F         5215.0000:   Kelly bushing
 EGL .F         5203.0000:   Ground level
 EDF .F            0.0000:   Drilling floor
 EPD .F           10.0000:   Permanent datum
 TD  .F         3458.0000:   Total depth
 NRUN.             1.0000:   Number of Runs
#--RUN 1---   ------------   The following are for Run 1---
 RUN .             1.0000:   Run 1
 DATE.mm/dd/yyyy 02/19/1985:   Date Logged
 DD  .ft             5650:   Depth Driller
 DL  .ft             5649:   Depth Logger
 BLI .ft             5647:   Bottom Log Interval
 TLI .ft             2400:   Top Log Interval
 CSS .inch          9.625:   Casing Size
 CTD1.ft              510:   Casing Driller 1
 CTL1.ft       not logged:   Casing Logger 1
 BS  .inch            8.5:   Bit Size
 DFT .            kcl gel:   Type Fluid In Hole
 DFD .lb/gal          9.5:   Mud Weight
 DFV .sec              44:   Viscosity
 DFPH.                8.5:   pH
 DFL .cc              9.0:   Fluid Loss
 WSS .           flowline:   Source Of Sample
 RM  .ohmm            .32:   Rm
 EMT .F                74:   Rm Meas. Temp.
 RMF .ohmm            .26:   Rmf
 MFT .F                74:   Rmf Meas. Temp.
 RMC .ohmm            .40:   Rmc
 MCST.F                74:   Rmc Meas. Temp.
 MFSS.               meas:   Source Rmf.
 MCSS.               calc:   Source Rmc.
 RMB .ohmm            .14:   Rm. At BHT
 BHT .F               164:   BHT.
 TCS .hh:mm        8 hrs.:   Time Circ. Stopped
 MRT .F               170:   Maximum Recorded Temp.
 LUL .               Glte:   Logging Unit Location
 ENGI.               Mack:   Recorded By
 WITN.         Mr. Strong:   Witnessed By
 DGBY.              Burke:   Digitized By
~T 2 Tops
First Wall Creek                 2512.0
Second Wall Creek                2912.0
~OTHER INFORMATION
# Density Matrix = 2.65
# Neutron Matrix = Sandstone
~A  DEPTH     DPHI       NPHI       RHOB         GR
# ...
 4287.7720     1.5620    15.2792     2.5997    58.5564
 4288.2720     1.1441    16.2122     2.5955    55.6610
 4288.7720     0.7868    18.4475     2.6153    55.0071
 4289.2720     1.2979    20.7449     2.6254    55.6944
 4289.7720     1.4815    21.7399     2.6308    58.0786
 4290.2720     1.5544    22.1768     2.6372    60.5478
 4290.7720     1.4457    22.3046     2.6278    63.6382
 4291.2720     1.6051    22.5103     2.6278    67.3497
 4291.7720     1.7319    23.4619     2.6278    80.3797
 4292.2720     1.7981    24.0315     2.6277    74.7727
 4292.7720     2.9536    24.6011     2.6277    75.3786
 4293.2720     3.0261    25.1707     2.6137    77.2267
 4293.7720     3.8123    25.7375     2.5904    80.3170
 4294.2720     3.6971    26.7083     2.5888    81.5441
 4294.7720     4.2066    27.3062     2.5903    82.1585
 4295.2720     4.5226    27.7266     2.5819    85.2957
 4295.7720     4.5631    28.5994     2.5778    87.9774
 4296.2720     4.6307    28.9088     2.5778    92.1983
 4296.7720     4.6969    28.3421     2.5778    93.8903
 4297.2720     4.6422    27.4142     2.5777    91.8824
 4297.7720     4.4058    26.6235     2.5784    91.9965
 4298.2720     4.1624    25.9296     2.5792    90.5593
 4298.7720     4.0543    25.5504     2.5807    88.2369
 4299.2720     4.2753    26.7560     2.5838    89.0695
 4299.7720     4.6799    27.9371     2.5824    91.1953
 4300.2720     5.1794    28.0639     2.5743    92.2634
 4300.7720     5.9561    27.4465     2.5662    92.2625
 4301.2720     6.6880    26.7671     2.5581    93.1847
 4301.7720     6.7055    24.3513     2.5496    95.6752
 4302.2720     6.3969    23.9121     2.5449    97.5446
 4302.7720     6.1001    23.3547     2.5434    97.5506
 4303.2720     6.2405    21.1466     2.5449    96.3144
 4303.7720     6.4142    20.1426     2.5512    85.1403
 4304.2720     6.2004    18.8463     2.5544    79.5562
 4304.7720     6.2017    18.0784     2.5495    71.7864
 4305.2720     6.4330    17.3731     2.5514    62.6915
 4305.7720     6.3795    16.5672     2.5507    51.8862
 4306.2720     6.2321    15.7699     2.5476    49.1475
 4306.7720     6.3305    14.7802     2.5500    48.5324
 4307.2720     6.2152    14.2246     2.5557    47.9164
 4307.7720     5.6594    13.7311     2.5631    47.9233
 4308.2720     5.2394    13.9196     2.5665    47.9293
 4308.7720     4.9907    14.7331     2.5718    48.5564
 4309.2720     4.7420    15.1705     2.5789    50.4258
 4309.7720     4.4097    15.2918     2.5844    52.2953
 4310.2720     3.8926    15.4327     2.5851    51.6800
 4310.7720     4.1404    15.9298     2.5836    51.6866
 4311.2720     3.8435    16.2300     2.5835    51.8550
 4311.7720     3.2441    16.3222     2.5897    52.9281
 4312.2720     2.5236    16.5153     2.6052    55.3004
 4312.7720     2.5490    16.6105     2.6068    56.9665
 4313.2720     3.2658    16.6750     2.6068    57.6346
 4313.7720     3.2203    16.8016     2.6006    58.5574
 4314.2720     3.5228    16.9282     2.5959    57.9413
 4314.7720     3.4622    17.7369     2.5928    58.5694
 4315.2720     3.3679    18.0496     2.5959    59.8177
 4315.7720     3.3410    18.1152     2.5959    64.7926
 4316.2720     3.7040    18.4715     2.5911    67.2831
 4316.7720     3.4619    19.4196     2.5897    67.2891
 4317.2720     3.4013    19.9205     2.5930    66.0529
 4317.7720     3.2166    19.8232     2.5964    65.4378
 4318.2720     2.9646    19.3051     2.6024    66.8074
 4318.7720     2.8444    19.2740     2.6055    68.2594
 4319.2720     3.0504    19.5020     2.6067    69.8046
 4319.7720     3.4615    20.4303     2.5989    68.5674
 4320.2720     3.2225    20.8050     2.5943    67.9537
 4320.7720     3.1325    20.9936     2.6033    68.2868
 4321.2720     3.4612    21.1821     2.6013    71.6941
 4321.7720     4.0663    20.9986     2.5966    75.4268
 4322.2720     4.1267    20.0089     2.5902    76.6750
 4322.7720     3.9451    20.0775     2.5840    76.6810
 4323.2720     3.8240    20.5837     2.5834    72.9603
 4323.7720     3.9521    21.1427     2.5880    72.9663
 4324.2720     4.0659    21.9682     2.5900    74.2146
 4324.7720     3.9872    22.5838     2.5895    72.9404
 4325.2720     3.8134    22.6914     2.5895    70.8862
 4325.7720     3.5816    22.5198     2.5911    66.1581
 4326.2720     3.9369    22.2950     2.5988    67.1103
 4326.7720     4.6102    22.3277     2.5833    70.9110
 4327.2720     4.7916    22.4543     2.5755    74.8730
 4327.7720     4.7916    23.3250     2.5709    74.8792
 4328.2720     4.4889    23.3276     2.5725    73.6105
 4328.7720     4.5534    23.3226     2.5820    73.1447
 4329.2720     4.8743    23.4567     2.5864    74.8988
 4329.7720     5.1544    23.9663     2.5830    76.1471
 4330.2720     4.9587    24.8128     2.5708    79.2587
 4330.7720     3.1820    25.7285     2.5693    79.8858
 4331.2720     2.7348    25.3329     2.5712    79.2707
 4331.7720     2.6477    24.3930     2.5773    79.8978
 4332.2720     2.8544    23.2295     2.6070    79.8658
 4332.7720     2.8543    22.9169     2.6127    77.1121
 4333.2720     2.7332    22.9196     2.6067    74.9469
 4333.7720     2.3701    22.9847     2.6041    76.5202
 4334.2720     2.2490    23.0493     2.6057    78.0655
 4334.7720     2.3175    23.7340     2.6097    77.4494
 4335.2720     2.9957    25.4110     2.6166    76.5490
 4335.7720     3.7553    26.2817     2.6111    75.9265
 4336.2720     4.5148    27.2765     2.6002    77.4704
 4336.7720     5.3348    27.1424     2.5785    78.0976
 4337.2720     5.0322    25.8740     2.5754    79.3458
 4337.7720     4.7295    25.1136     2.5738    79.9730
 4338.2720     5.1927    25.1785     2.5769    79.9790
 4338.7720     5.6976    24.7895     2.5785    79.9850
 4339.2720     5.3851    25.0508     2.5769    79.3699
 4339.7720     4.9624    26.2156     2.5723    79.3761
 4340.2720     4.6717    27.0861     2.5691    80.7813
 4340.7720     4.6423    27.3007     2.5676    82.7357
 4341.2720     4.3659    26.8071     2.5770    85.7680
 4341.7720     4.3053    26.6233     2.5800    87.0570
 4342.2720     5.0314    27.3083     2.5784    87.4816
 4342.7720     5.2734    27.4969     2.5846    88.1090
 4343.2720     5.2672    27.6235     2.5777    87.1672
 4343.7720     4.7543    26.9923     2.5733    83.7748
 4344.2720     3.9146    26.3010     2.5706    80.0531
 4344.7720     3.4395    25.9567     2.5722    81.3023
 4345.2720     3.4917    26.2676     2.5826    83.1717
 4345.7720     3.7601    26.5199     2.5912    84.4200
 4346.2720     3.6995    26.2744     2.5998    83.8048
 4346.7720     3.3363    26.4064     2.6047    83.8109
 4347.2720     2.9732    25.9001     2.6022    85.0593
 4347.7720     2.7916    25.0571     2.5985    84.2876
 4348.2720     2.5494    24.2394     2.6000    82.5867
 4348.7720     2.7405    24.3039     2.6078    82.5935
 4349.2720     3.2377    24.4305     2.6140    82.5997
 4349.7720     3.4569    24.7431     2.6171    82.6059
 4350.2720     3.2753    25.7999     2.6062    82.3254
 4350.7720     3.4445    26.6729     2.6015    80.7223
 4351.2720     3.7273    26.7353     2.6015    78.8990
 4351.7720     4.1223    25.9861     2.6046    79.5261
 4352.2720     4.7878    24.5856     2.6077    80.1533
 4352.7720     4.6062    23.9547     2.5922    79.5382
 4353.2720     3.6379    23.6584     2.5813    77.6808
 4353.7720     2.2460    23.4661     2.5782    76.4446
 4354.2720     2.1249    23.1450     2.5801    75.8295
 4354.7720     2.4068    22.6613     2.5910    73.9341
 4355.2720     2.8040    22.2298     2.6079    72.3442
 4355.7720     2.8509    21.8602     2.6152    65.3061
 4356.2720     2.8262    21.5527     2.6220    62.1889
 4356.7720     2.7902    21.4931     2.6232    63.0197
 4357.2720     2.2455    21.4957     2.6149    64.9314
 4357.7720     1.8823    21.8247     2.6123    66.5085
 4358.2720     1.7612    22.4380     2.6151    68.1315
 4358.7720     1.9427    22.5692     2.6206    70.2965
 4359.2720     2.2452    22.3090     2.6293    71.5448
 4359.7720     2.5739    20.8921     2.6324    70.3086
 4360.2720     3.5935    20.6428     2.6324    67.2090
