~VERSION INFORMATION
 VERS.               2.10:   CWLS LOG ASCII STANDARD - VERSION 2.10
 WRAP.                 NO:   ONE LINE PER DEPTH STEP
~WELL INFORMATION
#MNEM.UNIT      DATA TYPE    INFORMATION
#----------   ------------   ------------------------------
 STRT.F         2398.5081:   START DEPTH
 STOP.F         5645.6445:   STOP DEPTH
 STEP.F            0.5000:   STEP LENGTH
 NULL.          -999.2500:   NO VALUE
 COMP. Lawrence Allison and Associates:   COMPANY
 WELL.          43 TPX 10:   WELL
 FLD .           N.P.R. 3:   FIELD
 LOC . 10-38N-78W-NATRONA-WY:   LOCATION
 STAT.                 WY:   STATE
 COUN.            Natrona:   COUNTY
 SRVC.      Dresser Atlas:   SERVICE COMPANY
 DATE.                   :   LOGDATE
 APIN.         4902511207:   API NUMBER
~CURVE INFORMATION
#MNEM.UNIT       API CODE    CURVE DESCRIPTION
#----------   ------------   ------------------------------
 DEPT.F                  :
 DT  .us/f   60 520 00 00:   Delta t
 GR  .API    60 310 00 00:   Gamma Ray
 PORA.None               :   Porosity
~PARAMETER INFORMATION
#MNEM.UNIT          VALUE    DESCRIPTION
#----------   ------------   ------------------------------
 EKB .F         5215.0000:   Kelly bushing
 EGL .F         5203.0000:   Ground level
 EDF .F            0.0000:   Drilling floor
 EPD .F           10.0000:   Permanent datum
 TD  .F         3340.0000:   Total depth
 NRUN.             1.0000:   Number of Runs
#--RUN 1---   ------------   The following are for Run 1---
 RUN .             1.0000:   Run 1
 DATE.mm/dd/yyyy 02/19/1985:   Date Logged
 DD  .ft             5650:   Depth Driller
 DL  .ft             5649:   Depth Logger
 BLI .ft             5640:   Bottom Log Interval
 TLI .ft             2440:   Top Log Interval
 CSS .inch          9.625:   Casing Size
 CTD1.ft              510:   Casing Driller 1
 BS  .inch            8.5:   Bit Size
 DFT .            kcl gel:   Type Fluid In Hole
 DFD .lb/gal          9.5:   Mud Weight
 DFV .sec              44:   Viscosity
 DFPH.                8.5:   pH
 DFL .cc              9.0:   Fluid Loss
 WSS .           flowline:   Source Of Sample
 RM  .ohmm            .32:   Rm
 EMT .F                74:   Rm Meas. Temp.
 RMF .ohmm            .26:   Rmf
 MFT .F                74:   Rmf Meas. Temp.
 RMC .ohmm            .40:   Rmc
 MCST.F                74:   Rmc Meas. Temp.
 MFSS.               meas:   Source Rmf.
 MCSS.               calc:   Source Rmc.
 RMB .ohmm            .14:   Rm. At BHT
 BHT .F               164:   BHT.
 TCS .hh:mm        11 hrs:   Time Circ. Stopped
 MRT .F               164:   Maximum Recorded Temp.
 LUL .              Gltte:   Logging Unit Location
 ENGI.               Mack:   Recorded By
 WITN.          Mr. Strog:   Witnessed By
 DGBY.              Burke:   Digitized By
~T 1 Tops
First Wall Creek                 2512.0
~OTHER INFORMATION
# Repeat recorded off depth.
~A  DEPTH       DT         GR       PORA
# ...
 2580.5080    75.1113    63.3876    18.3465
 2581.0080    74.8052    63.4058    17.4166
 2581.5080    74.7333    62.4187    17.3221
 2582.0080    74.1197    58.6774    17.0104
 2582.5080    73.5009    58.1911    16.4504
 2583.0080    73.2776    58.2062    16.1387
 2583.5080    74.0605    58.4706    16.2925
 2584.0080    74.7643    58.4888    16.9887
 2584.5080    75.4682    61.5080    17.9030
 2585.0080    76.0169    64.5272    18.0878
 2585.5080    76.1001    66.5412    18.3036
 2586.0080    76.4936    64.0555    18.5505
 2586.5080    76.9667    64.0704    18.6736
 2587.0080    76.9474    63.3370    18.6408
 2587.5080    76.2017    62.8471    18.4835
 2588.0080    76.0507    62.8653    18.3537
 2588.5080    76.0578    64.8830    18.2950
 2589.0080    76.0634    66.1495    18.2315
 2589.5080    75.9901    65.6628    17.8577
 2590.0080    75.3765    64.9266    17.3598
 2590.5080    74.7595    65.6128    17.0792
 2591.0080    74.6896    68.9655    17.1088
 2591.5080    75.3173    68.7260    17.3965
 2592.0080    75.8660    67.4922    17.9435
 2592.5080    76.1043    68.7587    18.1594
 2593.0080    75.7997    69.7748    18.0649
 2593.5080    75.3398    69.7894    17.6911
 2594.0080    75.1048    67.7152    17.5035
 2594.5080    75.8223    64.6237    17.5953
 2595.0080    76.5380    63.3216    17.8873
 2595.5080    77.0240    69.0987    18.8644
 2596.0080    77.3860    74.6219    19.1737
 2596.5080    77.3139    73.7944    19.1720
 2597.0080    77.0094    68.1444    18.7672
 2597.5080    76.3086    65.6550    18.3934
 2598.0080    75.8584    64.6680    18.0196
 2598.5080    75.6299    63.6810    17.8010
 2599.0080    75.6370    62.6903    17.8347
 2599.5080    75.7978    62.9589    17.9531
 2600.0080    75.8034    63.9759    18.1149
 2600.5080    75.8866    66.2403    18.1753
 2601.0080    76.0474    65.7493    18.2670
 2601.5080    76.5353    65.5109    18.6690
 2602.0080    77.4566    66.2757    19.0400
 2602.5080    77.8501    66.5370    19.2915
 2603.0080    78.0885    66.5479    19.5337
 2603.5080    78.2493    67.3100    19.5320
 2604.0080    77.6727    67.8217    19.2513
 2604.5080    76.8202    68.3333    18.6603
 2605.0080    75.7952    68.3442    18.0073
 2605.5080    75.4257    66.6051    17.8782
 2606.0080    75.8923    64.1121    18.1939
 2606.5080    76.5139    64.3734    18.6072
 2607.0080    77.1355    68.1402    18.9016
 2607.5080    77.1364    71.6565    18.9313
 2608.0080    76.9822    72.9458    18.8364
 2608.5080    76.5165    71.6713    18.4006
 2609.0080    75.9524    71.1885    18.0579
 2609.5080    75.4337    70.9490    17.7151
 2610.0080    75.1240    73.2161    17.6206
 2610.5080    75.4355    73.7278    17.7430
 2611.0080    75.9795    72.9875    18.5174
 2611.5080    76.5235    71.2453    18.6712
 2612.0080    76.8348    71.5070    18.8560
 2612.5080    76.9977    73.3787    18.8860
 2613.0080    77.0696    76.5393    18.7601
 2613.5080    76.9154    75.5487    18.6008
 2614.0080    76.6060    74.5553    18.3536
 2614.5080    76.0639    74.8193    18.0729
 2615.0080    75.8319    75.3282    18.0095
 2615.5080    76.3761    72.8380    18.6598
 2616.0080    77.5563    72.5985    20.3707
 2616.5080    80.2132    79.3727    22.2718
 2617.0080    83.3935    85.2386    24.3032
 2617.5080    84.9138    92.5363    24.7986
 2618.0080    83.5958    97.1822    23.1420
 2618.5080    79.1325    95.1596    20.9079
 2619.0080    74.3658    87.8021    18.6738
 2619.5080    72.8152    78.8951    16.2589
 2620.0080    72.7385    69.9881    16.0096
 2620.5080    73.3604    64.6886    16.4112
 2621.0080    73.8268    64.4464    16.5672
 2621.5080    74.0604    66.9639    16.7184
 2622.0080    74.4493    67.2252    16.8412
 2622.5080    74.6054    67.5224    17.0880
 2623.0080    74.6839    70.0040    17.2418
 2623.5080    74.7624    72.5188    17.3028
 2624.0080    74.6723    72.7774    17.1149
 2624.5080    74.1439    72.0371    16.7092
 2625.0080    73.6794    71.0492    16.3270
 2625.5080    73.4473    66.5530    16.2419
 2626.0080    73.9140    62.0135    16.7366
 2626.5080    74.5355    60.3151    17.3248
 2627.0080    74.9244    60.0756    17.5721
 2627.5080    75.2445    64.0955    17.4462
 2628.0080    75.2366    66.3599    17.2276
 2628.5080    74.9274    67.1220    17.0680
 2629.0080    74.4629    65.1297    16.9452
 2629.5080    74.3860    59.6052    16.9438
 2630.0080    74.4648    53.9401    17.0045
 2630.5080    74.6984    51.3900    17.0962
 2631.0080    74.9403    52.4052    17.2499
 2631.5080    75.3212    52.4161    17.6520
 2632.0080    75.3997    53.2089    17.7138
 2632.5080    75.4007    55.9461    17.7423
 2633.0080    75.4016    58.4609    17.9267
 2633.5080    75.8680    60.9757    18.1736
 2634.0080    76.3344    61.2370    18.3894
 2634.5080    76.5681    61.2479    18.6053
 2635.0080    76.6564    63.7627    18.7280
 2635.5080    76.8805    65.7767    18.7887
 2636.0080    76.9590    66.7892    18.7873
 2636.5080    76.7272    65.0474    18.7545
 2637.0080    76.4952    65.0610    18.6600
 2637.5080    76.3410    65.8231    18.5035
 2638.0080    76.1094    66.8355    18.4090
 2638.5080    76.1153    67.0968    18.4390
 2639.0080    76.3443    67.1077    18.4994
 2639.5080    76.5004    67.1186    18.4338
 2640.0080    75.9583    66.8791    18.0618
 2640.5080    75.3385    66.1416    17.5949
 2641.0080    74.6413    65.6517    17.2211
 2641.5080    74.4095    64.9114    17.0335
 2642.0080    74.4883    62.4184    17.0632
 2642.5080    74.6441    60.4262    17.2170
 2643.0080    74.8780    59.1851    17.2466
 2643.5080    74.9565    59.2329    16.8231
 2644.0080    74.1817    60.9624    15.8471
 2644.5080    72.7862    64.4788    15.6909
 2645.0080    72.8647    66.4928    16.2787
 2645.5080    73.7190    67.7557    16.6187
 2646.0080    74.5257    68.7681    17.2690
 2646.5080    75.5830    67.5271    17.6089
 2647.0080    75.6615    65.7852    17.7006
 2647.5080    75.1970    65.7989    17.5127
 2648.0080    74.9650    66.3105    17.3562
 2648.5080    74.7334    66.3214    17.2927
 2649.0080    74.5791    65.3308    17.1982
 2649.5080    74.3474    63.3385    16.9796
 2650.0080    73.9372    60.8455    16.1714
 2650.5080    72.6606    59.1037    15.1707
 2651.0080    70.9713    59.3654    14.1455
 2651.5080    69.2820    60.8810    13.1203
 2652.0080    67.6805    62.1411    11.9453
 2652.5080    67.5261    61.4035    12.6576
 2653.0080    69.2535    60.6605    13.8427
 2653.5080    71.9625    61.1749    15.0549
 2654.0080    74.7440    63.6898    16.2671
 2654.5080    75.1329    66.2337    17.2828
 2655.0080    75.0440    66.7190    17.5226
 2655.5080    74.6695    66.4768    17.3967
 2656.0080    74.7480    66.4904    17.2712
 2656.5080    74.9041    66.7517    17.3012
 2657.0080    75.0602    66.7626    17.4856
 2657.5080    75.2163    66.5229    17.5153
 2658.0080    75.1397    66.5341    17.4499
 2658.5080    74.9778    66.0468    17.2949
 2659.0080    74.6761    64.8058    17.1694
 2659.5080    74.8324    64.5635    17.1994
 2660.0080    75.0661    66.0795    17.3528
 2660.5080    75.2998    66.8416    17.5687
 2661.0080    75.6110    63.0966    17.8776
 2661.5080    75.7671    60.6036    18.0003
 2662.0080    75.8456    61.2196    17.8971
 2662.5080    75.6647    66.6375    17.6559
 2663.0080    75.2271    67.9004    17.4683
 2663.5080    74.9951    66.9097    17.3738
 2664.0080    75.0738    64.9175    17.5276
 2664.5080    75.3851    63.4260    17.7434
 2665.0080    75.5412    62.9360    17.9282
 2665.5080    75.4645    62.6329    17.8258
 2666.0080    74.5006    58.7040    16.9941
 2666.5080    73.2944    55.8645    16.1549
 2667.0080    72.9848    48.9575    15.9056
 2667.5080    73.6066    42.9630    16.4624
 2668.0080    74.5385    45.4778    17.0817
 2668.5080    75.7807    50.2494    18.1974
 2669.0080    76.4023    56.3284    18.6643
 2669.5080    76.6398    62.4075    18.7893
 2670.0080    76.9475    68.0575    18.8449
 2670.5080    77.0260    70.5723    18.9363
 2671.0080    77.0269    70.8336    18.9663
