~VERSION INFORMATION
 VERS.               2.10:   CWLS LOG ASCII STANDARD - VERSION 2.10
 WRAP.                 NO:   ONE LINE PER DEPTH STEP
~WELL INFORMATION
#MNEM.UNIT      DATA TYPE    INFORMATION
#----------   ------------   ------------------------------
 STRT.F         2399.8379:   START DEPTH
 STOP.F         5667.9595:   STOP DEPTH
 STEP.F            0.5000:   STEP LENGTH
 NULL.          -999.2500:   NO VALUE
 COMP. Lawrence Allison & Associates:   COMPANY
 WELL.          43-TPX-10:   WELL
 FLD .           N.P.R. 3:   FIELD
 LOC . 10-38N-78W-NATRONA-WY:   LOCATION
 STAT.                 WY:   STATE
 COUN.            Natrona:   COUNTY
 SRVC.      Dresser Atlas:   SERVICE COMPANY
 DATE.                   :   LOGDATE
 APIN.         4902511207:   API NUMBER
~CURVE INFORMATION
#MNEM.UNIT       API CODE    CURVE DESCRIPTION
#----------   ------------   ------------------------------
 DEPT.F                  :
 LLD .ohmm   11 220 04 00:   Dual Laterolog, Deep
 LLS .ohmm   11 220 06 00:   Dual Laterolog, shallow
 MNOR.ohmm   15 252 02 00:   Microlog, normal 2"
 GR  .GAPI   06 310 01 00:   Gamma Ray
 SP  .mV     06 010 01 00:   Spontaneous Potential
~PARAMETER INFORMATION
#MNEM.UNIT          VALUE    DESCRIPTION
#----------   ------------   ------------------------------
 EKB .F         5215.0000:   Kelly bushing
 EGL .F         5203.0000:   Ground level
 EDF .F            0.0000:   Drilling floor
 EPD .F           10.0000:   Permanent datum
 TD  .F         5260.0000:   Total depth
 NRUN.             1.0000:   Number of Runs
#--RUN 1---   ------------   The following are for Run 1---
 RUN .             1.0000:   Run 1
 DATE.mm/dd/yyyy 02/19/85:   Date Logged
 DD  .ft             5650:   Depth Driller
 DL  .ft             5649:   Depth Logger
 BLI .ft             5646:   Bottom Log Interval
 TLI .ft              511:   Top Log Interval
 CSS .inch          9-5/8:   Casing Size
 CTD1.ft              510:   Casing Driller 1
 CTL1.ft              511:   Casing Logger 1
 BS  .inch            8.5:   Bit Size
 DFT .            kcl-gel:   Type Fluid In Hole
 DFD .lb/gal          9.5:   Mud Weight
 DFV .sec              44:   Viscosity
 DFPH.                8.5:   pH
 DFL .cc              9.0:   Fluid Loss
 WSS .           flowline:   Source Of Sample
 RM  .ohmm            .32:   Rm
 EMT .F                74:   Rm Meas. Temp.
 RMF .ohmm            .26:   Rmf
 MFT .F                74:   Rmf Meas. Temp.
 RMC .ohmm            .40:   Rmc
 MCST.F                74:   Rmc Meas. Temp.
 MFSS.              meas.:   Source Rmf.
 MCSS.              calc.:   Source Rmc.
 RMB .ohmm            .14:   Rm. At BHT
 BHT .F               164:   BHT.
 TCS .hh:mm         5 hrs:   Time Circ. Stopped
 MRT .F               164:   Maximum Recorded Temp.
 LUL .               Glte:   Logging Unit Location
 ENGI.               Mack:   Recorded By
 WITN.         Mr. Strong:   Witnessed By
 DGBY.              Burke:   Digitized By
~T 1 Tops
First Wall Creek                 2512.0
~A  DEPTH      LLD        LLS       MNOR         GR         SP
# ...
 3680.8380     2.1573     2.1428     0.6235    82.8815    67.8395
 3681.3380     2.2678     2.1876     0.5890    79.0836    68.7817
 3681.8380     2.3502     2.2838     0.6511    76.7660    68.7907
 3682.3380     2.4755     2.3671     0.7045    75.2665    68.0221
 3682.8380     2.8092     2.5796     0.7732    77.8572    66.1630
 3683.3380     3.1264     2.9135     1.0000    78.6680    65.7074
 3683.8380     3.8174     3.3143     1.0897    79.5048    65.2498
 3684.3380     4.0997     3.6647     0.9254    81.3184    65.1033
 3684.8380     4.0420     3.8249     0.7542    85.9421    64.9568
 3685.3380     3.2873     2.9353     0.6204    87.5825    64.8103
 3685.8380     2.6927     2.6748     0.6074    85.7170    64.8216
 3686.3380     2.6172     2.5261     0.6633    85.0990    64.9862
 3686.8380     2.6560     2.4201     0.6667    85.1068    65.3228
 3687.3380     2.7156     2.3186     0.6574    84.8031    65.9396
 3687.8380     2.8925     2.4205     0.6671    84.4975    66.7262
 3688.3380     3.2422     2.5841     0.7166    84.6992    67.6684
 3688.8380     3.5573     2.8924     0.7809    89.5142    68.6105
 3689.3380     3.7663     3.1777     0.7874    90.9714    69.3971
 3689.8380     3.5832     2.9164     0.6663    93.6710    69.7172
 3690.3380     3.1745     2.5458     0.6307    93.2879    69.8817
 3690.8380     2.9059     2.3364     0.6825    86.8937    69.2709
 3691.3380     2.8125     2.3034     0.8457    86.1145    68.0358
 3691.8380     2.8736     2.3705     1.0706    87.6865    66.8007
 3692.3380     3.1754     2.5141     1.2985    90.7998    66.0321
 3692.8380     3.4103     2.7751     1.3300    94.5757    65.2635
 3693.3380     3.3383     2.8355     1.1839    94.0719    64.1839
 3693.8380     3.0868     2.6353     0.8818    92.4023    63.2570
 3694.3380     2.8674     2.4056     0.8114    92.4292    62.7784
 3694.8380     2.6580     2.2719     0.7343    90.7960    61.8804
 3695.3380     2.5835     2.1922     0.6277    89.8490    61.2673
 3695.8380     2.5836     2.1611     0.6102    89.3104    60.9630
 3696.3380     2.6397     2.1925     0.6602    87.6485    61.2854
 3696.8380     2.7552     2.2889     0.7403    85.2621    61.2944
 3697.3380     2.8964     2.3387     0.7090    86.5215    61.3034
 3697.8380     2.8926     2.3922     0.6139    91.2481    61.3127
 3698.3380     2.7558     2.3728     0.6608    92.7857    61.1659
 3698.8380     2.6785     2.2570     0.7150    91.8577    61.1772
 3699.3380     2.6034     2.2092     0.9116    91.4031    61.1862
 3699.8380     2.5304     2.1625     0.8551    90.5310    61.1953
 3700.3380     2.4770     2.1472     0.6655    89.6875    61.9756
 3700.8380     2.3735     2.1168     0.6519    89.6622    61.6653
 3701.3380     2.3234     2.0412     0.6661    88.4375    62.1328
 3701.8380     2.3738     1.9993     0.6613    81.6568    62.4446
 3702.3380     2.4778     2.0139     0.5942    77.8125    62.6009
 3702.8380     2.5315     2.0431     0.5006    79.1508    62.6016
 3703.3380     2.4958     2.1177     0.4562    82.8753    62.6024
 3703.8380     2.3409     2.1483     0.5652    91.5625    62.6033
 3704.3380     2.2591     2.1029     0.7214    94.5894    62.6041
 3704.8380     2.2432     1.9860     0.7738    95.8772    62.4491
 3705.3380     2.2919     1.9439     0.8135    97.1875    62.2945
 3705.8380     2.3583     1.9581     0.8551    98.1133    61.8287
 3706.3380     2.4969     2.0151     0.7793    95.9158    61.3629
 3706.8380     2.5877     2.0887     0.7628    87.8125    60.7384
 3707.3380     2.7791     2.5160     0.9864    85.3738    59.7685
 3707.8380     3.2745     3.0307     2.1708    84.3750    59.0324
 3708.3380     4.0056     3.5732     3.4905    87.1875    59.0333
 3708.8380     4.8127     4.0358     4.8476    92.9024    58.7230
 3709.3380     5.1319     4.3386     5.2812    94.6875    57.6351
 3709.8380     5.1690     4.4300     5.1693    95.5004    56.3917
 3710.3380     4.8828     4.3053     3.3204    96.4008    55.1483
 3710.8380     4.7798     4.2748     1.6260    97.8125    54.5270
 3711.3380     4.7125     4.0663     1.6858   100.3667    54.0468
 3711.8380     4.5472     4.0375     2.9534   104.5772    53.7509
 3712.3380     4.3431     3.8406     3.7489   103.7500    53.7518
 3712.8380     3.9161     3.4997     3.1499   101.8094    53.7526
 3713.3380     3.4203     3.2964     2.4259    99.1450    53.7533
 3713.8380     2.8989     2.8239     1.7018    93.7500    53.7541
 3714.3380     2.6613     2.5549     1.0261    91.3976    53.9104
 3714.8380     2.5681     2.2950     0.7738    88.4344    54.3777
 3715.3380     2.5138     2.2625     0.6756    86.1617    55.1639
 3715.8380     2.9830     2.5012     0.7467    85.5369    55.8586
 3716.3380     4.5636     3.2364     1.4640    83.4375    57.1795
 3716.8380     6.1662     3.7648     4.8563    82.8511    57.4912
 3717.3380     8.0355     7.9535     8.2487    87.6920    56.8699
 3717.8380     8.8160     8.5675    10.4066    90.3125    56.7151
 3718.3380     8.1512     8.6915    10.4066    91.7015    56.3886
 3718.8380     7.6995     7.6417     9.7589    92.8125    55.1616
 3719.3380     7.3772     6.9634     9.4842    93.1250    54.5403
 3719.8380     6.6292     6.3452     8.9576    93.1250    53.7635
 3720.3380     6.2127     5.7819     7.7656    92.5000    52.9866
 3720.8380     5.5473     5.3387     5.7127    96.8750    52.5208
 3721.3380     4.4474     4.5665     5.0567    99.3535    52.3660
 3721.8380     4.2310     4.0727     4.9173   104.0625    52.2113
 3722.3380     4.0539     3.8740     4.8476   104.9395    51.5899
 3722.8380     3.9682     3.7114     4.7111   106.4761    51.5909
 3723.3380     3.9967     3.6070     4.8131   105.6250    51.5916
 3723.8380     4.1124     3.5305     4.9173   103.2348    51.5924
 3724.3380     4.1124     3.4807     4.4179    99.4853    51.7487
 3724.8380     4.0162     3.4315     2.8991    98.9384    52.2160
 3725.3380     3.5156     3.3111     1.6121   102.1806    52.9943
 3725.8380     3.2045     3.1496     1.3851   106.8750    53.7727
 3726.3380     3.0269     3.0174     1.3409   102.0323    54.7141
 3726.8380     2.8187     2.8702     1.4924    97.4195    55.6630
 3727.3380     2.6625     2.7107     1.5248    93.8518    56.5745
 3727.8380     2.5693     2.5600     1.2133    93.1250    57.5084
 3728.3380     2.4789     2.4702     0.8990    93.4375    57.9757
 3728.8380     2.4072     2.3989     0.8193    92.5740    58.4431
 3729.3380     2.3927     2.3000     0.7793    92.1875    58.9104
 3729.8380     2.4619     2.3333     0.7683    95.9375    59.5332
 3730.3380     2.6628     2.5610     0.8737    96.2500    60.0005
 3730.8380     2.8801     2.8719     1.2938    96.7014    60.4679
 3731.3380     3.1151     2.9981     1.5357    98.1250    60.9354
 3731.8380     3.1201     2.9770     1.6029   100.3125    60.7806
 3732.3380     2.7588     2.7517     1.1961    98.7069    60.6256
 3732.8380     2.6228     2.5255     1.0150    97.1875    60.1600
 3733.3380     2.6067     2.4545     0.9450    96.2360    59.5387
 3733.8380     2.6442     2.4371     0.9383    95.3125    59.0727
 3734.3380     2.6822     2.5261     1.0927    96.2941    59.0736
 3734.8380     2.7015     2.5263     1.3031    99.9846    59.0744
 3735.3380     2.6823     2.4905     1.2938   103.7500    59.0753
 3735.8380     2.6256     2.4730     1.0296   107.5303    59.2316
 3736.3380     2.6070     2.4555     0.9586   109.9818    59.0768
 3736.8380     2.7040     2.5753     1.0670   112.1875    58.9219
 3737.3380     2.9013     2.7936     1.8941   111.7488    58.9228
 3737.8380     3.0937     2.8749     2.9671   109.0625    58.6125
 3738.3380     3.0499     2.9166     2.9207   109.0625    57.6802
 3738.8380     2.9015     2.7743     1.8083   109.2536    57.0588
 3739.3380     2.7801     2.6014     1.1290   108.7325    56.7486
 3739.8380     2.6828     2.5817     1.0519   107.7071    56.1274
 3740.3380     2.9017     2.6806     1.8333   104.3726    55.5061
 3740.8380     3.0988     3.1793     3.0636    97.1875    55.3511
 3741.3380     4.1740     3.4647     4.2939    94.6322    55.1964
