~VERSION INFORMATION
 VERS.               2.10:   CWLS LOG ASCII STANDARD - VERSION 2.10
 WRAP.                 NO:   ONE LINE PER DEPTH STEP
~WELL INFORMATION
#MNEM.UNIT      DATA TYPE    INFORMATION
#----------   ------------   ------------------------------
 STRT.F         2389.7727:   START DEPTH
 STOP.F         5660.0845:   STOP DEPTH
 STEP.F            0.5000:   STEP LENGTH
 NULL.          -999.2500:   NO VALUE
 COMP. Lawrence Allison and Associates:   COMPANY
 WELL.            43 X 10:   WELL
 FLD .           N.P.R. 3:   FIELD
 LOC . 10-38N-78W-NATRONA-WY:   LOCATION
 STAT.                 WY:   STATE
 COUN.            Natrona:   COUNTY
 SRVC.      Dresser Atlas:   SERVICE COMPANY
 DATE.                   :   LOGDATE
 APIN.         4902511207:   API NUMBER
~CURVE INFORMATION
#MNEM.UNIT       API CODE    CURVE DESCRIPTION
#----------   ------------   ------------------------------
 DEPT.F                  :
 DPHI.none   42 890 12 00:   Den. Porosity, Ss [%]
 NPHI.none   42 890 03 00:   Neu. Porosity, Ss [%]
 RHOB.gm/cc  42 350 01 00:   Bulk Density
 GR  .GAPI   42 310 00 00:   Gamma Ray
~PARAMETER INFORMATION
#MNEM.UNIT          VALUE    DESCRIPTION
#----------   ------------   ------------------------------
 EKB .F         5215.0000:   Kelly bushing
 EGL .F         5203.0000:   Ground level
 EDF .F            0.0000:   Drilling floor
 EPD .F           10.0000:   Permanent datum
 TD  .F         3458.0000:   Total depth
 NRUN.             1.0000:   Number of Runs
#--RUN 1---   ------------   The following are for Run 1---
 RUN .             1.0000:   Run 1
 DATE.mm/dd/yyyy 02/19/1985:   Date Logged
 DD  .ft             5650:   Depth Driller
 DL  .ft             5649:   Depth Logger
 BLI .ft             5647:   Bottom Log Interval
 TLI .ft             2400:   Top Log Interval
 CSS .inch          9.625:   Casing Size
 CTD1.ft              510:   Casing Driller 1
 CTL1.ft       not logged:   Casing Logger 1
 BS  .inch            8.5:   Bit Size
 DFT .            kcl gel:   Type Fluid In Hole
 DFD .lb/gal          9.5:   Mud Weight
 DFV .sec              44:   Viscosity
 DFPH.                8.5:   pH
 DFL .cc              9.0:   Fluid Loss
 WSS .           flowline:   Source Of Sample
 RM  .ohmm            .32:   Rm
 EMT .F                74:   Rm Meas. Temp.
 RMF .ohmm            .26:   Rmf
 MFT .F                74:   Rmf Meas. Temp.
 RMC .ohmm            .40:   Rmc
 MCST.F                74:   Rmc Meas. Temp.
 MFSS.               meas:   Source Rmf.
 MCSS.               calc:   Source Rmc.
 RMB .ohmm            .14:   Rm. At BHT
 BHT .F               164:   BHT.
 TCS .hh:mm        8 hrs.:   Time Circ. Stopped
 MRT .F               170:   Maximum Recorded Temp.
 LUL .               Glte:   Logging Unit Location
 ENGI.               Mack:   Recorded By
 WITN.         Mr. Strong:   Witnessed By
 DGBY.              Burke:   Digitized By
~T 2 Tops
First Wall Creek                 2512.0
Second Wall Creek                2912.0
~OTHER INFORMATION
# Density Matrix = 2.65
# Neutron Matrix = Sandstone
~A  DEPTH     DPHI       NPHI       RHOB         GR
# ...
 2827.7730     6.4101    22.5450     2.5417    99.8609
 2828.2730     6.6567    23.3830     2.5339   102.3398
 2828.7730     7.4538    23.3898     2.5292   105.4501
 2829.2730     7.2452    23.2094     2.5354   108.5605
 2829.7730     6.9683    23.1997     2.5307   109.7899
 2830.2730     7.3911    27.0037     2.5245   111.0194
 2830.7730    12.4633   -46.2629     2.4609   113.5028
 2831.2730    19.2804   -50.1314     2.3385   114.7323
 2831.7730    26.0974  -999.2500     2.2162   114.6320
 2832.2730   -49.5934  -999.2500     2.1259   109.3777
 2832.7730  -999.2500    22.2326     2.1887   104.3545
 2833.2730    25.2332    21.8912     2.3015   101.2210
 2833.7730    18.9945    21.8346     2.4144   100.0319
 2834.2730    12.7559    21.9024     2.5184    99.3471
 2834.7730     6.4380    22.0380     2.5382    98.8829
 2835.2730     6.3758    22.2928     2.5372    97.7270
 2835.7730     6.1746    22.2603     2.5435    96.3249
 2836.2730     6.0767    21.0240     2.5443    97.8710
 2836.7730     6.3738    20.2389     2.5396    98.4333
 2837.2730     6.7963    20.1998     2.5318    96.2449
 2837.7730     6.8521    20.3461     2.5287   101.8631
 2838.2730     6.4526    20.7058     2.5348   107.4812
 2838.7730     6.0167    21.4161     2.5426   109.3377
 2839.2730     5.7222    22.1477     2.5472   108.6863
 2839.7730     5.4795    22.2774     2.5470   109.9157
 2840.2730     5.4200    22.6551     2.5533   111.7722
 2840.7730     5.3610    22.7848     2.5564   108.6129
 2841.2730     5.0571    22.6664     2.5543   106.6929
 2841.7730     5.1871    22.5480     2.5398   106.0553
 2842.2730     5.7208    22.6157     2.5315   106.8927
 2842.7730     6.7357    22.6937     2.5306   110.1004
 2843.2730     6.8539    23.2708     2.5242   112.9682
 2843.7730     6.9217    24.3081     2.5172   118.9750
 2844.2730     7.3559    25.7522     2.4958   127.0534
 2844.7730     9.4320    27.1963     2.4384   135.1318
 2845.2730    11.7846    28.1708     2.3778   144.1214
 2845.7730    14.1372    26.6880     2.3654   151.6205
 2846.2730    16.4530    22.8487     2.3793   151.5961
 2846.7730    14.2828    22.2962     2.4337   149.0638
 2847.2730    11.2812    21.6197     2.5010   125.3530
 2847.7730     8.2797    21.7493     2.5282   113.8533
 2848.2730     5.6361    21.9466     2.5544   109.6011
 2848.7730     5.3311    22.1330     2.5528   108.2120
 2849.2730     5.4241    22.1388     2.5466   108.1870
 2849.7730     5.6822    21.5438     2.5449   108.1619
 2850.2730     6.1941    21.2642     2.5417   104.9973
 2850.7730     6.4407    21.0547     2.5369   102.4650
 2851.2730     6.5037    20.4832     2.5325    99.9328
 2851.7730     6.4445    19.9412     2.5329    99.7691
 2852.2730     6.3241    19.3450     2.5376   100.5108
 2852.7730     6.1422    18.8318     2.5408   101.1149
 2853.2730     5.8899    18.8375     2.5439   100.4619
 2853.7730     5.6993    19.0912     2.5463    99.1836
 2854.2730     5.5978    21.1433     2.5438    99.1587
 2854.7730     5.6799    20.9009     2.5369    99.1337
 2855.2730     5.9401    20.5965     2.5276    99.2783
 2855.7730     6.5842    20.1680     2.5198   101.3168
 2856.2730     7.5957    19.8015     2.5198   105.6280
 2856.7730     6.8927    19.8692     2.5228   107.1874
 2857.2730     6.4665    19.5270     2.5321   100.4419
 2857.7730     6.1626    19.0430     2.5383    93.6070
 2858.2730     5.9199    18.3813     2.5400    90.5284
 2858.7730     5.4937    18.2793     2.5549    89.2167
 2859.2730     3.9054    18.2612     2.5792    89.2209
 2859.7730     3.5300    18.4400     2.5853    91.3545
 2860.2730     3.2364    19.7183     2.5881    93.8379
 2860.7730     3.2512    21.3092     2.5893   103.2178
 2861.2730     3.4757    22.4034     2.5838   106.9551
 2861.7730     3.8148    21.1687     2.5783    99.4072
 2862.2730     3.9173    20.4302     2.5776    99.3827
 2862.7730     3.9503    20.3526     2.5736    99.3583
 2863.2730     5.7777    21.6291     2.5658   101.2147
 2863.7730     9.7850    23.6573     2.5240   117.5261
 2864.2730    13.7923    25.6854     2.4114   121.7615
 2864.7730    17.7995    27.9632     2.3177   138.3058
 2865.2730    19.6195    27.6588     2.2983   154.8501
 2865.7730    15.3464    25.1208     2.3341   168.6574
 2866.2730    11.0732    22.3218     2.4195   163.7558
 2866.7730     6.8000    19.4906     2.5191   140.0498
 2867.2730     4.8488    19.0621     2.5485   110.6965
 2867.7730     4.1230    18.8817     2.5578    85.9395
 2868.2730     3.8803    18.9493     2.5671    84.0342
 2868.7730     4.6773    19.2030     2.5733    84.6367
 2869.2730     5.5355    19.2106     2.5624    83.9853
 2869.7730     6.2102    19.0266     2.5499    83.9608
 2870.2730     6.7014    18.9099     2.5388    86.4917
 2870.7730     6.9555    19.1494     2.5277    88.9276
 2871.2730     7.2629    19.9541     2.5217    87.4179
 2871.7730     7.4034    21.0353     2.5188    85.7418
 2872.2730     7.5044    20.2349     2.5172    86.4855
 2872.7730     7.3204    20.0060     2.5172    88.7215
 2873.2730     6.5863    19.9945     2.5311    92.9752
 2873.7730     5.7391    21.5047     2.5440    96.0007
 2874.2730     5.4595    21.8456     2.5528    99.9517
 2874.7730     5.9245    21.9402     2.5468   103.7329
 2875.2730     6.3546    22.1319     2.5372   108.5618
 2875.7730     7.7020    23.3456     2.5201   114.3423
 2876.2730    13.4727    25.0933     2.4681   118.7405
 2876.7730    28.0120    26.8409     2.3488   132.5092
 2877.2730    27.8916    28.5885     2.2294   139.3813
 2877.7730    27.1596    29.7880     2.1397   146.8804
 2878.2730    24.5055    28.8964     2.1248   165.0418
 2878.7730    20.4713    26.9760     2.1900   159.3340
 2879.2730    16.4371    25.5811     2.3025   136.6385
 2879.7730    12.4028    24.1863     2.4150   113.9430
 2880.2730     9.3101    22.7915     2.4785    97.1950
 2880.7730     9.3042    21.5137     2.4934    96.5757
 2881.2730     9.3751    21.2092     2.4914    96.6479
 2881.7730     9.4382    21.0288     2.4977    97.7820
 2882.2730     8.3885    21.1585     2.5104    98.5440
 2882.7730     8.2800    21.8463     2.5050    98.9870
 2883.2730     8.7254    21.8519     2.5026    99.1853
 2883.7730     8.7734    21.1537     2.5053   104.9865
 2884.2730     8.4951    20.9330     2.5211   108.6044
 2884.7730     7.3838    21.4395     2.5366   108.5901
 2885.2730     6.7216    21.9883     2.5370   105.9389
 2885.7730     6.8245    22.1902     2.5195   103.8438
 2886.2730     7.2546    22.1103     2.5133   106.3271
 2886.7730     7.7458    21.7117     2.5101   109.4375
 2887.2730     8.1147    21.5561     2.5147   113.1748
 2887.7730     7.7496    21.4341     2.5194   112.5234
 2888.2730     7.5069    20.9809     2.5209   109.9911
 2888.7730     7.8937    20.8617     2.5206   107.4588
 2889.2730     8.3943    21.6124     2.5158   114.3309
 2889.7730     8.6138    22.2833     2.5076   117.4413
 2890.2730     8.5182    23.0396     2.5068   118.0438
 2890.7730     8.3727    23.7958     2.5099   115.1656
 2891.2730     8.3139    24.4257     2.5098   109.8755
 2891.7730     8.3771    24.2567     2.5083   105.1268
 2892.2730     8.4406    23.4115     2.5041   104.1493
 2892.7730     8.9318    22.4134     2.4973   104.7554
 2893.2730     9.4842    21.2873     2.4880   105.6012
 2893.7730     9.9143    21.0448     2.4802   108.6097
 2894.2730    10.2220    21.4226     2.4755   111.8854
 2894.7730    10.4074    22.2964     2.4724   112.8014
 2895.2730    10.4093    22.8602     2.4739   112.1445
 2895.7730    10.3350    22.9279     2.4786   103.9695
 2896.2730     9.9865    22.6854     2.4847   100.8103
 2896.7730     8.9249    22.1918     2.4974    98.9050
 2897.2730     8.5611    21.7201     2.5038   102.0153
 2897.7730     8.4621    20.4698     2.5097   102.6196
 2898.2730     8.4641    21.0639     2.5125   101.3395
 2898.7730     8.4661    21.8180     2.5094    98.1802
 2899.2730     8.2849    21.7693     2.5114    96.9017
 2899.7730     8.0422    21.7092     2.5158    97.5889
 2900.2730     7.7914    21.4999     2.5232   103.1226
