~VERSION INFORMATION
 VERS.               2.10:   CWLS LOG ASCII STANDARD - VERSION 2.10
 WRAP.                 NO:   ONE LINE PER DEPTH STEP
~WELL INFORMATION
#MNEM.UNIT      DATA TYPE    INFORMATION
#----------   ------------   ------------------------------
 STRT.F         2389.7727:   START DEPTH
 STOP.F         5660.0845:   STOP DEPTH
 STEP.F            0.5000:   STEP LENGTH
 NULL.          -999.2500:   NO VALUE
 COMP. Lawrence Allison and Associates:   COMPANY
 WELL.            43 X 10:   WELL
 FLD .           N.P.R. 3:   FIELD
 LOC . 10-38N-78W-NATRONA-WY:   LOCATION
 STAT.                 WY:   STATE
 COUN.            Natrona:   COUNTY
 SRVC.      Dresser Atlas:   SERVICE COMPANY
 DATE.                   :   LOGDATE
 APIN.         4902511207:   API NUMBER
~CURVE INFORMATION
#MNEM.UNIT       API CODE    CURVE DESCRIPTION
#----------   ------------   ------------------------------
 DEPT.F                  :
 DPHI.none   42 890 12 00:   Den. Porosity, Ss [%]
 NPHI.none   42 890 03 00:   Neu. Porosity, Ss [%]
 RHOB.gm/cc  42 350 01 00:   Bulk Density
 GR  .GAPI   42 310 00 00:   Gamma Ray
~PARAMETER INFORMATION
#MNEM.UNIT          VALUE    DESCRIPTION
#----------   ------------   ------------------------------
 EKB .F         5215.0000:   Kelly bushing
 EGL .F         5203.0000:   Ground level
 EDF .F            0.0000:   Drilling floor
 EPD .F           10.0000:   Permanent datum
 TD  .F         3458.0000:   Total depth
 NRUN.             1.0000:   Number of Runs
#--RUN 1---   ------------   The following are for Run 1---
 RUN .             1.0000:   Run 1
 DATE.mm/dd/yyyy 02/19/1985:   Date Logged
 DD  .ft             5650:   Depth Driller
 DL  .ft             5649:   Depth Logger
 BLI .ft             5647:   Bottom Log Interval
 TLI .ft             2400:   Top Log Interval
 CSS .inch          9.625:   Casing Size
 CTD1.ft              510:   Casing Driller 1
 CTL1.ft       not logged:   Casing Logger 1
 BS  .inch            8.5:   Bit Size
 DFT .            kcl gel:   Type Fluid In Hole
 DFD .lb/gal          9.5:   Mud Weight
 DFV .sec              44:   Viscosity
 DFPH.                8.5:   pH
 DFL .cc              9.0:   Fluid Loss
 WSS .           flowline:   Source Of Sample
 RM  .ohmm            .32:   Rm
 EMT .F                74:   Rm Meas. Temp.
 RMF .ohmm            .26:   Rmf
 MFT .F                74:   Rmf Meas. Temp.
 RMC .ohmm            .40:   Rmc
 MCST.F                74:   Rmc Meas. Temp.
 MFSS.               meas:   Source Rmf.
 MCSS.               calc:   Source Rmc.
 RMB .ohmm            .14:   Rm. At BHT
 BHT .F               164:   BHT.
 TCS .hh:mm        8 hrs.:   Time Circ. Stopped
 MRT .F               170:   Maximum Recorded Temp.
 LUL .               Glte:   Logging Unit Location
 ENGI.               Mack:   Recorded By
 WITN.         Mr. Strong:   Witnessed By
 DGBY.              Burke:   Digitized By
~T 2 Tops
First Wall Creek                 2512.0
Second Wall Creek                2912.0
~OTHER INFORMATION
# Density Matrix = 2.65
# Neutron Matrix = Sandstone
~A  DEPTH     DPHI       NPHI       RHOB         GR
# ...
 4725.7720    -2.2591    10.7546     2.6810    68.3784
 4726.2720    -2.3808    10.7764     2.6841    64.5963
 4726.7720    -2.4419    10.8862     2.6856    62.7329
 4727.2720    -2.2610    10.8612     2.6825    62.5633
 4727.7720    -1.7001    10.7637     2.6762    64.5963
 4728.2720    -1.0199    10.7255     2.6688    66.4596
 4728.7720    -0.3396    10.9048     2.6634    67.0807
 4729.2720     0.4593    11.7054     2.6575    67.0807
 4729.7720     1.0032    12.4440     2.6389    65.8385
 4730.2720     1.1841    13.2586     2.6265    64.5963
 4730.7720     1.0625    14.1512     2.6265    65.9192
 4731.2720     0.6382    15.0439     2.6377    72.2856
 4731.7720     0.1436    15.9365     2.6500    87.5502
 4732.2720    -0.6399    16.8291     2.6564   102.8148
 4732.7720    -1.3873    18.0521     2.6642   114.9068
 4733.2720    -1.5798    17.6124     2.6680   115.5280
 4733.7720    -1.7955    16.5040     2.6754   116.1491
 4734.2720    -2.1779    15.2421     2.6833   114.7748
 4734.7720    -2.2107    13.9803     2.6835   108.2539
 4735.2720    -2.0300    12.5117     2.6795    98.3132
 4735.7720    -1.9095    11.2885     2.6781    87.5370
 4736.2720    -1.8497    10.9567     2.6818    76.3975
 4736.7720    -1.9109    10.8127     2.6864    73.2919
 4737.2720    -2.0326    10.9750     2.6880    70.7907
 4737.7720    -2.3390    11.4545     2.6833    70.1863
 4738.2720    -0.3693    11.8484     2.6639    70.8838
 4738.7720     0.4389    13.7223     2.6428    73.0997
 4739.2720     0.7061    16.0440     2.6289    77.2931
 4739.7720     0.6637    18.1807     2.6307    86.9723
 4740.2720     0.1319    18.4954     2.6402   105.5291
 4740.7720    -0.5308    18.6432     2.6492   110.6193
 4741.2720    -0.7068    18.2789     2.6520   114.1776
 4741.7720    -0.7075    17.3222     2.6520   115.1944
 4742.2720    -0.7082    16.8872     2.6535   115.2106
 4742.7720    -0.7088    17.1297     2.6534   112.3491
 4743.2720    -0.7700    17.8683     2.6534   106.8323
 4743.7720    -0.8312    18.2968     2.6549   100.6211
 4744.2720    -0.9173    18.4773     2.6642   100.4370
 4744.7720    -1.2089    18.7861     2.6688   105.5901
 4745.2720    -1.3356    18.8383     2.6688   109.3168
 4745.7720    -1.3784    18.3084     2.6687   111.1801
 4746.2720    -1.1692    17.6120     2.6671   109.9379
 4746.7720    -1.1983    17.4949     2.6640   108.0745
 4747.2720    -1.2210    17.4789     2.6578   105.5901
 4747.7720    -1.1997    17.6699     2.6484   100.5945
 4748.2720    -0.8373    18.5539     2.6484   101.4683
 4748.7720    -0.1118    20.1608     2.6499   106.8932
 4749.2720    -0.1125    20.6513     2.6465   113.8969
 4749.7720    -0.0495    21.2039     2.6436   115.6739
 4750.2720     0.0072    21.8806     2.6436   115.3513
 4750.7720    -0.0068    20.7928     2.6472   114.7000
 4751.2720    -0.1152    19.5483     2.6503   111.7125
 4751.7720    -0.3906    19.1543     2.6550   108.4292
 4752.2720    -0.9887    18.9233     2.6622   107.4534
 4752.7720    -1.2734    18.8138     2.6765   107.7795
 4753.2720    -2.1755    20.0381     2.6883   109.0521
 4753.7720    -3.2049    20.1601     2.7038   110.5590
 4754.2720    -3.5082    19.1044     2.6975   110.5590
 4754.7720    -3.3878    17.3004     2.6898   110.5590
 4755.2720    -2.5412    15.4963     2.6866   109.3168
 4755.7720    -2.2361    14.8086     2.6819   104.9689
 4756.2720    -2.0421    14.3069     2.6742    98.1366
 4756.7720    -1.7432    13.5953     2.6710    88.8199
 4757.2720    -1.5573    12.9731     2.6778    83.8509
 4757.7720    -1.4087    12.9258     2.6864    85.7143
 4758.2720    -1.6265    13.8281     2.6880    85.0577
 4758.7720    -2.0079    14.6801     2.6870    81.3665
 4759.2720    -2.1066    15.6367     2.6822    85.5735
 4759.7720    -1.9422    16.6837     2.6801    90.4403
 4760.2720    -2.1850    17.2362     2.6877    95.8058
 4760.7720    -2.4277    17.2306     2.6892    98.9435
 4761.2720    -2.4889    16.5429     2.6798    98.7578
 4761.7720    -2.4537    16.5329     2.6784    97.5155
 4762.2720    -1.7035    16.7803     2.6799    97.7914
 4762.7720    -1.7647    16.8983     2.6737    99.6851
 4763.2720    -1.8443    16.6475     2.6659   100.9566
 4763.7720    -1.6355    15.2451     2.6581   102.2292
 4764.2720    -1.1976    14.5207     2.6488   101.2422
 4764.7720    -0.6047    14.2018     2.6549    96.8944
 4765.2720    -0.8606    13.9076     2.6662    91.3043
 4765.7720    -1.4663    13.0633     2.6781    85.0932
 4766.2720    -1.8906    13.5258     2.6714    85.7143
 4766.7720    -1.7097    15.4747     2.6672    87.5776
 4767.2720    -1.4683    16.1015     2.6671    88.8199
 4767.7720    -1.3479    16.1566     2.6733    90.0621
 4768.2720    -1.7449    17.5774     2.6828    90.0621
 4768.7720    -2.2495    18.0059     2.6908    90.7286
 4769.2720    -2.5969    17.2265     2.7003    92.6206
 4769.7720    -3.1486    15.2081     2.7050    94.4099
 4770.2720    -3.4373    12.9030     2.7026    92.8982
 4770.7720    -3.5640    12.2152     2.6994    84.4348
 4771.2720    -3.4708    12.2022     2.6994    78.4915
 4771.7720    -3.2294    12.8242     2.7118    75.5517
 4772.2720    -3.6537    14.3669     2.7133    75.1553
 4772.7720    -4.0174    15.9410     2.7086    78.7801
 4773.2720    -4.2601    17.0935     2.6822    82.3111
 4773.7720    -4.0496    19.0016     2.6667    94.6084
 4774.2720    -2.8575    19.9263     2.6604   108.0745
 4774.7720    -1.5996    19.9833     2.6588   110.5590
 4775.2720    -1.0556    20.6593     2.6557   111.8012
 4775.7720    -0.8682    21.3979     2.6526   111.8012
 4776.2720    -0.6775    21.8299     2.6479   113.6646
 4776.7720    -0.0832    21.8829     2.6352   114.2857
 4777.2720     0.4067    20.8679     2.6242   113.6646
 4777.7720     0.9756    19.8553     2.6199   111.8012
 4778.2720     1.3645    18.3243     2.6413   105.5901
 4778.7720     0.9573    16.8405     2.6461    98.0398
 4779.2720     0.3307    15.6463     2.6456    94.9230
 4779.7720     0.1849    13.4745     2.6423    93.0839
 4780.2720     1.5397    12.1666     2.6377    91.4668
 4780.7720     1.7811    10.4866     2.6195    78.1632
 4781.2720     2.0830     9.9229     2.6127    72.0765
 4781.7720     2.0530     9.5453     2.6258    65.0135
 4782.2720     1.3996     9.2768     2.6552    63.5069
 4782.7720     1.1335     9.0074     2.6629    60.9613
 4783.2720     0.7543     8.7683     2.6644    58.7112
 4783.7720    -0.7465     8.6538     2.6830    56.1428
 4784.2720    -1.0963     9.1237     2.6891    56.9646
 4784.7720    -1.9818     9.6349     2.6907    59.6273
 4785.2720    -2.4612    10.2476     2.6884    60.2484
 4785.7720    -2.4788    11.1103     2.6590    62.1118
 4786.2720    -1.0706    11.2907     2.6451    65.8385
 4786.7720    -0.2846    11.0991     2.6409    65.2174
 4787.2720     0.0173    11.0315     2.6468    63.9752
 4787.7720     0.0036    11.1513     2.6553    62.1118
 4788.2720    -0.4408    11.4042     2.6578    60.2484
 4788.7720    -0.6503    12.0462     2.6400    62.7484
 4789.2720     0.4168    14.4156     2.6236    67.8382
 4789.7720     1.7550    15.0554     2.6150    74.2975
 4790.2720     2.0064    15.0899     2.6174    90.2476
 4790.7720     1.9695    14.9221     2.6235    92.5466
 4791.2720     1.2826    13.9608     2.6313    91.4653
 4791.7720     0.0111    13.8933     2.6421    88.0147
 4792.2720    -0.0501    14.1978     2.6405    86.3354
 4792.7720    -0.0507    14.6883     2.6498    86.5787
 4793.2720    -0.1119    14.8068     2.6668    87.8515
 4793.7720    -0.7880    14.2795     2.6698    90.6695
 4794.2720    -1.1064    13.0080     2.6714    91.5919
 4794.7720    -1.3980    12.3085     2.6711    84.5602
 4795.2720    -1.3671    11.8154     2.6697    76.3975
 4795.7720    -1.4095    11.4449     2.6669    70.8075
 4796.2720    -1.2410    11.0954     2.6532    75.7764
 4796.7720    -0.8637    10.7299     2.6464    76.3975
 4797.2720    -0.1779    10.7283     2.6470    77.6398
 4797.7720    -0.0576    10.8468     2.6478    74.5342
 4798.2720     0.0023    11.8955     2.6438    73.2919
