~VERSION INFORMATION
 VERS.               2.10:   CWLS LOG ASCII STANDARD - VERSION 2.10
 WRAP.                 NO:   ONE LINE PER DEPTH STEP
~WELL INFORMATION
#MNEM.UNIT      DATA TYPE    INFORMATION
#----------   ------------   ------------------------------
 STRT.F         2398.5081:   START DEPTH
 STOP.F         5645.6445:   STOP DEPTH
 STEP.F            0.5000:   STEP LENGTH
 NULL.          -999.2500:   NO VALUE
 COMP. Lawrence Allison and Associates:   COMPANY
 WELL.          43 TPX 10:   WELL
 FLD .           N.P.R. 3:   FIELD
 LOC . 10-38N-78W-NATRONA-WY:   LOCATION
 STAT.                 WY:   STATE
 COUN.            Natrona:   COUNTY
 SRVC.      Dresser Atlas:   SERVICE COMPANY
 DATE.                   :   LOGDATE
 APIN.         4902511207:   API NUMBER
~CURVE INFORMATION
#MNEM.UNIT       API CODE    CURVE DESCRIPTION
#----------   ------------   ------------------------------
 DEPT.F                  :
 DT  .us/f   60 520 00 00:   Delta t
 GR  .API    60 310 00 00:   Gamma Ray
 PORA.None               :   Porosity
~PARAMETER INFORMATION
#MNEM.UNIT          VALUE    DESCRIPTION
#----------   ------------   ------------------------------
 EKB .F         5215.0000:   Kelly bushing
 EGL .F         5203.0000:   Ground level
 EDF .F            0.0000:   Drilling floor
 EPD .F           10.0000:   Permanent datum
 TD  .F         3340.0000:   Total depth
 NRUN.             1.0000:   Number of Runs
#--RUN 1---   ------------   The following are for Run 1---
 RUN .             1.0000:   Run 1
 DATE.mm/dd/yyyy 02/19/1985:   Date Logged
 DD  .ft             5650:   Depth Driller
 DL  .ft             5649:   Depth Logger
 BLI .ft             5640:   Bottom Log Interval
 TLI .ft             2440:   Top Log Interval
 CSS .inch          9.625:   Casing Size
 CTD1.ft              510:   Casing Driller 1
 BS  .inch            8.5:   Bit Size
 DFT .            kcl gel:   Type Fluid In Hole
 DFD .lb/gal          9.5:   Mud Weight
 DFV .sec              44:   Viscosity
 DFPH.                8.5:   pH
 DFL .cc              9.0:   Fluid Loss
 WSS .           flowline:   Source Of Sample
 RM  .ohmm            .32:   Rm
 EMT .F                74:   Rm Meas. Temp.
 RMF .ohmm            .26:   Rmf
 MFT .F                74:   Rmf Meas. Temp.
 RMC .ohmm            .40:   Rmc
 MCST.F                74:   Rmc Meas. Temp.
 MFSS.               meas:   Source Rmf.
 MCSS.               calc:   Source Rmc.
 RMB .ohmm            .14:   Rm. At BHT
 BHT .F               164:   BHT.
 TCS .hh:mm        11 hrs:   Time Circ. Stopped
 MRT .F               164:   Maximum Recorded Temp.
 LUL .              Gltte:   Logging Unit Location
 ENGI.               Mack:   Recorded By
 WITN.          Mr. Strog:   Witnessed By
 DGBY.              Burke:   Digitized By
~T 1 Tops
First Wall Creek                 2512.0
~OTHER INFORMATION
# Repeat recorded off depth.
~A  DEPTH       DT         GR       PORA
# ...
 3490.5080    90.0933    84.2004    28.2744
 3491.0080    94.7830    83.4650   -50.0947
 3491.5080    99.7631    83.2264   -44.4483
 3492.0080    99.9017    86.7517   -43.7044
 3492.5080    93.6081    91.0241   -47.2584
 3493.0080    89.3978    93.7943    28.3664
 3493.5080    88.6533    91.1552    27.0751
 3494.0080    89.1150    89.3187    27.1981
 3494.5080    89.8095    90.5904    27.9417
 3495.0080    90.7367    92.1086    28.8094
 3495.5080    91.0432    95.8802    29.1496
 3496.0080    91.3498    97.8992    29.4277
 3496.5080    92.3885   100.6693  -999.2500
 3497.0080    94.4445   103.1902   -48.7750
 3497.5080    95.2166   105.3024   -48.3728
 3498.0080    94.7474   112.2386   -48.7153
 3498.5080    92.1059   115.2591   -49.8026
 3499.0080    89.3093   116.2765    27.8766
 3499.5080    88.2970   109.7821    26.6650
 3500.0080    87.9053   104.7900    26.5400
 3500.5080    88.2986    93.4588    27.0352
 3501.0080    89.0050    83.2524    27.4686
 3501.5080    89.0080    81.7632    27.4055
 3502.0080    88.9341    82.0199    27.4044
 3502.5080    89.1730    91.4964    27.4684
 3503.0080    90.4193    93.9946    28.5191
 3503.5080    91.2000    90.7608    28.9525
 3504.0080    91.2049    89.7684    29.0448
 3504.5080    91.0460    93.2651    28.8883
 3505.0080    90.5179   104.5025    28.4528
 3505.5080    90.0573   105.9876    28.1414
 3506.0080    89.7507   105.4965    28.0162
 3506.5080    89.9897   104.5057    28.1390
 3507.0080    90.3049   103.7625    28.3862
 3507.5080    90.3099   105.0162    28.2920
 3508.0080    89.3075   105.7699    27.8254
 3508.5080    86.5440   108.0189    26.1797
 3509.0080    82.3265   109.2818    24.0500
 3509.5080    78.1091   109.1490    21.7949
 3510.0080    75.7505   102.0572    19.5399
 3510.5080    76.7652    91.2595    17.6105
 3511.0080    80.8838    80.3856    18.5295
 3511.5080    87.6081    81.6392    22.5866
 3512.0080    94.3324    84.1375    28.6641
 3512.5080   101.0567    89.6264  -999.2500
 3513.0080   107.7810   102.7604   -37.2919
 3513.5080   112.6371   116.5320   -35.4294
 3514.0080   110.6213   130.3037   -39.5577
 3514.5080    98.8821   138.0921     6.7501
 3515.0080    86.1981   137.0106    26.2746
 3515.5080    85.1933   128.7383    24.5489
 3516.0080    86.2856   118.6310    25.4181
 3516.5080    88.5414   108.5237    26.5963
 3517.0080    90.7964    98.6301    28.2089
 3517.5080    91.4995    97.1649    28.9215
 3518.0080    91.5821   106.8920    29.3859
 3518.5080    91.6646   111.1348    29.4159
 3519.0080    91.9023   115.1284    29.6353
 3519.5080    92.8455   115.8821  -999.2500
 3520.0080    94.0081   117.1343   -49.4704
 3520.5080    94.4785   118.8848   -48.5405
 3521.0080    94.7938   120.9463   -48.2623
 3521.5080    94.4884   122.6367   -48.2979
 3522.0080    93.7175   124.1381   -49.1646
 3522.5080    92.3261   123.8949   -50.0035
 3523.0080    90.9161   122.4056    29.4682
 3523.5080    89.6995   119.4210    27.7601
 3524.0080    89.3153   116.4364    27.6349
 3524.5080    89.3991   116.1932    27.8819
 3525.0080    89.7919   116.4487    28.2221
 3525.5080    90.1848   116.4560    28.3765
 3526.0080    90.1090   117.9574    28.3441
 3526.5080    88.7219   120.9541    27.9707
 3527.0080    87.2528   125.6953    27.3179
 3527.5080    86.4820   129.1904    25.7210
 3528.0080    86.2530   130.1934    25.2984
 3528.5080    88.1574   129.6889    26.0732
 3529.0080    91.2773   123.4780    28.4922
 3529.5080    94.3973   119.7457   -49.2016
 3530.0080    96.5933   120.2502   -47.5233
 3530.5080    95.8225   121.2531   -47.1971
 3531.0080    93.1821   119.7638   -50.0533
 3531.5080    89.9209   116.7792    28.0009
 3532.0080    86.6838   115.7883    25.5999
 3532.5080    86.2996   116.0624    25.5058
 3533.0080    87.2367   117.5465    25.6288
 3533.5080    88.4053   117.5525    27.4276
 3534.0080    89.4188   116.3124    28.0782
 3534.5080    89.7341   114.5739    28.0449
 3535.0080    89.2993   113.8308    26.9573
 3535.5080    84.5513   116.3306    24.9952
 3536.0080    79.0960   117.0843    22.2942
 3536.5080    77.9635   115.4943    20.3457
 3537.0080    77.6581   112.8611    19.8133
 3537.5080    77.7406   110.4542    19.5675
 3538.0080    78.2111   106.6720    19.5665
 3538.5080    81.1666   102.8898    19.9378
 3539.0080    85.2380    99.1077    23.4472
 3539.5080    89.7861    95.3255    28.0659
 3540.0080    90.7220    91.4638    28.6234
 3540.5080    88.8953    89.9750    27.8155
 3541.0080    82.3884   100.4498    24.8315
 3541.5080    79.7985   103.4465    21.0482
 3542.0080    79.7137   100.7111    20.3334
 3542.5080    80.7705    92.2436    20.7047
 3543.0080    82.3747    85.0223    22.1001
 3543.5080    84.4743    88.2682    23.3403
 3544.0080    87.8461    93.7927    25.2463
 3544.5080    91.6481   101.1564    28.1805
 3545.0080    95.4283   108.6407   -50.0841
 3545.5080    96.9073   114.4615   -47.4477
 3546.0080    96.4468   117.7075   -46.7661
 3546.5080    94.5898   118.7110   -47.6089
 3547.0080    92.7309   119.2150   -48.4776
 3547.5080    91.3414   119.4716   -49.9658
 3548.0080    91.2687   121.2222  -999.2500
 3548.5080    93.2920   122.7236  -999.2500
 3549.0080    96.0122   122.4804   -48.4485
 3549.5080    96.3340   122.7356   -47.5807
 3550.0080    92.9653   124.4862   -47.2404
 3550.5080    89.0461   127.7963  -999.2500
 3551.0080    88.0426   130.4796    27.1147
 3551.5080    87.7372   129.4888    26.5808
 3552.0080    86.4233   128.9964    25.8970
 3552.5080    84.1788   127.5086    24.4374
 3553.0080    83.7947   123.5378    23.7537
 3553.5080    83.9560   115.9307    23.6276
 3554.0080    85.0471   108.3235    24.1685
 3554.5080    88.3748   105.5877    25.4696
 3555.0080    89.7126   106.3565    27.3799
 3555.5080    89.6399   109.6112    28.0926
 3556.0080    88.6363   119.6791    27.8743
 3556.5080    87.5505   130.7983    27.2576
 3557.0080    88.0268   134.2934    26.5688
 3557.5080    88.9628   133.5502    27.0950
 3558.0080    92.9472   133.5692    28.6145
 3558.5080    94.8687   133.0453   -48.5934
 3559.0080    93.6324   129.5838   -48.1501
 3559.5080    90.9996   126.2327   -49.5268
 3560.0080    90.1305   121.1944    28.4551
 3560.5080    91.8641   116.1561    28.3609
 3561.0080    92.2570   111.6353    28.8250
 3561.5080    92.8826   110.9219  -999.2500
 3562.0080    93.7409   118.4061   -49.7305
 3562.5080    96.9887   126.8857   -47.8566
 3563.0080   100.5268   127.8886   -44.8981
 3563.5080   103.3764   129.3900   -42.2433
 3564.0080   101.3153   137.1849   -42.8961
 3564.5080    94.9933   146.8475   -46.1932
 3565.0080    88.6712   149.0965  -999.2500
 3565.5080    85.3085   146.1134    24.7556
 3566.0080    86.0246   130.0202    25.0306
 3566.5080    87.5811   110.1316    25.9908
 3567.0080    88.2067   100.0256    26.7891
 3567.5080    88.9099    99.0333    27.3832
 3568.0080    90.0785   100.0377    27.9407
 3568.5080    91.0202   105.2774    28.9327
 3569.0080    91.7188   109.7109    29.3660
 3569.5080    91.8790   112.2677    29.5541
 3570.0080    91.7275   108.5369    29.5188
 3570.5080    91.4234   105.3030    29.3936
 3571.0080    91.8938   105.0583    29.4856
 3571.5080    92.2091   105.0659    29.8259
 3572.0080    92.8690   105.3212   -49.9891
 3572.5080    93.1512   106.0853   -49.9281
 3573.0080    93.1561   110.5234   -49.7427
 3573.5080    92.8507   114.0635   -49.9923
 3574.0080    92.4678   113.3219  -999.2500
 3574.5080    92.2399   113.0772    29.8814
 3575.0080    92.3278   120.0629    29.7870
 3575.5080    92.6390   122.5612    29.8790
 3576.0080    92.7216   127.3024  -999.2500
 3576.5080    92.6489   130.5666   -50.0300
 3577.0080    92.1884   131.8005   -49.9690
 3577.5080    91.6503   131.3096    29.7818
 3578.0080    90.6467   130.3172    28.7875
 3578.5080    88.9342   130.8217    27.5762
 3579.0080    89.5717   129.3339    27.2648
 3579.5080    92.8202   127.0970    29.7149
 3580.0080    97.4116   123.3647  -999.2500
 3580.5080   102.0030   121.1277   -42.2987
 3581.0080   105.5729   127.3658   -40.6682
