~VERSION INFORMATION
 VERS.               2.10:   CWLS LOG ASCII STANDARD - VERSION 2.10
 WRAP.                 NO:   ONE LINE PER DEPTH STEP
~WELL INFORMATION
#MNEM.UNIT      DATA TYPE    INFORMATION
#----------   ------------   ------------------------------
 STRT.F         2398.5081:   START DEPTH
 STOP.F         5645.6445:   STOP DEPTH
 STEP.F            0.5000:   STEP LENGTH
 NULL.          -999.2500:   NO VALUE
 COMP. Lawrence Allison and Associates:   COMPANY
 WELL.          43 TPX 10:   WELL
 FLD .           N.P.R. 3:   FIELD
 LOC . 10-38N-78W-NATRONA-WY:   LOCATION
 STAT.                 WY:   STATE
 COUN.            Natrona:   COUNTY
 SRVC.      Dresser Atlas:   SERVICE COMPANY
 DATE.                   :   LOGDATE
 APIN.         4902511207:   API NUMBER
~CURVE INFORMATION
#MNEM.UNIT       API CODE    CURVE DESCRIPTION
#----------   ------------   ------------------------------
 DEPT.F                  :
 DT  .us/f   60 520 00 00:   Delta t
 GR  .API    60 310 00 00:   Gamma Ray
 PORA.None               :   Porosity
~PARAMETER INFORMATION
#MNEM.UNIT          VALUE    DESCRIPTION
#----------   ------------   ------------------------------
 EKB .F         5215.0000:   Kelly bushing
 EGL .F         5203.0000:   Ground level
 EDF .F            0.0000:   Drilling floor
 EPD .F           10.0000:   Permanent datum
 TD  .F         3340.0000:   Total depth
 NRUN.             1.0000:   Number of Runs
#--RUN 1---   ------------   The following are for Run 1---
 RUN .             1.0000:   Run 1
 DATE.mm/dd/yyyy 02/19/1985:   Date Logged
 DD  .ft             5650:   Depth Driller
 DL  .ft             5649:   Depth Logger
 BLI .ft             5640:   Bottom Log Interval
 TLI .ft             2440:   Top Log Interval
 CSS .inch          9.625:   Casing Size
 CTD1.ft              510:   Casing Driller 1
 BS  .inch            8.5:   Bit Size
 DFT .            kcl gel:   Type Fluid In Hole
 DFD .lb/gal          9.5:   Mud Weight
 DFV .sec              44:   Viscosity
 DFPH.                8.5:   pH
 DFL .cc              9.0:   Fluid Loss
 WSS .           flowline:   Source Of Sample
 RM  .ohmm            .32:   Rm
 EMT .F                74:   Rm Meas. Temp.
 RMF .ohmm            .26:   Rmf
 MFT .F                74:   Rmf Meas. Temp.
 RMC .ohmm            .40:   Rmc
 MCST.F                74:   Rmc Meas. Temp.
 MFSS.               meas:   Source Rmf.
 MCSS.               calc:   Source Rmc.
 RMB .ohmm            .14:   Rm. At BHT
 BHT .F               164:   BHT.
 TCS .hh:mm        11 hrs:   Time Circ. Stopped
 MRT .F               164:   Maximum Recorded Temp.
 LUL .              Gltte:   Logging Unit Location
 ENGI.               Mack:   Recorded By
 WITN.          Mr. Strog:   Witnessed By
 DGBY.              Burke:   Digitized By
~T 1 Tops
First Wall Creek                 2512.0
~OTHER INFORMATION
# Repeat recorded off depth.
~A  DEPTH       DT         GR       PORA
# ...
 4764.5080    65.8957    74.5743    10.6541
 4765.0080    66.2873    75.8265    11.3048
 4765.5080    66.8340    76.0818    11.6147
 4766.0080    67.2255    79.0785    11.5832
 4766.5080    66.1344    86.5611    10.6532
 4767.0080    63.9919    87.8133     9.3612
 4767.5080    62.1172    85.5340     8.0132
 4768.0080    61.8096    77.1717     7.7645
 4768.5080    62.9003    72.6305     8.1036
 4769.0080    65.3089    71.3904     9.9079
 4769.5080    68.9588    71.1457    11.7123
 4770.0080    71.1347    76.6362    13.5167
 4770.5080    72.8684    81.1282    15.3211
 4771.0080    73.8582    83.8757    16.4816
 4771.5080    74.2498    87.1216    16.9156
 4772.0080    74.7189    91.3219    17.2875
 4772.5080    75.0329    93.8642    17.5056
 4773.0080    75.1141    93.6195    17.4417
 4773.5080    74.8850    93.6271    17.0067
 4774.0080    73.7032    96.1253    16.1995
 4774.5080    71.4798   100.8666    14.9947
 4775.0080    69.1315   103.8633    13.5874
 4775.5080    66.3760   103.1217    12.1801
 4776.0080    63.3449    97.0483    10.7728
 4776.5080    62.6503    89.6526     9.3655
 4777.0080    61.7230    82.2569     7.9539
 4777.5080    60.7957    74.8612     7.1349
 4778.0080    60.3242    68.0128     6.7621
 4778.5080    60.0273    65.2774     6.5444
 4779.0080    59.9533    61.7207     6.4508
 4779.5080    59.8028    57.3159     6.3263
 4780.0080    59.5728    55.0790     6.1086
 4780.5080    59.5773    52.8421     5.8909
 4781.0080    60.2792    52.3481     5.9904
 4781.5080    61.7124    53.1034     6.9139
 4782.0080    63.4682    54.6048     7.5341
 4782.5080    63.5494    55.1093     8.5267
 4783.0080    63.1652    55.4070     9.0229
 4783.5080    62.3931    58.8544     8.6499
 4784.0080    61.9312    64.1009     8.1840
 4784.5080    62.1676    64.8546     7.8422
 4785.0080    62.5603    60.1254     7.9089
 4785.5080    62.8666    56.3917     8.5859
 4786.0080    64.2742    56.3992     9.3923
 4786.5080    65.5191    56.9037    10.2608
 4787.0080    66.1434    62.1434    10.7568
 4787.5080    66.0695    68.4516    10.7875
 4788.0080    65.5301    79.6025    10.4146
 4788.5080    65.3010    84.3438    10.1969
 4789.0080    65.9408    82.6053    10.2603
 4789.5080    66.2393    73.1409    10.7855
 4790.0080    65.9335    73.1470    10.8162
 4790.5080    65.1614    76.3929    10.6604
 4791.0080    63.5359    81.1342    10.0923
 4791.5080    62.3759    81.8879     9.0848
 4792.0080    61.5261    78.5023     7.9593
 4792.5080    61.2971    71.8712     7.6175
 4793.0080    61.3792    65.2401     7.5550
 4793.5080    61.3829    63.4361     7.5545
 4794.0080    61.4641    63.7260     7.6162
 4794.5080    61.6229    64.7538     7.6156
 4795.0080    62.4024    64.9842     8.0496
 4795.5080    62.7939    63.9949     8.3905
 4796.0080    63.1855    64.4994     8.5762
 4796.5080    63.1797    66.2500     8.6689
 4797.0080    62.4955    69.2467     8.6372
 4797.5080    62.1888    70.4973     8.3189
 4798.0080    61.8046    69.5080     7.8916
 4798.5080    61.5746    68.2564     7.7981
 4799.0080    61.5792    66.6977     7.6735
 4799.5080    61.5828    63.0479     7.5489
 4800.0080    61.4502    57.3215     7.6414
 4800.5080    61.3766    55.8334     7.5474
 4801.0080    61.2247    55.3386     7.4224
 4801.5080    60.7417    55.1002     7.2974
 4802.0080    60.3013    57.6014     6.8310
 4802.5080    60.0710    59.3532     6.4887
 4803.0080    60.3854    60.3573     6.4256
 4803.5080    61.6300    59.1184     6.6109
 4804.0080    62.5642    55.8857     7.6651
 4804.5080    64.1191    55.3945     8.6436
 4805.0080    65.2926    61.8318     9.7429
 4805.5080    65.9108    71.4166    10.4950
 4806.0080    66.3796    81.5856    10.6715
 4806.5080    67.2362    84.3343    11.0429
 4807.0080    68.3256    84.3415    11.6206
 4807.5080    69.3374    83.3518    13.1201
 4808.0080    70.1941    84.3578    13.5536
 4808.5080    69.8000    88.3525    13.4286
 4809.0080    65.8732    91.3504    11.6278
 4809.5080    63.4553    93.3514    10.1064
 4810.0080    62.8380    88.3742     9.0504
 4810.5080    62.6858    80.3935     8.3880
 4811.0080    62.8443    72.3285     8.2728
 4811.5080    62.9253    70.9504     8.4889
 4812.0080    63.3947    73.4516     8.8294
 4812.5080    64.6393    74.9542     9.7594
 4813.0080    66.3493    77.2044    10.9067
 4813.5080    66.6629    77.7101    11.3402
 4814.0080    66.5110    81.2064    11.3393
 4814.5080    65.6609    84.7985    10.8107
 4815.0080    62.6118    85.7086     9.3298
 4815.5080    61.1687    82.2267     7.5742
 4816.0080    60.1635    74.2589     6.4946
 4816.5080    59.8556    63.0512     6.1483
 4817.0080    60.0925    56.0802     6.0894
 4817.5080    60.1733    53.8444     6.3986
 4818.0080    60.4093    53.6024     6.5531
 4818.5080    60.6454    54.3591     6.5832
 4819.0080    60.8046    57.8554     6.6132
 4819.5080    61.0407    61.1025     6.8605
 4820.0080    61.9749    61.6064     7.5897
 4820.5080    63.7341    59.8709     8.6989
 4821.0080    65.5417    60.6258     9.8448
 4821.5080    67.3383    62.4211    10.9906
 4822.0080    67.4191    76.5922    11.9760
 4822.5080    67.0345    81.5838    11.8509
 4823.0080    65.3311    84.3325    11.1363
 4823.5080    64.0155    82.8444    10.0803
 4824.0080    63.3206    79.3625     9.2105
 4824.5080    62.8561    76.3791     8.7413
 4825.0080    62.5513    73.3624     8.4637
 4825.5080    62.4003    72.4060     8.1836
 4826.0080    62.2476    73.9103     7.9965
 4826.5080    62.2517    74.9144     7.9645
 4827.0080    62.0222    73.9248     7.9016
 4827.5080    61.4049    72.1875     7.5283
 4828.0080    61.2530    69.7025     7.3072
 4828.5080    61.5815    67.9418     7.2472
 4829.0080    62.0362    65.2327     7.5564
 4829.5080    62.3498    63.2462     7.8969
 4830.0080    62.0427    62.5040     7.9582
 4830.5080    61.7357    64.2575     7.7709
 4831.0080    61.7390    64.7632     7.6769
 4831.5080    62.1302    64.7704     7.7839
 4832.0080    63.0164    66.7781     8.3266
 4832.5080    64.0622    68.0660     8.7601
 4833.0080    65.1081    69.7783     9.5350
 4833.5080    66.1007    71.2809    10.2479
 4834.0080    66.1815    74.7772    10.8676
 4834.5080    65.8745    77.5258    11.0839
 4835.0080    65.1020    77.7823    10.6175
 4835.5080    64.4071    77.7911     9.6855
 4836.0080    63.9198    78.7936     9.2812
 4836.5080    63.4309    76.0612     8.8768
 4837.0080    62.9419    73.8255     8.5346
 4837.5080    62.4818    72.3373     8.2544
 4838.0080    62.2515    71.8443     8.0363
 4838.5080    62.4108    70.6073     8.1728
 4839.0080    62.6468    66.8762     8.3138
 4839.5080    62.4174    66.3849     8.2506
 4840.0080    61.8776    66.8924     8.0945
 4840.5080    61.3376    70.1395     7.8143
 4841.0080    60.9425    71.8913     7.4411
 4841.5080    60.6470    73.3938     7.0988
 4842.0080    60.5719    73.6485     6.9050
 4842.5080    60.8087    71.6637     6.9416
 4843.0080    61.0447    68.6268     7.0649
 4843.5080    61.2032    65.6987     7.0950
 4844.0080    61.2840    63.7121     7.0631
 4844.5080    61.0418    61.9730     6.9070
 4845.0080    60.3605    61.7310     6.6268
 4845.5080    60.1302    59.9955     6.3776
 4846.0080    60.7549    58.7566     6.5317
 4846.5080    61.7348    58.0162     7.1825
 4847.0080    63.0391    60.7666     8.0384
 4847.5080    64.3433    64.1825     9.2573
 4848.0080    65.6476    70.7336    10.4761
 4848.5080    66.9003    77.2848    11.6784
 4849.0080    67.4473    84.6503    11.9881
 4849.5080    67.1403    86.4737    11.9559
 4850.0080    65.9799    87.2286    11.0321
 4850.5080    65.2849    88.4819    10.2161
 4851.0080    64.3573    88.7384     9.6877
 4851.5080    64.3605    87.0011     9.5626
 4852.0080    64.5190    80.7778     9.6240
 4852.5080    64.1352    77.2465     9.6539
 4853.0080    64.1385    74.0650     9.5599
 4853.5080    64.6848    72.3277     9.5612
 4854.0080    65.4639    71.0888     9.8993
 4854.5080    65.9326    70.8450    10.5190
 4855.0080    66.7117    75.0908    11.1077
