~VERSION INFORMATION
 VERS.               2.10:   CWLS LOG ASCII STANDARD - VERSION 2.10
 WRAP.                 NO:   ONE LINE PER DEPTH STEP
~WELL INFORMATION
#MNEM.UNIT      DATA TYPE    INFORMATION
#----------   ------------   ------------------------------
 STRT.F         2399.8379:   START DEPTH
 STOP.F         5667.9595:   STOP DEPTH
 STEP.F            0.5000:   STEP LENGTH
 NULL.          -999.2500:   NO VALUE
 COMP. Lawrence Allison & Associates:   COMPANY
 WELL.          43-TPX-10:   WELL
 FLD .           N.P.R. 3:   FIELD
 LOC . 10-38N-78W-NATRONA-WY:   LOCATION
 STAT.                 WY:   STATE
 COUN.            Natrona:   COUNTY
 SRVC.      Dresser Atlas:   SERVICE COMPANY
 DATE.                   :   LOGDATE
 APIN.         4902511207:   API NUMBER
~CURVE INFORMATION
#MNEM.UNIT       API CODE    CURVE DESCRIPTION
#----------   ------------   ------------------------------
 DEPT.F                  :
 LLD .ohmm   11 220 04 00:   Dual Laterolog, Deep
 LLS .ohmm   11 220 06 00:   Dual Laterolog, shallow
 MNOR.ohmm   15 252 02 00:   Microlog, normal 2"
 GR  .GAPI   06 310 01 00:   Gamma Ray
 SP  .mV     06 010 01 00:   Spontaneous Potential
~PARAMETER INFORMATION
#MNEM.UNIT          VALUE    DESCRIPTION
#----------   ------------   ------------------------------
 EKB .F         5215.0000:   Kelly bushing
 EGL .F         5203.0000:   Ground level
 EDF .F            0.0000:   Drilling floor
 EPD .F           10.0000:   Permanent datum
 TD  .F         5260.0000:   Total depth
 NRUN.             1.0000:   Number of Runs
#--RUN 1---   ------------   The following are for Run 1---
 RUN .             1.0000:   Run 1
 DATE.mm/dd/yyyy 02/19/85:   Date Logged
 DD  .ft             5650:   Depth Driller
 DL  .ft             5649:   Depth Logger
 BLI .ft             5646:   Bottom Log Interval
 TLI .ft              511:   Top Log Interval
 CSS .inch          9-5/8:   Casing Size
 CTD1.ft              510:   Casing Driller 1
 CTL1.ft              511:   Casing Logger 1
 BS  .inch            8.5:   Bit Size
 DFT .            kcl-gel:   Type Fluid In Hole
 DFD .lb/gal          9.5:   Mud Weight
 DFV .sec              44:   Viscosity
 DFPH.                8.5:   pH
 DFL .cc              9.0:   Fluid Loss
 WSS .           flowline:   Source Of Sample
 RM  .ohmm            .32:   Rm
 EMT .F                74:   Rm Meas. Temp.
 RMF .ohmm            .26:   Rmf
 MFT .F                74:   Rmf Meas. Temp.
 RMC .ohmm            .40:   Rmc
 MCST.F                74:   Rmc Meas. Temp.
 MFSS.              meas.:   Source Rmf.
 MCSS.              calc.:   Source Rmc.
 RMB .ohmm            .14:   Rm. At BHT
 BHT .F               164:   BHT.
 TCS .hh:mm         5 hrs:   Time Circ. Stopped
 MRT .F               164:   Maximum Recorded Temp.
 LUL .               Glte:   Logging Unit Location
 ENGI.               Mack:   Recorded By
 WITN.         Mr. Strong:   Witnessed By
 DGBY.              Burke:   Digitized By
~T 1 Tops
First Wall Creek                 2512.0
~A  DEPTH      LLD        LLS       MNOR         GR         SP
# ...
 3070.8380     4.8738     4.1501     4.7245   104.5058    53.6037
 3071.3380     4.6389     4.1212     4.5845   104.5084    53.4648
 3071.8380     4.4464     3.9208     4.1604   103.8794    53.4705
 3072.3380     4.3868     3.7838     4.1327   102.6402    53.0073
 3072.8380     4.3896     3.7308     4.1953   101.2848    53.0130
 3073.3380     4.4239     3.7050     4.2279    99.5209    53.1730
 3073.8380     4.4585     3.7059     4.2608    98.8054    52.8665
 3074.3380     4.4614     3.7333     4.2633    97.0529    52.2489
 3074.8380     4.4330     3.7609     4.2659    95.7803    51.9424
 3075.3380     4.3722     3.7617     4.2043    94.9648    51.7914
 3075.8380     4.3129     3.7895     4.1806    95.5071    51.1750
 3076.3380     4.2241     3.7632     4.1533    97.6647    51.1795
 3076.8380     4.1675     3.7372     4.1565    99.5987    51.1840
 3077.3380     4.1702     3.7380     4.1590   100.5602    51.1886
 3077.8380     4.1431     3.7390     4.1615   100.7992    49.3268
 3078.3380     4.1464     3.7397     4.1640   100.4525    49.1758
 3078.8380     4.2389     3.7674     4.2567    99.4202    49.1930
 3079.3380     4.2108     3.7952     4.1106    96.7461    49.3415
 3079.8380     4.1841     3.9062     3.9688    94.2120    49.5016
 3080.3380     4.1267     4.0205     4.0863    92.1445    49.8171
 3080.8380     4.3730     4.3820     4.2373    89.8805    50.1327
 3081.3380     4.9763     4.7271     4.7530    88.1650    50.1372
 3081.8380     5.9626     5.3952     5.8580    85.3359    50.4528
 3082.3380     6.6798     5.8802     6.4695    82.7021    50.7684
 3082.8380     7.0268     6.1835     6.7087    84.2488    51.5506
 3083.3380     7.2352     6.4101     6.9567    84.5834    52.0227
 3083.8380     7.1882     6.4575     6.9103    85.5244    52.1828
 3084.3380     6.9901     6.4128     6.8174    87.0520    52.6538
 3084.8380     6.7975     6.0569     6.7249    88.0904    52.9694
 3085.3380     6.5631     5.8875     6.4814    88.9713    53.1295
 3085.8380     6.2429     5.6415     6.1811    88.0931    52.9783
 3086.3380     5.9468     5.4444     6.0107    87.3939    52.5164
 3086.8380     5.9073     5.3296     5.8450    87.7308    52.3654
 3087.3380     5.7866     5.2177     5.5634    89.0271    52.2144
 3087.8380     5.5871     5.1813     5.2578    89.9240    52.3756
 3088.3380     5.5113     5.1090     5.0403    89.3027    52.3801
 3088.8380     5.5148     5.0015     4.9678    86.1498    52.3847
 3089.3380     5.5978     4.9669     4.8348    83.9938    52.7002
 3089.8380     5.6462     4.9325     4.8385    83.6865    52.7047
 3090.3380     5.8097     5.0049     4.9462    84.2019    53.1758
 3090.8380     5.9819     5.1513     5.2028    86.5053    53.3360
 3091.3380     6.0287     5.3020     5.3568    91.3203    53.4971
 3091.8380     5.8208     5.3412     5.2840   103.2141    53.5016
 3092.3380     5.4617     5.1916     4.8879   105.2647    53.5061
 3092.8380     4.9449     5.0070     4.2666   102.0750    53.5106
 3093.3380     4.7743     4.7948     4.1231    98.7775    53.6707
 3093.8380     4.7435     4.7333     4.2458    95.4800    54.4528
 3094.3380     4.9199     4.8028     4.4028    92.1825    55.0794
 3094.8380     5.1755     4.9433     4.7654    89.1992    55.5506
 3095.3380     5.5228     5.1613     4.9415    88.7209    55.7117
 3095.8380     5.8098     5.3122     5.1242    89.8848    56.0272
 3096.3380     5.8971     5.3133     5.1641    92.1634    56.3428
 3096.8380     5.9432     5.3193     5.1680    92.8827    56.3473
 3097.3380     5.7775     5.5095     5.3209    90.4168    56.3519
 3097.8380     5.5010     5.2414     5.1374    87.4334    56.3564
 3098.3380     5.5053     5.0945     4.9958    87.4899    56.3609
 3098.8380     5.5881     5.0229     4.8235    87.4927    56.5210
 3099.3380     5.7128     4.9881     4.7872    87.4089    56.9932
 3099.8380     5.9244     5.1343     5.1499    86.5619    57.3087
 3100.3380     6.4442     5.5959     5.5001    85.9350    56.8469
 3100.8380     6.7745     6.2425     5.7809    86.2089    57.1632
 3101.3380     7.0711     6.6953     6.1245    87.5850    57.6389
 3101.8380     7.5405     6.7933     7.1194    88.7381    58.2851
 3102.3380     7.6502     6.9920     7.8166    90.3723    59.3577
 3102.8380     7.5224     7.0433     8.4371    91.9877    60.1406
 3103.3380     7.2753     6.7009     8.7487    94.3536    62.2473
 3103.8380     6.9698     6.3748     8.4955    96.5848    63.3242
 3104.3380     6.3969     5.6863     7.6927    98.1222    64.4011
 3104.8380     5.8293     5.3591     6.6225    99.9692    65.4780
 3105.3380     5.6649     5.1099     5.5012    99.9666    66.5549
 3105.8380     5.6648     5.0022     4.6026    99.9574    67.9488
 3106.3380     5.6243     5.0035     4.4736    97.6693    70.7534
 3106.8380     5.5841     5.1131     4.6038    94.5439    73.4057
 3107.3380     5.4266     5.2249     4.9465    94.6416    74.2263
 3107.8380     5.3495     4.9002     5.1257    96.8541    74.9684
 3108.3380     5.2734     4.7630     5.0539    99.0640    74.8181
 3108.8380     5.1247     4.6962     4.9473   102.1322    74.6679
 3109.3380     4.8054     4.5977     5.3524    97.8585    74.6745
 3109.8380     4.5954     4.5333     5.4300    94.0010    74.3687
 3110.3380     4.2555     4.1611     4.9143    94.9352    73.9073
 3110.8380     4.0478     3.8469     4.2915   100.6528    73.2907
 3111.3380     3.8778     3.5820     3.8183   101.9497    72.8151
 3111.8380     3.7684     3.3834     3.5150   102.4260    71.7473
 3112.3380     3.6622     3.1954     3.4165   103.9012    71.4403
 3112.8380     3.6101     3.1062     3.3925   104.9832    70.8248
 3113.3380     3.6359     3.2202     3.4174   105.2291    70.5177
 3113.8380     3.7680     3.3622     3.4670   105.0647    69.9022
 3114.3380     4.3468     3.9646     3.5680   103.3002    68.6633
 3114.8380     4.7697     4.2292     4.0103    93.3444    67.7355
 3115.3380     5.4243     4.7433     4.9214    92.5647    66.1465
 3115.8380     5.9948     5.1697     5.8006    91.1963    64.0896
 3116.3380     6.2127     5.3976     5.9694    88.0225    61.9984
 3116.8380     6.1572     5.2343     5.8856    87.9925    60.4674
 3117.3380     5.5017     4.6466     5.1031    88.7831    58.3815
 3117.8380     5.0857     4.3890     4.5205    92.3881    55.9494
 3118.3380     4.8722     4.1754     4.3625    95.6849    53.3108
 3118.8380     4.8374     4.1167     4.3321    95.1705    52.8495
 3119.3380     4.8719     4.1474     4.4584    92.7406    52.3869
 3119.8380     4.9419     4.2687     4.6210    90.3107    52.5490
 3120.3380     5.0874     4.3622     4.7556    91.1224    52.7099
 3120.8380     5.1951     4.4263     4.6223    93.0762    52.4041
 3121.3380     4.9063     4.4272     4.4607    94.8667    51.9186
 3121.8380     4.7003     4.4281     4.6901    94.7666    51.3273
 3122.3380     4.5352     4.3040     4.6242    94.9686    51.0203
 3122.8380     4.3139     4.1240     4.3996    95.4823    50.7145
 3123.3380     3.9593     3.8400     4.1559    95.2730    50.7211
 3123.8380     3.5812     3.6012     3.8700    95.1635    50.7264
 3124.3380     3.4318     3.3496     3.6297    95.4728    51.1982
 3124.8380     3.3113     3.1448     3.2849    96.8816    51.5146
 3125.3380     3.2642     2.9493     2.9307    99.4419    52.0047
 3125.8380     3.2409     2.9499     2.5586   102.3385    52.4596
 3126.3380     3.4809     2.9717     2.5053   101.6482    52.7759
 3126.8380     3.6856     3.1701     2.7890   100.8424    53.0922
 3127.3380     4.1075     3.5661     3.5305    99.5165    53.7196
 3127.8380     4.6486     4.0411     3.8745    97.9197    54.3470
 3128.3380     5.4594     4.5161     4.3751    96.2341    54.9743
 3128.8380     6.2085     4.9912     5.1566    94.5484    55.2907
 3129.3380     6.6682     5.4662     5.8646    92.8628    55.7745
 3129.8380     7.0100     6.0013     6.5840    91.1772    56.0802
 3130.3380     7.0098     5.9594     6.6709    89.4915    56.3965
 3130.8380     6.8606     5.9185     6.5770    87.8059    57.8015
 3131.3380     6.5595     5.7116     6.3474    86.0021    58.7399
