~VERSION INFORMATION
 VERS.               2.10:   CWLS LOG ASCII STANDARD - VERSION 2.10
 WRAP.                 NO:   ONE LINE PER DEPTH STEP
~WELL INFORMATION
#MNEM.UNIT      DATA TYPE    INFORMATION
#----------   ------------   ------------------------------
 STRT.F         2389.7727:   START DEPTH
 STOP.F         5660.0845:   STOP DEPTH
 STEP.F            0.5000:   STEP LENGTH
 NULL.          -999.2500:   NO VALUE
 COMP. Lawrence Allison and Associates:   COMPANY
 WELL.            43 X 10:   WELL
 FLD .           N.P.R. 3:   FIELD
 LOC . 10-38N-78W-NATRONA-WY:   LOCATION
 STAT.                 WY:   STATE
 COUN.            Natrona:   COUNTY
 SRVC.      Dresser Atlas:   SERVICE COMPANY
 DATE.                   :   LOGDATE
 APIN.         4902511207:   API NUMBER
~CURVE INFORMATION
#MNEM.UNIT       API CODE    CURVE DESCRIPTION
#----------   ------------   ------------------------------
 DEPT.F                  :
 DPHI.none   42 890 12 00:   Den. Porosity, Ss [%]
 NPHI.none   42 890 03 00:   Neu. Porosity, Ss [%]
 RHOB.gm/cc  42 350 01 00:   Bulk Density
 GR  .GAPI   42 310 00 00:   Gamma Ray
~PARAMETER INFORMATION
#MNEM.UNIT          VALUE    DESCRIPTION
#----------   ------------   ------------------------------
 EKB .F         5215.0000:   Kelly bushing
 EGL .F         5203.0000:   Ground level
 EDF .F            0.0000:   Drilling floor
 EPD .F           10.0000:   Permanent datum
 TD  .F         3458.0000:   Total depth
 NRUN.             1.0000:   Number of Runs
#--RUN 1---   ------------   The following are for Run 1---
 RUN .             1.0000:   Run 1
 DATE.mm/dd/yyyy 02/19/1985:   Date Logged
 DD  .ft             5650:   Depth Driller
 DL  .ft             5649:   Depth Logger
 BLI .ft             5647:   Bottom Log Interval
 TLI .ft             2400:   Top Log Interval
 CSS .inch          9.625:   Casing Size
 CTD1.ft              510:   Casing Driller 1
 CTL1.ft       not logged:   Casing Logger 1
 BS  .inch            8.5:   Bit Size
 DFT .            kcl gel:   Type Fluid In Hole
 DFD .lb/gal          9.5:   Mud Weight
 DFV .sec              44:   Viscosity
 DFPH.                8.5:   pH
 DFL .cc              9.0:   Fluid Loss
 WSS .           flowline:   Source Of Sample
 RM  .ohmm            .32:   Rm
 EMT .F                74:   Rm Meas. Temp.
 RMF .ohmm            .26:   Rmf
 MFT .F                74:   Rmf Meas. Temp.
 RMC .ohmm            .40:   Rmc
 MCST.F                74:   Rmc Meas. Temp.
 MFSS.               meas:   Source Rmf.
 MCSS.               calc:   Source Rmc.
 RMB .ohmm            .14:   Rm. At BHT
 BHT .F               164:   BHT.
 TCS .hh:mm        8 hrs.:   Time Circ. Stopped
 MRT .F               170:   Maximum Recorded Temp.
 LUL .               Glte:   Logging Unit Location
 ENGI.               Mack:   Recorded By
 WITN.         Mr. Strong:   Witnessed By
 DGBY.              Burke:   Digitized By
~T 2 Tops
First Wall Creek                 2512.0
Second Wall Creek                2912.0
~OTHER INFORMATION
# Density Matrix = 2.65
# Neutron Matrix = Sandstone
~A  DEPTH     DPHI       NPHI       RHOB         GR
 2389.7730  -999.2500  -999.2500  -999.2500  -999.2500
 2390.2730  -999.2500    21.5328  -999.2500   110.3448
 2390.7730  -999.2500    21.3451  -999.2500   109.7179
 2391.2730     5.4096    21.1606  -999.2500   108.4640
 2391.7730     5.1573    20.8877  -999.2500   105.2547
 2392.2730     4.7955    20.8076  -999.2500   101.4929
 2392.7730     4.7943    22.0633  -999.2500   100.1894
 2393.2730     4.9600    23.0422     2.5865    99.0596
 2393.7730     5.3783    23.3300     2.5833   100.8067
 2394.2730     5.8782    23.4052     2.5847   104.6226
 2394.7730     6.1307    23.0611     2.5862   107.8574
 2395.2730     5.9683    23.3545     2.5921   110.9718
 2395.7730     4.9700    23.3859     2.5840   112.2257
 2396.2730     4.2960    23.3287     2.5770   111.5987
 2396.7730     4.1114    23.2714     2.5730   105.9561
 2397.2730     4.1713    23.0901     2.5713   100.9404
 2397.7730     4.4147    23.0325     2.5760   100.9404
 2398.2730     4.6582    23.0376     2.5860   103.6773
 2398.7730     4.7181    23.1664     2.5962   109.3773
 2399.2730     4.7169    23.5465     2.5953   113.4331
 2399.7730     4.7284    23.7961     2.5875   118.1741
 2400.2730     4.9498    23.6549     2.5872   133.7587
 2400.7730     5.4167    22.5632     2.5872   136.7523
 2401.2730     5.9003    21.1814     2.5871   130.2224
 2401.7730     5.8093    20.1842     2.5885   113.6223
 2402.2730     5.2145    19.9749     2.5836   103.7602
 2402.7730     4.7691    20.3244     2.5711   101.2823
 2403.2730     4.4009    20.8660     2.5647    99.6439
 2403.7730     4.0939    21.7235     2.5711    95.9248
 2404.2730     3.9703    22.3634     2.5807    94.6708
 2404.7730     4.4584    22.1096     2.5873    94.6708
 2405.2730     5.1942    21.6182     2.5951    94.6708
 2405.7730     5.3916    21.8090     2.5965    95.2978
 2406.2730     5.7309    22.6820     2.5917    95.9318
 2406.7730     6.2273    21.1984     2.5801    98.6591
 2407.2730     6.1647    20.2109     2.5727   102.1944
 2407.7730     5.8219    20.0914     2.5719    97.8070
 2408.2730     5.4032    20.5305     2.5631    94.6708
 2408.7730     4.2601    21.2940     2.5614    95.6943
 2409.2730     3.4684    22.6984     2.5643   102.4858
 2409.7730     3.4486    23.1494     2.5988   103.4483
 2410.2730     4.1999    22.1643     2.6059   103.4483
 2410.7730     4.7492    20.4922     2.6057   100.9404
 2411.2730     4.9926    20.5960     2.5900    93.4169
 2411.7730     4.8079    20.9822     2.5806    89.6552
 2412.2730     3.4217    22.2192     2.5773    88.4013
 2412.7730     2.1519    22.7730     2.5772    88.4013
 2413.2730     0.9340    22.7804     2.5815    88.4789
 2413.7730     0.7052    22.6232     2.5994    90.5367
 2414.2730     0.7652    22.3884     2.6464    95.2036
 2414.7730     0.6493    21.8970     2.6513    95.9248
 2415.2730     0.5178    21.7597     2.6477    95.9248
 2415.7730     0.5166    22.0926     2.6509    99.7667
 2416.2730     2.5946    23.0896     2.6525   104.7022
 2416.7730     3.8166    23.4664     2.6497   105.9561
 2417.2730     4.4271    23.4712     2.6377   107.8370
 2417.7730     4.6093    23.2899     2.6004   107.9376
 2418.2730     4.6081    23.0863     2.5878   104.7022
 2418.7730     4.4756    21.9452     2.5846   102.1944
 2419.2730     3.8335    20.7003     2.5900   100.1665
 2419.7730     3.1498    20.5190     2.6013    94.6708
 2420.2730     2.4316    21.0199     2.6104    94.0439
 2420.7730     2.2578    21.5208     2.6180    94.8690
 2421.2730     2.1908    21.5272     2.6210    95.2978
 2421.7730     2.0336    21.6124     2.6224    94.9999
 2422.2730     1.8122    22.7302     2.6227    94.6708
 2422.7730     1.8444    22.8421     2.6244    94.6708
 2423.2730     2.2713    22.3390     2.6250    94.6708
 2423.7730     3.0652    21.9297     2.6201    96.5517
 2424.2730     3.5533    21.6161     2.6045   102.8213
 2424.7730     3.7356    22.0559     2.5994   102.1944
 2425.2730     4.3460    22.3709     2.5959   102.1944
 2425.7730     5.6945    22.2815     2.5869   102.1249
 2426.2730     5.7503    22.2368     2.5728   100.8208
 2426.7730     5.6478    22.5725     2.5680    98.7210
 2427.2730     5.3451    21.9571     2.5663    95.7058
 2427.7730     5.1736    21.7138     2.5677    96.4632
 2428.2730     5.1606    21.7040     2.5697   100.0270
 2428.7730     5.3473    21.8473     2.5720   102.4528
 2429.2730     5.4369    21.8521     2.5672    95.9248
 2429.7730     5.3743    21.7328     2.5669    94.6708
 2430.2730     5.0673    21.5515     2.5778    94.6708
 2430.7730     4.7603    21.4943     2.5757    95.2978
 2431.2730     5.5542    21.8945     2.5710    95.2978
 2431.7730     5.7976    23.7742     2.5625    97.2601
 2432.2730     5.8576    25.2010     2.5585   101.7481
 2432.7730     5.8563    25.1728     2.5582   102.8213
 2433.2730     5.7714    25.1786     2.5644   103.0116
 2433.7730     5.6703    24.3771     2.5639   103.4483
 2434.2730     5.6893    23.9478     2.5604   103.7382
 2434.7730     6.1342    23.5804     2.5553   104.7022
 2435.2730     6.2782    25.0736     2.5575   105.3292
 2435.7730     6.0528    25.0163     2.5636   105.9561
 2436.2730     5.4192    23.5947     2.5727   109.0909
 2436.7730     5.3568    22.6660     2.5695   112.8527
 2437.2730     5.3556    22.3019     2.5693   114.7335
 2437.7730     4.8039    22.7928     2.5691   112.1893
 2438.2730     4.4969    23.8991     2.5767   107.7273
 2438.7730     4.2511    25.0755     2.5843   104.5663
 2439.2730     3.9395    26.2519     2.5873   103.2861
 2439.7730     3.8725    26.7288     2.5891   103.8869
 2440.2730     3.8193    25.4982     2.5963   105.1146
 2440.7730     4.2462    25.0724     2.5883   104.4609
 2441.2730     4.2448    24.9152     2.5851   105.1922
 2441.7730     4.0396    24.7588     2.5848   107.7551
 2442.2730     3.7824    24.2123     2.5880   109.3984
 2442.7730     3.5680    24.4031     2.5943   108.5530
 2443.2730     3.6282    24.6559     2.5946   106.6043
 2443.7730     3.6268    24.6607     2.5936   106.5358
 2444.2730     3.6256    24.6654     2.5919   103.9655
 2444.7730     3.9913    24.5462     2.5824   101.3092
 2445.2730     4.6629    24.4269     2.5807    99.8236
 2445.7730     4.6005    24.1216     2.5781   102.9322
 2446.2730     4.6062    23.3186     2.5728   107.2947
 2446.7730     4.9114    23.2008     2.5737   109.7763
 2447.2730     5.8068    23.2844     2.5616   109.1231
 2447.7730     5.9413    23.4820     2.5582   105.9621
 2448.2730     4.8469    23.5878     2.5642   103.4063
 2448.7730     4.1095    23.5745     2.5811   101.3644
 2449.2730     3.6331    23.5347     2.5936    98.8927
 2449.7730     3.4671    22.5733     2.5948    97.5706
 2450.2730     4.0998    20.8294     2.5916    95.4472
 2450.7730     4.5267    20.2328     2.5789    93.2611
 2451.2730     4.6478    20.4964     2.5741    93.4900
 2451.7730     4.6466    21.0802     2.5771    95.9779
 2452.2730     4.6454    21.3951     2.5751   100.0764
 2452.7730     4.9643    21.2138     2.5711   101.2981
 2453.2730     5.3344    21.3426     2.5642   104.4066
 2453.7730     5.6007    21.7194     2.5547   107.5152
 2454.2730     6.0596    22.7462     2.5452   109.9968
 2454.7730     6.7189    24.0863     2.5404   111.8533
 2455.2730     7.0844    24.2151     2.5387   112.4532
 2455.7730     6.8006    24.1579     2.5422   113.0530
 2456.2730     6.1642    21.8060     2.5508   114.9076
 2456.7730     5.6125    21.0666     2.5646   105.3196
 2457.2730     5.3055    21.0090     2.5660   102.7016
 2457.7730     5.1208    21.1381     2.5674   101.0325
 2458.2730     5.1808    21.3909     2.5654   101.0055
 2458.7730     5.3631    22.1852     2.5619   100.9784
 2459.2730     5.4868    24.4118     2.5615   101.5783
 2459.7730     5.3786    24.8784     2.5807   101.8745
 2460.2730     4.7618    24.4418     2.5899   102.1511
 2460.7730     3.7924    23.4669     2.5828   103.3733
 2461.2730     3.5222    22.1900     2.5713   104.6010
 2461.7730     4.1011    22.4436     2.5577   102.6939
 2462.2730     4.9223    23.3896     2.5554    99.5329
