~VERSION INFORMATION
 VERS.               2.10:   CWLS LOG ASCII STANDARD - VERSION 2.10
 WRAP.                 NO:   ONE LINE PER DEPTH STEP
~WELL INFORMATION
#MNEM.UNIT      DATA TYPE    INFORMATION
#----------   ------------   ------------------------------
 STRT.F         2398.5081:   START DEPTH
 STOP.F         5645.6445:   STOP DEPTH
 STEP.F            0.5000:   STEP LENGTH
 NULL.          -999.2500:   NO VALUE
 COMP. Lawrence Allison and Associates:   COMPANY
 WELL.          43 TPX 10:   WELL
 FLD .           N.P.R. 3:   FIELD
 LOC . 10-38N-78W-NATRONA-WY:   LOCATION
 STAT.                 WY:   STATE
 COUN.            Natrona:   COUNTY
 SRVC.      Dresser Atlas:   SERVICE COMPANY
 DATE.                   :   LOGDATE
 APIN.         4902511207:   API NUMBER
~CURVE INFORMATION
#MNEM.UNIT       API CODE    CURVE DESCRIPTION
#----------   ------------   ------------------------------
 DEPT.F                  :
 DT  .us/f   60 520 00 00:   Delta t
 GR  .API    60 310 00 00:   Gamma Ray
 PORA.None               :   Porosity
~PARAMETER INFORMATION
#MNEM.UNIT          VALUE    DESCRIPTION
#----------   ------------   ------------------------------
 EKB .F         5215.0000:   Kelly bushing
 EGL .F         5203.0000:   Ground level
 EDF .F            0.0000:   Drilling floor
 EPD .F           10.0000:   Permanent datum
 TD  .F         3340.0000:   Total depth
 NRUN.             1.0000:   Number of Runs
#--RUN 1---   ------------   The following are for Run 1---
 RUN .             1.0000:   Run 1
 DATE.mm/dd/yyyy 02/19/1985:   Date Logged
 DD  .ft             5650:   Depth Driller
 DL  .ft             5649:   Depth Logger
 BLI .ft             5640:   Bottom Log Interval
 TLI .ft             2440:   Top Log Interval
 CSS .inch          9.625:   Casing Size
 CTD1.ft              510:   Casing Driller 1
 BS  .inch            8.5:   Bit Size
 DFT .            kcl gel:   Type Fluid In Hole
 DFD .lb/gal          9.5:   Mud Weight
 DFV .sec              44:   Viscosity
 DFPH.                8.5:   pH
 DFL .cc              9.0:   Fluid Loss
 WSS .           flowline:   Source Of Sample
 RM  .ohmm            .32:   Rm
 EMT .F                74:   Rm Meas. Temp.
 RMF .ohmm            .26:   Rmf
 MFT .F                74:   Rmf Meas. Temp.
 RMC .ohmm            .40:   Rmc
 MCST.F                74:   Rmc Meas. Temp.
 MFSS.               meas:   Source Rmf.
 MCSS.               calc:   Source Rmc.
 RMB .ohmm            .14:   Rm. At BHT
 BHT .F               164:   BHT.
 TCS .hh:mm        11 hrs:   Time Circ. Stopped
 MRT .F               164:   Maximum Recorded Temp.
 LUL .              Gltte:   Logging Unit Location
 ENGI.               Mack:   Recorded By
 WITN.          Mr. Strog:   Witnessed By
 DGBY.              Burke:   Digitized By
~T 1 Tops
First Wall Creek                 2512.0
~OTHER INFORMATION
# Repeat recorded off depth.
~A  DEPTH       DT         GR       PORA
# ...
 2853.5080    77.7161    84.3621    19.0455
 2854.0080    78.3358    83.8495    19.2296
 2854.5080    78.6452    82.3881    19.7914
 2855.0080    79.0322    81.1507    20.3263
 2855.5080    79.2651    83.4224    20.4658
 2856.0080    79.1740    87.6936    20.4326
 2856.5080    78.3309    89.2105    20.1516
 2857.0080    77.3990    86.2204    19.5293
 2857.5080    76.5447    85.9763    18.7828
 2858.0080    75.9231    84.4603    18.2536
 2858.5080    75.6119    82.2614    17.9416
 2859.0080    75.9212    81.2744    18.0608
 2859.5080    77.4157    81.5393    19.0607
 2860.0080    79.0223    83.8074    20.3069
 2860.5080    80.2626    84.5731    21.4409
 2861.0080    80.8826    86.0900    21.6878
 2861.5080    80.1832    87.3861    21.4375
 2862.0080    80.1049    88.8771    21.1565
 2862.5080    83.8275    89.1384    21.3410
 2863.0080    90.8696    87.1534    29.9660
 2863.5080   100.0580    89.4215  -999.2500
 2864.0080   109.2465    98.5116   -38.8130
 2864.5080   118.4349   114.9537   -28.3478
 2865.0080   116.7562   131.5309   -28.4426
 2865.5080   105.3787   136.8036   -35.6270
 2866.0080    94.0012   132.3987   -42.8424
 2866.5080    82.6236   111.1393  -999.2500
 2867.0080    76.9852    89.8799    19.3396
 2867.5080    76.6804    81.7806    18.6237
 2868.0080    76.7570    80.0424    18.5914
 2868.5080    77.2215    79.3058    18.9617
 2869.0080    77.6861    78.5692    19.2703
 2869.5080    78.3058    77.5822    19.6201
 2870.0080    78.8479    76.3445    20.1664
 2870.5080    79.7779    76.6262    20.5682
 2871.0080    80.3275    76.8783    21.0009
 2871.5080    80.8619    75.8876    21.4026
 2872.0080    81.8695    76.6570    21.9285
 2872.5080    82.9547    78.4243    22.5164
 2873.0080    84.0398    82.1947    23.1353
 2873.5080    84.5044    84.2124    24.1678
 2874.0080    84.6586    86.4805    24.2181
 2874.5080    84.3473    87.8000    24.1849
 2875.0080    85.0289    89.0171    24.8349
 2875.5080    89.5431    90.7844    29.9843
 2876.0080    97.3329    96.8083  -999.2500
 2876.5080   106.7608   103.1373   -44.0089
 2877.0080   116.1886   110.3495   -29.3225
 2877.5080   114.3815   117.5618   -32.3942
 2878.0080   100.4097   125.9144   -38.6658
 2878.5080    86.4379   125.4281   -44.9374
 2879.0080    79.0630   110.5934  -999.2500
 2879.5080    77.5105    93.6031    19.1717
 2880.0080    79.3715    85.4092    19.9764
 2880.5080    80.5342    83.1702    20.7505
 2881.0080    81.3867    80.4305    21.2454
 2881.5080    81.8512    81.7006    22.0505
 2882.0080    82.1606    83.9687    22.4522
 2882.5080    82.4894    84.4840    22.5444
 2883.0080    82.4688    84.7489    22.5730
 2883.5080    82.0799    86.5162    22.5708
 2884.0080    81.8463    89.2851    22.4761
 2884.5080    81.8453    89.2998    22.4123
 2885.0080    81.7668    89.6067    22.3175
 2885.5080    81.4556    92.0867    22.1607
 2886.0080    81.1407    94.8555    22.0038
 2886.5080    80.7552    95.8717    21.8765
 2887.0080    80.6769    95.6358    21.5520
 2887.5080    80.8312    95.3963    21.2846
 2888.0080    81.2955    94.9137    21.6553
 2888.5080    82.0703    94.1771    22.1811
 2889.0080    83.2331    94.4457    23.4174
 2889.5080    84.0079    95.4618    24.0775
 2890.0080    84.3173    96.2275    24.2859
 2890.5080    84.5489    97.2437    24.3773
 2891.0080    84.7033    97.7553    24.3136
 2891.5080    84.3143    95.7704    23.9085
 2892.0080    83.4014    95.5345    23.5654
 2892.5080    81.9886    95.7999    22.6782
 2893.0080    80.5758    95.8177    21.7119
 2893.5080    79.1629    94.3299    20.7456
 2894.0080    77.9479    92.0909    19.9278
 2894.5080    77.5591    90.5995    19.5529
 2895.0080    77.9460    91.8696    19.4279
 2895.5080    78.5657    91.3834    19.5809
 2896.0080    78.7209    91.3981    19.9516
 2896.5080    78.8741    91.9139    20.0741
 2897.0080    78.7178    89.4276    20.0413
 2897.5080    78.4841    85.9366    19.9465
 2898.0080    78.2505    84.6956    19.6656
 2898.5080    77.9392    84.2094    19.4760
 2899.0080    77.6279    83.9735    19.2540
 2899.5080    77.4718    84.2421    19.1015
 2900.0080    77.3933    87.0447    18.9526
 2900.5080    77.6249    88.2836    19.0145
 2901.0080    77.9343    87.8035    19.1695
 2901.5080    78.7867    87.8293    19.6276
 2902.0080    79.2513    90.3539    20.2470
 2902.5080    80.1037    91.8769    20.9377
 2903.0080    80.1804    91.3968    20.9996
 2903.5080    80.1018    90.9166    20.9373
 2904.0080    79.8588    89.6788    20.6268
 2904.5080    79.4015    89.7436    20.2232
 2905.0080    79.0126    91.7350    19.9366
 2905.5080    78.4687    93.0076    19.8815
 2906.0080    78.5455    94.7810    19.8502
 2906.5080    78.3892    95.2973    19.6949
 2907.0080    78.0004    94.0711    19.1361
 2907.5080    77.2946    87.8320    18.6705
 2908.0080    76.2749    86.0999    17.7126
 2908.5080    73.8984    86.1212    16.5096
 2909.0080    71.9744    84.1433    15.3065
 2909.5080    69.8496    79.9073    14.0149
 2910.0080    68.8401    74.6439    13.2700
 2910.5080    69.3822    67.0987    13.0181
 2911.0080    71.0714    57.9349    14.4728
 2911.5080    72.9939    57.7043    15.7980
 2912.0080    74.1891    57.4754    16.8101
 2912.5080    74.5760    57.4961    17.0238
 2913.0080    74.6529    55.2684    17.1478
 2913.5080    74.6518    51.2828    17.2407
 2914.0080    74.6508    51.0479    17.2716
 2914.5080    74.4947    51.3241    17.0541
 2915.0080    73.9479    51.5952    16.8057
 2915.5080    73.3719    51.1151    16.4310
 2916.0080    72.7849    51.1357    15.7872
 2916.5080    72.7840    52.1647    15.6258
 2917.0080    73.0936    52.4298    15.7808
 2917.5080    73.3252    51.7037    15.9668
 2918.0080    73.0139    50.9680    16.0598
 2918.5080    72.7802    49.4915    16.0642
 2919.0080    72.5465    44.5043    15.9042
 2919.5080    72.2351    42.0211    15.6207
 2920.0080    71.4583    40.2890    15.2521
 2920.5080    69.0470    40.5600    14.0106
 2921.0080    66.1902    39.8037    11.9737
 2921.5080    63.3334    38.6034     9.5956
 2922.0080    61.6795    38.8745     8.0400
 2922.5080    62.5319    40.1471     8.1951
 2923.0080    64.9102    41.1693    10.2174
 2923.5080    68.0159    40.9396    12.2397
 2924.0080    71.2954    39.7083    14.5678
 2924.5080    72.2254    37.9762    15.1883
 2925.0080    73.0779    38.5147    15.7157
 2925.5080    73.4648    41.0274    16.1809
 2926.0080    74.3173    42.8008    16.8014
 2926.5080    75.0145    44.0734    17.3018
 2927.0080    74.6255    45.3460    17.5147
 2927.5080    74.2366    44.6155    16.6767
 2928.0080    73.7702    43.1338    16.4592
 2928.5080    73.6141    39.8994    16.2729
 2929.0080    73.3029    38.9120    15.9934
 2929.5080    72.5261    38.6888    15.7139
 2930.0080    71.3615    40.7177    15.0170
 2930.5080    68.3127    42.4912    12.8006
 2931.0080    64.9074    42.5118    10.2665
 2931.5080    61.5022    42.2769     7.7324
 2932.0080    58.0698    43.3043     4.9449
 2932.5080    57.0043    43.6078     4.1999
 2933.0080    57.0812    40.3409     3.9825
 2933.5080    57.2351    39.8608     4.2928
 2934.0080    57.6997    40.8882     4.5804
 2934.5080    58.4745    41.9105     5.0991
 2935.0080    61.2738    47.1893     6.2670
 2935.5080    65.2309    50.2147     9.5468
 2936.0080    69.1880    49.9850    12.8266
 2936.5080    73.1371    49.5039    15.3336
 2937.0080    74.7061    50.7775    16.8971
 2937.5080    75.2258    52.6014    17.7279
 2938.0080    75.5351    54.5798    18.0690
 2938.5080    77.2410    52.8477    18.4460
 2939.0080    77.8606    50.8653    19.1237
 2939.5080    78.5579    50.3852    19.8062
 2940.0080    79.3328    52.4090    20.1784
 2940.5080    79.2492    53.1808    20.4265
 2941.0080    79.2533    53.4518    20.5194
 2941.5080    79.5625    51.7198    20.7054
 2942.0080    80.4925    50.1282    20.9250
 2942.5080    81.1122    47.5096    21.4534
 2943.0080    81.4216    46.0279    22.1633
 2943.5080    82.0413    44.5462    22.5975
 2944.0080    82.2731    42.3082    22.7835
