~VERSION INFORMATION
 VERS.               2.10:   CWLS LOG ASCII STANDARD - VERSION 2.10
 WRAP.                 NO:   ONE LINE PER DEPTH STEP
~WELL INFORMATION
#MNEM.UNIT      DATA TYPE    INFORMATION
#----------   ------------   ------------------------------
 STRT.F         2398.5081:   START DEPTH
 STOP.F         5645.6445:   STOP DEPTH
 STEP.F            0.5000:   STEP LENGTH
 NULL.          -999.2500:   NO VALUE
 COMP. Lawrence Allison and Associates:   COMPANY
 WELL.          43 TPX 10:   WELL
 FLD .           N.P.R. 3:   FIELD
 LOC . 10-38N-78W-NATRONA-WY:   LOCATION
 STAT.                 WY:   STATE
 COUN.            Natrona:   COUNTY
 SRVC.      Dresser Atlas:   SERVICE COMPANY
 DATE.                   :   LOGDATE
 APIN.         4902511207:   API NUMBER
~CURVE INFORMATION
#MNEM.UNIT       API CODE    CURVE DESCRIPTION
#----------   ------------   ------------------------------
 DEPT.F                  :
 DT  .us/f   60 520 00 00:   Delta t
 GR  .API    60 310 00 00:   Gamma Ray
 PORA.None               :   Porosity
~PARAMETER INFORMATION
#MNEM.UNIT          VALUE    DESCRIPTION
#----------   ------------   ------------------------------
 EKB .F         5215.0000:   Kelly bushing
 EGL .F         5203.0000:   Ground level
 EDF .F            0.0000:   Drilling floor
 EPD .F           10.0000:   Permanent datum
 TD  .F         3340.0000:   Total depth
 NRUN.             1.0000:   Number of Runs
#--RUN 1---   ------------   The following are for Run 1---
 RUN .             1.0000:   Run 1
 DATE.mm/dd/yyyy 02/19/1985:   Date Logged
 DD  .ft             5650:   Depth Driller
 DL  .ft             5649:   Depth Logger
 BLI .ft             5640:   Bottom Log Interval
 TLI .ft             2440:   Top Log Interval
 CSS .inch          9.625:   Casing Size
 CTD1.ft              510:   Casing Driller 1
 BS  .inch            8.5:   Bit Size
 DFT .            kcl gel:   Type Fluid In Hole
 DFD .lb/gal          9.5:   Mud Weight
 DFV .sec              44:   Viscosity
 DFPH.                8.5:   pH
 DFL .cc              9.0:   Fluid Loss
 WSS .           flowline:   Source Of Sample
 RM  .ohmm            .32:   Rm
 EMT .F                74:   Rm Meas. Temp.
 RMF .ohmm            .26:   Rmf
 MFT .F                74:   Rmf Meas. Temp.
 RMC .ohmm            .40:   Rmc
 MCST.F                74:   Rmc Meas. Temp.
 MFSS.               meas:   Source Rmf.
 MCSS.               calc:   Source Rmc.
 RMB .ohmm            .14:   Rm. At BHT
 BHT .F               164:   BHT.
 TCS .hh:mm        11 hrs:   Time Circ. Stopped
 MRT .F               164:   Maximum Recorded Temp.
 LUL .              Gltte:   Logging Unit Location
 ENGI.               Mack:   Recorded By
 WITN.          Mr. Strog:   Witnessed By
 DGBY.              Burke:   Digitized By
~T 1 Tops
First Wall Creek                 2512.0
~OTHER INFORMATION
# Repeat recorded off depth.
~A  DEPTH       DT         GR       PORA
# ...
 4491.5080    78.7651    37.9785    20.2297
 4492.0080    79.8739    40.7977    20.4772
 4492.5080    82.7421    42.0174    22.1462
 4493.0080    83.6708    37.0558    23.4858
 4493.5080    84.1340    34.8357    23.7644
 4494.0080    84.2099    35.8554    23.9499
 4494.5080    83.7416    37.8720    23.7318
 4495.0080    83.5066    36.8980    23.6690
 4495.5080    83.5038    35.1372    23.7303
 4496.0080    83.5797    33.2110    23.7917
 4496.5080    83.5769    33.2339    23.7910
 4497.0080    83.6528    33.5059    23.8213
 4497.5080    83.8827    34.2764    23.8827
 4498.0080    83.9581    34.7977    23.7266
 4498.5080    83.7220    34.8205    23.1673
 4499.0080    82.2822    34.8440    22.5770
 4499.5080    80.6148    36.3673    21.0868
 4500.0080    79.2161    37.6362    20.3723
 4500.5080    78.8280    39.8754    20.1234
 4501.0080    78.2069    42.6272    19.8426
 4501.5080    77.6634    44.3614    19.3542
 4502.0080    76.9647    44.6106    18.2281
 4502.5080    75.2574    45.6075    17.5757
 4503.0080    75.0204    46.8536    17.4200
 4503.5080    75.5766    47.6012    18.0398
 4504.0080    77.8112    47.6012    19.9010
 4504.5080    79.4447    43.3645    21.3277
 4505.0080    80.2976    38.9791    21.6410
 4505.5080    80.9179    35.8879    21.7297
 4506.0080    80.9950    34.8910    21.6668
 4506.5080    80.9168    33.8941    21.6973
 4507.0080    80.7612    33.8941    21.6403
 4507.5080    80.2952    34.6417    21.4843
 4508.0080    79.2862    36.3863    20.7698
 4508.5080    78.0445    36.6355    19.5619
 4509.0080    74.1394    38.3801    17.6610
 4509.5080    71.6130    40.8723    15.7602
 4510.0080    69.0866    42.8660    13.8594
 4510.5080    66.5602    45.8567    11.9585
 4511.0080    64.0338    49.5950    10.0576
 4511.5080    61.5074    49.6165     8.0132
 4512.0080    58.9810    45.7611     5.9687
 4512.5080    56.4546    37.6275     3.9243
 4513.0080    53.9282    26.9159     1.8798
 4513.5080    51.1195    24.9221    -0.1861
 4514.0080    50.4208    23.4268    -0.6214
 4514.5080    49.8773    21.9118    -0.8084
 4515.0080    49.9545    21.6822    -0.7782
 4515.5080    50.0315    22.6791    -0.7170
 4516.0080    50.5744    23.1776    -0.5316
 4516.5080    50.8839    22.6791    -0.0857
 4517.0080    51.5040    21.9315     0.4285
 4517.5080    51.7362    21.4330     0.6449
 4518.0080    52.1237    21.6949     0.5510
 4518.5080    51.5025    22.6791     0.2399
 4519.0080    51.0366    23.4268    -0.2575
 4519.5080    50.4155    23.6760    -0.5996
 4520.0080    49.9495    23.4268    -0.7556
 4520.5080    50.1818    22.9283    -0.6636
 4521.0080    50.4141    20.9346    -0.6021
 4521.5080    50.4912    18.6880    -0.6342
 4522.0080    50.2503    19.0546    -0.7902
 4522.5080    49.8695    20.9346    -1.0392
 4523.0080    49.4811    20.6854    -1.2573
 4523.5080    49.2480    19.6885    -1.2581
 4524.0080    49.8680    18.6916    -0.9671
 4524.5080    50.1779    18.9408    -0.6083
 4525.0080    50.4877    20.6854    -0.4540
 4525.5080    50.7201    23.7682    -0.3307
 4526.0080    50.7971    25.6698    -0.2692
 4526.5080    50.7190    24.6729    -0.2703
 4527.0080    50.8737    21.6822    -0.2711
 4527.5080    50.9508    19.6885    -0.3050
 4528.0080    50.7175    18.4424    -0.3971
 4528.5080    50.4843    18.6916    -0.5531
 4529.0080    50.2511    19.9605    -0.7711
 4529.5080    49.9403    20.1869    -0.8961
 4530.0080    49.9398    19.1900    -0.9590
 4530.5080    49.9393    19.4393    -0.8977
 4531.0080    50.3268    21.1838    -0.6503
 4531.5080    50.9469    23.9252    -0.2934
 4532.0080    51.1016    26.4174     0.9256
 4532.5080    52.5080    29.0985     2.3315
 4533.0080    54.9540    32.7644     3.7373
 4533.5080    56.8143    36.4303     5.1431
 4534.0080    58.6746    40.0963     6.5490
 4534.5080    60.5348    43.7622     7.9548
 4535.0080    62.3951    47.4281     9.3606
 4535.5080    64.2554    51.0941    10.6374
 4536.0080    65.9154    55.3271    11.4124
 4536.5080    67.4030    57.8193    11.7840
 4537.0080    68.1642    60.5607    12.4969
 4537.5080    68.7843    63.3022    13.2408
 4538.0080    69.7924    70.9550    14.2330
 4538.5080    70.3350    81.5745    14.5116
 4539.0080    70.9551    92.1940    14.5727
 4539.5080    71.1099    99.1900    14.2303
 4540.0080    69.9457    97.6272    12.0262
 4540.5080    67.9281    94.9533    11.3427
 4541.0080    66.9967    91.2150    11.3111
 4541.5080    66.7635    90.2181    13.0478
 4542.0080    68.5155    90.2181    13.9779
 4542.5080    70.7190    90.7165    14.5377
 4543.0080    71.1064    93.2087    14.3174
 4543.5080    70.6404    95.5015    13.1995
 4544.0080    69.1659    93.6398    11.6160
 4544.5080    67.1484    88.9139    11.2738
 4545.0080    66.5273    84.1879    11.2420
 4545.5080    66.5268    81.2461    11.1481
 4546.0080    66.6815    81.9938    10.9300
 4546.5080    66.5259    83.7383    10.4392
 4547.0080    65.8243    85.7321     9.8402
 4547.5080    64.8787    83.2399     9.3263
 4548.0080    64.1969    73.7283     8.8163
 4548.5080    63.4207    63.3022     8.4742
 4549.0080    62.7996    59.0654     8.0699
 4549.5080    62.2560    57.0479     7.7277
 4550.0080    62.0228    55.5763     7.6028
 4550.5080    61.7120    53.0841     7.5709
 4551.0080    61.6340    49.3458     7.6940
 4551.5080    61.6335    47.3520     7.7863
 4552.0080    61.8658    46.3551     8.0337
 4552.5080    62.1777    48.5981     8.2501
 4553.0080    62.4170    52.6190     8.4976
 4553.5080    62.8728    56.8224     9.1493
 4554.0080    63.8032    63.3022    10.9116
 4554.5080    65.1908    71.4675    13.0057
 4555.0080    69.1307    81.1834    15.0998
 4555.5080    73.2339    90.8992    16.1581
 4556.0080    74.1728    98.6916    16.6227
 4556.5080    72.7370    99.1900    15.6828
 4557.0080    70.3328    99.6885    14.0399
 4557.5080    67.9287   100.6854    12.3970
 4558.0080    65.5246    98.0540    10.7541
 4558.5080    62.7932    89.2963     9.1111
 4559.0080    62.3328    79.5592     8.0529
 4559.5080    62.6483    69.8221     7.9589
 4560.0080    63.1965    64.0498     8.3036
 4560.5080    64.1372    65.3307     9.0742
 4561.0080    64.7596    68.2866     9.5699
 4561.5080    64.6859    73.7695     9.8484
 4562.0080    64.3820    79.5016     9.8788
 4562.5080    63.6113    81.7445     8.9158
 4563.0080    62.6855    81.7872     8.1081
 4563.5080    62.0700    78.0062     7.7037
 4564.0080    61.6756    71.4192     7.5436
 4564.5080    61.6148    66.5421     7.6089
 4565.0080    62.2419    64.5483     7.8563
 4565.5080    63.4883    65.7944     8.4451
 4566.0080    64.5019    71.5265     9.2511
 4566.5080    64.8174    77.5078     9.8089
 4567.0080    64.5898    79.2523     9.8101
 4567.5080    64.4397    78.2367     9.5548
 4568.0080    64.5237    77.5078     9.2786
 4568.5080    65.2925    77.5078     9.6193
 4569.0080    66.3025    80.4984    10.3941
 4569.5080    67.7208    87.0475    11.4794
 4570.0080    67.8022    94.5190    12.0372
 4570.5080    66.1794   100.4361    12.0053
 4571.0080    65.0984    97.9439    10.6701
 4571.5080    64.5605    93.3888    10.0323
 4572.0080    64.2553    88.0248     9.4891
 4572.5080    64.4034    82.6608     9.4574
 4573.0080    66.5129    75.0156    10.5425
 4573.5080    68.4760    73.5202    11.1002
 4574.0080    70.4390    77.2586    12.7618
 4574.5080    71.9778    81.7632    15.1016
 4575.0080    72.5104    87.9499    15.5042
 4575.5080    70.8566    93.4579    14.6002
 4576.0080    66.6462    94.9533    12.0661
 4576.5080    62.6749    91.6367     9.5321
 4577.0080    61.9819    83.7613     8.0842
 4577.5080    61.9870    75.8858     7.7668
 4578.0080    62.2249    70.2804     7.7412
 4578.5080    63.0863    68.5069     8.3298
 4579.0080    64.3311    67.7882     8.8255
 4579.5080    65.5539    67.2897     9.9418
 4580.0080    67.4342    66.5421    11.2482
 4580.5080    69.3144    67.7882    12.6936
 4581.0080    70.4225    76.2617    13.7251
 4581.5080    69.7106    85.4829    14.0348
 4582.0080    68.0852    93.7506    12.8545
