~VERSION INFORMATION
 VERS.               2.10:   CWLS LOG ASCII STANDARD - VERSION 2.10
 WRAP.                 NO:   ONE LINE PER DEPTH STEP
~WELL INFORMATION
#MNEM.UNIT      DATA TYPE    INFORMATION
#----------   ------------   ------------------------------
 STRT.F         2399.8379:   START DEPTH
 STOP.F         5667.9595:   STOP DEPTH
 STEP.F            0.5000:   STEP LENGTH
 NULL.          -999.2500:   NO VALUE
 COMP. Lawrence Allison & Associates:   COMPANY
 WELL.          43-TPX-10:   WELL
 FLD .           N.P.R. 3:   FIELD
 LOC . 10-38N-78W-NATRONA-WY:   LOCATION
 STAT.                 WY:   STATE
 COUN.            Natrona:   COUNTY
 SRVC.      Dresser Atlas:   SERVICE COMPANY
 DATE.                   :   LOGDATE
 APIN.         4902511207:   API NUMBER
~CURVE INFORMATION
#MNEM.UNIT       API CODE    CURVE DESCRIPTION
#----------   ------------   ------------------------------
 DEPT.F                  :
 LLD .ohmm   11 220 04 00:   Dual Laterolog, Deep
 LLS .ohmm   11 220 06 00:   Dual Laterolog, shallow
 MNOR.ohmm   15 252 02 00:   Microlog, normal 2"
 GR  .GAPI   06 310 01 00:   Gamma Ray
 SP  .mV     06 010 01 00:   Spontaneous Potential
~PARAMETER INFORMATION
#MNEM.UNIT          VALUE    DESCRIPTION
#----------   ------------   ------------------------------
 EKB .F         5215.0000:   Kelly bushing
 EGL .F         5203.0000:   Ground level
 EDF .F            0.0000:   Drilling floor
 EPD .F           10.0000:   Permanent datum
 TD  .F         5260.0000:   Total depth
 NRUN.             1.0000:   Number of Runs
#--RUN 1---   ------------   The following are for Run 1---
 RUN .             1.0000:   Run 1
 DATE.mm/dd/yyyy 02/19/85:   Date Logged
 DD  .ft             5650:   Depth Driller
 DL  .ft             5649:   Depth Logger
 BLI .ft             5646:   Bottom Log Interval
 TLI .ft              511:   Top Log Interval
 CSS .inch          9-5/8:   Casing Size
 CTD1.ft              510:   Casing Driller 1
 CTL1.ft              511:   Casing Logger 1
 BS  .inch            8.5:   Bit Size
 DFT .            kcl-gel:   Type Fluid In Hole
 DFD .lb/gal          9.5:   Mud Weight
 DFV .sec              44:   Viscosity
 DFPH.                8.5:   pH
 DFL .cc              9.0:   Fluid Loss
 WSS .           flowline:   Source Of Sample
 RM  .ohmm            .32:   Rm
 EMT .F                74:   Rm Meas. Temp.
 RMF .ohmm            .26:   Rmf
 MFT .F                74:   Rmf Meas. Temp.
 RMC .ohmm            .40:   Rmc
 MCST.F                74:   Rmc Meas. Temp.
 MFSS.              meas.:   Source Rmf.
 MCSS.              calc.:   Source Rmc.
 RMB .ohmm            .14:   Rm. At BHT
 BHT .F               164:   BHT.
 TCS .hh:mm         5 hrs:   Time Circ. Stopped
 MRT .F               164:   Maximum Recorded Temp.
 LUL .               Glte:   Logging Unit Location
 ENGI.               Mack:   Recorded By
 WITN.         Mr. Strong:   Witnessed By
 DGBY.              Burke:   Digitized By
~T 1 Tops
First Wall Creek                 2512.0
~A  DEPTH      LLD        LLS       MNOR         GR         SP
# ...
 4107.8380     7.8188     7.0420     8.0774    73.8512    54.7022
 4108.3380     8.1659     7.5674     8.1367    68.2033    54.7050
 4108.8380     8.5739     7.8461     8.5561    66.0679    54.7073
 4109.3380     8.8847     7.8492     8.8059    65.6272    54.2430
 4109.8380     8.6343     7.6855     8.5599    64.7799    53.6226
 4110.3380     7.7031     6.9389     7.4061    62.4888    53.7809
 4110.8380     6.1315     5.2872     6.1667    60.4134    53.7832
 4111.3380     5.0218     4.0679     5.5765    63.2316    53.7854
 4111.8380     4.5422     3.5259     4.5803    72.2756    53.7877
 4112.3380     3.9744     3.3064     4.0496    81.6311    53.7905
 4112.8380     3.3443     3.2365     3.7984    85.7457    53.7928
 4113.3380     3.2041     3.1683     3.7185    86.6875    53.7950
 4113.8380     3.2499     3.2144     3.6929    87.1762    53.9528
 4114.3380     3.3917     3.3345     3.8556    88.5724    53.9551
 4114.8380     3.4896     3.4788     4.2925    85.1542    53.9573
 4115.3380     3.5904     3.5294     4.7110    82.2833    53.9596
 4115.8380     3.6171     3.4549     4.4737    82.3365    54.1174
 4116.3380     3.5900     3.3820     4.3571    87.4889    54.4313
 4116.8380     3.5642     3.3825     4.3896    94.8404    55.0556
 4117.3380     3.5640     3.4317     4.6156    98.2882    55.0579
 4117.8380     3.6150     3.5319     4.8880   100.8887    55.0601
 4118.3380     3.6929     3.6349     5.0668   101.4217    55.0624
 4118.8380     3.7458     3.6096     5.1408    95.1773    54.9090
 4119.3380     3.7189     3.5588     4.7868    94.8688    54.7559
 4119.8380     3.6645     3.4342     4.3832    94.8932    54.7582
 4120.3380     3.5374     3.3378     4.1524    95.5040    54.6054
 4120.8380     3.5626     3.4107     4.3665    97.3454    54.4516
 4121.3380     3.6135     3.6121     4.7581    98.6375    53.8323
 4121.8380     3.6652     3.5869     4.5923    95.8306    53.6785
 4122.3380     3.6389     3.5364     4.3383    90.8818    53.6813
 4122.8380     3.5364     3.3883     4.1573    84.9006    53.6836
 4123.3380     3.4124     3.2932     4.1583    84.7996    53.8414
 4123.8380     3.4140     3.3411     4.3488    85.0099    53.8437
 4124.3380     3.4857     3.4141     4.5977    84.9157    53.8465
 4124.8380     3.5863     3.5644     4.8344    83.9480    53.8487
 4125.3380     3.6637     3.5649     4.8009    85.2375    53.8510
 4125.8380     3.7426     3.5654     4.5356    84.9299    54.0088
 4126.3380     3.7961     3.6206     4.4086    84.6219    54.0110
 4126.8380     3.9336     3.7766     4.6359    80.0633    53.8577
 4127.3380     4.1053     4.0284     5.6228    73.3815    53.8601
 4127.8380     4.4168     4.2970     6.2752    71.4675    53.8628
 4128.3380     4.8361     4.4542     6.9194    70.8900    54.0206
 4128.8380     4.9757     4.7512     6.4906    72.1457    54.0229
 4129.3380     4.8701     4.9603     6.0447    74.3861    54.0251
 4129.8380     4.5999     4.8527     5.9600    76.3359    54.0274
 4130.3380     4.2832     4.4418     5.7938    80.9098    53.8741
 4130.8380     4.0744     4.0037     5.2439    81.8577    53.8764
 4131.3380     3.8759     3.5456     4.4191    83.0014    53.8787
 4131.8380     3.7081     3.3012     4.0799    88.7365    53.7260
 4132.3380     3.4331     3.2084     3.9157    92.5033    53.5721
 4132.8380     3.4085     3.1859     3.8888    91.4304    53.5750
 4133.3380     3.4820     3.3263     4.0892    88.7506    53.4212
 4133.8380     3.6081     3.4991     4.3305    80.6924    53.4240
 4134.3380     3.7388     3.5998     4.4570    77.6902    53.2706
 4134.8380     3.6857     3.3517     4.3635    75.9523    53.2730
 4135.3380     3.6075     3.0984     4.0348    79.5041    53.2753
 4135.8380     3.4507     2.9474     3.8363    85.6723    53.2781
 4136.3380     3.2644     2.9267     3.7854    87.2164    53.4358
 4136.8380     3.1725     2.9272     3.7865    88.7829    53.7491
 4137.3380     3.1052     3.0126     3.8145    88.7729    53.9069
 4137.8380     3.2176     3.0822     3.8980    87.5431    53.9092
 4138.3380     3.3105     3.2140     4.0118    87.1218    53.9114
 4138.8380     3.4305     3.3316     4.3716    86.6040    53.9143
 4139.3380     3.5802     3.4288     4.8669    85.3697    54.0716
 4139.8380     3.6573     3.4787     4.9471    80.5828    54.2298
 4140.3380     3.5797     3.4053     4.1686    80.0657    54.3876
 4140.8380     3.4541     3.2394     3.7661    81.2982    54.3899
 4141.3380     3.3569     3.1036     3.6840    82.0436    54.3921
 4141.8380     3.2391     2.9501     3.6360    82.8924    54.2383
 4142.3380     3.1931     2.9109     3.6630    86.8801    54.2411
 4142.8380     3.1031     2.9114     3.7970    89.1518    53.9324
 4143.3380     3.1033     2.9537     3.8523    88.6584    53.7791
 4143.8380     3.1730     3.0399     3.7180    86.9745    53.4709
 4144.3380     3.2382     3.1287     3.8268    85.1034    53.3170
 4144.8380     3.3316     3.2200     3.9386    82.6655    53.3199
 4145.3380     3.4034     3.2435     3.9677    81.9869    53.4777
 4145.8380     3.3791     3.2208     3.8571    81.9926    53.7910
 4146.3380     3.3789     3.2445     3.8303    81.0801    54.1043
 4146.8380     3.4272     3.3874     4.2040    82.3136    54.2621
 4147.3380     3.5018     3.5365     4.7816    82.0063    54.2649
 4147.8380     3.6061     3.5878     4.3587    82.1391    54.2671
 4148.3380     3.7326     3.3646     3.9450    82.2849    54.2694
 4148.8380     3.7059     3.2936     3.7003    82.4308    54.4272
 4149.3380     3.6793     3.2941     3.5969    82.5767    54.5849
 4149.8380     3.7054     3.3498     3.7287    83.2803    54.7427
 4150.3380     3.8124     3.5395     3.8651    82.0930    54.7450
 4150.8380     3.9788     3.6690     4.0065    79.9924    54.7473
 4151.3380     4.1241     3.7761     4.1530    77.9820    55.2166
 4151.8380     4.2169     3.8862     4.2743    77.6735    55.3744
 4152.3380     4.3026     3.9428     4.2753    77.2417    55.5322
 4152.8380     4.2414     3.9434     4.2762    74.5586    55.5345
 4153.3380     4.1811     3.9439     3.3940    72.0301    55.5367
 4153.8380     4.1511     3.8059     2.0653    68.6296    55.6945
 4154.3380     4.2406     3.7792     2.0877    69.8853    55.8523
 4154.8380     4.3943     3.9176     2.6900    70.0026    56.0277
 4155.3380     4.6223     4.6191     5.2287    70.2063    56.1678
 4155.8380     5.6388     5.0340     6.1194    69.5869    55.7041
 4156.3380     5.7605     5.2556     6.3887    66.1531    55.5503
 4156.8380     5.2129     4.9995     6.8630    64.5954    55.2415
 4157.3380     4.9589     4.6771     6.8001    63.8646    55.0882
 4157.8380     4.6837     4.1520     5.5032    66.9896    55.0911
 4158.3380     4.3924     3.8382     4.7043    73.3595    54.9378
 4158.8380     4.2687     3.7841     4.4760    75.3119    54.9401
 4159.3380     4.3319     3.9508     4.5414    76.8351    55.2539
 4159.8380     4.5835     4.2444     4.8438    79.9362    55.5672
 4160.3380     4.8869     4.4313     5.3162    82.0745    55.8805
 4160.8380     5.1002     4.5606     5.6703    80.3518    56.1938
 4161.3380     5.2475     4.6602     5.9198    76.8253    56.8182
 4161.8380     4.9917     4.4651     5.7547    76.5172    57.2870
 4162.3380     4.3135     3.8474     4.5803    76.6554    57.2836
 4162.8380     3.6145     3.0982     3.7512    77.7770    57.1360
 4163.3380     3.0736     2.6304     1.2318    78.9001    57.2944
 4163.8380     2.9447     2.6497     1.0990    74.8020    57.2966
 4164.3380     2.9868     3.1692     1.5051    73.4161    57.4544
 4164.8380     3.4443     3.7636     4.5530    72.9526    57.4567
 4165.3380     4.3266     4.1608     4.9614    73.7781    56.9924
 4165.8380     4.5493     4.2537     5.1063    78.4303    56.8391
 4166.3380     4.5475     4.0717     5.0351    80.4338    56.0463
 4166.8380     4.4828     3.8201     4.7566    81.2900    55.1870
 4167.3380     4.1741     3.6081     4.6237    81.5694    54.3277
 4167.8380     3.9991     3.5573     4.5592    81.2610    54.0486
 4168.3380     3.9705     3.6091     4.5603    81.2950    53.8958
