~VERSION INFORMATION
 VERS.               2.10:   CWLS LOG ASCII STANDARD - VERSION 2.10
 WRAP.                 NO:   ONE LINE PER DEPTH STEP
~WELL INFORMATION
#MNEM.UNIT      DATA TYPE    INFORMATION
#----------   ------------   ------------------------------
 STRT.F         2398.5081:   START DEPTH
 STOP.F         5645.6445:   STOP DEPTH
 STEP.F            0.5000:   STEP LENGTH
 NULL.          -999.2500:   NO VALUE
 COMP. Lawrence Allison and Associates:   COMPANY
 WELL.          43 TPX 10:   WELL
 FLD .           N.P.R. 3:   FIELD
 LOC . 10-38N-78W-NATRONA-WY:   LOCATION
 STAT.                 WY:   STATE
 COUN.            Natrona:   COUNTY
 SRVC.      Dresser Atlas:   SERVICE COMPANY
 DATE.                   :   LOGDATE
 APIN.         4902511207:   API NUMBER
~CURVE INFORMATION
#MNEM.UNIT       API CODE    CURVE DESCRIPTION
#----------   ------------   ------------------------------
 DEPT.F                  :
 DT  .us/f   60 520 00 00:   Delta t
 GR  .API    60 310 00 00:   Gamma Ray
 PORA.None               :   Porosity
~PARAMETER INFORMATION
#MNEM.UNIT          VALUE    DESCRIPTION
#----------   ------------   ------------------------------
 EKB .F         5215.0000:   Kelly bushing
 EGL .F         5203.0000:   Ground level
 EDF .F            0.0000:   Drilling floor
 EPD .F           10.0000:   Permanent datum
 TD  .F         3340.0000:   Total depth
 NRUN.             1.0000:   Number of Runs
#--RUN 1---   ------------   The following are for Run 1---
 RUN .             1.0000:   Run 1
 DATE.mm/dd/yyyy 02/19/1985:   Date Logged
 DD  .ft             5650:   Depth Driller
 DL  .ft             5649:   Depth Logger
 BLI .ft             5640:   Bottom Log Interval
 TLI .ft             2440:   Top Log Interval
 CSS .inch          9.625:   Casing Size
 CTD1.ft              510:   Casing Driller 1
 BS  .inch            8.5:   Bit Size
 DFT .            kcl gel:   Type Fluid In Hole
 DFD .lb/gal          9.5:   Mud Weight
 DFV .sec              44:   Viscosity
 DFPH.                8.5:   pH
 DFL .cc              9.0:   Fluid Loss
 WSS .           flowline:   Source Of Sample
 RM  .ohmm            .32:   Rm
 EMT .F                74:   Rm Meas. Temp.
 RMF .ohmm            .26:   Rmf
 MFT .F                74:   Rmf Meas. Temp.
 RMC .ohmm            .40:   Rmc
 MCST.F                74:   Rmc Meas. Temp.
 MFSS.               meas:   Source Rmf.
 MCSS.               calc:   Source Rmc.
 RMB .ohmm            .14:   Rm. At BHT
 BHT .F               164:   BHT.
 TCS .hh:mm        11 hrs:   Time Circ. Stopped
 MRT .F               164:   Maximum Recorded Temp.
 LUL .              Gltte:   Logging Unit Location
 ENGI.               Mack:   Recorded By
 WITN.          Mr. Strog:   Witnessed By
 DGBY.              Burke:   Digitized By
~T 1 Tops
First Wall Creek                 2512.0
~OTHER INFORMATION
# Repeat recorded off depth.
~A  DEPTH       DT         GR       PORA
# ...
 3854.5080    89.5416    98.1712    27.5153
 3855.0080    90.0078    97.4316    28.0429
 3855.5080    89.8534    98.6913    28.2911
 3856.0080    89.4663   100.1975    27.9464
 3856.5080    89.2343   101.4544    28.0428
 3857.0080    90.7626   102.4625    29.5633
 3857.5080    94.7508   101.4788  -999.2500
 3858.0080    97.9643    97.5079   -45.9371
 3858.5080    98.4695    92.3661   -45.6268
 3859.0080    97.5393    88.0507   -46.4390
 3859.5080    97.2295    88.0643   -46.3095
 3860.0080    98.0063    87.5767   -45.2764
 3860.5080   100.1858    85.6754   -43.4178
 3861.0080   103.1143    83.8560   -41.5591
 3861.5080   105.3134    82.0367   -40.6618
 3862.0080   104.8365    80.2173   -41.3577
 3862.5080   103.4408    78.3979   -42.2172
 3863.0080   102.1227    76.5786   -43.0767
 3863.5080   101.1149    74.9460   -43.7651
 3864.0080   101.4259    74.4557   -43.1755
 3864.5080   101.7370    76.4630   -43.3927
 3865.0080    95.7526    79.7137   -46.8684
 3865.5080    87.9886    80.9709    28.1979
 3866.0080    79.1638    75.7506    23.7020
 3866.5080    77.6128    74.2661    19.3073
 3867.0080    79.3205    73.5266    19.1673
 3867.5080    81.7651    74.0386    22.0647
 3868.0080    84.9853    76.5416    24.7840
 3868.5080    83.8224    79.5431    24.5596
 3869.0080    82.8146    80.0524    23.2774
 3869.5080    82.2652    75.9110    22.6117
 3870.0080    83.0490    70.8557    22.9531
 3870.5080    85.0518    71.3650    24.3076
 3871.0080    87.1915    74.8649    25.7613
 3871.5080    89.3352    77.8664    27.2151
 3872.0080    88.8393    79.3726    27.7940
 3872.5080    87.9404    82.8725    27.1733
 3873.0080    87.4757    86.6774    26.7178
 3873.5080    87.8643    87.1310    27.0802
 3874.0080    88.7185    84.9016    27.9180
 3874.5080    88.3313    84.4112    27.6077
 3875.0080    75.5315    85.4217    22.7173
 3875.5080    75.0668    85.1833    17.7395
 3876.0080    76.8813    82.2035    17.4292
 3876.5080    80.7939    78.4488    20.1152
 3877.0080    84.7065    76.7423    22.9830
 3877.5080    87.3331    84.2179    26.3042
 3878.0080    87.7161    93.9621    27.0800
 3878.5080    86.1654   104.1910    26.1316
 3879.0080    84.1491   104.9497    24.7471
 3879.5080    84.0721    99.9787    24.0078
 3880.0080    87.2537    94.2574    25.7753
 3880.5080    88.6509    88.5362    27.2132
 3881.0080    89.1947    89.0455    28.1039
 3881.5080    87.0544    92.7947    26.9754
 3882.0080    82.9903    94.7993    23.4215
 3882.5080    79.4221    93.5535    20.5321
 3883.0080    78.5695    87.4148    19.7873
 3883.5080    78.7254    84.8657    19.8494
 3884.0080    80.0450    84.1262    20.2838
 3884.5080    82.6853    84.6382    22.0370
 3885.0080    85.4133    85.8951    24.4631
 3885.5080    88.1413    91.6381    26.8892
 3886.0080    90.5990    95.3872    28.6002
 3886.5080    95.0065    97.6635  -999.2500
 3887.0080    99.6759    96.6577   -42.5557
 3887.5080   103.0916    94.9503   -42.1523
 3888.0080   103.4027    92.4048   -42.9902
 3888.5080   100.0711    89.8592   -46.3371
 3889.0080    95.6379    87.3136   -50.1586
 3889.5080    91.3026    84.5010    29.3759
 3890.0080    94.0964    76.7860   -47.8933
 3890.5080    97.5882    74.0550   -46.7762
 3891.0080    98.5199    75.0632   -45.5350
 3891.5080    98.9085    77.8946   -45.4108
 3892.0080    98.7541    78.5767   -45.4773
 3892.5080    98.5997    78.3356   -45.5350
 3893.0080    98.6134    78.5984   -45.2868
 3893.5080    98.9893    79.1077   -45.0385
 3894.0080    99.2228    81.1123   -44.9144
 3894.5080    99.3787    81.6216   -44.9144
 3895.0080    99.0691    81.1088   -45.0386
 3895.5080    98.7594    79.6495   -45.2576
 3896.0080    99.1482    80.4108   -45.1938
 3896.5080    99.4593    81.6677   -45.1317
 3897.0080    99.3050    81.4266   -45.4111
 3897.5080    98.8403    81.6894   -45.8145
 3898.0080    98.4532    82.9464   -46.2490
 3898.5080    97.7557    83.9541   -46.5283
 3899.0080    97.0582    84.9949   -46.7455
 3899.5080    96.7487    85.7230   -46.9938
 3900.0080    96.7494    86.2323   -46.8386
 3900.5080    97.0607    87.2401   -46.4663
 3901.0080    97.3717    89.4939   -46.3111
 3901.5080    97.5276    90.7481   -46.2801
 3902.0080    97.6060    89.5156   -46.4043
 3902.5080    97.5292    90.7495   -46.9008
 3903.0080    96.7541    94.1928   -47.2117
 3903.5080    96.2118    97.6360   -47.3663
 3904.0080    96.3679    98.8214   -47.2732
 3904.5080    96.9117    92.5914   -46.4354
 3905.0080    97.3003    84.9004   -46.1872
 3905.5080    97.3787    80.4302   -46.2492
 3906.0080    96.4485    78.9506   -47.0251
 3906.5080    94.8200    81.2093   -48.1387
 3907.0080    93.7268    86.2094   -49.3835
 3907.5080    92.8822    87.4713   -49.8490
 3908.0080    92.7276    86.9886  -999.2500
 3908.5080    92.9613    84.1848   -49.6629
 3909.0080    93.3500    82.5341   -49.2905
 3909.5080    93.8162    83.3014   -48.9132
 3910.0080    94.3601    84.5632   -48.5147
 3910.5080    94.9039    86.0743   -47.6459
 3911.0080    95.9908    87.5854   -46.7770
 3911.5080    96.8449    88.3488   -46.4357
 3912.0080    97.4663    94.3458   -46.3426
 3912.5080    97.2333   107.5684   -46.5909
 3913.0080    96.4067   123.8588   -47.4598
 3913.5080    94.6759   140.1491   -48.1548
 3914.0080    93.3578   156.4395   -49.4148
 3914.5080    92.6603  -139.3450   -49.7872
 3915.0080    92.6611  -136.3347   -50.1286
 3915.5080    92.8170  -140.0573   -49.9734
 3916.0080    92.8953  -999.2500   -49.9735
 3916.5080    92.8145   151.2163   -50.0976
 3917.0080    92.6641   135.9179  -999.2500
 3917.5080    92.1995   120.6195  -999.2500
 3918.0080    91.4245   104.0103    29.2611
 3918.5080    90.1840    97.1038    28.5453
 3919.0080    87.6246    90.8369    27.5128
 3919.5080    87.0047    88.6097    26.3026
 3920.0080    86.8503    85.8840    25.8681
 3920.5080    86.8586    84.6536    25.8681
 3921.0080    87.0847    83.9177    26.1163
 3921.5080    88.0940    83.6843    26.6439
 3922.0080    89.2584    82.9563    27.3886
 3922.5080    89.8798    81.2131    27.9622
 3923.0080    90.2685    80.7447    28.4126
 3923.5080    90.4244    81.2628    28.5057
 3924.0080    90.1126    82.0263    28.1953
 3924.5080    89.8053    82.2912    28.1643
 3925.0080    90.6596    82.5562    28.4436
 3925.5080    91.2810    82.5719    29.0021
 3926.0080    90.9714    81.8400    29.1573
 3926.5080    89.4206    80.1101    28.5726
 3927.0080    88.6455    80.4686    27.8539
 3927.5080    87.7153    84.1341    26.7988
 3928.0080    87.6385    86.6420    26.4884
 3928.5080    87.8722    87.6546    26.7367
 3929.0080    88.0281    85.1782    27.0780
 3929.5080    88.2616    79.7110    27.2331
 3930.0080    88.4175    76.9853    27.3599
 3930.5080    88.6510    77.7487    27.4193
 3931.0080    88.4190    80.5590    27.2951
 3931.5080    88.0318    82.5193    26.7986
 3932.0080    87.3953    81.0397    26.3331
 3932.5080    87.0248    77.8156    26.0228
 3933.0080    87.4912    76.0868    26.0538
 3933.5080    88.7332    75.8494    26.4572
 3934.0080    89.4322    77.1151    27.0560
 3934.5080    89.7433    79.1247    27.7915
 3935.0080    89.7440    81.3916    28.0398
 3935.5080    89.4310    82.3965    27.8846
 3936.0080    88.9340    81.6680    27.3570
 3936.5080    88.1949    80.4376    27.1398
 3937.0080    88.0403    79.9510    26.9846
 3937.5080    88.3515    79.9706    27.0481
 3938.0080    88.4299    80.2317    27.2018
 3938.5080    88.4306    79.7523    27.3259
 3939.0080    88.6641    77.7747    27.3569
 3939.5080    89.0581    78.2894    27.5120
 3940.0080    89.3640    77.5610    27.7292
 3940.5080    89.4423    76.0815    27.7913
 3941.0080    89.4431    76.5956    27.7602
 3941.5080    89.6766    80.1005    27.8252
 3942.0080    90.5307    84.8514    27.9774
 3942.5080    91.1521    86.6117    28.1015
 3943.0080    91.5407    86.6274    29.1256
 3943.5080    91.7832    79.8929    29.4979
 3944.0080    91.6200    78.1854    29.6531
 3944.5080    90.9226    81.6941    29.3117
 3945.0080    89.9923    83.9528    28.5036
