~VERSION INFORMATION
 VERS.               2.10:   CWLS LOG ASCII STANDARD - VERSION 2.10
 WRAP.                 NO:   ONE LINE PER DEPTH STEP
~WELL INFORMATION
#MNEM.UNIT      DATA TYPE    INFORMATION
#----------   ------------   ------------------------------
 STRT.F         2399.8379:   START DEPTH
 STOP.F         5667.9595:   STOP DEPTH
 STEP.F            0.5000:   STEP LENGTH
 NULL.          -999.2500:   NO VALUE
 COMP. Lawrence Allison & Associates:   COMPANY
 WELL.          43-TPX-10:   WELL
 FLD .           N.P.R. 3:   FIELD
 LOC . 10-38N-78W-NATRONA-WY:   LOCATION
 STAT.                 WY:   STATE
 COUN.            Natrona:   COUNTY
 SRVC.      Dresser Atlas:   SERVICE COMPANY
 DATE.                   :   LOGDATE
 APIN.         4902511207:   API NUMBER
~CURVE INFORMATION
#MNEM.UNIT       API CODE    CURVE DESCRIPTION
#----------   ------------   ------------------------------
 DEPT.F                  :
 LLD .ohmm   11 220 04 00:   Dual Laterolog, Deep
 LLS .ohmm   11 220 06 00:   Dual Laterolog, shallow
 MNOR.ohmm   15 252 02 00:   Microlog, normal 2"
 GR  .GAPI   06 310 01 00:   Gamma Ray
 SP  .mV     06 010 01 00:   Spontaneous Potential
~PARAMETER INFORMATION
#MNEM.UNIT          VALUE    DESCRIPTION
#----------   ------------   ------------------------------
 EKB .F         5215.0000:   Kelly bushing
 EGL .F         5203.0000:   Ground level
 EDF .F            0.0000:   Drilling floor
 EPD .F           10.0000:   Permanent datum
 TD  .F         5260.0000:   Total depth
 NRUN.             1.0000:   Number of Runs
#--RUN 1---   ------------   The following are for Run 1---
 RUN .             1.0000:   Run 1
 DATE.mm/dd/yyyy 02/19/85:   Date Logged
 DD  .ft             5650:   Depth Driller
 DL  .ft             5649:   Depth Logger
 BLI .ft             5646:   Bottom Log Interval
 TLI .ft              511:   Top Log Interval
 CSS .inch          9-5/8:   Casing Size
 CTD1.ft              510:   Casing Driller 1
 CTL1.ft              511:   Casing Logger 1
 BS  .inch            8.5:   Bit Size
 DFT .            kcl-gel:   Type Fluid In Hole
 DFD .lb/gal          9.5:   Mud Weight
 DFV .sec              44:   Viscosity
 DFPH.                8.5:   pH
 DFL .cc              9.0:   Fluid Loss
 WSS .           flowline:   Source Of Sample
 RM  .ohmm            .32:   Rm
 EMT .F                74:   Rm Meas. Temp.
 RMF .ohmm            .26:   Rmf
 MFT .F                74:   Rmf Meas. Temp.
 RMC .ohmm            .40:   Rmc
 MCST.F                74:   Rmc Meas. Temp.
 MFSS.              meas.:   Source Rmf.
 MCSS.              calc.:   Source Rmc.
 RMB .ohmm            .14:   Rm. At BHT
 BHT .F               164:   BHT.
 TCS .hh:mm         5 hrs:   Time Circ. Stopped
 MRT .F               164:   Maximum Recorded Temp.
 LUL .               Glte:   Logging Unit Location
 ENGI.               Mack:   Recorded By
 WITN.         Mr. Strong:   Witnessed By
 DGBY.              Burke:   Digitized By
~T 1 Tops
First Wall Creek                 2512.0
~A  DEPTH      LLD        LLS       MNOR         GR         SP
# ...
 4961.8380    23.8611    19.8574    28.4446    87.5876    66.0780
 4962.3380    21.5933    18.3541    23.9710    93.4621    66.0966
 4962.8380    20.5408    17.0865    21.3885    96.4924    66.2320
 4963.3380    19.8202    16.6044    20.2058    98.1862    66.2311
 4963.8380    20.1161    16.3684    20.3556    99.3220    66.2303
 4964.3380    21.7414    16.9647    20.9871    97.4734    66.3853
 4964.8380    22.6900    17.9643    21.7184    94.6515    66.6954
 4965.3380    23.0146    18.9046    22.3531    94.3504    66.6946
 4965.8380    22.8491    19.1594    22.6787    93.8601    66.3828
 4966.3380    22.6853    18.3541    21.8900    92.5754    66.2159
 4966.8380    22.8460    18.2233    22.0522    88.7538    65.7590
 4967.3380    23.1724    18.2233    25.0825    87.1396    64.9807
 4967.8380    24.0310    18.3541    29.3557    85.0208    64.3578
 4968.3380    25.2381    19.5752    29.5734    85.3447    63.5795
 4968.8380    26.1521    20.5976    29.1610    85.6657    62.9566
 4969.3380    27.0992    21.9500    29.3788    86.0339    62.4893
 4969.8380    26.9048    21.7935    29.5965    86.9356    62.0220
 4970.3380    25.5934    21.0274    27.9602    87.6767    61.5547
 4970.8380    24.3459    20.0000    26.2264    88.8896    61.3984
 4971.3380    23.1552    19.1594    25.3125    90.0890    61.2419
 4971.8380    22.1657    18.0933    25.5003    95.2849    60.9301
 4972.3380    21.7167    17.4573    24.7249    95.1061    60.7739
 4972.8380    21.4078    17.0865    21.6503    97.6174    60.7731
 4973.3380    21.4063    17.0865    20.5986    98.0327    60.7724
 4973.8380    22.1815    17.3328    20.9012    93.5720    61.0827
 4974.3380    22.9848    18.2233    21.9777    90.3814    61.8595
 4974.8380    23.9876    19.0228    23.6099    87.7792    62.4934
 4975.3380    24.5044    19.5752    25.1830    86.4129    62.6356
 4975.8380    24.3286    19.5854    24.6553    88.6660    62.7904
 4976.3380    23.6427    18.8790    23.0869    93.0695    62.6339
 4976.8380    22.6512    18.2233    21.8491    94.8788    62.4776
 4977.3380    22.1704    17.8362    21.3900    95.3905    62.1658
 4977.8380    22.3275    17.9643    21.5497    93.1500    61.8540
 4978.3380    22.6465    18.8871    22.4984    90.9095    61.5422
 4978.8380    24.6674    20.2883    24.1694    88.6690    61.3822
 4979.3380    28.2712    22.0766    27.1008    86.4284    60.8955
 4979.8380    30.1122    23.9921    29.3222    84.1879    60.7622
 4980.3380    31.6508    25.9076    30.6666    81.9474    60.7614
 4980.8380    34.4752    27.8231    31.9626    76.2697    60.9164
 4981.3380    38.3633    29.7386    35.5844    71.8390    61.2267
 4981.8380    42.0856    33.2428    41.3505    69.0379    61.3814
 4982.3380    45.8412    35.7090    50.8755    67.4662    61.5360
 4982.8380    50.2890    38.6337    53.8791    68.7424    61.8463
 4983.3380    51.3726    40.6184    53.1280    69.6876    61.8455
 4983.8380    50.6409    41.2039    49.8336    69.6970    62.0003
 4984.3380    50.2777    40.6184    49.0970    69.7063    62.1549
 4984.8380    49.5626    38.6337    46.4249    68.4052    62.7762
 4985.3380    46.8119    37.2757    40.8359    66.2879    62.9276
 4985.8380    43.8998    35.9655    40.5528    65.7975    63.1708
 4986.3380    42.9679    34.4539    46.1282    65.3674    63.4141
 4986.8380    41.4605    33.2428    47.8162    65.0663    63.6573
 4987.3380    39.5905    31.8457    47.1497    66.2445    63.9005
 4987.8380    35.6904    30.6699    40.5946    68.3303    64.0158
 4988.3380    32.2982    28.1977    40.2812    72.9072    64.1704
 4988.8380    31.3880    26.4388    39.1923    76.8205    64.3254
 4989.3380    30.7218    25.5095    36.2408    76.9867    64.3244
 4989.8380    30.2847    24.9677    34.2371    73.8731    64.4794
 4990.3380    29.6419    24.7896    35.7443    82.0076    64.9452
 4990.8380    27.0071    24.4373    36.7887    89.7002    65.2553
 4991.3380    24.1515    21.4470    32.3598    93.2765    65.4100
 4991.8380    20.6422    18.0933    21.8559    88.6533    65.0982
 4992.3380    19.3207    16.9647    20.3200    83.1931    64.9418
 4992.8380    19.1821    16.8437    19.3672    77.7329    65.0967
 4993.3380    19.4562    17.8362    19.6516    72.2726    65.0958
 4993.8380    21.2666    20.4340    21.1112    66.8124    64.9395
 4994.3380    25.1447    21.9500    33.3478    62.0989    64.6277
 4994.8380    28.7899    29.8592    41.0293    60.8409    64.1604
 4995.3380    39.5604    35.2671    44.0765    59.8410    63.6931
 4995.8380    51.6475    39.1906    43.7736    59.6080    63.3737
 4996.3380    55.4599    40.9101    41.6497    60.8693    63.2250
 4996.8380    57.4684    42.0981    42.2615    60.1309    62.9130
 4997.3380    62.6148    43.6317    44.4381    56.6902    62.6012
 4997.8380    68.4767    47.2053    50.1850    55.8977    62.2894
 4998.3380    75.3319    53.6951    52.0215    56.8726    62.4444
 4998.8380    75.3267    55.2784    51.2964    60.9117    62.2879
 4999.3380    72.1677    55.6512    48.1155    64.6761    62.1316
 4999.8380    63.4725    47.8858    44.4920    69.9695    61.8198
 5000.3380    48.4070    42.6865    38.4779    77.4444    62.1805
 5000.8380    41.5371    36.9918    33.8724    85.6113    61.8189
 5001.3380    34.2998    31.2971    29.2669    95.8710    61.3419
 5001.8380    26.4031    25.6024    24.6614    98.1243    61.1960
 5002.3380    21.9346    19.1725    19.6062    98.4083    61.3512
 5002.8380    20.2789    17.4717    17.8739    96.9201    61.8173
 5003.3380    20.2775    16.6203    17.1297    91.9122    62.4390
 5003.8380    21.4723    17.8558    18.6679    87.0017    62.7497
 5004.3380    23.1249    21.8940    21.1422    82.0913    62.9049
 5004.8380    32.2222    26.4762    27.6657    77.1808    63.0600
 5005.3380    35.6016    30.5545    31.2457    72.2703    63.0596
 5005.8380    40.1856    35.5144    35.2890    69.2591    63.3703
 5006.3380    44.7178    37.0777    37.1091    67.1080    63.5253
 5006.8380    47.3389    38.1597    37.3867    66.5321    63.6805
 5007.3380    46.9994    37.3544    44.0727    69.0172    63.6801
 5007.8380    43.1134    34.7794    52.7017    74.9016    63.6797
 5008.3380    41.0394    32.8037    58.6930    78.7261    63.6794
 5008.8380    39.5996    31.2847    59.5400    79.2653    63.8345
 5009.3380    37.6695    30.0795    39.6492    78.3202    63.8340
 5009.8380    36.0897    28.8742    35.8888    78.4700    63.8337
 5010.3380    34.0868    27.6689    33.6657    78.6677    63.8333
 5010.8380    31.9663    26.4636    31.3556    79.2388    63.6774
 5011.3380    28.9280    25.2583    28.9962    79.8286    63.3660
 5011.8380    27.6998    24.0530    27.2001    80.9534    63.0545
 5012.3380    26.7421    22.8477    25.3337    83.5948    63.0542
 5012.8380    25.8039    21.6424    25.1613    84.3421    63.0273
 5013.3380    24.3718    20.4371    26.2728    87.3566    62.5868
 5013.8380    22.6933    18.9625    26.0940    95.1384    62.2753
 5014.3380    20.8313    17.4044    25.3673    97.7744    62.1194
 5014.8380    19.2588    16.4383    22.4748    99.5066    62.1191
 5015.3380    18.8500    16.3227    21.2337    99.8083    62.1187
 5015.8380    19.4220    16.7997    20.4954    98.6788    62.1183
 5016.3380    21.1242    18.7290    21.8625    92.3951    62.2735
 5016.8380    24.5339    26.5360    29.8152    83.5067    62.4286
 5017.3380    32.6268    34.3431    35.0474    74.6184    62.5837
 5017.8380    45.6095    38.5668    42.8166    65.7300    63.0498
 5018.3380    48.9762    39.1160    47.6695    64.4592    63.5160
 5018.8380    51.8470    43.8687    48.0294    66.9516    63.6713
 5019.3380    56.8776    46.1287    49.0846    68.5944    63.6708
 5019.8380    59.4690    47.4749    51.6162    70.1265    63.3594
 5020.3380    62.3920    48.8603    52.7460    69.4327    63.3589
 5020.8380    62.8340    49.5715    52.3912    64.2651    63.2030
 5021.3380    64.6459    51.7536    52.0340    59.4224    63.0471
 5021.8380    67.4663    54.4326    53.1779    54.4138    63.0467
 5022.3380    66.5066    57.6346    60.0872    53.7833    63.0464
