~VERSION INFORMATION
 VERS.               2.10:   CWLS LOG ASCII STANDARD - VERSION 2.10
 WRAP.                 NO:   ONE LINE PER DEPTH STEP
~WELL INFORMATION
#MNEM.UNIT      DATA TYPE    INFORMATION
#----------   ------------   ------------------------------
 STRT.F         2389.7727:   START DEPTH
 STOP.F         5660.0845:   STOP DEPTH
 STEP.F            0.5000:   STEP LENGTH
 NULL.          -999.2500:   NO VALUE
 COMP. Lawrence Allison and Associates:   COMPANY
 WELL.            43 X 10:   WELL
 FLD .           N.P.R. 3:   FIELD
 LOC . 10-38N-78W-NATRONA-WY:   LOCATION
 STAT.                 WY:   STATE
 COUN.            Natrona:   COUNTY
 SRVC.      Dresser Atlas:   SERVICE COMPANY
 DATE.                   :   LOGDATE
 APIN.         4902511207:   API NUMBER
~CURVE INFORMATION
#MNEM.UNIT       API CODE    CURVE DESCRIPTION
#----------   ------------   ------------------------------
 DEPT.F                  :
 DPHI.none   42 890 12 00:   Den. Porosity, Ss [%]
 NPHI.none   42 890 03 00:   Neu. Porosity, Ss [%]
 RHOB.gm/cc  42 350 01 00:   Bulk Density
 GR  .GAPI   42 310 00 00:   Gamma Ray
~PARAMETER INFORMATION
#MNEM.UNIT          VALUE    DESCRIPTION
#----------   ------------   ------------------------------
 EKB .F         5215.0000:   Kelly bushing
 EGL .F         5203.0000:   Ground level
 EDF .F            0.0000:   Drilling floor
 EPD .F           10.0000:   Permanent datum
 TD  .F         3458.0000:   Total depth
 NRUN.             1.0000:   Number of Runs
#--RUN 1---   ------------   The following are for Run 1---
 RUN .             1.0000:   Run 1
 DATE.mm/dd/yyyy 02/19/1985:   Date Logged
 DD  .ft             5650:   Depth Driller
 DL  .ft             5649:   Depth Logger
 BLI .ft             5647:   Bottom Log Interval
 TLI .ft             2400:   Top Log Interval
 CSS .inch          9.625:   Casing Size
 CTD1.ft              510:   Casing Driller 1
 CTL1.ft       not logged:   Casing Logger 1
 BS  .inch            8.5:   Bit Size
 DFT .            kcl gel:   Type Fluid In Hole
 DFD .lb/gal          9.5:   Mud Weight
 DFV .sec              44:   Viscosity
 DFPH.                8.5:   pH
 DFL .cc              9.0:   Fluid Loss
 WSS .           flowline:   Source Of Sample
 RM  .ohmm            .32:   Rm
 EMT .F                74:   Rm Meas. Temp.
 RMF .ohmm            .26:   Rmf
 MFT .F                74:   Rmf Meas. Temp.
 RMC .ohmm            .40:   Rmc
 MCST.F                74:   Rmc Meas. Temp.
 MFSS.               meas:   Source Rmf.
 MCSS.               calc:   Source Rmc.
 RMB .ohmm            .14:   Rm. At BHT
 BHT .F               164:   BHT.
 TCS .hh:mm        8 hrs.:   Time Circ. Stopped
 MRT .F               170:   Maximum Recorded Temp.
 LUL .               Glte:   Logging Unit Location
 ENGI.               Mack:   Recorded By
 WITN.         Mr. Strong:   Witnessed By
 DGBY.              Burke:   Digitized By
~T 2 Tops
First Wall Creek                 2512.0
Second Wall Creek                2912.0
~OTHER INFORMATION
# Density Matrix = 2.65
# Neutron Matrix = Sandstone
~A  DEPTH     DPHI       NPHI       RHOB         GR
# ...
 3922.7730     8.8139    23.9785     2.5053    89.7791
 3923.2730     9.4801    24.1072     2.5021    90.3942
 3923.7730    10.4488    25.5994     2.4819    90.3879
 3924.2730    10.8745    26.6575     2.4741    91.0033
 3924.7730    10.4948    26.7966     2.4663    91.1386
 3925.2730    10.3155    26.6652     2.4756    91.9743
 3925.7730    10.2693    25.2427     2.4755    94.9313
 3926.2730    10.1308    25.0605     2.4757    97.0300
 3926.7730     9.8426    24.7470     2.4807    95.0200
 3927.2730     8.9397    24.2547     2.4890    94.6923
 3927.7730     8.3956    24.3229     2.4985    94.6849
 3928.2730     8.0935    24.9357     2.5080    93.4366
 3928.7730     8.3966    25.2422     2.5153    91.5672
 3929.2730     8.8207    25.4563     2.5193    89.6979
 3929.7730     8.7432    24.6892     2.5134    92.1763
 3930.2730     8.4745    24.3783     2.5091    93.4125
 3930.7730     8.2171    24.9770     2.5091    93.4065
 3931.2730     8.7290    26.4651     2.5106    93.3678
 3931.7730     8.8234    26.9030     2.5136    92.0092
 3932.2730     8.8240    25.6045     2.5135    90.9034
 3932.7730     8.7639    24.1820     2.5088    90.8972
 3933.2730     8.8855    23.6897     2.5072    90.2699
 3933.7730     9.1281    23.6935     2.5056    89.6426
 3934.2730     9.3706    23.9454     2.5008    89.9047
 3934.7730     9.3614    24.3559     2.4975    90.5590
 3935.2730     9.2506    25.5104     2.4946    91.2130
 3935.7730     9.5210    25.6314     2.4961    93.9644
 3936.2730    10.0868    24.9152     2.4956    96.4429
 3936.7730    10.4020    23.5023     2.4900   100.1636
 3937.2730    10.0396    23.1623     2.4798    91.4619
 3937.7730     9.8585    23.8644     2.4773    85.8658
 3938.2730     9.6775    24.1307     2.4812    87.7231
 3938.7730     9.6175    24.0333     2.4880    92.0674
 3939.2730     9.7530    23.6756     2.4864    94.5839
 3939.7730    10.1241    23.7415     2.4848    95.1585
 3940.2730    10.3791    24.3035     2.4801    94.4113
 3940.7730    10.5272    24.5554     2.4770    93.9034
 3941.2730    10.2273    25.0553     2.4768    94.5193
 3941.7730     9.8628    24.8731     2.4800    95.1344
 3942.2730     9.5607    25.1870     2.4862    96.3016
 3942.7730     9.3192    25.0648     2.4941    98.5426
 3943.2730     9.3802    24.8789     2.4953    99.1966
 3943.7730     9.8043    24.5730     2.4857   100.0763
 3944.2730    10.2798    23.8542     2.4692    98.2069
 3944.7730    11.1904    22.3916     2.4605    95.0953
 3945.2730    10.4716    22.1093     2.4589    93.8470
 3945.7730     9.2013    22.3748     2.4629    92.5988
 3946.2730     8.4757    23.1676     2.4902    90.1083
 3946.7730     8.4156    22.4385     2.5037    88.8506
 3947.2730     8.5977    21.5676     2.5119    86.8929
 3947.7730     8.2705    21.9443     2.5088    85.0327
 3948.2730     8.1146    22.3822     2.5103    82.8696
 3948.7730     8.4207    22.1380     2.5152    78.5632
 3949.2730     8.8350    21.8318     2.5086    76.2001
 3949.7730     9.0569    22.0837     2.5023    76.7609
 3950.2730     8.8430    24.0100     2.4992    82.5026
 3950.7730     8.2384    23.9394     2.5023    84.7864
 3951.2730     7.8758    22.7675     2.5117    86.0622
 3951.7730     7.3922    22.6397     2.5176    87.5546
 3952.2730     6.9594    22.1892     2.5219    87.5485
 3952.7730     6.6391    21.7437     2.5322    87.5425
 3953.2730     6.0920    20.1917     2.5422    85.6731
 3953.7730     5.3108    19.2383     2.5501    82.5615
 3954.2730     4.1696    19.6480     2.5693    75.7232
 3954.7730     4.1350    20.2674     2.5901    75.0960
 3955.2730     4.2492    20.9144     2.5924    75.0898
 3955.7730     4.0682    21.6975     2.5839    75.1800
 3956.2730     3.9477    21.9494     2.5792    74.9416
 3956.7730     3.5851    22.0773     2.5776    73.6538
 3957.2730     3.0199    21.6470     2.5822    71.9381
 3957.7730     2.5470    20.2865     2.5867    68.0857
 3958.2730     2.2828    15.8879     2.6084    63.6479
 3958.7730     1.9459    15.2095     2.6099    57.2779
 3959.2730     1.3859    15.0893     2.6207    53.2998
 3959.7730     1.0816    15.0308     2.6317    52.6726
 3960.2730     1.3498    14.7249     2.6363    52.6674
 3960.7730     1.6529    14.4187     2.6324    52.6612
 3961.2730     1.7139    14.1124     2.6279    49.8022
 3961.7730     1.5934    11.3824     2.6211    46.0761
 3962.2730     1.7150    11.4176     2.6204    45.5899
 3962.7730     1.7155    11.7053     2.6237    51.3932
 3963.2730     1.6810    11.6335     2.6203    55.7351
 3963.7730     1.4744    11.4916     2.6250    60.0769
 3964.2730     2.3017    11.4068     2.6295    61.3134
 3964.7730     3.5058    13.5001     2.6263    56.3381
 3965.2730     4.7874    16.1891     2.5766    56.6914
 3965.7730     5.4382    18.8781     2.5611    80.8648
 3966.2730     5.5316    21.5671     2.5579    92.4390
 3966.7730     4.9271    23.0241     2.5563    92.9600
 3967.2730     3.9593    22.7598     2.5702    92.3320
 3967.7730     1.7441    22.1422     2.6027    91.2802
 3968.2730     1.6002    21.8466     2.6154    86.4632
 3968.7730     1.8676    21.8764     2.6260    70.8503
 3969.2730     1.9644    22.1701     2.6274    66.2202
 3969.7730     2.0861    23.4535     2.6165    67.4550
 3970.2730     2.5102    23.7960     2.6184    68.6912
 3970.7730     2.7528    23.6475     2.6142    71.1697
 3971.2730     2.4507    22.6917     2.6095    74.8904
 3971.7730     1.8394    21.8241     2.6085    79.2322
 3972.2730     0.8495    21.8279     2.6163    80.4687
 3972.7730     0.3277    21.9558     2.6315    74.8723
 3973.2730     0.0321    21.8356     2.6409    77.9719
 3973.7730     0.4638    21.2813     2.6455    76.6601
 3974.2730     1.0365    21.1609     2.6485    75.3723
 3974.7730     1.4257    21.2269     2.6314    73.6053
 3975.2730     2.8786    21.4815     2.6298    73.5991
 3975.7730     3.3027    21.4637     2.6251    73.8137
 3976.2730     3.5452    21.3625     2.6189    74.7282
 3976.7730     3.7941    21.5329     2.6078    77.6065
 3977.2730     3.7306    22.1421     2.6014    79.2206
 3977.7730     3.0832    22.4722     2.5921    80.4003
 3978.2730     2.4764    22.5569     2.5980    82.2565
 3978.7730     2.0154    22.3488     2.6059    82.8724
 3979.2730     2.6600    22.0023     2.6155    87.2134
 3979.7730     3.7306    21.1432     2.6169    92.1763
 3980.2730     3.9731    20.5889     2.6033   101.0931
 3980.7730     3.5500    20.9028     2.5904   114.0645
 3981.2730     2.4613    21.5888     2.5809   128.8032
 3981.7730     1.9746    21.4686     2.5934   124.5189
 3982.2730     2.2943    20.9763     2.6120   106.6622
 3982.7730     3.0537    19.2437     2.6104    90.1460
 3983.2730     3.2716    19.0615     2.6041    82.4375
 3983.7730     3.2834    19.2060     2.5979    80.9469
 3984.2730     2.9534    19.6369     2.5978    80.3196
 3984.7730     2.2230    19.7556     2.5978    76.6093
 3985.2730     1.5578    19.7425     2.6009    68.9807
 3985.7730     0.5296    19.3487     2.6074    66.6352
 3986.2730     0.1065    19.0845     2.6184    66.6292
 3986.7730     0.1152    19.2702     2.6435    66.0021
 3987.2730     1.4106    19.7186     2.6487    67.2383
 3987.7730     1.9840    20.4768     2.6393    67.8538
 3988.2730     1.9846    21.2723     2.6281    69.0896
 3988.7730     1.7461    21.3558     2.6192    69.7047
 3989.2730     1.6225    20.6598     2.6198    69.0774
 3989.7730     1.7442    18.8256     2.6258    69.0711
 3990.2730     1.9867    17.1802     2.6197    67.9680
 3990.7730     2.2898    16.7650     2.6127    62.3710
 3991.2730     3.4401    16.9549     2.6058    60.9789
 3991.7730     3.3750    17.8828     2.5988    63.7843
 3992.2730     3.1541    19.0759     2.5946    68.0743
 3992.7730     2.7586    19.5128     2.5938    69.9709
 3993.2730     2.7159    19.9476     2.5953    71.2460
 3993.7730     2.6868    20.2615     2.5968    73.9893
 3994.2730     2.5962    20.6374     2.6014    78.3311
 3994.7730     2.5967    24.2244     2.6013    80.8096
 3995.2730     2.8997    24.5833     2.6044    81.4247
