~VERSION INFORMATION
 VERS.               2.10:   CWLS LOG ASCII STANDARD - VERSION 2.10
 WRAP.                 NO:   ONE LINE PER DEPTH STEP
~WELL INFORMATION
#MNEM.UNIT      DATA TYPE    INFORMATION
#----------   ------------   ------------------------------
 STRT.F         2399.8379:   START DEPTH
 STOP.F         5667.9595:   STOP DEPTH
 STEP.F            0.5000:   STEP LENGTH
 NULL.          -999.2500:   NO VALUE
 COMP. Lawrence Allison & Associates:   COMPANY
 WELL.          43-TPX-10:   WELL
 FLD .           N.P.R. 3:   FIELD
 LOC . 10-38N-78W-NATRONA-WY:   LOCATION
 STAT.                 WY:   STATE
 COUN.            Natrona:   COUNTY
 SRVC.      Dresser Atlas:   SERVICE COMPANY
 DATE.                   :   LOGDATE
 APIN.         4902511207:   API NUMBER
~CURVE INFORMATION
#MNEM.UNIT       API CODE    CURVE DESCRIPTION
#----------   ------------   ------------------------------
 DEPT.F                  :
 LLD .ohmm   11 220 04 00:   Dual Laterolog, Deep
 LLS .ohmm   11 220 06 00:   Dual Laterolog, shallow
 MNOR.ohmm   15 252 02 00:   Microlog, normal 2"
 GR  .GAPI   06 310 01 00:   Gamma Ray
 SP  .mV     06 010 01 00:   Spontaneous Potential
~PARAMETER INFORMATION
#MNEM.UNIT          VALUE    DESCRIPTION
#----------   ------------   ------------------------------
 EKB .F         5215.0000:   Kelly bushing
 EGL .F         5203.0000:   Ground level
 EDF .F            0.0000:   Drilling floor
 EPD .F           10.0000:   Permanent datum
 TD  .F         5260.0000:   Total depth
 NRUN.             1.0000:   Number of Runs
#--RUN 1---   ------------   The following are for Run 1---
 RUN .             1.0000:   Run 1
 DATE.mm/dd/yyyy 02/19/85:   Date Logged
 DD  .ft             5650:   Depth Driller
 DL  .ft             5649:   Depth Logger
 BLI .ft             5646:   Bottom Log Interval
 TLI .ft              511:   Top Log Interval
 CSS .inch          9-5/8:   Casing Size
 CTD1.ft              510:   Casing Driller 1
 CTL1.ft              511:   Casing Logger 1
 BS  .inch            8.5:   Bit Size
 DFT .            kcl-gel:   Type Fluid In Hole
 DFD .lb/gal          9.5:   Mud Weight
 DFV .sec              44:   Viscosity
 DFPH.                8.5:   pH
 DFL .cc              9.0:   Fluid Loss
 WSS .           flowline:   Source Of Sample
 RM  .ohmm            .32:   Rm
 EMT .F                74:   Rm Meas. Temp.
 RMF .ohmm            .26:   Rmf
 MFT .F                74:   Rmf Meas. Temp.
 RMC .ohmm            .40:   Rmc
 MCST.F                74:   Rmc Meas. Temp.
 MFSS.              meas.:   Source Rmf.
 MCSS.              calc.:   Source Rmc.
 RMB .ohmm            .14:   Rm. At BHT
 BHT .F               164:   BHT.
 TCS .hh:mm         5 hrs:   Time Circ. Stopped
 MRT .F               164:   Maximum Recorded Temp.
 LUL .               Glte:   Logging Unit Location
 ENGI.               Mack:   Recorded By
 WITN.         Mr. Strong:   Witnessed By
 DGBY.              Burke:   Digitized By
~T 1 Tops
First Wall Creek                 2512.0
~A  DEPTH      LLD        LLS       MNOR         GR         SP
# ...
 4351.8380     4.2457     3.9182     4.7435    80.9605    55.7722
 4352.3380     4.2768     3.8919     4.6441    80.9676    55.7768
 4352.8380     4.3081     3.8939     4.5475    80.2654    55.6258
 4353.3380     4.3708     3.9801     4.4845    79.3913    55.4737
 4353.8380     4.4047     4.1863     4.4860    78.4865    55.3227
 4354.3380     4.5311     4.3718     4.5197    77.4899    55.1727
 4354.8380     4.7637     4.5329     4.5834    74.3750    54.8663
 4355.3380     5.1166     4.6665     5.8486    70.3785    54.5598
 4355.8380     5.1936     4.7698     5.9771    65.6990    54.4088
 4356.3380     5.1163     4.7718     5.8943    64.2589    53.7913
 4356.8380     5.0109     4.7742     5.7298    66.0676    53.4848
 4357.3380     5.0479     4.8105     5.8562    69.4679    53.3338
 4357.8380     5.1579     4.8471     6.4740    71.2580    53.0273
 4358.3380     5.3080     4.8839     6.6637    72.3100    53.0329
 4358.8380     5.4237     4.9564     6.3816    73.8617    53.1930
 4359.3380     5.3860     5.0661     6.0770    73.0308    53.3531
 4359.8380     5.4255     5.2952     6.0357    68.5605    53.3784
 4360.3380     5.6444     5.6454     6.1251    67.5325    53.6743
 4360.8380     6.4865     6.4242     6.3952    65.1527    53.8344
 4361.3380     7.3979     7.3630     7.8690    64.5167    53.8389
 4361.8380    10.3602     8.3190     9.0153    61.5567    53.8434
 4362.3380    13.3224     9.4667    10.2550    54.6311    53.8480
 4362.8380    16.2846    12.2750    11.6138    48.6400    53.6958
 4363.3380    19.2469    15.9688    19.3475    47.6669    53.3905
 4363.8380    22.2091    19.6627    29.3231    47.8632    53.5506
 4364.3380    25.7084    23.8716    33.1181    48.1599    53.5815
 4364.8380    28.0093    24.5751    31.2897    54.2482    54.0273
 4365.3380    29.2384    25.6639    28.7299    57.9860    54.0318
 4365.8380    30.9596    27.3827    29.3615    59.2595    54.5029
 4366.3380    34.7061    30.7582    31.5449    57.3921    54.9740
 4366.8380    35.4981    33.7299    41.3905    56.4180    55.2896
 4367.3380    32.5606    33.0272    44.7869    55.6275    55.7607
 4367.8380    24.3790    27.8266    37.1464    54.2859    56.2318
 4368.3380    20.2037    21.2098    20.8727    53.3847    56.5607
 4368.8380    16.2006    16.5172     9.4544    54.4279    57.0196
 4369.3380    15.8598    15.9811     9.3633    58.6797    57.3352
 4369.8380    18.0351    18.9387    12.2181    59.7881    57.8063
 4370.3380    22.9857    29.4121    21.4677    59.3160    57.9663
 4370.8380    32.3698    31.9625    35.4715    59.3235    57.9709
 4371.3380    33.5502    33.6185    37.0331    59.4880    57.9754
 4371.8380    35.0238    35.3602    35.2422    60.4310    57.9799
 4372.3380    44.3206    40.2383    40.0884    62.4674    57.9845
 4372.8380    50.0394    43.5520    51.4859    64.3339    57.9892
 4373.3380    54.9079    49.5602    84.2915    65.6037    58.1502
 4373.8380    60.2500    54.8057    80.7284    60.2987    58.3103
 4374.3380    62.1256    59.5214    58.2036    58.4490    58.6258
 4374.8380    57.7473    64.2108    39.8716    58.5156    59.0969
 4375.3380    51.7628    56.0708    41.6304    60.3175    59.5680
 4375.8380    45.6597    44.6130    42.8470    61.0883    59.8836
 4376.3380    40.4301    38.9574    36.8962    65.0807    60.5102
 4376.8380    34.1155    32.1258    28.1433    75.6132    60.9876
 4377.3380    27.8009    23.1242    18.0806    86.1458    61.6326
 4377.8380    23.5454    22.6399    15.6797    96.6784    61.9247
 4378.3380    23.0511    22.6995    15.3525   104.4164    62.0847
 4378.8380    23.7637    25.9646    16.4941   101.6114    62.0893
 4379.3380    28.7632    28.7128    19.1685    94.9614    62.7159
 4379.8380    32.2439    31.0773    20.8900    89.4236    63.4980
 4380.3380    33.6588    32.9222    21.1974    83.8858    63.9691
 4380.8380    34.1480    34.1357    20.4455    78.4497    64.4402
 4381.3380    32.7239    33.4246    19.4220    77.2667    64.7678
 4381.8380    31.1363    30.8878    18.9276    77.7006    65.3835
 4382.3380    29.6258    29.1647    19.4839    80.1435    66.3212
 4382.8380    29.4205    28.7965    21.5392    83.5367    66.4813
 4383.3380    29.8494    28.6031    26.3144    86.7094    66.6413
 4383.8380    30.7181    28.8235    24.6847    84.1759    66.3348
 4384.3380    32.0660    29.0426    22.0270    76.9846    66.0283
 4384.8380    33.2353    30.9876    22.3670    69.7932    65.8772
 4385.3380    33.4788    32.8271    25.1435    61.9630    65.7263
 4385.8380    33.2467    34.0542    24.3686    59.5093    65.8865
 4386.3380    31.8466    34.7939    29.3490    58.2668    66.0476
 4386.8380    28.8402    33.5849    31.9823    55.0094    66.0521
 4387.3380    25.1316    31.0553    23.6147    51.7886    66.2122
 4387.8380    22.6852    23.6708    15.1237    48.5981    66.6833
 4388.3380    20.2388    20.2310    12.8376    48.7964    66.8433
 4388.8380    18.2875    18.3099    11.2127    49.4077    67.4699
 4389.3380    18.4216    17.6737    10.8997    50.4920    67.9410
 4389.8380    19.3675    17.0596    11.7112    50.4980    68.4172
 4390.3380    21.4337    19.2766    15.1592    50.1121    69.0389
 4390.8380    27.0865    22.8982    20.1902    48.6358    69.8220
 4391.3380    28.2750    24.4318    24.2852    46.9379    70.1376
 4391.8380    27.6815    23.9228    23.6091    44.5846    70.2977
 4392.3380    26.7168    22.1210    17.0054    47.0921    70.3022
 4392.8380    25.4207    21.0489    15.7261    51.1250    70.3067
 4393.3380    24.8871    20.3175    14.5430    53.6237    70.3113
 4393.8380    24.8915    20.3262    14.3286    55.2359    70.1602
 4394.3380    24.8968    20.3365    14.8676    54.4048    70.3204
 4394.8380    24.7232    20.4889    15.0863    50.0228    70.4815
 4395.3380    24.3784    19.7791    13.0842    44.9423    70.4861
 4395.8380    23.6972    19.5061    12.0998    44.9480    70.6461
 4396.3380    23.8708    19.2349    11.8463    45.3761    71.1172
 4396.8380    24.5655    19.2449    12.6377    46.5236    71.1217
 4397.3380    25.1009    20.0976    15.7737    50.7192    71.2818
 4397.8380    24.9042    20.2507    17.1904    55.1658    71.2863
 4398.3380    24.2303    20.4064    17.5723    56.8549    71.2909
 4398.8380    24.2355    20.1248    17.4382    57.6339    71.2955
 4399.3380    24.4131    19.8450    18.4823    58.1162    71.1444
 4399.8380    24.9452    20.0118    18.9764    54.4512    71.1501
 4400.3380    25.6712    20.8890    20.0912    51.8440    70.6890
 4400.8380    26.6073    21.6660    21.2061    51.8892    70.5377
 4401.3380    27.1872    22.6334    25.7593    52.9150    70.7002
 4401.8380    26.6176    21.6319    28.0037    55.1176    71.0169
 4402.3380    24.6143    20.0740    27.6138    57.5378    71.4892
 4402.8380    23.7555    19.6585    27.0339    59.7299    71.3406
 4403.3380    23.5908    19.1178    26.2812    73.5867    71.3463
 4403.8380    23.5959    18.9955    26.4764    76.4000    71.0408
 4404.3380    23.9389    19.2871    27.2505    74.7537    70.2689
 4404.8380    24.4606    20.4386    27.8478    74.7632    69.9620
 4405.3380    25.2180    21.0477    28.8691    72.7918    69.8134
 4405.8380    26.8462    22.0038    31.9121    66.4790    69.4943
 4406.3380    26.6589    22.8094    35.2760    63.8493    68.2710
 4406.8380    25.9151    21.8669    37.6269    63.3606    67.6546
 4407.3380    25.7343    21.2616    28.0853    64.4474    66.8826
 4407.8380    25.9240    21.2812    26.7230    75.4355    66.5758
 4408.3380    26.3008    21.7591    29.5955    74.4249    66.4259
 4408.8380    28.2614    23.7278    34.8231    69.8336    66.4329
 4409.3380    29.9134    24.2606    37.1438    68.2716    66.4386
 4409.8380    26.5038    24.2785    34.1028    67.4982    66.4456
 4410.3380    24.1622    22.3011    33.3865    73.7085    66.2943
 4410.8380    23.8232    20.4810    32.6875    76.7328    66.3013
 4411.3380    23.8283    20.2012    32.4652    76.7693    66.3070
 4411.8380    24.3476    20.6586    31.2974    73.3275    66.3126
 4412.3380    25.4160    21.4270    29.1852    70.1939    66.1626
