~VERSION INFORMATION
 VERS.               2.10:   CWLS LOG ASCII STANDARD - VERSION 2.10
 WRAP.                 NO:   ONE LINE PER DEPTH STEP
~WELL INFORMATION
#MNEM.UNIT      DATA TYPE    INFORMATION
#----------   ------------   ------------------------------
 STRT.F         2399.8379:   START DEPTH
 STOP.F         5667.9595:   STOP DEPTH
 STEP.F            0.5000:   STEP LENGTH
 NULL.          -999.2500:   NO VALUE
 COMP. Lawrence Allison & Associates:   COMPANY
 WELL.          43-TPX-10:   WELL
 FLD .           N.P.R. 3:   FIELD
 LOC . 10-38N-78W-NATRONA-WY:   LOCATION
 STAT.                 WY:   STATE
 COUN.            Natrona:   COUNTY
 SRVC.      Dresser Atlas:   SERVICE COMPANY
 DATE.                   :   LOGDATE
 APIN.         4902511207:   API NUMBER
~CURVE INFORMATION
#MNEM.UNIT       API CODE    CURVE DESCRIPTION
#----------   ------------   ------------------------------
 DEPT.F                  :
 LLD .ohmm   11 220 04 00:   Dual Laterolog, Deep
 LLS .ohmm   11 220 06 00:   Dual Laterolog, shallow
 MNOR.ohmm   15 252 02 00:   Microlog, normal 2"
 GR  .GAPI   06 310 01 00:   Gamma Ray
 SP  .mV     06 010 01 00:   Spontaneous Potential
~PARAMETER INFORMATION
#MNEM.UNIT          VALUE    DESCRIPTION
#----------   ------------   ------------------------------
 EKB .F         5215.0000:   Kelly bushing
 EGL .F         5203.0000:   Ground level
 EDF .F            0.0000:   Drilling floor
 EPD .F           10.0000:   Permanent datum
 TD  .F         5260.0000:   Total depth
 NRUN.             1.0000:   Number of Runs
#--RUN 1---   ------------   The following are for Run 1---
 RUN .             1.0000:   Run 1
 DATE.mm/dd/yyyy 02/19/85:   Date Logged
 DD  .ft             5650:   Depth Driller
 DL  .ft             5649:   Depth Logger
 BLI .ft             5646:   Bottom Log Interval
 TLI .ft              511:   Top Log Interval
 CSS .inch          9-5/8:   Casing Size
 CTD1.ft              510:   Casing Driller 1
 CTL1.ft              511:   Casing Logger 1
 BS  .inch            8.5:   Bit Size
 DFT .            kcl-gel:   Type Fluid In Hole
 DFD .lb/gal          9.5:   Mud Weight
 DFV .sec              44:   Viscosity
 DFPH.                8.5:   pH
 DFL .cc              9.0:   Fluid Loss
 WSS .           flowline:   Source Of Sample
 RM  .ohmm            .32:   Rm
 EMT .F                74:   Rm Meas. Temp.
 RMF .ohmm            .26:   Rmf
 MFT .F                74:   Rmf Meas. Temp.
 RMC .ohmm            .40:   Rmc
 MCST.F                74:   Rmc Meas. Temp.
 MFSS.              meas.:   Source Rmf.
 MCSS.              calc.:   Source Rmc.
 RMB .ohmm            .14:   Rm. At BHT
 BHT .F               164:   BHT.
 TCS .hh:mm         5 hrs:   Time Circ. Stopped
 MRT .F               164:   Maximum Recorded Temp.
 LUL .               Glte:   Logging Unit Location
 ENGI.               Mack:   Recorded By
 WITN.         Mr. Strong:   Witnessed By
 DGBY.              Burke:   Digitized By
~T 1 Tops
First Wall Creek                 2512.0
~A  DEPTH      LLD        LLS       MNOR         GR         SP
# ...
 5205.8380    31.6954    29.1633    10.6768    70.7116     9.2809
 5206.3380    27.6818    21.9063    10.7093    70.3059     9.2831
 5206.8380    26.3357    20.5059    10.7417    70.0000     9.2854
 5207.3380    25.2344    19.4022    10.7741    69.4768     9.4437
 5207.8380    24.8781    18.5890    10.8066    68.4375     9.9125
 5208.3380    25.4175    18.3265    10.8390    66.9960    10.3813
 5208.8380    27.1031    19.4093    10.8714    56.0487    10.6946
 5209.3380    28.1494    20.2633    10.9038    42.7574    11.0079
 5209.8380    30.3813    21.0041    10.9363    29.4662    11.1657
 5210.3380    32.6278    21.7834    10.9687    16.1750    11.1680
 5210.8380    35.0405    23.2744    11.0011     8.5549    11.1707
 5211.3380    59.5473    30.7043    11.0336     5.3125    11.3285
 5211.8380    94.1809    32.0553    11.0660     4.3750    11.3308
 5212.3380   128.8145    65.0323    11.0984     4.3750    11.3330
 5212.8380   163.4481   152.5983    11.1309     4.6875    11.6463
 5213.3380   175.1351   183.8275    11.1633     6.7388    11.8041
 5213.8380   144.8625   136.1216    11.1957     9.8750    12.1174
 5214.3380   114.5898   109.0384    11.2281    12.8125    12.1202
 5214.8380    84.3172    82.3601    11.2606    19.6584    12.1224
 5215.3380    54.0446    55.6818    11.2930    27.5821    11.8136
 5215.8380    22.0578    29.0034    11.3254    32.8125    11.6598
 5216.3380    18.4580    18.7618    11.3579    27.5312    11.6626
 5216.8380    17.6861    18.3655    11.3903    13.4126    11.6649
 5217.3380    18.6330    18.9017    11.4227    10.9375    11.2005
 5217.8380    22.7008    22.9334    11.4552    17.4849    11.0473
 5218.3380    50.6819    29.1779    11.4876    22.0438    11.0501
 5218.8380    84.5896   113.1546    11.5200    34.3750    11.2079
 5219.3380   121.2449   132.4650    11.5524    46.7290    11.2101
 5219.8380   134.9336   128.7425    11.5849    60.6610    11.0568
 5220.3380   126.5565   125.1245    11.6173    74.5929    11.2146
 5220.8380   126.5632   127.8554    11.6497    88.5249    11.3729
 5221.3380   143.9006   144.4136    11.6822   104.3750    11.6862
 5221.8380   164.7816   161.9529    11.7146   100.0029    11.8440
 5222.3380   158.8382   167.8733    11.7470    91.6958    12.0018
 5222.8380   117.5955   124.3115    11.7794    80.3125    12.3151
 5223.3380    76.3529    98.5329    11.8119    15.7300    12.7839
 5223.8380    29.9959    69.8770    11.8443     9.6480    13.0972
 5224.3380    24.9224    41.2210    11.8767     8.7500    14.0331
 5224.8380    22.5563    26.8914    11.9092     9.8167    14.6574
 5225.3380    22.7189    26.3226    11.9416    15.7183    15.1262
 5225.8380    26.2020    29.5205    11.9740    21.2500    15.9061
 5226.3380    48.7522    84.6730    12.0065    26.1865    16.2194
 5226.8380    72.8937   334.5649    12.0389    32.1875    16.6882
 5227.3380    98.6851   584.4569    12.0713    29.6875    16.6905
 5227.8380   523.6364   834.3489    12.1037    25.6411    16.5377
 5228.3380   979.7595  1080.7395    12.1362    14.6875    16.2289
 5228.8380  1124.2999  1112.2249    12.1686    10.0202    15.9202
 5229.3380   855.3169  1001.6988    12.2010     9.1849    15.6114
 5229.8380   586.3340   777.7912    12.2335     8.1250    15.4581
 5230.3380   317.3510   553.8836    12.2659     7.1120    14.8326
 5230.8380   200.8570   329.9760    12.2983     6.4752    14.2190
 5231.3380   145.1863   154.8095    12.3308     6.5625    13.4436
 5231.8380    89.5155   117.1230    12.3632     6.5625    12.8238
 5232.3380    29.3879    79.4365    12.3956     6.9545    11.8929
 5232.8380    25.3032    41.7500    12.4280     7.5000    10.9620
 5233.3380    24.0728    24.5545    12.4605     8.1691    10.3422
 5233.8380    24.9678    24.0359    12.4929     9.6339    10.0334
 5234.3380    30.2446    28.7484    12.5253    13.4375    10.0362
 5234.8380    37.4584    41.8077    12.5578    16.0531    10.1940
 5235.3380    43.2008    58.4505    12.5902    20.2170    10.5073
 5235.8380    58.2834    75.0934    12.6226    27.0586    10.6651
 5236.3380    75.8785    91.7362    12.6550    33.9002    10.8228
 5236.8380    90.0419   108.3791    12.6875    40.7417    10.9806
 5237.3380   287.3680   125.0219    12.7199    47.7864    10.8273
 5237.8380   552.1507   232.0877    12.7523    59.3750    10.8301
 5238.3380   850.6478   512.5142    12.7848    61.5544    10.8324
 5238.8380   832.6920   715.5820    12.8172    61.8750    10.6786
 5239.3380   480.9687   686.5490    12.8496    64.6875    10.6814
 5239.8380   377.5143   509.2439    12.8821    62.4298    10.6836
 5240.3380   258.7530   316.6400    12.9145    54.3469    10.6859
 5240.8380   139.9918   101.4690    12.9469    46.2640    10.8437
 5241.3380    88.5711    88.9549    12.9793    40.1757    11.0020
 5241.8380    74.7637    74.7800    13.0118    38.9728    11.1597
 5242.3380    60.9564    60.6051    13.0442    37.8125    11.1620
 5242.8380    47.1490    46.4301    13.0766    37.6287    11.3198
 5243.3380    34.2834    32.2552    13.1091    37.8125    11.4775
 5243.8380    30.8344    22.4319    13.1415    37.5000    11.7972
 5244.3380    27.3855    19.3983    13.1739    36.3198    12.1047
 5244.8380    23.9365    16.8525    13.2064    35.3125    12.5735
 5245.3380    21.9702    15.8027    13.2388    39.3750    13.0423
 5245.8380    22.1288    15.9186    13.2712    40.4258    13.3556
 5246.3380    22.9329    16.7384    13.3036    41.2500    13.8244
 5246.8380    25.3411    18.2416    13.3361    38.7500    14.4487
 5247.3380    28.2025    19.8798    13.3685    36.7625    15.2412
 5247.8380    29.4365    22.6156    13.4009    32.8125    16.0090
 5248.3380    29.2063    23.4423    13.4334    22.7491    15.7002
 5248.8380    27.4143    20.6121    13.4658    18.8862    15.7025
 5249.3380    25.7120    17.9938    13.4982    17.5000    14.7716
 5249.8380    22.2966    16.7531    13.5306    18.0090    13.8407
 5250.3380    20.0365    15.2667    13.5631    18.8397    13.6874
 5250.8380    19.1986    14.3161    13.5955    19.0625    13.6714
 5251.3380    19.1830    13.7161    13.6279    17.4944    13.2259
 5251.8380    19.7571    13.8171    13.6604    15.5431    13.0721
 5252.3380    20.7019    15.0090    15.3307    15.3125    12.7639
 5252.8380    30.4727    17.8812    17.6906    16.9418    12.7661
 5253.3380    39.1726    24.8553    25.4710    23.4848    12.7684
 5253.8380    41.7704    30.1569    29.1828    41.2270    12.7706
 5254.3380    39.1766    31.0364    21.4783    58.9692    12.7975
 5254.8380    34.2158    29.9491    19.0305    76.7114    13.0867
 5255.3380    35.4596    27.8840    21.8037    86.1356    13.4000
 5255.8380    47.8800    28.3043   108.0616    88.4375    13.7133
 5256.3380    73.3046    56.0804   237.1260    88.5874    13.7156
 5256.8380    80.5076    79.3027   348.4163    86.9646    13.2512
 5257.3380    75.2836    80.4557   166.6570    82.5000    13.2535
 5257.8380    59.6838    69.2396    38.3999    75.7951    13.2563
 5258.3380    48.1948    57.9038    27.0743    73.6059    13.2586
 5258.8380    34.9706    50.9115    24.1607    72.5000    13.2608
 5259.3380    33.2701    36.1147    23.6599    80.0215    13.2631
 5259.8380    31.8787    33.8661    21.2650    87.6730    13.1092
 5260.3380    31.4290    32.2153    19.6663    94.3750    13.1120
 5260.8380    30.9857    31.0867    19.2569    95.9031    13.2831
 5261.3380    31.4578    31.3139    22.5407    96.9398    13.5837
 5261.8380    34.4867    31.9982    28.3372    97.8125    13.8969
 5262.3380    41.5116    34.8717    39.6043    99.0134    14.0547
 5262.8380    48.9103    46.4351    55.4882   100.9861    14.3680
 5263.3380    68.3807    51.7034    52.3354   100.3125    14.6813
 5263.8380    76.1009    55.1498    37.2830    99.8111    14.8391
 5264.3380    61.4524    57.5764    30.0618   101.3188    14.8414
 5264.8380    58.0438    57.9970    30.5673   103.4375    14.8441
 5265.3380    57.6395    58.0043    37.8104   107.3098    14.8464
 5265.8380    59.7349    58.4295    43.9433   115.3945    14.8486
 5266.3380    63.6963    61.0004    47.5517   120.0000    14.8509
