~VERSION INFORMATION
 VERS.               2.10:   CWLS LOG ASCII STANDARD - VERSION 2.10
 WRAP.                 NO:   ONE LINE PER DEPTH STEP
~WELL INFORMATION
#MNEM.UNIT      DATA TYPE    INFORMATION
#----------   ------------   ------------------------------
 STRT.F         2399.8379:   START DEPTH
 STOP.F         5667.9595:   STOP DEPTH
 STEP.F            0.5000:   STEP LENGTH
 NULL.          -999.2500:   NO VALUE
 COMP. Lawrence Allison & Associates:   COMPANY
 WELL.          43-TPX-10:   WELL
 FLD .           N.P.R. 3:   FIELD
 LOC . 10-38N-78W-NATRONA-WY:   LOCATION
 STAT.                 WY:   STATE
 COUN.            Natrona:   COUNTY
 SRVC.      Dresser Atlas:   SERVICE COMPANY
 DATE.                   :   LOGDATE
 APIN.         4902511207:   API NUMBER
~CURVE INFORMATION
#MNEM.UNIT       API CODE    CURVE DESCRIPTION
#----------   ------------   ------------------------------
 DEPT.F                  :
 LLD .ohmm   11 220 04 00:   Dual Laterolog, Deep
 LLS .ohmm   11 220 06 00:   Dual Laterolog, shallow
 MNOR.ohmm   15 252 02 00:   Microlog, normal 2"
 GR  .GAPI   06 310 01 00:   Gamma Ray
 SP  .mV     06 010 01 00:   Spontaneous Potential
~PARAMETER INFORMATION
#MNEM.UNIT          VALUE    DESCRIPTION
#----------   ------------   ------------------------------
 EKB .F         5215.0000:   Kelly bushing
 EGL .F         5203.0000:   Ground level
 EDF .F            0.0000:   Drilling floor
 EPD .F           10.0000:   Permanent datum
 TD  .F         5260.0000:   Total depth
 NRUN.             1.0000:   Number of Runs
#--RUN 1---   ------------   The following are for Run 1---
 RUN .             1.0000:   Run 1
 DATE.mm/dd/yyyy 02/19/85:   Date Logged
 DD  .ft             5650:   Depth Driller
 DL  .ft             5649:   Depth Logger
 BLI .ft             5646:   Bottom Log Interval
 TLI .ft              511:   Top Log Interval
 CSS .inch          9-5/8:   Casing Size
 CTD1.ft              510:   Casing Driller 1
 CTL1.ft              511:   Casing Logger 1
 BS  .inch            8.5:   Bit Size
 DFT .            kcl-gel:   Type Fluid In Hole
 DFD .lb/gal          9.5:   Mud Weight
 DFV .sec              44:   Viscosity
 DFPH.                8.5:   pH
 DFL .cc              9.0:   Fluid Loss
 WSS .           flowline:   Source Of Sample
 RM  .ohmm            .32:   Rm
 EMT .F                74:   Rm Meas. Temp.
 RMF .ohmm            .26:   Rmf
 MFT .F                74:   Rmf Meas. Temp.
 RMC .ohmm            .40:   Rmc
 MCST.F                74:   Rmc Meas. Temp.
 MFSS.              meas.:   Source Rmf.
 MCSS.              calc.:   Source Rmc.
 RMB .ohmm            .14:   Rm. At BHT
 BHT .F               164:   BHT.
 TCS .hh:mm         5 hrs:   Time Circ. Stopped
 MRT .F               164:   Maximum Recorded Temp.
 LUL .               Glte:   Logging Unit Location
 ENGI.               Mack:   Recorded By
 WITN.         Mr. Strong:   Witnessed By
 DGBY.              Burke:   Digitized By
~T 1 Tops
First Wall Creek                 2512.0
~A  DEPTH      LLD        LLS       MNOR         GR         SP
# ...
 3497.8380     7.0919     7.2834     6.0205   106.0852    61.0117
 3498.3380     7.1441     7.5506     9.3754   112.0525    61.0199
 3498.8380     7.3524     7.7718    10.5341   111.3679    61.0267
 3499.3380     8.7917     7.7741     7.6667   104.1329    60.8780
 3499.8380     8.6683     7.6655     3.6562   109.6866    60.5737
 3500.3380     8.1772     7.5045     2.5775   116.3633    60.1094
 3500.8380     7.6447     7.2425     2.2672   123.0399    60.1103
 3501.3380     7.2234     6.7923     2.0815   126.3737    59.9554
 3501.8380     6.5396     6.1025     1.8441   129.0865    59.8006
 3502.3380     5.9628     5.6824     1.5652   134.7041    59.6458
 3502.8380     5.7555     5.6030     1.2458   143.1991    59.6468
 3503.3380     6.0959     5.9349     1.5660   136.4379    59.8030
 3503.8380     7.0551     7.1002     1.9490   118.1671    59.6483
 3504.3380     9.1590     9.5807     6.7310   102.9436    59.3147
 3504.8380    11.0279    11.4531    12.8329    98.6895    58.5613
 3505.3380    12.6318    11.6191    13.3932    94.7300    58.5621
 3505.8380    13.2827    11.7034    13.6817    96.4618    58.2518
 3506.3380    13.2873    11.9582    14.2791    97.7331    57.6305
 3506.8380    13.3870    12.4838    15.5548   102.7437    57.4755
 3507.3380    13.5839    12.7556    17.1882   104.9093    57.6320
 3507.8380    14.4070    13.1362    18.3271   104.2767    57.7958
 3508.3380    14.8086    13.5094    17.8088   104.2708    57.9447
 3508.8380    14.8137    13.4140    16.4619   107.3371    57.9454
 3509.3380    14.7123    13.1298    15.3259   122.0703    58.2572
 3509.8380    14.4059    12.7602    14.6817   125.0813    58.4133
 3510.3380    13.8087    12.4901    15.7667   127.0590    58.4143
 3510.8380    13.5211    12.4912    16.6918   124.1376    58.5705
 3511.3380    13.1415    12.4921    16.4184   125.0116    58.7268
 3511.8380    12.3805    12.0411    14.2621   125.8345    58.8831
 3512.3380    11.4893    11.0629    13.6626   126.4075    58.5728
 3512.8380    11.0121    10.3736    13.0883   126.5428    58.1072
 3513.3380    11.0159    10.4489    12.8096   126.3177    57.6414
 3513.8380    11.1779    10.6764    13.1794   116.3495    57.1754
 3514.3380    14.6608    12.7690    20.2254   101.9282    56.7098
 3514.8380    16.4378    15.4919    22.5093    87.0010    56.5550
 3515.3380    17.7946    16.7619    23.4921    86.8033    56.2447
 3515.8380    15.9881    18.0068    21.2547    89.0969    55.7789
 3516.3380    13.1933    13.4291    16.8379   100.6574    55.1577
 3516.8380     9.2828     9.8841    11.0013   113.9269    54.8473
 3517.3380     5.1212     6.6644     5.1647   127.1964    54.6925
 3517.8380     2.7563     2.8835     1.5470   140.4659    54.6934
 3518.3380     2.3537     2.3433     0.8217   153.7355    55.0052
 3518.8380     2.6202     2.3267     0.5939   146.9572    55.6281
 3519.3380     3.5045     2.8229     1.1955   134.5501    56.8730
 3519.8380     8.0059     5.8914     6.6038   122.1430    57.6715
 3520.3380    12.2331    10.1766    12.6994   114.1205    58.4299
 3520.8380    13.2355    12.6949    13.0663   113.6679    58.5860
 3521.3380    13.4290    13.3433    13.8326   117.7943    57.8093
 3521.8380    11.9866    12.5118    13.7327   121.6016    57.0325
 3522.3380    11.4887    11.2391    12.9690   127.3354    56.7226
 3522.8380    11.2495    10.8447    12.6928   133.5288    56.4922
 3523.3380    11.0162    10.8456    12.1590   139.0839    56.2619
 3523.8380    10.7868    10.7689    11.9857   138.7639    56.0315
 3524.3380    10.1924    10.1706    12.1568   141.1578    55.7920
 3524.8380     9.2935     9.5893    11.8976   146.2545    55.4819
 3525.3380     8.4137     8.6284    10.7648   153.7450    54.8606
 3525.8380     8.0069     8.0331     8.6883   154.9895    54.5503
 3526.3380     8.0669     7.9763     8.2016   152.3137    54.3752
 3526.8380     8.1918     8.0920     8.0879   149.0386    54.2408
 3527.3380     8.7942     8.2092     8.3212   147.3512    54.2417
 3527.8380     9.3135     8.7560     8.8094   143.6509    54.2425
 3528.3380     9.4505     9.2065    10.0882   140.5822    53.9320
 3528.8380     9.7969     9.4817    11.4706   142.0724    53.9329
 3529.3380     9.7306     9.6119    11.8981   144.6464    53.9337
 3529.8380     9.6648     9.5439    11.8845   148.5746    53.9344
 3530.3380     9.6682     9.3420    11.9689   148.9970    53.7797
 3530.8380     9.8918     9.4098    12.3141   145.8644    53.4696
 3531.3380    10.4649     9.8939    12.5797   143.5933    53.4703
 3531.8380    10.9260    10.5529    12.7593   143.3520    53.4711
 3532.3380    11.1661    11.0169    12.8494   143.6580    53.4718
 3532.8380    10.4758    11.1763    12.2214   143.6520    53.4726
 3533.3380     9.2696     9.8264    10.5186   144.0324    53.6288
 3533.8380     7.8424     6.9701     7.7625   145.5141    53.7851
 3534.3380     6.7367     6.6777     4.5380   144.3733    54.0971
 3534.8380     6.6001     6.7261     2.4681   141.5101    54.5644
 3535.3380     6.8915     7.4889     2.4155   132.3702    54.8762
 3535.8380     7.8377     8.2196     7.2176   127.0429    55.0325
 3536.3380     9.8494    10.1296    12.0182   127.6534    55.3443
 3536.8380    10.5057    10.7252    11.2081   129.8513    55.6561
 3537.3380    11.0470    11.1042    10.8917   129.7007    55.6568
 3537.8380    11.7831    11.5921    11.5307   129.5270    54.7119
 3538.3380    10.1926    10.0471     7.3005   129.8324    53.9478
 3538.8380     9.9370     9.8342     5.9770   133.3970    53.4820
 3539.3380    10.1562    10.8715     5.0713   131.8872    53.3270
 3539.8380    10.9104    11.8473     5.2551   128.8760    53.4835
 3540.3380    14.1073    13.4935    13.3086   125.7458    53.7953
 3540.8380    15.3726    15.6639    15.8891   125.6466    54.1071
 3541.3380    16.1647    16.7072    17.3086   121.2919    54.2634
 3541.8380    17.3783    17.8200    17.9358   116.6356    54.5752
 3542.3380    18.0030    18.4705    18.0630   111.9793    54.7316
 3542.8380    17.2551    18.2093    16.8161   107.3230    55.0434
 3543.3380    12.1736    15.0110    13.3800   104.6573    54.8885
 3543.8380     8.4651    11.4697     6.9612   108.7075    55.2004
 3544.3380     8.0552     8.5299     2.4109   112.5706    55.5122
 3544.8380     8.0586     8.1137     1.9320   112.4239    55.9796
 3545.3380     8.3539     8.4114     8.0933   104.2450    56.2926
 3545.8380    11.1142    12.1993    16.8415    97.2404    56.7587
 3546.3380    13.0059    13.8810    16.4910   105.4022    56.4484
 3546.8380    12.7282    13.6847     9.5279   112.5392    56.2936
 3547.3380    10.9567    12.2927     5.0266   119.6763    56.1388
 3547.8380     8.9666    10.8853     4.4516   126.8133    56.2953
 3548.3380     7.4931     8.9006     4.8840   130.6452    56.1405
 3548.8380     6.0196     6.8493     4.0561   130.3328    56.1413
 3549.3380     4.8629     4.8848     2.6890   129.3384    56.1421
 3549.8380     3.6313     4.1142     1.4505   131.5098    56.3234
 3550.3380     3.4638     3.3916     1.3276   136.5774    56.7658
 3550.8380     3.6683     3.6175     1.2131   140.8489    57.3887
 3551.3380     4.1720     4.2044     1.0898   142.2563    58.0115
 3551.8380     4.9520     5.1397     1.8748   143.4136    58.3233
 3552.3380     5.7539     6.2009     5.4492   144.3425    58.1685
 3552.8380     6.2254     6.2336     3.9894   147.4382    57.5472
 3553.3380     5.8373     5.8872     2.5659   154.0197    57.0814
 3553.8380     6.1421     5.9300     3.5229   154.0145    56.7711
 3554.3380     6.5982     6.2798     6.0269   153.9622    56.3053
 3554.8380     8.3511     7.4039     8.4514   147.2409    55.9950
 3555.3380     9.0354     8.1848     9.4058   144.0106    55.5294
 3555.8380     9.7064     8.6722     9.6087   142.7394    55.2191
 3556.3380     9.9906     9.0592     9.6074   141.6402    54.9088
 3556.8380    10.0655     9.2458     9.8145   138.2482    54.5985
 3557.3380    10.0691     9.3797     9.9546   134.5955    53.9772
 3557.8380    10.0734     9.3134     9.9535   134.1471    53.6669
 3558.3380    10.0768     9.3142     9.8111   139.2919    53.0457
