~VERSION INFORMATION
 VERS.               2.10:   CWLS LOG ASCII STANDARD - VERSION 2.10
 WRAP.                 NO:   ONE LINE PER DEPTH STEP
~WELL INFORMATION
#MNEM.UNIT      DATA TYPE    INFORMATION
#----------   ------------   ------------------------------
 STRT.F         2389.7727:   START DEPTH
 STOP.F         5660.0845:   STOP DEPTH
 STEP.F            0.5000:   STEP LENGTH
 NULL.          -999.2500:   NO VALUE
 COMP. Lawrence Allison and Associates:   COMPANY
 WELL.            43 X 10:   WELL
 FLD .           N.P.R. 3:   FIELD
 LOC . 10-38N-78W-NATRONA-WY:   LOCATION
 STAT.                 WY:   STATE
 COUN.            Natrona:   COUNTY
 SRVC.      Dresser Atlas:   SERVICE COMPANY
 DATE.                   :   LOGDATE
 APIN.         4902511207:   API NUMBER
~CURVE INFORMATION
#MNEM.UNIT       API CODE    CURVE DESCRIPTION
#----------   ------------   ------------------------------
 DEPT.F                  :
 DPHI.none   42 890 12 00:   Den. Porosity, Ss [%]
 NPHI.none   42 890 03 00:   Neu. Porosity, Ss [%]
 RHOB.gm/cc  42 350 01 00:   Bulk Density
 GR  .GAPI   42 310 00 00:   Gamma Ray
~PARAMETER INFORMATION
#MNEM.UNIT          VALUE    DESCRIPTION
#----------   ------------   ------------------------------
 EKB .F         5215.0000:   Kelly bushing
 EGL .F         5203.0000:   Ground level
 EDF .F            0.0000:   Drilling floor
 EPD .F           10.0000:   Permanent datum
 TD  .F         3458.0000:   Total depth
 NRUN.             1.0000:   Number of Runs
#--RUN 1---   ------------   The following are for Run 1---
 RUN .             1.0000:   Run 1
 DATE.mm/dd/yyyy 02/19/1985:   Date Logged
 DD  .ft             5650:   Depth Driller
 DL  .ft             5649:   Depth Logger
 BLI .ft             5647:   Bottom Log Interval
 TLI .ft             2400:   Top Log Interval
 CSS .inch          9.625:   Casing Size
 CTD1.ft              510:   Casing Driller 1
 CTL1.ft       not logged:   Casing Logger 1
 BS  .inch            8.5:   Bit Size
 DFT .            kcl gel:   Type Fluid In Hole
 DFD .lb/gal          9.5:   Mud Weight
 DFV .sec              44:   Viscosity
 DFPH.                8.5:   pH
 DFL .cc              9.0:   Fluid Loss
 WSS .           flowline:   Source Of Sample
 RM  .ohmm            .32:   Rm
 EMT .F                74:   Rm Meas. Temp.
 RMF .ohmm            .26:   Rmf
 MFT .F                74:   Rmf Meas. Temp.
 RMC .ohmm            .40:   Rmc
 MCST.F                74:   Rmc Meas. Temp.
 MFSS.               meas:   Source Rmf.
 MCSS.               calc:   Source Rmc.
 RMB .ohmm            .14:   Rm. At BHT
 BHT .F               164:   BHT.
 TCS .hh:mm        8 hrs.:   Time Circ. Stopped
 MRT .F               170:   Maximum Recorded Temp.
 LUL .               Glte:   Logging Unit Location
 ENGI.               Mack:   Recorded By
 WITN.         Mr. Strong:   Witnessed By
 DGBY.              Burke:   Digitized By
~T 2 Tops
First Wall Creek                 2512.0
Second Wall Creek                2912.0
~OTHER INFORMATION
# Density Matrix = 2.65
# Neutron Matrix = Sandstone
~A  DEPTH     DPHI       NPHI       RHOB         GR
# ...
 4506.7720    15.9312    17.7034     2.3843    46.2060
 4507.2720    15.0464    17.6954     2.4178    49.9054
 4507.7720    14.6844    18.7640     2.4105    49.7825
 4508.2720    14.7599    20.0694     2.3942    44.2674
 4508.7720    16.5977    20.6982     2.3633    39.4295
 4509.2720    17.8327    20.9513     2.3470    36.5683
 4509.7720    18.4619    20.8999     2.3470    32.9987
 4510.2720    18.5208    20.0789     2.3476    35.4558
 4510.7720    18.5185    19.6097     2.3476    35.4226
 4511.2720    18.6376    19.5301     2.3429    35.6909
 4511.7720    18.6962    19.4119     2.3413    37.8809
 4512.2720    18.5126    19.1580     2.3443    41.9046
 4512.7720    18.1145    18.1768     2.3489    42.3810
 4513.2720    17.0027    17.2497     2.3761    42.1106
 4513.7720    15.1021    16.6327     2.4205    45.8100
 4514.2720    13.2015    15.8296     2.4650    46.4071
 4514.7720    11.3008    15.8948     2.5050    46.5013
 4515.2720     9.4002    15.8979     2.5193    46.3492
 4515.7720     8.0899    15.1337     2.5206    40.0724
 4516.2720     8.1486    12.6042     2.5237    27.8739
 4516.7720     7.3481    10.0746     2.5524    22.8848
 4517.2720     4.9854     7.5451     2.5869    20.7072
 4517.7720     2.6228     5.5581     2.6213    18.2612
 4518.2720     0.2601     5.3128     2.6558    18.2332
 4518.7720    -1.4232     5.3163     2.6815    18.2053
 4519.2720    -1.8543     5.3814     2.6892    18.1773
 4519.7720    -2.0929     5.5086     2.6923    18.1439
 4520.2720    -2.0949     5.7058     2.6938    16.8744
 4520.7720    -2.1575     5.8957     2.6999    15.6048
 4521.2720    -2.3019     6.0275     2.7076    14.3353
 4521.7720    -2.8965     6.0798     2.7060    14.3080
 4522.2720    -3.0706     6.0830     2.6966    14.9018
 4522.7720    -2.6145     6.0595     2.6968    16.7378
 4523.2720    -2.6521     5.9962     2.7071    17.9527
 4523.7720    -2.8962     6.0666     2.7278    18.5469
 4524.2720    -3.8664     6.0966     2.7395    18.5046
 4524.7720    -4.9576     6.6579     2.7460    15.9637
 4525.2720    -5.8673     7.0951     2.7380    14.0427
 4525.7720    -5.4961     7.2843     2.7337    13.4683
 4526.2720    -4.9272     7.2254     2.7311    14.8102
 4526.7720    -4.4578     6.9153     2.7302    16.6751
 4527.2720    -4.3623     6.5329     2.7348    17.1131
 4527.7720    -4.7307     5.4162     2.7378    16.8643
 4528.2720    -5.0233     5.1915     2.7424    16.1859
 4528.7720    -5.2766     5.1138     2.7470    16.6792
 4529.2720    -5.3898     4.9884     2.7392    18.8468
 4529.7720    -5.0387     4.9251     2.7283    19.7866
 4530.2720    -4.3145     4.7708     2.7298    21.0301
 4530.7720    -4.6796     4.7120     2.7391    20.6350
 4531.2720    -5.1657     4.6532     2.7389    16.8810
 4531.7720    -4.6230     4.6569     2.7290    13.7481
 4532.2720    -4.0031     4.6600     2.7200    13.0996
 4532.7720    -3.4632     4.6632     2.7156    13.0723
 4533.2720    -3.2862     4.7283     2.7062    13.0450
 4533.7720    -3.1625     4.7963     2.7083    13.6400
 4534.2720    -3.4252     4.9282     2.7143    13.6115
 4534.7720    -3.8485     5.1220     2.7215    14.2053
 4535.2720    -3.6388     5.2539     2.7175    14.8288
 4535.7720    -3.8620     5.3237     2.7137    16.8743
 4536.2720    -4.0971     5.5428     2.7183    20.5102
 4536.7720    -4.2806     5.8331     2.7244    23.5276
 4537.2720    -4.1615     6.1604     2.7228    26.9286
 4537.7720    -2.7633     6.7427     2.7041    30.3624
 4538.2720    -0.1846     8.0358     2.6635    33.4605
 4538.7720     2.0047     9.6095     2.6110    40.6159
 4539.2720     2.4264    11.9795     2.6063    45.4394
 4539.7720     2.6664    12.7106     2.6031    52.9445
 4540.2720     2.8460    13.3106     2.5984    57.7183
 4540.7720     3.2704    14.2669     2.5860    62.1238
 4541.2720     3.8968    14.7594     2.5874    66.0105
 4541.7720     4.2320    15.2827     2.6060    69.0888
 4542.2720     3.6591    17.1226     2.6187    79.2956
 4542.7720     2.6271    19.2582     2.6500    91.5560
 4543.2720     1.2500    21.3938     2.6652   105.0317
 4543.7720    -0.1271    22.0687     2.6724   111.8366
 4544.2720    -1.1643    21.0997     2.6724   114.9149
 4544.7720    -1.3478    18.8653     2.6698   114.8876
 4545.2720    -1.2711    17.5810     2.6670   114.2392
 4545.7720    -0.6126    18.2889     2.6518   111.5290
 4546.2720     0.6726    18.8059     2.6288   102.3833
 4546.7720     1.5646    20.1346     2.6256   104.5232
 4547.2720     1.4656    20.2618     2.6286   111.5468
 4547.7720     1.3380    19.9549     2.6254   116.2326
 4548.2720     1.3902    19.3823     2.6223   117.8020
 4548.7720     1.7305    18.4211     2.6238   115.1360
 4549.2720     1.7415    17.4599     2.6315   108.5153
 4549.7720     1.1731    16.0570     2.6407   104.0500
 4550.2720     0.6870    15.9155     2.6484   104.6431
 4550.7720     0.3825    15.6075     2.6577   104.6152
 4551.2720    -0.5877    14.7782     2.6639   104.2500
 4551.7720    -0.7712    14.3420     2.6585    96.0302
 4552.2720    -0.3111    13.2757     2.6250    81.5125
 4552.7720     0.9462    12.2095     2.5946    74.0395
 4553.2720     2.5877    11.1432     2.5902    66.9741
 4553.7720     4.1219    10.4901     2.5839    61.6612
 4554.2720     4.3623     9.6691     2.5813    59.0916
 4554.7720     4.2995     9.3050     2.5812    56.5209
 4555.2720     4.2371     9.3076     2.5812    53.6910
 4555.7720     3.6300     9.5266     2.5827    52.7778
 4556.2720     2.9591     9.4672     2.5919    52.7505
 4556.7720     2.8393     9.6569     2.5996    53.9655
 4557.2720     3.1041    10.1562     2.5980    58.2860
 4557.7720     3.2590    10.7795     2.5964    69.4388
 4558.2720     3.1526    12.9932     2.5963    76.2438
 4558.7720     2.8994    15.3241     2.5978    79.9431
 4559.2720     2.6460    17.6551     2.6024   103.5183
 4559.7720     2.1609    19.9860     2.6074   113.4437
 4560.2720     0.1619    22.2006     2.6220   130.8531
 4560.7720    -0.5057    22.5812     2.6411   132.6289
 4561.2720    -0.5897    21.4869     2.6580   131.8009
 4561.7720    -0.2676    20.2167     2.6497   127.6370
 4562.2720     0.1541    18.0346     2.6486   120.4822
 4562.7720     0.2731    15.8525     2.6463   112.8277
 4563.2720     0.2940    13.6704     2.6423   104.5538
 4563.7720     0.7898    12.0590     2.6320    90.0518
 4564.2720     1.2765    12.1862     2.6204    78.3947
 4564.7720     1.7603    13.3676     2.6126    78.6580
 4565.2720     1.9834    14.4083     2.6126    80.2220
 4565.7720     2.0135    14.6347     2.6187    83.7077
 4566.2720     1.5292    14.8610     2.6295    85.7310
 4566.7720     1.2852    15.0874     2.6325    86.9459
 4567.2720     1.4042    15.3137     2.6325    87.1071
 4567.7720     1.8259    15.5401     2.6309    85.6490
 4568.2720     2.0054    15.7664     2.6273    81.8950
 4568.7720     1.9430    15.9928     2.6184    78.1410
 4569.2720     1.8804    16.2191     2.6199    77.4926
 4569.7720     1.9538    16.4455     2.6175    78.7075
 4570.2720     2.2627    16.6718     2.6091    80.5435
 4570.7720     3.0138    16.8982     2.5979    89.2475
 4571.2720     3.7617    17.1245     2.5911    91.0946
 4571.7720     4.5157    17.3509     2.5856    90.9425
 4572.2720     4.6825    17.5773     2.5791    89.6438
 4572.7720     4.7103    17.8036     2.5791    88.4785
 4573.2720     3.6187    18.0300     2.5822    88.6139
 4573.7720     2.9510    18.2563     2.5914    90.6698
 4574.2720     2.2229    18.4827     2.6146    94.7381
 4574.7720     1.8579    18.7090     2.6192   104.6456
 4575.2720     1.6138    18.9354     2.6207   108.7117
 4575.7720     1.3066    19.1617     2.6284   110.0575
 4576.2720     1.0508    19.3881     2.6438   104.3252
 4576.7720     0.5697    19.6144     2.6532    99.9446
 4577.2720    -0.0884    19.8408     2.6561    96.2966
 4577.7720     0.1542    20.0672     2.6576    93.1637
 4578.2720     0.4518    20.2935     2.6538    92.5152
 4578.7720     0.3889    20.5199     2.6473    95.5935
 4579.2720     0.2312    20.7462     2.6450   103.0196
