~VERSION INFORMATION
 VERS.               2.10:   CWLS LOG ASCII STANDARD - VERSION 2.10
 WRAP.                 NO:   ONE LINE PER DEPTH STEP
~WELL INFORMATION
#MNEM.UNIT      DATA TYPE    INFORMATION
#----------   ------------   ------------------------------
 STRT.F         2399.8379:   START DEPTH
 STOP.F         5667.9595:   STOP DEPTH
 STEP.F            0.5000:   STEP LENGTH
 NULL.          -999.2500:   NO VALUE
 COMP. Lawrence Allison & Associates:   COMPANY
 WELL.          43-TPX-10:   WELL
 FLD .           N.P.R. 3:   FIELD
 LOC . 10-38N-78W-NATRONA-WY:   LOCATION
 STAT.                 WY:   STATE
 COUN.            Natrona:   COUNTY
 SRVC.      Dresser Atlas:   SERVICE COMPANY
 DATE.                   :   LOGDATE
 APIN.         4902511207:   API NUMBER
~CURVE INFORMATION
#MNEM.UNIT       API CODE    CURVE DESCRIPTION
#----------   ------------   ------------------------------
 DEPT.F                  :
 LLD .ohmm   11 220 04 00:   Dual Laterolog, Deep
 LLS .ohmm   11 220 06 00:   Dual Laterolog, shallow
 MNOR.ohmm   15 252 02 00:   Microlog, normal 2"
 GR  .GAPI   06 310 01 00:   Gamma Ray
 SP  .mV     06 010 01 00:   Spontaneous Potential
~PARAMETER INFORMATION
#MNEM.UNIT          VALUE    DESCRIPTION
#----------   ------------   ------------------------------
 EKB .F         5215.0000:   Kelly bushing
 EGL .F         5203.0000:   Ground level
 EDF .F            0.0000:   Drilling floor
 EPD .F           10.0000:   Permanent datum
 TD  .F         5260.0000:   Total depth
 NRUN.             1.0000:   Number of Runs
#--RUN 1---   ------------   The following are for Run 1---
 RUN .             1.0000:   Run 1
 DATE.mm/dd/yyyy 02/19/85:   Date Logged
 DD  .ft             5650:   Depth Driller
 DL  .ft             5649:   Depth Logger
 BLI .ft             5646:   Bottom Log Interval
 TLI .ft              511:   Top Log Interval
 CSS .inch          9-5/8:   Casing Size
 CTD1.ft              510:   Casing Driller 1
 CTL1.ft              511:   Casing Logger 1
 BS  .inch            8.5:   Bit Size
 DFT .            kcl-gel:   Type Fluid In Hole
 DFD .lb/gal          9.5:   Mud Weight
 DFV .sec              44:   Viscosity
 DFPH.                8.5:   pH
 DFL .cc              9.0:   Fluid Loss
 WSS .           flowline:   Source Of Sample
 RM  .ohmm            .32:   Rm
 EMT .F                74:   Rm Meas. Temp.
 RMF .ohmm            .26:   Rmf
 MFT .F                74:   Rmf Meas. Temp.
 RMC .ohmm            .40:   Rmc
 MCST.F                74:   Rmc Meas. Temp.
 MFSS.              meas.:   Source Rmf.
 MCSS.              calc.:   Source Rmc.
 RMB .ohmm            .14:   Rm. At BHT
 BHT .F               164:   BHT.
 TCS .hh:mm         5 hrs:   Time Circ. Stopped
 MRT .F               164:   Maximum Recorded Temp.
 LUL .               Glte:   Logging Unit Location
 ENGI.               Mack:   Recorded By
 WITN.         Mr. Strong:   Witnessed By
 DGBY.              Burke:   Digitized By
~T 1 Tops
First Wall Creek                 2512.0
~A  DEPTH      LLD        LLS       MNOR         GR         SP
# ...
 3924.8380     2.9393     2.5022     2.9120    95.6231    57.0361
 3925.3380     2.9166     2.5028     2.9754    96.2542    57.0581
 3925.8380     2.9815     2.5213     3.0401    96.0811    57.2001
 3926.3380     3.0218     2.5218     2.9759    94.3919    57.5149
 3926.8380     2.9780     2.5420     2.7318    93.2685    57.6742
 3927.3380     2.9561     2.5963     2.6174    93.1532    57.9890
 3927.8380     2.9764     2.6915     2.6398    92.2232    58.3038
 3928.3380     3.1502     2.8102     2.9770    89.9118    58.7742
 3928.8380     3.3341     2.9341     3.1976    89.1095    58.9335
 3929.3380     3.3571     2.9348     3.4345    91.9295    59.0928
 3929.8380     3.3531     2.8937     3.4842    92.4336    58.7855
 3930.3380     3.2375     2.7529     3.3623    92.0128    58.4792
 3930.8380     3.1681     2.7535     3.1533    91.0108    58.1710
 3931.3380     3.1901     2.7740     3.0214    91.5118    58.1757
 3931.8380     3.2580     2.7946     2.9980    91.9595    58.0239
 3932.3380     3.3513     2.8763     2.8952    91.3421    58.0277
 3932.8380     3.4719     3.0032     2.8139    89.8725    58.1870
 3933.3380     3.5714     3.0254     2.9165    88.8533    58.1908
 3933.8380     3.5959     3.0697     3.4373    89.1733    58.1947
 3934.3380     3.5904     3.1146     3.5372    90.4693    58.3548
 3934.8380     3.4678     3.0041     3.4134    91.5150    58.5141
 3935.3380     3.3694     2.9426     3.0235    93.8796    58.6734
 3935.8380     3.2738     2.9222     2.8970    95.1693    58.6772
 3936.3380     3.2729     2.9440     2.9390    96.7723    58.6809
 3936.8380     3.2956     2.9447     3.1120    94.2109    58.6847
 3937.3380     3.3418     2.9664     3.2718    87.9170    58.6885
 3937.8380     3.4384     2.9671     3.3668    83.9097    58.6924
 3938.3380     3.5359     2.9891     3.3671    89.8547    58.3850
 3938.8380     3.5096     2.9897     3.3435    92.2575    58.2332
 3939.3380     3.5337     2.9905     3.3438    93.6160    58.2380
 3939.8380     3.5077     2.9912     3.3471    92.9980    58.2417
 3940.3380     3.4818     2.9918     3.3925    93.0042    58.4010
 3940.8380     3.4316     2.9498     3.3686    93.6941    58.4048
 3941.3380     3.3342     2.9295     3.2976    94.2673    58.0975
 3941.8380     3.2860     2.8885     3.1371    95.3801    58.1014
 3942.3380     3.3597     2.8481     3.0928    96.9454    58.1060
 3942.8380     3.4034     2.8487     3.2055    98.0361    58.1098
 3943.3380     3.3541     2.8699     3.2991    97.7241    57.9571
 3943.8380     3.3057     2.8912     3.0005    96.1207    57.9618
 3944.3380     3.2119     2.8507     2.8400    95.5549    57.4990
 3944.8380     3.1430     2.7511     2.8605    94.6265    57.3464
 3945.3380     3.1198     2.7125     2.9227    93.5439    57.3511
 3945.8380     3.1413     2.7523     3.0292    90.5736    57.5104
 3946.3380     3.2144     2.8328     3.1847    86.9905    57.6698
 3946.8380     3.3713     2.9384     3.3722    86.1181    57.6744
 3947.3380     3.6194     3.2009     3.7301    84.3424    57.6782
 3947.8380     3.9982     3.4638     3.9792    81.6313    57.6819
 3948.3380     4.1424     3.5652     4.0612    76.9523    57.6857
 3948.8380     3.9676     3.4161     3.8088    78.4237    58.3116
 3949.3380     3.4640     3.0038     3.1638    81.5637    58.7819
 3949.8380     3.1565     2.8373     2.6848    85.2372    58.7857
 3950.3380     2.9969     2.7382     2.6660    87.5050    58.7896
 3950.8380     2.8754     2.6425     2.6473    87.8230    58.4822
 3951.3380     2.8339     2.6055     2.6287    88.1417    58.1749
 3951.8380     2.8132     2.6249     2.6510    88.1488    57.5576
 3952.3380     2.9985     2.7407     2.7837    87.5642    57.5613
 3952.8380     3.3599     2.9028     2.9900    85.3923    57.4086
 3953.3380     3.8737     3.1188     3.1887    81.6051    57.4134
 3953.8380     4.2185     3.4483     3.6785    78.3375    57.4171
 3954.3380     4.4365     3.8125     4.1240    74.6808    57.4210
 3954.8380     4.4955     3.9522     4.2439    74.3606    57.4256
 3955.3380     4.0095     3.7067     4.3361    75.1992    57.4294
 3955.8380     3.7326     3.5517     3.7865    75.6980    57.4332
 3956.3380     3.7051     3.6036     3.5259    75.3927    57.4369
 3956.8380     3.8112     3.7357     3.6543    74.8265    57.4407
 3957.3380     4.0626     4.0137     4.0969    72.2689    57.6000
 3957.8380     4.4242     4.4377     4.9555    65.3186    57.6038
 3958.3380     6.2356     5.2239     5.9983    58.3684    57.7631
 3958.8380     7.7100     5.9691     7.2549    52.9240    57.7670
 3959.3380     8.2186     6.8715     7.7370    51.7434    57.9271
 3959.8380     8.6367     7.3829     7.4664    51.0602    58.2419
 3960.3380     9.0761     8.2213     8.3708    51.0678    58.4012
 3960.8380     9.6110     8.7701     8.9271    48.4206    58.4050
 3961.3380    10.0231     9.0916     9.6574    46.3915    58.5643
 3961.8380     9.8083     8.9642    10.5973    48.8990    58.5681
 3962.3380     9.3107     8.2875     9.7980    52.5072    58.7274
 3962.8380     8.8733     7.8843     8.0233    58.3617    58.8868
 3963.3380     8.5800     8.0001     8.4815    60.7928    58.5794
 3963.8380     8.3977     8.0593    12.3164    58.6617    58.1175
 3964.3380     7.5438     7.7223    11.5707    56.1166    57.6538
 3964.8380     6.1257     6.5050     7.3161    64.4957    57.5021
 3965.3380     4.7075     5.2119     4.3750    73.3391    57.1948
 3965.8380     3.9012     3.5420     3.7662    82.1825    56.8885
 3966.3380     3.5804     3.4428     3.5829    92.7054    56.5812
 3966.8380     3.7358     3.4475     3.7401    87.8983    56.5851
 3967.3380     4.2160     3.8901     4.6697    81.9642    56.5897
 3967.8380     4.5262     4.2399     5.4614    76.0301    56.4370
 3968.3380     4.9291     4.5881     5.5404    70.0960    56.1307
 3968.8380     5.1812     4.7905     5.7423    67.1102    56.1345
 3969.3380     5.4101     5.0017     5.9515    66.5966    56.1382
 3969.8380     5.4029     4.9317     5.6618    67.4297    56.1420
 3970.3380     5.3249     4.7594     5.1604    74.3168    56.3013
 3970.8380     5.2481     4.6261     5.0149    77.1117    56.6162
 3971.3380     5.3601     4.6606     5.1694    76.3329    56.7756
 3971.8380     5.4748     4.7970     5.5045    74.3355    56.9357
 3972.3380     5.6312     4.9728     5.6241    74.6332    56.7830
 3972.8380     5.7514     5.0456     5.7055    76.2943    56.7877
 3973.3380     5.7909     5.0104     5.7469    77.1668    56.6350
 3973.8380     5.7889     5.0118     5.7474    73.4843    56.6397
 3974.3380     5.7054     4.9416     5.6664    71.9934    56.6435
 3974.8380     5.5041     4.9427     5.6669    71.2481    56.8028
 3975.3380     5.5025     4.8738     5.5870    71.1369    56.1845
 3975.8380     5.5408     4.8056     5.5083    71.5299    55.2561
 3976.3380     5.4995     4.6374     5.3538    73.1419    54.9479
 3976.8380     5.4201     4.5399     5.1665    74.8532    54.7971
 3977.3380     4.9625     4.4127     4.8453    76.4525    54.9563
 3977.8380     4.6970     4.1983     4.7770    77.8482    54.9601
 3978.3380     4.6624     4.1395     4.8462    79.3579    54.3418
 3978.8380     4.7280     4.2025     5.0230    80.6111    54.3456
 3979.3380     5.0399     4.4170     5.4832    84.1170    54.5050
 3979.8380     5.3723     4.5789     5.7948    98.5036    55.1317
 3980.3380     5.6056     4.6128     5.9207   113.5205    55.4465
 3980.8380     5.5642     4.5480     5.5926   128.5374    55.4503
 3981.3380     5.2132     4.4206     5.3585   122.3338    55.6096
 3981.8380     5.0326     4.3903     5.2081   109.1310    55.6134
 3982.3380     5.1767     4.4228     5.2459    95.9281    55.4607
 3982.8380     5.4014     4.5875     5.5169    86.7470    55.1543
 3983.3380     5.5565     4.8564     5.6815    83.2771    55.1581
 3983.8380     5.6747     5.0344     5.6356    80.1108    55.1620
 3984.3380     5.8372     5.1081     5.5960    79.7641    55.0101
 3984.8380     6.0044     5.1828     5.7177    73.1339    55.1704
 3985.3380     6.1801     5.2587     5.7592    70.1296    55.3297
