~VERSION INFORMATION
 VERS.               2.10:   CWLS LOG ASCII STANDARD - VERSION 2.10
 WRAP.                 NO:   ONE LINE PER DEPTH STEP
~WELL INFORMATION
#MNEM.UNIT      DATA TYPE    INFORMATION
#----------   ------------   ------------------------------
 STRT.F         2398.5081:   START DEPTH
 STOP.F         5645.6445:   STOP DEPTH
 STEP.F            0.5000:   STEP LENGTH
 NULL.          -999.2500:   NO VALUE
 COMP. Lawrence Allison and Associates:   COMPANY
 WELL.          43 TPX 10:   WELL
 FLD .           N.P.R. 3:   FIELD
 LOC . 10-38N-78W-NATRONA-WY:   LOCATION
 STAT.                 WY:   STATE
 COUN.            Natrona:   COUNTY
 SRVC.      Dresser Atlas:   SERVICE COMPANY
 DATE.                   :   LOGDATE
 APIN.         4902511207:   API NUMBER
~CURVE INFORMATION
#MNEM.UNIT       API CODE    CURVE DESCRIPTION
#----------   ------------   ------------------------------
 DEPT.F                  :
 DT  .us/f   60 520 00 00:   Delta t
 GR  .API    60 310 00 00:   Gamma Ray
 PORA.None               :   Porosity
~PARAMETER INFORMATION
#MNEM.UNIT          VALUE    DESCRIPTION
#----------   ------------   ------------------------------
 EKB .F         5215.0000:   Kelly bushing
 EGL .F         5203.0000:   Ground level
 EDF .F            0.0000:   Drilling floor
 EPD .F           10.0000:   Permanent datum
 TD  .F         3340.0000:   Total depth
 NRUN.             1.0000:   Number of Runs
#--RUN 1---   ------------   The following are for Run 1---
 RUN .             1.0000:   Run 1
 DATE.mm/dd/yyyy 02/19/1985:   Date Logged
 DD  .ft             5650:   Depth Driller
 DL  .ft             5649:   Depth Logger
 BLI .ft             5640:   Bottom Log Interval
 TLI .ft             2440:   Top Log Interval
 CSS .inch          9.625:   Casing Size
 CTD1.ft              510:   Casing Driller 1
 BS  .inch            8.5:   Bit Size
 DFT .            kcl gel:   Type Fluid In Hole
 DFD .lb/gal          9.5:   Mud Weight
 DFV .sec              44:   Viscosity
 DFPH.                8.5:   pH
 DFL .cc              9.0:   Fluid Loss
 WSS .           flowline:   Source Of Sample
 RM  .ohmm            .32:   Rm
 EMT .F                74:   Rm Meas. Temp.
 RMF .ohmm            .26:   Rmf
 MFT .F                74:   Rmf Meas. Temp.
 RMC .ohmm            .40:   Rmc
 MCST.F                74:   Rmc Meas. Temp.
 MFSS.               meas:   Source Rmf.
 MCSS.               calc:   Source Rmc.
 RMB .ohmm            .14:   Rm. At BHT
 BHT .F               164:   BHT.
 TCS .hh:mm        11 hrs:   Time Circ. Stopped
 MRT .F               164:   Maximum Recorded Temp.
 LUL .              Gltte:   Logging Unit Location
 ENGI.               Mack:   Recorded By
 WITN.          Mr. Strog:   Witnessed By
 DGBY.              Burke:   Digitized By
~T 1 Tops
First Wall Creek                 2512.0
~OTHER INFORMATION
# Repeat recorded off depth.
~A  DEPTH       DT         GR       PORA
# ...
 4946.5080    57.5718    55.8375     4.4848
 4947.0080    56.9381    53.6103     4.0802
 4947.5080    56.4161    51.8244     3.7066
 4948.0080    56.4212    49.1596     3.5813
 4948.5080    56.4252    45.6863     3.6111
 4949.0080    56.6620    44.4559     3.7340
 4949.5080    57.3643    46.2161     3.9910
 4950.0080    58.0665    50.2194     4.3520
 4950.5080    59.0111    51.9796     5.2507
 4951.0080    60.4232    54.4876     5.8081
 4951.5080    62.4290    57.2965     7.4418
 4952.0080    64.4348    66.9840     9.3055
 4952.5080    66.3115    72.4826    10.5523
 4953.0080    66.7810    77.7319    11.8239
 4953.5080    67.4832    81.4860    12.1325
 4954.0080    67.4087    82.2493    11.9448
 4954.5080    67.0258    80.7697    11.5402
 4955.0080    66.0989    80.7854    10.8253
 4955.5080    65.4801    81.5709    10.3276
 4956.0080    64.6102    82.0630     9.9540
 4956.5080    63.7846    80.5873     9.5183
 4957.0080    63.3232    78.6092     8.9538
 4957.5080    62.6290    74.3882     8.5440
 4958.0080    62.9434    73.4031     8.5217
 4958.5080    64.1887    73.1735     9.2650
 4959.0080    65.6667    71.6939    11.0015
 4959.5080    67.0777    72.4968    11.7761
 4960.0080    67.4601    76.7137    11.8063
 4960.5080    67.0763    79.4708    11.4634
 4961.0080    66.3821    84.7202    11.1174
 4961.5080    66.2300    85.7328    10.8711
 4962.0080    66.2350    82.7579    10.7768
 4962.5080    66.1615    79.2845    10.6825
 4963.0080    66.0879    78.3033    10.5572
 4963.5080    65.6851    79.6437    10.3388
 4964.0080    64.7782    82.3262     9.9962
 4964.5080    64.3167    82.3419     9.5606
 4965.0080    63.8553    81.8592     9.4042
 4965.5080    64.0145    79.1335     9.4337
 4966.0080    64.4064    76.4077     9.7118
 4966.5080    65.0311    73.9313     9.9899
 4967.0080    65.4264    73.1993    10.2059
 4967.5080    65.8935    73.7263    10.3909
 4968.0080    66.2079    76.1474    10.7931
 4968.5080    66.8326    79.7301    11.3815
 4969.0080    67.6124    81.9888    11.7561
 4969.5080    67.5389    81.7553    12.0615
 4970.0080    66.9223    80.2757    11.6879
 4970.5080    65.8402    80.0383    10.9109
 4971.0080    64.4258    82.0517    10.5373
 4971.5080    63.6760    82.8151     9.4811
 4972.0080    63.6811    78.9742     9.0728
 4972.5080    64.0730    76.6199     9.3238
 4973.0080    65.0080    76.1332     9.7509
 4973.5080    65.7103    77.3990    10.5310
 4974.0080    66.0246    80.1561    10.8712
 4974.5080    65.8721    81.9164    10.5596
 4975.0080    65.0561    83.6767     9.8757
 4975.5080    63.7104    84.9442     9.4982
 4976.0080    62.8610    84.5953     8.9119
 4976.5080    62.2214    80.2609     8.3256
 4977.0080    61.5600    76.8813     7.7393
 4977.5080    60.8986    73.5018     7.1530
 4978.0080    60.2372    70.1223     6.5736
 4978.5080    59.7784    66.7427     6.2983
 4979.0080    59.4721    63.6220     6.0488
 4979.5080    59.6316    64.6346     6.0476
 4980.0080    59.9458    65.1488     6.0774
 4980.5080    60.1834    62.6723     6.3555
 4981.0080    60.2650    62.9372     6.5095
 4981.5080    60.1915    64.1990     6.5083
 4982.0080    60.1169    64.4640     6.4724
 4982.5080    60.1220    63.1927     6.4125
 4983.0080    60.1260    61.5087     6.5354
 4983.5080    60.3671    60.0291     6.6273
 4984.0080    60.8333    59.7916     6.8433
 4984.5080    61.3804    59.8113     7.0283
 4985.0080    61.8499    60.0762     7.6167
 4985.5080    62.2419    60.8396     7.8961
 4986.0080    62.6338    62.5998     8.2435
 4986.5080    62.6497    65.1434     8.2024
 4987.0080    62.6378    66.1243     8.3253
 4987.5080    63.0423    66.3853     8.7275
 4988.0080    63.9698    65.1549     9.4401
 4988.5080    65.2151    66.1714    10.4319
 4989.0080    66.5380    71.4208    11.1754
 4989.5080    66.6186    76.9194    11.0381
 4990.0080    65.2272    80.9227    10.1539
 4990.5080    63.7035    81.9355     8.8071
 4991.0080    62.0893    78.7150     7.2822
 4991.5080    60.4751    76.2385     6.5763
 4992.0080    59.5032    73.7620     6.1407
 4992.5080    59.2734    65.3042     5.8912
 4993.0080    59.2785    61.0832     5.7348
 4993.5080    59.2825    59.8528     5.5164
 4994.0080    59.0538    58.3732     5.3601
 4994.5080    59.0589    57.1428     5.2347
 4995.0080    58.9843    56.9093     5.1989
 4995.5080    58.9894    57.6726     5.2320
 4996.0080    59.2261    56.4462     5.4480
 4996.5080    59.6957    55.2158     6.0054
 4997.0080    61.1116    55.2315     6.6180
 4997.5080    62.7708    55.7457     7.7772
 4998.0080    64.4300    59.4997     8.9364
 4998.5080    66.5416    62.7782    10.0956
 4999.0080    67.5834    68.2488    11.6207
 4999.5080    68.2550    76.3544    12.6077
 5000.0080    68.1416    84.9857    12.4515
 5000.5080    67.1160    86.2472    11.4885
 5001.0080    66.0903    85.5128    10.2464
 5001.5080    64.6407    82.9973     9.5555
 5002.0080    63.0920    79.1468     8.4445
 5002.5080    62.3126    75.2964     7.9781
 5003.0080    61.7658    71.4459     7.5738
 5003.5080    61.5499    67.3873     7.4177
 5004.0080    61.6304    66.6496     7.4168
 5004.5080    61.8661    66.6663     7.4159
 5005.0080    62.1017    67.4272     7.5713
 5005.5080    62.2598    67.4534     7.7086
 5006.0080    62.5730    68.8717     8.1888
 5006.5080    62.8087    71.2088     8.3741
 5007.0080    62.5020    70.2252     8.3422
 5007.5080    62.2722    69.7368     8.1861
 5008.0080    62.3527    70.7503     8.0921
 5008.5080    62.5883    72.5081     8.0895
 5009.0080    62.9791    72.2719     8.2214
 5009.5080    63.3699    71.6788     8.8339
 5010.0080    64.0711    70.8046     9.2675
 5010.5080    66.7132    72.5625     9.4528
 5011.0080    66.7782    73.3448     9.9484
 5011.5080    66.8432    74.6232    11.4370
 5012.0080    67.3757    80.8300    11.7464
 5012.5080    67.5769    83.8340    11.9007
 5013.0080    66.0290    86.8380    11.8549
 5013.5080    64.5816    89.5927     9.8195
 5014.0080    62.7658    89.8519     7.8326
 5014.5080    60.8401    79.1520     6.9938
 5015.0080    60.2224    72.9637     6.4654
 5015.5080    60.0695    66.5859     6.2162
 5016.0080    59.7627    63.7436     6.0291
 5016.5080    59.6881    62.2615     5.9662
 5017.0080    59.5285    61.2746     5.8984
 5017.5080    59.3068    61.5405     5.7469
 5018.0080    59.2314    62.0522     5.5909
 5018.5080    58.7695    63.8101     5.3727
 5019.0080    58.4621    63.5742     5.1856
 5019.5080    58.0771    61.0365     4.9365
 5020.0080    58.2352    57.1244     4.8735
 5020.5080    59.1691    54.6455     5.1602
 5021.0080    61.2434    52.4158     6.2922
 5021.5080    63.0616    51.1797     7.7980
 5022.0080    65.1522    57.1776     9.3038
 5022.5080    65.4654    62.1753    10.2993
 5023.0080    65.6235    72.9052    10.3607
 5023.5080    65.1609    83.1752    10.0182
 5024.0080    64.1183    86.8887     9.5186
 5024.5080    63.0126    86.1571     8.7013
 5025.0080    61.9069    81.6845     7.8840
 5025.5080    60.8012    77.5189     7.0667
 5026.0080    59.6956    72.6474     6.2495
 5026.5080    58.3519    67.7758     5.4198
 5027.0080    58.4324    62.9042     5.2948
 5027.5080    58.9982    58.5745     5.4180
 5028.0080    59.2140    57.3417     5.5105
 5028.5080    58.8297    55.6105     5.4783
 5029.0080    58.5223    55.3746     5.2912
 5029.5080    58.0590    56.1727     4.8517
 5030.0080    57.8292    56.3981     4.5444
 5030.5080    58.1432    53.1748     4.4504
 5031.0080    59.5929    51.1944     4.8529
 5031.5080    61.5993    50.4567     6.2481
 5032.0080    63.6057    50.7226     7.9898
 5032.5080    65.6122    56.2712     9.7315
 5033.0080    66.4592    67.3877    11.0555
 5033.5080    65.3760    78.5042    10.9926
 5034.0080    64.2761    88.1612    10.1738
 5034.5080    62.9776    89.6665     9.1674
 5035.0080    62.4375    83.7018     8.2383
 5035.5080    62.0525    77.7338     7.8546
 5036.0080    61.8227    76.2327     7.7296
 5036.5080    61.8256    74.4418     7.6976
 5037.0080    61.8285    72.5434     7.6657
