~VERSION INFORMATION
 VERS.               2.10:   CWLS LOG ASCII STANDARD - VERSION 2.10
 WRAP.                 NO:   ONE LINE PER DEPTH STEP
~WELL INFORMATION
#MNEM.UNIT      DATA TYPE    INFORMATION
#----------   ------------   ------------------------------
 STRT.F         2398.5081:   START DEPTH
 STOP.F         5645.6445:   STOP DEPTH
 STEP.F            0.5000:   STEP LENGTH
 NULL.          -999.2500:   NO VALUE
 COMP. Lawrence Allison and Associates:   COMPANY
 WELL.          43 TPX 10:   WELL
 FLD .           N.P.R. 3:   FIELD
 LOC . 10-38N-78W-NATRONA-WY:   LOCATION
 STAT.                 WY:   STATE
 COUN.            Natrona:   COUNTY
 SRVC.      Dresser Atlas:   SERVICE COMPANY
 DATE.                   :   LOGDATE
 APIN.         4902511207:   API NUMBER
~CURVE INFORMATION
#MNEM.UNIT       API CODE    CURVE DESCRIPTION
#----------   ------------   ------------------------------
 DEPT.F                  :
 DT  .us/f   60 520 00 00:   Delta t
 GR  .API    60 310 00 00:   Gamma Ray
 PORA.None               :   Porosity
~PARAMETER INFORMATION
#MNEM.UNIT          VALUE    DESCRIPTION
#----------   ------------   ------------------------------
 EKB .F         5215.0000:   Kelly bushing
 EGL .F         5203.0000:   Ground level
 EDF .F            0.0000:   Drilling floor
 EPD .F           10.0000:   Permanent datum
 TD  .F         3340.0000:   Total depth
 NRUN.             1.0000:   Number of Runs
#--RUN 1---   ------------   The following are for Run 1---
 RUN .             1.0000:   Run 1
 DATE.mm/dd/yyyy 02/19/1985:   Date Logged
 DD  .ft             5650:   Depth Driller
 DL  .ft             5649:   Depth Logger
 BLI .ft             5640:   Bottom Log Interval
 TLI .ft             2440:   Top Log Interval
 CSS .inch          9.625:   Casing Size
 CTD1.ft              510:   Casing Driller 1
 BS  .inch            8.5:   Bit Size
 DFT .            kcl gel:   Type Fluid In Hole
 DFD .lb/gal          9.5:   Mud Weight
 DFV .sec              44:   Viscosity
 DFPH.                8.5:   pH
 DFL .cc              9.0:   Fluid Loss
 WSS .           flowline:   Source Of Sample
 RM  .ohmm            .32:   Rm
 EMT .F                74:   Rm Meas. Temp.
 RMF .ohmm            .26:   Rmf
 MFT .F                74:   Rmf Meas. Temp.
 RMC .ohmm            .40:   Rmc
 MCST.F                74:   Rmc Meas. Temp.
 MFSS.               meas:   Source Rmf.
 MCSS.               calc:   Source Rmc.
 RMB .ohmm            .14:   Rm. At BHT
 BHT .F               164:   BHT.
 TCS .hh:mm        11 hrs:   Time Circ. Stopped
 MRT .F               164:   Maximum Recorded Temp.
 LUL .              Gltte:   Logging Unit Location
 ENGI.               Mack:   Recorded By
 WITN.          Mr. Strog:   Witnessed By
 DGBY.              Burke:   Digitized By
~T 1 Tops
First Wall Creek                 2512.0
~OTHER INFORMATION
# Repeat recorded off depth.
~A  DEPTH       DT         GR       PORA
# ...
 3217.5080    76.0953    73.0890    18.0460
 3218.0080    77.2563    72.3682    18.7868
 3218.5080    78.3398    71.8902    19.6612
 3219.0080    78.8802    74.4321    20.0624
 3219.5080    78.8776    77.7176    20.0933
 3220.0080    78.7095    80.2519    19.9069
 3220.5080    78.8723    81.2839    20.3411
 3221.0080    80.2333    82.8437    21.5617
 3221.5080    82.7078    83.3554    23.6324
 3222.0080    85.1824    84.8881    25.7032
 3222.5080    87.6569    86.4208    27.5480
 3223.0080    89.7196    88.7047    28.1912
 3223.5080    89.8728    91.9902    27.5083
 3224.0080    89.2489    95.7765    26.9495
 3224.5080    87.7722    97.5596    26.3908
 3225.0080    86.9834    97.5905    25.7079
 3225.5080    86.7584    95.8752    25.8008
 3226.0080    87.6861    94.1529    26.1730
 3226.5080    87.8393    93.9253    26.4890
 3227.0080    87.7584    94.7144    26.6071
 3227.5080    87.4454    96.2472    26.4517
 3228.0080    87.0549    97.7799    26.1412
 3228.5080    86.5092    97.8103    25.8307
 3229.0080    85.8042    93.8280    25.1478
 3229.5080    85.0731    93.3640    24.4028
 3230.0080    83.6302    94.1532    22.8702
 3230.5080    80.9123    96.4371    20.3982
 3231.0080    78.7169    98.2202    17.9262
 3231.5080    75.7475    98.5010    15.6200
 3232.0080    72.7549    95.9387    15.0613
 3232.5080    71.5142    88.5829    14.9990
 3233.0080    71.7443    81.2272    15.2781
 3233.5080    71.8199    78.3358    15.3090
 3234.0080    71.8166    79.1250    15.0915
 3234.5080    71.5036    82.1632    14.7488
 3235.0080    70.9579    84.2946    14.2057
 3235.5080    70.3347    86.7355    13.9117
 3236.0080    70.4902    86.5154    14.1287
 3236.5080    70.8071    85.5443    14.8733
 3237.0080    72.2656    82.3196    16.0139
 3237.5080    73.3185    82.0920    17.2624
 3238.0080    74.5943    84.8843    17.5104
 3238.5080    75.9815    89.4217    18.4722
 3239.0080    76.6771    93.3510    19.5271
 3239.5080    78.6139   102.0096    20.6131
 3240.0080    80.5509   104.0431    21.7194
 3240.5080    82.5063   105.0751    22.8589
 3241.0080    84.0359   105.1055    23.9018
 3241.5080    84.2667   104.8855    23.8706
 3242.0080    83.5652   103.4135    23.5601
 3242.5080    83.7177   103.4439    23.5268
 3243.0080    84.5684   105.7419    24.0628
 3243.5080    85.7295   108.0564    26.2258
 3244.0080    94.6215   111.5552    28.8820
 3244.5080   103.1016   117.5949  -999.2500
 3245.0080   103.4099   132.3984   -42.8477
 3245.5080    99.9156   135.9343   -46.8209
 3246.0080    93.4714   137.7174  -999.2500
 3246.5080    86.4370   136.2455    24.5296
 3247.0080    81.6720   120.2770    22.2540
 3247.5080    81.7926   101.0036    22.2236
 3248.0080    82.2918   100.2622    22.6889
 3248.5080    81.2024   101.8155    21.1681
 3249.0080    79.1827    98.4724    20.3611
 3249.5080    78.7146    92.1186    20.4540
 3250.0080    79.6429    90.6467    20.6090
 3250.5080    77.7784    89.6755    20.0502
 3251.0080    76.3017    89.7059    18.7157
 3251.5080    75.5088    90.2371    17.9931
 3252.0080    75.9079    89.0155    17.8153
 3252.5080    76.6035    88.5451    18.5599
 3253.0080    77.2991    88.8571    18.9631
 3253.5080    78.2274    90.1158    19.8008
 3254.0080    78.4581    90.8974    19.8627
 3254.5080    78.3773    92.1797    19.7384
 3255.0080    78.2195    93.2117    19.7692
 3255.5080    78.7641    93.9932    20.0223
 3256.0080    79.4957    94.2740    20.4563
 3256.5080    80.1504    94.3044    20.9086
 3257.0080    80.7684    93.5640    21.3610
 3257.5080    81.3088    91.1177    21.8134
 3258.0080    81.6941    90.8901    22.3437
 3258.5080    80.9156    91.4289    22.3745
 3259.0080    80.0596    92.7112    21.5483
 3259.5080    79.1202    92.9920    20.6306
 3260.0080    78.1924    90.2681    19.7983
 3260.5080    78.8874    86.2922    19.6094
 3261.0080    80.7954    82.5667    20.9571
 3261.5080    82.8977    83.1395    22.1080
 3262.0080    85.0000    87.8933    24.3592
 3262.5080    87.0436    94.1835    26.2209
 3263.0080    87.5633    97.4689    26.5000
 3263.5080    87.4824    99.5025    26.2515
 3264.0080    86.8592    96.5282    25.5066
 3264.5080    86.6244    93.3035    25.5027
 3265.0080    87.2418    92.3323    25.8786
 3265.5080    88.8683    93.4258    26.6764
 3266.0080    90.1845    95.6557    28.3607
 3266.5080    90.8025    98.9412    28.7329
 3267.0080    90.7885    99.9732    28.7638
 3267.5080    90.5639    98.5012    28.6705
 3268.0080    90.4837    96.7712    29.0737
 3268.5080    91.4120    97.5604    29.4148
 3269.0080    91.8748    98.5924    29.7870
 3269.5080    92.1825    97.6212    29.8179
 3270.0080    91.7920    97.1508    28.8867
 3270.5080    91.1687    99.9431    27.9556
 3271.0080    89.2792   102.4774    27.2106
 3271.5080    88.0596   104.0101    26.4346
 3272.0080    87.4363   105.7932    25.7207
 3272.5080    85.8821   106.5748    25.0688
 3273.0080    83.9399   106.6052    24.2308
 3273.5080    82.0754   103.4899    22.4522
 3274.0080    80.5988    98.6805    21.6660
 3274.5080    79.9755    93.8710    20.9098
 3275.0080    79.4246    88.7062    20.6613
 3275.5080    79.2713    88.7365    20.4453
 3276.0080    79.2687    89.5181    20.2808
 3276.5080    79.2661    91.8020    20.2263
 3277.0080    79.1859    93.3348    20.3192
 3277.5080    79.3384    94.3667    20.3811
 3278.0080    79.4909    94.4578    20.4467
 3278.5080    79.6434    94.9359    20.5049
 3279.0080    79.4856    94.9662    20.3805
 3279.5080    79.2387    92.7431    20.2562
 3280.0080    79.0142    91.5139    20.1939
 3280.5080    78.7013    92.5535    20.3179
 3281.0080    79.1641    95.3382    20.3797
 3281.5080    79.3173    97.3717    20.3485
 3282.0080    79.0037    98.1539    20.2552
 3282.5080    78.5356    96.1881    20.0998
 3283.0080    78.3002    91.2107    19.9135
 3283.5080    78.2199    89.4883    19.7891
 3284.0080    78.2949    88.5172    19.7890
 3284.5080    78.6019    88.2896    20.0370
 3285.0080    79.2975    88.5779    20.6488
 3285.5080    80.1482    89.1091    21.3120
 3286.0080    81.4645    90.1607    22.0225
 3286.5080    82.6255    93.1264    22.9532
 3287.0080    83.2435    96.9700    23.1703
 3287.5080    83.3185    96.7500    23.2322
 3288.0080    83.3152    96.5224    23.2630
 3288.5080    83.0798    96.5604    23.1386
 3289.0080    83.0002    96.5908    23.2005
 3289.5080    83.2297   100.6274    23.3555
 3290.0080    83.3053   101.9097    23.5415
 3290.5080    83.6123   101.9708    23.8826
 3291.0080    83.9976   104.2316    24.0686
 3291.5080    84.4624   105.2636    24.2563
 3292.0080    84.8570   103.5412    24.5739
 3292.5080    85.0758   100.5669    24.8438
 3293.0080    85.3828    99.8385    24.8436
 3293.5080    85.3026   100.3773    24.4400
 3294.0080    84.9896   101.6596    23.9744
 3294.5080    83.9009   105.4860    23.6018
 3295.0080    83.1224   107.2366    23.1361
 3295.5080    83.1189   104.7631    23.0118
 3296.0080    83.1171   105.0439    23.0427
 3296.5080    82.8811   105.3171    22.8873
 3297.0080    82.3354   102.1000    22.6078
 3297.5080    82.1001   100.1272    22.7007
 3298.0080    82.4853    98.9056    23.2591
 3298.5080    83.2585    97.9246    23.8485
 3299.0080    83.8765    98.0064    24.0345
 3299.5080    84.4169   101.2579    24.1274
 3300.0080    84.7246   105.5450    24.5094
 3300.5080    85.4957   107.0775    24.7550
 3301.0080    85.6480   107.3581    24.9097
 3301.5080    85.6434   107.8892    25.0333
 3302.0080    86.0275   108.9209    25.2501
 3302.5080    86.5668   110.9551    25.7461
 3303.0080    87.2613   109.2393    25.9939
 3303.5080    87.4144   108.7612    26.2120
 3304.0080    87.3312   109.2998    26.1789
 3304.5080    86.9388   110.8324    26.0543
 3305.0080    86.4695   111.8642    25.7125
 3305.5080    86.0003   109.6409    25.5258
 3306.0080    85.6087   107.9184    24.8426
 3306.5080    85.0619   108.4569    24.4387
 3307.0080    84.3599   109.4887    23.7547
 3307.5080    83.8815   108.5174    23.6620
 3308.0080    83.9635   108.7980    23.9406
