~VERSION INFORMATION
 VERS.               2.10:   CWLS LOG ASCII STANDARD - VERSION 2.10
 WRAP.                 NO:   ONE LINE PER DEPTH STEP
~WELL INFORMATION
#MNEM.UNIT      DATA TYPE    INFORMATION
#----------   ------------   ------------------------------
 STRT.F         2389.7727:   START DEPTH
 STOP.F         5660.0845:   STOP DEPTH
 STEP.F            0.5000:   STEP LENGTH
 NULL.          -999.2500:   NO VALUE
 COMP. Lawrence Allison and Associates:   COMPANY
 WELL.            43 X 10:   WELL
 FLD .           N.P.R. 3:   FIELD
 LOC . 10-38N-78W-NATRONA-WY:   LOCATION
 STAT.                 WY:   STATE
 COUN.            Natrona:   COUNTY
 SRVC.      Dresser Atlas:   SERVICE COMPANY
 DATE.                   :   LOGDATE
 APIN.         4902511207:   API NUMBER
~CURVE INFORMATION
#MNEM.UNIT       API CODE    CURVE DESCRIPTION
#----------   ------------   ------------------------------
 DEPT.F                  :
 DPHI.none   42 890 12 00:   Den. Porosity, Ss [%]
 NPHI.none   42 890 03 00:   Neu. Porosity, Ss [%]
 RHOB.gm/cc  42 350 01 00:   Bulk Density
 GR  .GAPI   42 310 00 00:   Gamma Ray
~PARAMETER INFORMATION
#MNEM.UNIT          VALUE    DESCRIPTION
#----------   ------------   ------------------------------
 EKB .F         5215.0000:   Kelly bushing
 EGL .F         5203.0000:   Ground level
 EDF .F            0.0000:   Drilling floor
 EPD .F           10.0000:   Permanent datum
 TD  .F         3458.0000:   Total depth
 NRUN.             1.0000:   Number of Runs
#--RUN 1---   ------------   The following are for Run 1---
 RUN .             1.0000:   Run 1
 DATE.mm/dd/yyyy 02/19/1985:   Date Logged
 DD  .ft             5650:   Depth Driller
 DL  .ft             5649:   Depth Logger
 BLI .ft             5647:   Bottom Log Interval
 TLI .ft             2400:   Top Log Interval
 CSS .inch          9.625:   Casing Size
 CTD1.ft              510:   Casing Driller 1
 CTL1.ft       not logged:   Casing Logger 1
 BS  .inch            8.5:   Bit Size
 DFT .            kcl gel:   Type Fluid In Hole
 DFD .lb/gal          9.5:   Mud Weight
 DFV .sec              44:   Viscosity
 DFPH.                8.5:   pH
 DFL .cc              9.0:   Fluid Loss
 WSS .           flowline:   Source Of Sample
 RM  .ohmm            .32:   Rm
 EMT .F                74:   Rm Meas. Temp.
 RMF .ohmm            .26:   Rmf
 MFT .F                74:   Rmf Meas. Temp.
 RMC .ohmm            .40:   Rmc
 MCST.F                74:   Rmc Meas. Temp.
 MFSS.               meas:   Source Rmf.
 MCSS.               calc:   Source Rmc.
 RMB .ohmm            .14:   Rm. At BHT
 BHT .F               164:   BHT.
 TCS .hh:mm        8 hrs.:   Time Circ. Stopped
 MRT .F               170:   Maximum Recorded Temp.
 LUL .               Glte:   Logging Unit Location
 ENGI.               Mack:   Recorded By
 WITN.         Mr. Strong:   Witnessed By
 DGBY.              Burke:   Digitized By
~T 2 Tops
First Wall Creek                 2512.0
Second Wall Creek                2912.0
~OTHER INFORMATION
# Density Matrix = 2.65
# Neutron Matrix = Sandstone
~A  DEPTH     DPHI       NPHI       RHOB         GR
# ...
 3703.7730    26.6026   -45.7268     2.2008    77.6784
 3704.2730    26.1857    28.0002     2.2026    80.2210
 3704.7730    24.8005    26.4528     2.2008    80.9283
 3705.2730    25.7753    26.7224     2.2272    82.2566
 3705.7730    24.4797    28.3828     2.2223    86.0695
 3706.2730    21.8693    28.6569     2.1947    88.0190
 3706.7730    17.8808    28.3372     2.2149    87.4840
 3707.2730    12.6016    26.0650     2.3082    86.9339
 3707.7730     7.3224    24.6471     2.4064    84.6668
 3708.2730     1.9735    24.1060     2.5046    78.5867
 3708.7730     2.3433    23.1845     2.6149    72.6105
 3709.2730     2.4155    21.4569     2.6087    68.9868
 3709.7730     2.9742    21.4657     2.6072    67.6239
 3710.2730     4.0049    21.5365     2.6119    71.2738
 3710.7730     5.0353    23.6538     2.5792    68.7167
 3711.2730     6.1470    25.2817     2.5512    67.7194
 3711.7730     6.2781    25.8652     2.5480    67.8128
 3712.2730    11.2732    26.8725     2.5291    67.8967
 3712.7730    18.5402   -48.2284     2.4506    68.0956
 3713.2730    25.8072   -46.6869     2.3372    74.9179
 3713.7730   -49.5998   -44.1354     2.2237    79.3303
 3714.2730   -48.9572   -42.3902     2.1033    80.0375
 3714.7730   -50.0398   -42.7535     2.0489    80.1237
 3715.2730    28.6344   -44.7912     2.0602    80.2099
 3715.7730    22.3977  -999.2500     2.1231    81.5382
 3716.2730    16.3211    21.2729     2.3034    84.1088
 3716.7730    10.2446    20.4430     2.4838    89.7850
 3717.2730     3.9722    19.9016     2.5852    90.4743
 3717.7730     6.8230    19.9873     2.5983    91.5075
 3718.2730     7.3841    20.7803     2.5627    93.7162
 3718.7730     7.4414    22.0940     2.5332    95.6948
 3719.2730     6.8429    22.6890     2.5276    95.7786
 3719.7730     7.2134    23.0807     2.5413    94.2291
 3720.2730     7.6437    24.7585     2.5432    88.4817
 3720.7730     7.5528    26.8138     2.5286    88.5768
 3721.2730     7.2070    27.4428     2.5302    90.9109
 3721.7730     6.8274    28.0718     2.5473    93.7091
 3722.2730     6.5534    28.4526     2.5551    90.5713
 3722.7730     5.3718    28.7715     2.5721    83.9434
 3723.2730     2.7637    29.3384     2.6047    82.7874
 3723.7730     1.0965    27.6810     2.6238    82.2524
 3724.2730     6.4889    27.1235     2.6559    81.7174
 3724.7730     8.1899    27.6133     2.5800    81.8036
 3725.2730    10.7987    29.0264     2.5083    81.8897
 3725.7730    11.3499   -48.9970     2.4643    81.9759
 3726.2730    13.6113   -50.1112     2.4514    83.9254
 3726.7730    17.9671   -49.5619     2.3966    86.2943
 3727.2730    22.3229   -48.7883     2.3361    88.1235
 3727.7730    23.1769   -48.6555     2.2731    89.7028
 3728.2730    23.5253   -48.7087     2.2561    89.0737
 3728.7730    25.6111   -49.2581     2.2481    85.9711
 3729.2730    24.7700    28.1988     2.2250    85.0203
 3729.7730    24.8381    28.2804     2.2332    85.2714
 3730.2730    24.4967    28.9093     2.2349    86.4432
 3730.7730    22.9990  -999.2500     2.2361    88.6547
 3731.2730    21.2752   -48.7785     2.2690    92.6284
 3731.7730    19.8619   -49.3899     2.2835    96.6977
 3732.2730    21.8544   -49.8152     2.3091   100.0180
 3732.7730    22.9695   -50.1785     2.3070   101.7693
 3733.2730    25.0079   -49.7798     2.2331   101.8532
 3733.7730    24.5910   -49.4029     2.2346   101.2197
 3734.2730    21.0833   -49.6274     2.2440    99.4101
 3734.7730    16.9595   -49.9154     2.3007    98.3760
 3735.2730    12.8357   -49.9205     2.4295    99.0832
 3735.7730     8.7119   -49.8134     2.4750    99.7905
 3736.2730     5.3211   -49.4440     2.5231    98.6344
 3736.7730     4.6621   -48.9874     2.5511    97.4783
 3737.2730     4.1846   -48.7306     2.5635    93.8377
 3737.7730     2.3153   -48.9698     2.5790    90.8183
 3738.2730     2.7246   -49.2711     2.6224    87.7989
 3738.7730     6.3788   -32.7736     2.6002    85.4005
 3739.2730     9.8410   -15.3127     2.5461    86.6135
 3739.7730    11.5197   -14.7971     2.4920    92.4220
 3740.2730    10.0734   -12.8554     2.4765    95.4781
 3740.7730     5.4985   -12.3761     2.5249    98.6497
 3741.2730     3.4831   -11.8114     2.5947    99.4681
 3741.7730     3.1501   -11.8048     2.5978    99.3648
 3742.2730     3.2849   -11.8597     2.5813    99.0040
 3742.7730     5.2280   -11.8521     2.5658    99.2196
 3743.2730     5.1136   -11.8450     2.5706    99.8035
 3743.7730     3.9100   -11.8621     2.5872    98.5902
 3744.2730     4.7033   -12.0428     2.5816    96.8001
 3744.7730     4.7099   -12.2993     2.5762    93.2235
 3745.2730     5.0796   -12.7814     2.5747    85.2352
 3745.7730     4.7837   -14.4609     2.5720    82.2157
 3746.2730     3.8221   -14.9980     2.5856    83.5441
 3746.7730     3.8892   -15.1450     2.5860    87.9781
 3747.2730     2.7918   -14.1779     2.5903    90.5487
 3747.7730     1.4570   -12.8809     2.5981    96.2249
 3748.2730     0.4775   -11.1760     2.6244   100.1555
 3748.7730     0.2076   -11.7268     2.6369   101.9681
 3749.2730     2.5284   -13.5017     2.6233   102.3613
 3749.7730     6.5939   -14.1145     2.5822    98.6664
 3750.2730     8.0528   -14.2274     2.5339    91.5450
 3750.7730    10.6199   -14.0467     2.4856    89.8664
 3751.2730    13.4849   -14.4255     2.4373    93.3439
 3751.7730    16.3499   -15.0369     2.3890    99.6194
 3752.2730    15.8882   -15.1279     2.3440   104.8714
 3752.7730    11.9261   -14.9415     2.4081   107.6078
 3753.2730     7.9641   -14.5371     2.4682   107.0239
 3753.7730     6.3764   -13.9316     2.5379   105.8715
 3754.2730     6.7922   -13.7049     2.5534   101.6496
 3754.7730     7.5096   -13.9765     2.5395    96.1457
 3755.2730     8.0608   -15.0760     2.5286    96.8529
 3755.7730     8.3095   -16.1688     2.5224   101.2869
 3756.2730     8.3162   -15.7498     2.5178   109.4476
 3756.7730     8.2018   -14.5396     2.5163   116.3660
 3757.2730     6.8771   -13.5070     2.5280   120.8000
 3757.7730     6.7019   -12.8582     2.5408   123.1017
 3758.2730     6.8298   -12.3746     2.5474   122.4794
 3758.7730     7.6540   -13.9179     2.5428   117.3689
 3759.2730     9.0538   -14.1589     2.5295   109.2106
 3759.7730    10.4536   -14.0898     2.4889   106.9019
 3760.2730    11.3960   -14.1448     2.4629   106.3670
 3760.7730    11.4632   -16.3703     2.4560   105.8320
 3761.2730    10.5016   -16.9214     2.4669   106.5488
 3761.7730     8.1403   -17.3484     2.5103   107.4638
 3762.2730     7.1746   -17.8995     2.5367   109.8936
 3762.7730     6.7483   -17.8304     2.5507   110.5244
 3763.2730     6.4323   -17.5133     2.5584   109.9845
 3763.7730     6.0633   -16.8241     2.5662   108.8334
 3764.2730     5.3309   -16.3209     2.5726   108.9195
 3764.7730     4.6992   -15.0115     2.5792   112.1113
 3765.2730     1.4264   -14.6323     2.5928   115.9241
 3765.7730     0.4520   -14.5633     2.6369   117.2525
 3766.2730     0.2789   -14.9283     2.6577   117.9598
 3766.7730     2.0386   -14.6732     2.6386   118.6670
 3767.2730     3.3227   -13.3638     2.6053   119.0965
 3767.7730     4.7817   -12.1164     2.5695   122.5811
 3768.2730     5.5145   -12.8536     2.5587   124.7878
 3768.7730     6.1868   -14.1221     2.5556   125.5569
 3769.2730     6.5565   -14.7011     2.5509   124.4318
 3769.7730     6.6918   -14.6776     2.5493   121.2800
 3770.2730     6.5093   -13.9428     2.5479   117.0499
 3770.7730     6.5159   -14.2763     2.5495   115.2075
 3771.2730     6.8890   -15.9260     2.5485   111.6639
 3771.7730     6.9528   -16.8960     2.5449   108.6150
 3772.2730     6.6936   -17.7982     2.5456    99.8473
 3772.7730     6.1009   -18.0201     2.5542    64.3782
 3773.2730     3.5017   -18.1379     2.5735    66.9488
 3773.7730    -0.2358   -18.2557     2.6037    83.1841
 3774.2730    -3.9733   -18.2894     2.6684    96.9348
 3774.7730    -7.5903   -17.7427     2.7332   101.3688
 3775.2730    -3.6654   -14.9312     2.7660   106.4239
 3775.7730     0.1370   -13.2435     2.6993   113.3423
 3776.2730     3.9394   -13.3608     2.6325   119.6397
