~VERSION INFORMATION
 VERS.               2.10:   CWLS LOG ASCII STANDARD - VERSION 2.10
 WRAP.                 NO:   ONE LINE PER DEPTH STEP
~WELL INFORMATION
#MNEM.UNIT      DATA TYPE    INFORMATION
#----------   ------------   ------------------------------
 STRT.F         2398.5081:   START DEPTH
 STOP.F         5645.6445:   STOP DEPTH
 STEP.F            0.5000:   STEP LENGTH
 NULL.          -999.2500:   NO VALUE
 COMP. Lawrence Allison and Associates:   COMPANY
 WELL.          43 TPX 10:   WELL
 FLD .           N.P.R. 3:   FIELD
 LOC . 10-38N-78W-NATRONA-WY:   LOCATION
 STAT.                 WY:   STATE
 COUN.            Natrona:   COUNTY
 SRVC.      Dresser Atlas:   SERVICE COMPANY
 DATE.                   :   LOGDATE
 APIN.         4902511207:   API NUMBER
~CURVE INFORMATION
#MNEM.UNIT       API CODE    CURVE DESCRIPTION
#----------   ------------   ------------------------------
 DEPT.F                  :
 DT  .us/f   60 520 00 00:   Delta t
 GR  .API    60 310 00 00:   Gamma Ray
 PORA.None               :   Porosity
~PARAMETER INFORMATION
#MNEM.UNIT          VALUE    DESCRIPTION
#----------   ------------   ------------------------------
 EKB .F         5215.0000:   Kelly bushing
 EGL .F         5203.0000:   Ground level
 EDF .F            0.0000:   Drilling floor
 EPD .F           10.0000:   Permanent datum
 TD  .F         3340.0000:   Total depth
 NRUN.             1.0000:   Number of Runs
#--RUN 1---   ------------   The following are for Run 1---
 RUN .             1.0000:   Run 1
 DATE.mm/dd/yyyy 02/19/1985:   Date Logged
 DD  .ft             5650:   Depth Driller
 DL  .ft             5649:   Depth Logger
 BLI .ft             5640:   Bottom Log Interval
 TLI .ft             2440:   Top Log Interval
 CSS .inch          9.625:   Casing Size
 CTD1.ft              510:   Casing Driller 1
 BS  .inch            8.5:   Bit Size
 DFT .            kcl gel:   Type Fluid In Hole
 DFD .lb/gal          9.5:   Mud Weight
 DFV .sec              44:   Viscosity
 DFPH.                8.5:   pH
 DFL .cc              9.0:   Fluid Loss
 WSS .           flowline:   Source Of Sample
 RM  .ohmm            .32:   Rm
 EMT .F                74:   Rm Meas. Temp.
 RMF .ohmm            .26:   Rmf
 MFT .F                74:   Rmf Meas. Temp.
 RMC .ohmm            .40:   Rmc
 MCST.F                74:   Rmc Meas. Temp.
 MFSS.               meas:   Source Rmf.
 MCSS.               calc:   Source Rmc.
 RMB .ohmm            .14:   Rm. At BHT
 BHT .F               164:   BHT.
 TCS .hh:mm        11 hrs:   Time Circ. Stopped
 MRT .F               164:   Maximum Recorded Temp.
 LUL .              Gltte:   Logging Unit Location
 ENGI.               Mack:   Recorded By
 WITN.          Mr. Strog:   Witnessed By
 DGBY.              Burke:   Digitized By
~T 1 Tops
First Wall Creek                 2512.0
~OTHER INFORMATION
# Repeat recorded off depth.
~A  DEPTH       DT         GR       PORA
# ...
 3672.5080    76.2642    57.7949    18.0055
 3673.0080    76.9642    58.0490    18.5688
 3673.5080    77.0435    62.2905    18.5294
 3674.0080    77.8216    75.7324    18.9328
 3674.5080    82.1513    89.4682    20.7734
 3675.0080    88.9789   100.9347    27.9953
 3675.5080    95.8064   102.4350   -47.1494
 3676.0080   102.6339   101.1947   -41.9731
 3676.5080   109.4615    94.7897   -36.7968
 3677.0080   115.1482    85.4184   -33.7907
 3677.5080   115.5378    76.0383   -33.8528
 3678.0080   114.7638    74.2986   -34.4944
 3678.5080   112.3761    74.5526   -36.5176
 3679.0080   108.3287    75.3051   -39.3456
 3679.5080   100.1071    74.3130   -42.6436
 3680.0080    91.4976    71.3271   -46.6565
 3680.5080    86.7670    70.0859  -999.2500
 3681.0080    84.3638    72.0857    23.3384
 3681.5080    83.9561    73.5846    24.4685
 3682.0080    87.6257    72.5938    28.3486
 3682.5080    92.0809    69.1095   -50.1451
 3683.0080    97.3214    69.3636   -46.2626
 3683.5080   102.9145    70.8637   -42.8838
 3684.0080   103.0715    73.3810   -42.5736
 3684.5080   102.6854    75.8590   -42.7909
 3685.0080   101.6059    78.6052   -44.0153
 3685.5080    96.2503    79.8561   -46.8014
 3686.0080    92.9937    81.1071   -50.0525
 3686.5080    90.0470    80.1150    27.8683
 3687.0080    94.1657    80.1198    29.9163
 3687.5080    97.8297    79.8754   -48.1986
 3688.0080   101.4937    78.3046   -42.2327
 3688.5080   102.9327    75.3991   -41.9178
 3689.0080    96.6509    76.6512   -43.1965
 3689.5080    92.6186    78.8990   -46.3529
 3690.0080    91.3015    80.1500   -50.0530
 3690.5080    91.6912    79.9054    29.5745
 3691.0080    94.8176    79.6611   -49.2836
 3691.5080    99.4919    78.9183   -46.2137
 3692.0080   104.9631    80.4197   -43.1437
 3692.5080   105.7407    81.4214   -40.8990
 3693.0080   105.1994    80.4293   -40.8680
 3693.5080   104.1927    77.1943   -41.7990
 3694.0080    99.6173    77.1991   -44.9643
 3694.5080    97.6020    77.4531   -46.3696
 3695.0080    96.9831    74.6154   -46.7022
 3695.5080    97.5284    69.7381   -46.6092
 3696.0080    99.3921    68.7449   -45.8645
 3696.5080   100.0145    70.4954   -44.7474
 3697.0080    99.8611    73.2417   -44.6854
 3697.5080   100.3284    75.4895   -44.6234
 3698.0080   101.4939    77.2389   -43.9098
 3698.5080   101.3402    78.7390   -43.7236
 3699.0080   101.2647    78.1146   -44.0340
 3699.5080   103.1289    74.7611   -43.2583
 3700.0080   105.2253    76.2625   -41.4606
 3700.5080   107.3719    74.0790   -39.3853
 3701.0080   109.8838    69.8107   -37.3100
 3701.5080   112.3956    66.3349   -35.2347
 3702.0080   110.4446    70.5850   -34.5697
 3702.5080   105.3651    76.1042   -38.9765
 3703.0080   101.4465    80.6852   -42.5922
 3703.5080   100.3610    85.8307   -44.2167
 3704.0080    98.1893    83.8502   -44.7137
 3704.5080    94.6484    79.6268   -47.2719
 3705.0080    86.4760    77.6463   -50.0834
 3705.5080    85.0024    77.1578    24.6406
 3706.0080    85.5462    77.1745    24.5159
 3706.5080    85.4638    79.9325    25.0119
 3707.0080    85.2370    82.7796    24.7319
 3707.5080    86.6341    83.6974    24.6073
 3708.0080    88.2639    82.2154    25.7858
 3708.5080    89.9712    80.7300    27.1081
 3709.0080    90.6698    82.2420    28.3292
 3709.5080    90.0499    84.2490    28.0495
 3710.0080    90.9814    86.5053    28.9177
 3710.5080    92.7080    88.2632  -999.2500
 3711.0080   100.2810    91.5732   -46.8555
 3711.5080   107.8539    93.0283   -41.7518
 3712.0080   115.4269    87.5587   -36.2621
 3712.5080   111.0840    83.0861   -31.4109
 3713.0080    99.8004    80.6071   -40.0074
 3713.5080    88.5168    78.3774   -10.0313
 3714.0080    77.2332    76.6462  -999.2500
 3714.5080    72.6252    74.9149    14.8862
 3715.0080    76.0920    72.6362    16.8715
 3715.5080    77.7994    70.9573    18.9190
 3716.0080    78.9636    71.2198    19.8805
 3716.5080    80.3606    77.9621    20.9039
 3717.0080    82.3007    80.4676    22.9825
 3717.5080    84.2407    81.9762    24.4404
 3718.0080    90.0124    84.2325    27.9037
 3718.5080    94.3730    88.4826  -999.2500
 3719.0080    95.7243    90.0132   -48.4551
 3719.5080    96.6558    90.7555   -47.4937
 3720.0080    96.7338    91.5165   -46.8736
 3720.5080    96.2691    92.0249   -46.9362
 3721.0080    95.9592    90.2969   -47.5596
 3721.5080    97.2011    86.8211   -46.9685
 3722.0080    98.4502    84.8407   -46.1002
 3722.5080    98.7539    83.3586   -45.6041
 3723.0080    98.2115    82.8556   -45.7289
 3723.5080    97.8240    84.1362   -46.2260
 3724.0080    97.0489    87.1402   -46.6610
 3724.5080    97.2047    87.4027   -46.8167
 3725.0080    99.1447    83.9269   -45.3913
 3725.5080   103.4741    82.6941   -42.2671
 3726.0080   108.0044    82.2089   -39.1428
 3726.5080   110.0852    82.4715   -37.1993
 3727.0080   108.0687    81.9563   -39.2790
 3727.5080   102.6362    80.0092   -41.9379
 3728.0080    96.1510    77.5303   -47.5328
 3728.5080    90.6548    76.2941    28.8653
 3729.0080    88.9088    79.3014    27.6234
 3729.5080    91.4522    84.2991    29.4226
 3730.0080    96.7907    85.0601  -999.2500
 3730.5080   102.1292    82.3319  -999.2500
 3731.0080   106.1339    80.0908   -40.0284
 3731.5080   106.9102    81.1553   -39.9048
 3732.0080   105.7471    81.6242   -41.0536
 3732.5080   102.4603    81.3883   -42.5732
 3733.0080   100.1627    84.3955   -44.3442
 3733.5080    99.6202    87.8979   -44.8723
 3734.0080    97.2933    90.1542   -46.0210
 3734.5080    96.2854    91.4136   -47.3249
 3735.0080    95.8979    92.4325   -47.5737
 3735.5080    96.3641    92.3988   -47.3434
 3736.0080    98.3041    90.7092   -45.1545
 3736.5080    99.9653    88.2302   -44.4103
 3737.0080   100.7104    88.4928   -44.1314
 3737.5080    99.4697    91.9951   -45.2803
 3738.0080    96.6666    95.7468   -47.8180
 3738.5080    90.0837    97.0062    29.8777
 3739.0080    88.6878    96.5109    27.2703
 3739.5080    88.6883    92.0477    27.2026
 3740.0080    89.3097    82.8438    28.6348
 3740.5080    91.7349    82.1061  -999.2500
 3741.0080    94.3206    84.3657   -48.1682
 3741.5080    96.9063    88.3665   -45.7505
 3742.0080    99.3197    89.3767   -44.1994
 3742.5080   100.6391    87.6451   -43.8276
 3743.0080   101.1052    87.4095   -43.7040
 3743.5080   101.2609    87.9540   -43.7357
 3744.0080   101.2635    88.6856   -43.7674
 3744.5080   101.0173    89.9450   -44.2644
 3745.0080    98.0820    90.9552   -45.7235
 3745.5080    96.2207    91.7161   -47.0895
 3746.0080    91.0233    91.7294   -51.6517
 3746.5080    89.9378    90.9950   -52.1176
 3747.0080    90.5590    88.5932   -50.8460
 3747.5080    93.8399    84.6426  -206.3741
 3748.0080    97.5941    80.0703  -204.4816
 3748.5080   101.0340    80.3614  -203.7682
 3749.0080   101.5776    86.2697  -203.8616
 3749.5080   101.3455    91.3285  -205.7458
 3750.0080    98.9815    92.8371  -208.3761
 3750.5080    95.5288    92.3520  -999.2500
 3751.0080    91.6498    89.6238    29.2841
 3751.5080    90.6418    85.8988    28.8444
 3752.0080    90.4871    85.4133    29.9922
 3752.5080    92.8928    85.6762   -47.4634
 3753.0080    94.6014    86.5766   -47.0294
 3753.5080    96.2918    91.6874   -47.2159
 3754.0080    97.0063    94.4421   -48.9542
 3754.5080    95.6205    95.9508  -999.2500
 3755.0080    92.4386    98.2071    29.3387
 3755.5080    89.2567    98.7155    26.1110
 3756.0080    86.5270    96.2399    25.7073
 3756.5080    87.1566    90.7692    28.0343
 3757.0080    89.8602    90.5344    28.8826
 3757.5080    93.1773    96.0339  -999.2500
 3758.0080    95.9249   100.0347   -48.0876
 3758.5080    96.0030   102.5402  -999.2500
 3759.0080    93.9865   105.2949    30.0188
 3759.5080    90.9216   106.0559    26.8842
 3760.0080    87.4768   102.8293    24.5565
 3760.5080    84.9889    91.8791    24.2148
 3761.0080    84.9120    90.8922    24.4317
 3761.5080    85.0677    94.8964    24.5245
 3762.0080    85.0683    97.1526    24.5552
 3762.5080    84.9913    98.9105    24.5238
 3763.0080    84.9920   100.9176    24.4212
