~VERSION INFORMATION
 VERS.               2.10:   CWLS LOG ASCII STANDARD - VERSION 2.10
 WRAP.                 NO:   ONE LINE PER DEPTH STEP
~WELL INFORMATION
#MNEM.UNIT      DATA TYPE    INFORMATION
#----------   ------------   ------------------------------
 STRT.F         2389.7727:   START DEPTH
 STOP.F         5660.0845:   STOP DEPTH
 STEP.F            0.5000:   STEP LENGTH
 NULL.          -999.2500:   NO VALUE
 COMP. Lawrence Allison and Associates:   COMPANY
 WELL.            43 X 10:   WELL
 FLD .           N.P.R. 3:   FIELD
 LOC . 10-38N-78W-NATRONA-WY:   LOCATION
 STAT.                 WY:   STATE
 COUN.            Natrona:   COUNTY
 SRVC.      Dresser Atlas:   SERVICE COMPANY
 DATE.                   :   LOGDATE
 APIN.         4902511207:   API NUMBER
~CURVE INFORMATION
#MNEM.UNIT       API CODE    CURVE DESCRIPTION
#----------   ------------   ------------------------------
 DEPT.F                  :
 DPHI.none   42 890 12 00:   Den. Porosity, Ss [%]
 NPHI.none   42 890 03 00:   Neu. Porosity, Ss [%]
 RHOB.gm/cc  42 350 01 00:   Bulk Density
 GR  .GAPI   42 310 00 00:   Gamma Ray
~PARAMETER INFORMATION
#MNEM.UNIT          VALUE    DESCRIPTION
#----------   ------------   ------------------------------
 EKB .F         5215.0000:   Kelly bushing
 EGL .F         5203.0000:   Ground level
 EDF .F            0.0000:   Drilling floor
 EPD .F           10.0000:   Permanent datum
 TD  .F         3458.0000:   Total depth
 NRUN.             1.0000:   Number of Runs
#--RUN 1---   ------------   The following are for Run 1---
 RUN .             1.0000:   Run 1
 DATE.mm/dd/yyyy 02/19/1985:   Date Logged
 DD  .ft             5650:   Depth Driller
 DL  .ft             5649:   Depth Logger
 BLI .ft             5647:   Bottom Log Interval
 TLI .ft             2400:   Top Log Interval
 CSS .inch          9.625:   Casing Size
 CTD1.ft              510:   Casing Driller 1
 CTL1.ft       not logged:   Casing Logger 1
 BS  .inch            8.5:   Bit Size
 DFT .            kcl gel:   Type Fluid In Hole
 DFD .lb/gal          9.5:   Mud Weight
 DFV .sec              44:   Viscosity
 DFPH.                8.5:   pH
 DFL .cc              9.0:   Fluid Loss
 WSS .           flowline:   Source Of Sample
 RM  .ohmm            .32:   Rm
 EMT .F                74:   Rm Meas. Temp.
 RMF .ohmm            .26:   Rmf
 MFT .F                74:   Rmf Meas. Temp.
 RMC .ohmm            .40:   Rmc
 MCST.F                74:   Rmc Meas. Temp.
 MFSS.               meas:   Source Rmf.
 MCSS.               calc:   Source Rmc.
 RMB .ohmm            .14:   Rm. At BHT
 BHT .F               164:   BHT.
 TCS .hh:mm        8 hrs.:   Time Circ. Stopped
 MRT .F               170:   Maximum Recorded Temp.
 LUL .               Glte:   Logging Unit Location
 ENGI.               Mack:   Recorded By
 WITN.         Mr. Strong:   Witnessed By
 DGBY.              Burke:   Digitized By
~T 2 Tops
First Wall Creek                 2512.0
Second Wall Creek                2912.0
~OTHER INFORMATION
# Density Matrix = 2.65
# Neutron Matrix = Sandstone
~A  DEPTH     DPHI       NPHI       RHOB         GR
# ...
 5163.7720  -999.2500     2.6133     2.9397    10.1012
 5164.2720  -999.2500     2.6146     2.9444     6.6996
 5164.7720  -999.2500     2.6158     2.9476     6.6841
 5165.2720  -999.2500     2.6429     2.9522     6.0444
 5165.7720  -999.2500     2.8040     2.9569     5.4082
 5166.2720  -999.2500     3.1876     2.9700     4.7720
 5166.7720  -999.2500     3.9229     2.9864     5.3797
 5167.2720  -999.2500     5.6450     2.9775     6.6051
 5167.7720  -999.2500     7.6990     2.9466     7.2120
 5168.2720  -999.2500     9.7531     2.8225     9.0594
 5168.7720    10.7770    10.8094     2.6984    13.3921
 5169.2720     7.9310    10.5960     2.5743    21.7036
 5169.7720     4.9826     9.0210     2.5017    27.0264
 5170.2720     2.0343     8.0870     2.6067    18.8392
 5170.7720    -0.9141     7.5291     2.7117    18.2990
 5171.2720    -3.8624     9.4991     2.8166    19.6897
 5171.7720    -7.1487    12.1059     2.8658    22.5902
 5172.2720  -999.2500    14.7127     2.8627    26.1710
 5172.7720  -999.2500    17.7663     2.8504    48.5836
 5173.2720    -8.4020    18.3256     2.7920    53.3045
 5173.7720    -5.2285    18.4507     2.7281    56.1912
 5174.2720    -1.5326    18.3898     2.6861    59.8021
 5174.7720    -1.0504    16.5925     2.6736    59.7870
 5175.2720    -1.0402    13.3066     2.6692    59.7719
 5175.7720    -2.3259     9.9734     2.6778    57.8934
 5176.2720    -4.2101     6.6402     2.6885    48.7099
 5176.7720    -6.2314     3.7601     2.7321    33.3800
 5177.2720    -8.2528     3.3272     2.8433    14.9884
 5177.7720  -999.2500     3.0802     2.9161    10.6255
 5178.2720  -999.2500     3.0192     2.9223     8.1259
 5178.7720  -999.2500     3.1445     2.9271     7.4897
 5179.2720  -999.2500     3.2125     2.9458     7.4746
 5179.7720  -999.2500     4.0100     2.9728     8.0806
 5180.2720  -999.2500    11.3971     2.9393    13.6555
 5180.7720  -999.2500    18.7842     2.8866    18.6094
 5181.2720  -999.2500    22.2116     2.8340    36.7030
 5181.7720  -999.2500    22.1348     2.7813    46.6878
 5182.2720  -999.2500    21.3196     2.7284    49.1732
 5182.7720    -3.4920    21.3865     2.7099    50.4676
 5183.2720    -3.4488    21.3876     2.7146    52.3828
 5183.7720    -3.8141    21.3267     2.7109    56.9740
 5184.2720    -3.2338    19.6534     2.6990    61.0112
 5184.7720    -2.5976    17.0150     2.6899    63.8269
 5185.2720    -2.6946    12.5355     2.7055    59.0254
 5185.7720    -3.1037     8.0771     2.7343    46.2468
 5186.2720    -3.9593     6.8208     2.7858    33.4683
 5186.7720    -5.4779     8.0625     2.8373    23.3894
 5187.2720    -6.9965     9.6247     2.8456    22.1321
 5187.7720    -8.5151    11.3731     2.8172    34.5393
 5188.2720     3.2210    13.1216     2.7114    45.0832
 5188.7720    14.0140    14.8700     2.5818    44.4470
 5189.2720    12.3238    16.6184     2.4523    35.1151
 5189.7720    10.6335    18.3668     2.3995    31.9944
 5190.2720  -999.2500    20.1152     2.4530    30.1027
 5190.7720  -999.2500    21.7619     2.3497    30.1002
 5191.2720  -999.2500    22.0882     2.0746    32.2741
 5191.7720  -999.2500    21.3861     1.9918    35.8899
 5192.2720   -50.1714    20.3229     2.0737    39.8175
 5192.7720   -50.1379    20.6848     2.1850    42.6444
 5193.2720   -50.1044    22.6512     2.2963    43.2837
 5193.7720    14.5967    22.9624     2.3944    44.5448
 5194.2720    14.9051    22.8395     2.3882    46.7131
 5194.7720    12.2766    20.4220     2.3805    48.9294
 5195.2720     9.6481    19.6789     2.3712    50.1904
 5195.7720     7.0196    18.1342     2.4198    52.3024
 5196.2720     4.3911    13.9110     2.5081    57.8773
 5196.7720     3.0868    13.4807     2.5829    61.5889
 5197.2720     2.7701    14.4857     2.5897    64.6794
 5197.7720     1.5858    15.0580     2.5907    64.7609
 5198.2720    -1.6068    16.8143     2.6564    62.1647
 5198.7720    -3.0981    17.3997     2.7156    59.6651
 5199.2720    -4.3685    17.5179     2.7219    56.5238
 5199.7720    -3.0363    17.2089     2.6975    55.8548
 5200.2720    -1.7715    16.8543     2.6603    58.9028
 5200.7720    -2.4394    16.9186     2.6506    69.8059
 5201.2720    -4.5596    17.7891     2.6830    80.1072
 5201.7720    -6.8008    17.5315     2.7146    80.3162
 5202.2720    -8.5335    15.8524     2.7374    78.2318
 5202.7720    -9.4462    13.4908     2.7969    73.8779
 5203.2720  -999.2500    11.1292     2.8173    53.9962
 5203.7720  -999.2500     8.7675     2.8437    42.1889
 5204.2720  -999.2500     7.3655     2.8865    35.3506
 5204.7720  -999.2500     6.9530     2.8990    30.3756
 5205.2720  -999.2500     8.3336     2.8788    34.4372
 5205.7720  -999.2500    10.4498     2.8246    43.7602
 5206.2720  -999.2500    12.8522     2.8184    48.3700
 5206.7720    -9.8357    13.1646     2.8107    49.1730
 5207.2720    -7.6314    13.1669     2.7983    51.5283
 5207.7720    -7.1526    13.1072     2.7626    56.8835
 5208.2720    -6.6217    12.4172     2.7546    61.3879
 5208.7720    -6.3138    11.9209     2.7453    65.5373
 5209.2720    -6.1044    11.6037     2.7408    68.2078
 5209.7720    -6.8899    11.3644     2.7505    60.7472
 5210.2720    -9.3093    10.9282     2.7821    49.5611
 5210.7720  -999.2500     9.7700     2.8243    34.6483
 5211.2720  -999.2500     9.1284     2.8664    30.9155
 5211.7720  -999.2500     8.6107     2.9085    27.1828
 5212.2720  -999.2500     5.7493     2.9481    19.6578
 5212.7720  -999.2500     5.0695     2.9717    13.3498
 5213.2720  -999.2500     4.8857     2.9765    11.5442
 5213.7720  -999.2500     5.0741     2.9786    11.8969
 5214.2720  -999.2500     5.6346     2.9346    15.3248
 5214.7720    -9.1537     8.0707     2.8775    23.2636
 5215.2720    -6.1332    10.5742     2.8203    33.6343
 5215.7720    -3.1128    13.5684     2.7632    48.2293
 5216.2720    -0.9439    15.8771     2.7061    73.1054
 5216.7720    -1.3058    16.1895     2.6607    79.9684
 5217.2720    -2.4559    15.9438     2.6563    81.7740
 5217.7720    -3.5453    12.8304     2.7020    63.6812
 5218.2720    -7.2233     9.2702     2.7516    41.6193
 5218.7720  -999.2500     5.6562     2.8077    24.9027
 5219.2720  -999.2500     4.9030     2.8638    20.8774
 5219.7720  -999.2500     4.6065     2.9005    19.0080
 5220.2720  -999.2500     5.1299     2.9015    18.3809
 5220.7720  -999.2500     5.6657     2.8767    25.8283
 5221.2720  -999.2500     5.5222     2.8963    32.0335
 5221.7720  -999.2500     4.9440     2.9631    27.6796
 5222.2720  -999.2500     4.2129     2.9840    20.2202
 5222.7720  -999.2500     3.8149     2.9916    14.6241
 5223.2720  -999.2500     4.3758     2.9832    17.3908
 5223.7720  -999.2500     5.8665     2.9281    21.7807
 5224.2720  -999.2500     7.0783     2.9049    24.0752
 5224.7720  -999.2500     8.4672     2.8894    24.5379
 5225.2720  -999.2500     9.6560     2.8987    23.4426
 5225.7720  -999.2500     6.5567     2.9142    17.5630
 5226.2720  -999.2500     5.2262     2.9112    13.3307
 5226.7720  -999.2500     4.3189     2.9019    10.4053
 5227.2720  -999.2500     3.6509     2.9069     9.9942
 5227.7720  -999.2500     3.6532     2.9269    11.4553
 5228.2720  -999.2500     3.6404     2.9284    12.0704
 5228.7720  -999.2500     3.9059     2.9195    12.0644
 5229.2720  -999.2500     5.2726     2.8922    12.0584
 5229.7720    -9.3549     6.2240     2.8722    12.0524
 5230.2720    -8.5688     7.2176     2.8208    12.7180
 5230.7720    -8.9995     8.2112     2.7874    15.8807
 5231.2720    -9.3488     9.7294     2.7952    17.8180
 5231.7720    -9.4659    11.5970     2.7906    22.0263
 5232.2720    -7.0059    13.4027     2.6749    39.8526
 5232.7720    -0.7198    15.2085     2.5380    53.6292
 5233.2720     5.5663    17.1368     2.5178    58.5921
 5233.7720     8.5991    17.8833     2.5070    60.4495
 5234.2720     3.2887    15.4084     2.6160    57.3379
 5234.7720    -1.7349    10.0781     2.7360    51.1207
 5235.2720    -6.7585     5.1462     2.8560    31.5517
 5235.7720  -999.2500     4.5765     2.9608    18.1434
 5236.2720  -999.2500     4.1304     2.9666    16.9407
