~VERSION INFORMATION
 VERS.               2.10:   CWLS LOG ASCII STANDARD - VERSION 2.10
 WRAP.                 NO:   ONE LINE PER DEPTH STEP
~WELL INFORMATION
#MNEM.UNIT      DATA TYPE    INFORMATION
#----------   ------------   ------------------------------
 STRT.F         2389.7727:   START DEPTH
 STOP.F         5660.0845:   STOP DEPTH
 STEP.F            0.5000:   STEP LENGTH
 NULL.          -999.2500:   NO VALUE
 COMP. Lawrence Allison and Associates:   COMPANY
 WELL.            43 X 10:   WELL
 FLD .           N.P.R. 3:   FIELD
 LOC . 10-38N-78W-NATRONA-WY:   LOCATION
 STAT.                 WY:   STATE
 COUN.            Natrona:   COUNTY
 SRVC.      Dresser Atlas:   SERVICE COMPANY
 DATE.                   :   LOGDATE
 APIN.         4902511207:   API NUMBER
~CURVE INFORMATION
#MNEM.UNIT       API CODE    CURVE DESCRIPTION
#----------   ------------   ------------------------------
 DEPT.F                  :
 DPHI.none   42 890 12 00:   Den. Porosity, Ss [%]
 NPHI.none   42 890 03 00:   Neu. Porosity, Ss [%]
 RHOB.gm/cc  42 350 01 00:   Bulk Density
 GR  .GAPI   42 310 00 00:   Gamma Ray
~PARAMETER INFORMATION
#MNEM.UNIT          VALUE    DESCRIPTION
#----------   ------------   ------------------------------
 EKB .F         5215.0000:   Kelly bushing
 EGL .F         5203.0000:   Ground level
 EDF .F            0.0000:   Drilling floor
 EPD .F           10.0000:   Permanent datum
 TD  .F         3458.0000:   Total depth
 NRUN.             1.0000:   Number of Runs
#--RUN 1---   ------------   The following are for Run 1---
 RUN .             1.0000:   Run 1
 DATE.mm/dd/yyyy 02/19/1985:   Date Logged
 DD  .ft             5650:   Depth Driller
 DL  .ft             5649:   Depth Logger
 BLI .ft             5647:   Bottom Log Interval
 TLI .ft             2400:   Top Log Interval
 CSS .inch          9.625:   Casing Size
 CTD1.ft              510:   Casing Driller 1
 CTL1.ft       not logged:   Casing Logger 1
 BS  .inch            8.5:   Bit Size
 DFT .            kcl gel:   Type Fluid In Hole
 DFD .lb/gal          9.5:   Mud Weight
 DFV .sec              44:   Viscosity
 DFPH.                8.5:   pH
 DFL .cc              9.0:   Fluid Loss
 WSS .           flowline:   Source Of Sample
 RM  .ohmm            .32:   Rm
 EMT .F                74:   Rm Meas. Temp.
 RMF .ohmm            .26:   Rmf
 MFT .F                74:   Rmf Meas. Temp.
 RMC .ohmm            .40:   Rmc
 MCST.F                74:   Rmc Meas. Temp.
 MFSS.               meas:   Source Rmf.
 MCSS.               calc:   Source Rmc.
 RMB .ohmm            .14:   Rm. At BHT
 BHT .F               164:   BHT.
 TCS .hh:mm        8 hrs.:   Time Circ. Stopped
 MRT .F               170:   Maximum Recorded Temp.
 LUL .               Glte:   Logging Unit Location
 ENGI.               Mack:   Recorded By
 WITN.         Mr. Strong:   Witnessed By
 DGBY.              Burke:   Digitized By
~T 2 Tops
First Wall Creek                 2512.0
Second Wall Creek                2912.0
~OTHER INFORMATION
# Density Matrix = 2.65
# Neutron Matrix = Sandstone
~A  DEPTH     DPHI       NPHI       RHOB         GR
# ...
 4944.7720     1.0037    15.7509     2.6364    99.6943
 4945.2720     0.8049    14.6027     2.6410    87.8620
 4945.7720     0.3386    13.5097     2.6518    82.4785
 4946.2720     0.1227    11.2870     2.6564    76.2067
 4946.7720    -0.0241    10.8559     2.6547    74.5545
 4947.2720     0.2182    10.2389     2.6516    71.7421
 4947.7720     0.2789     9.6218     2.6554    69.5290
 4948.2720    -0.4471     9.3768     2.6577    67.8972
 4948.7720    -0.3863     9.1318     2.6577    61.1731
 4949.2720    -0.2651     8.7008     2.6554    58.6916
 4949.7720    -0.2685     7.6340     2.6529    56.2102
 4950.2720    -0.4012     7.1412     2.6606    51.8654
 4950.7720    -0.6877     6.9736     2.6730    48.1417
 4951.2720    -2.4234     7.1788     2.6900    48.0730
 4951.7720    -3.0076     7.4306     2.7023    50.0111
 4952.2720    -3.1326     7.9454     2.7054    56.2253
 4952.7720    -3.0787     8.3438     2.6831    56.8495
 4953.2720    -2.1252     8.6028     2.6613    56.8010
 4953.7720    -0.8936     9.1618     2.6519    56.2344
 4954.2720     0.5239    10.3249     2.6425    57.7097
 4954.7720     0.6452    12.2821     2.6369    60.4025
 4955.2720     0.3428    14.2392     2.6460    70.5275
 4955.7720    -0.0201    16.1964     2.6531    86.5686
 4956.2720    -0.2619    17.3504     2.6538    96.9084
 4956.7720    -0.3827    17.5553     2.6537   102.8369
 4957.2720    -0.3890    17.2483     2.6568    96.6288
 4957.7720    -0.5250    16.8793     2.6583    96.6321
 4958.2720    -0.6392    16.8823     2.6644    96.3228
 4958.7720    -1.0447    16.3893     2.6754    90.6736
 4959.2720    -1.4677    15.9583     2.6833    88.3481
 4959.7720    -1.8337    15.6513     2.6860    86.4571
 4960.2720    -1.7695    15.3370     2.6840    85.1869
 4960.7720    -1.5306    15.2160     2.6797    83.9172
 4961.2720    -1.8935    15.2955     2.6912    83.9533
 4961.7720    -2.2564    15.9118     2.6920    89.8253
 4962.2720    -2.2561    17.4961     2.6950    92.9339
 4962.7720    -2.5585    17.8641     2.7043    96.0425
 4963.2720    -3.4055    17.8515     2.7182    98.5300
 4963.7720    -4.0730    17.6609     2.7259    98.6564
 4964.2720    -4.3127    16.7182     2.7243    94.8092
 4964.7720    -4.2520    16.5513     2.7196    94.1913
 4965.2720    -4.1031    17.0510     2.7147    93.5732
 4965.7720    -3.7735    17.4410     2.7133    92.3334
 4966.2720    -3.5251    16.9332     2.7132    91.6208
 4966.7720    -3.5249    16.3161     2.7132    88.5497
 4967.2720    -3.5556    16.1331     2.7094    86.6593
 4967.7720    -3.4194    15.5144     2.7069    86.1349
 4968.2720    -3.2216    15.2711     2.7059    86.9163
 4968.7720    -3.1004    15.4574     2.7052    87.3837
 4969.2720    -3.1002    16.1950     2.7051    87.3868
 4969.7720    -3.0999    16.5536     2.7051    88.2601
 4970.2720    -3.0997    16.8949     2.7066    90.3790
 4970.7720    -3.3416    17.7122     2.7127    93.9197
 4971.2720    -3.6603    18.4132     2.7192    95.8160
 4971.7720    -4.1530    18.6742     2.7335    95.4769
 4972.2720    -4.6524    18.5380     2.7440    96.1016
 4972.7720    -5.2166    17.7810     2.7416    98.5891
 4973.2720    -4.7187    16.4197     2.7169   100.4555
 4973.7720    -3.9199    15.6786     2.7048    96.1107
 4974.2720    -3.1210    15.3093     2.6976    90.5237
 4974.7720    -2.6058    15.3127     2.6891    88.0422
 4975.2720    -1.9724    15.4398     2.6844    87.4240
 4975.7720    -1.8044    16.1986     2.6812    91.7861
 4976.2720    -1.7316    16.8831     2.6827    97.3999
 4976.7720    -1.9784    17.0708     2.6873    98.6133
 4977.2720    -2.2932    17.2020     2.6966    96.3622
 4977.7720    -2.7937    16.4815     2.6948    93.4592
 4978.2720    -2.8540    14.6316     2.6918    90.5562
 4978.7720    -2.1276    14.4818     2.6973    87.6532
 4979.2720    -2.7931    14.2580     2.7022    84.7502
 4979.7720    -3.3375    13.9730     2.7094    81.8472
 4980.2720    -3.7608    12.1233     2.7134    78.9442
 4980.7720    -3.7001    11.0101     2.7148    76.0703
 4981.2720    -3.8979    10.5791     2.7225    71.8793
 4981.7720    -4.1233    10.5821     2.7209    68.8305
 4982.2720    -4.0459    10.5852     2.7100    69.8497
 4982.7720    -3.7364    10.6503     2.6979    70.9288
 4983.2720    -2.7867    11.0255     2.6857    71.3247
 4983.7720    -2.3691    11.2811     2.6797    71.9489
 4984.2720    -2.2798    11.5278     2.6780    71.9520
 4984.7720    -2.5485    11.3250     2.7144    70.0086
 4985.2720    -3.2744    11.0998     2.7164    68.2321
 4985.7720    -3.8188    11.0055     2.7050    66.9929
 4986.2720    -3.8386    10.7959     2.6801    66.3748
 4986.7720    -3.5158    10.9752     2.6754    66.3778
 4987.2720    -1.0345    11.2343     2.6753    67.0020
 4987.7720    -1.2158    11.6509     2.6771    73.2162
 4988.2720    -1.7602    12.2620     2.6799    75.2337
 4988.7720    -2.0021    12.9370     2.6740    71.9800
 4989.2720    -1.4572    13.6120     2.6648    71.9949
 4989.7720    -0.9124    14.2870     2.6576    73.3535
 4990.2720     0.3019    14.9620     2.6502    77.1038
 4990.7720     0.3669    15.6370     2.6462    82.4550
 4991.2720     0.4196    16.3120     2.6439    89.1708
 4991.7720     0.3429    16.9771     2.6439    92.6616
 4992.2720     0.1971    17.2291     2.6454    92.3009
 4992.7720     0.1177    15.3840     2.6469    86.2626
 4993.2720     0.1785    11.8954     2.6468    75.2558
 4993.7720    -0.1366    11.2783     2.6494    65.5490
 4994.2720    -0.6682    11.2814     2.6816    62.6750
 4994.7720    -2.0599    11.2048     2.6839    61.1048
 4995.2720    -1.9991    10.7328     2.6736    61.4619
 4995.7720    -1.7568    10.0095     2.6667    62.0860
 4996.2720    -1.1515     9.6287     2.6759    59.6046
 4996.7720    -1.0891     9.4363     2.6797    57.7443
 4997.2720    -1.4561     9.6772     2.6790    57.7473
 4997.7720    -1.5139     9.9954     2.6805    57.7503
 4998.2720    -1.5963    10.3527     2.6820    58.9956
 4998.7720    -1.9222    10.8765     2.6850    60.8620
 4999.2720    -2.3995    11.4998     2.6896    63.4024
 4999.7720    -2.6628    12.1230     2.6958    70.5087
 5000.2720    -2.5216    14.1106     2.6892    80.1243
 5000.7720    -2.2855    16.3987     2.6814    86.4258
 5001.2720    -1.9231    18.6869     2.6737    92.0191
 5001.7720    -1.4802    20.4021     2.6535    95.1577
 5002.2720    -0.4592    20.2818     2.6565    95.1907
 5002.7720    -1.6775    18.8809     2.6779    93.3604
 5003.2720    -1.9862    17.2784     2.6800    87.8033
 5003.7720    -1.7851    15.5186     2.6671    84.1097
 5004.2720    -1.4891    14.1580     2.6645    80.3942
 5004.7720    -1.2031    13.2936     2.6727    72.0384
 5005.2720    -1.0813    13.1733     2.6898    66.7302
 5005.7720    -1.5662    13.1670     2.7095    65.6083
 5006.2720    -1.9300    12.9628     2.7173    65.0202
 5006.7720    -3.5040    12.8746     2.7176    64.4321
 5007.2720    -4.0493    12.8792     2.7127    65.3523
 5007.7720    -4.0499    13.0796     2.7034    73.4880
 5008.2720    -3.4421    13.7560     2.7034    77.5838
 5008.7720    -3.3251    14.1939     2.7096    77.0031
 5009.2720    -3.4577    14.4457     2.7061    76.4099
 5009.7720    -3.3559    14.5736     2.7008    77.0692
 5010.2720    -3.0852    14.5153     2.6926    77.7233
 5010.7720    -2.6732    14.6433     2.6911    77.7563
 5011.2720    -2.4830    14.8317     2.6851    77.7894
 5011.7720    -2.0432    15.3611     2.6818    79.1066
 5012.2720    -1.8775    16.3890     2.6834    81.0260
 5012.7720    -1.9993    17.6526     2.6839    83.5874
 5013.2720    -1.8790    17.9767     2.6757    85.5263
 5013.7720    -1.3955    17.5824     2.6664    88.2794
 5014.2720    -0.8515    17.3381     2.6478    92.2010
 5014.7720    -0.3624    17.1559     2.6447    98.2381
 5015.2720    -0.0056    16.5395     2.6464   100.7260
 5015.7720    -0.5934    14.4127     2.6591    97.2863
 5016.2720    -1.0211    11.9963     2.6655    88.2094
 5016.7720    -1.7785    11.7756     2.6820    79.1325
 5017.2720    -3.1565    11.8420     2.7068    70.0555
