~VERSION INFORMATION
 VERS.               2.10:   CWLS LOG ASCII STANDARD - VERSION 2.10
 WRAP.                 NO:   ONE LINE PER DEPTH STEP
~WELL INFORMATION
#MNEM.UNIT      DATA TYPE    INFORMATION
#----------   ------------   ------------------------------
 STRT.F         2398.5081:   START DEPTH
 STOP.F         5645.6445:   STOP DEPTH
 STEP.F            0.5000:   STEP LENGTH
 NULL.          -999.2500:   NO VALUE
 COMP. Lawrence Allison and Associates:   COMPANY
 WELL.          43 TPX 10:   WELL
 FLD .           N.P.R. 3:   FIELD
 LOC . 10-38N-78W-NATRONA-WY:   LOCATION
 STAT.                 WY:   STATE
 COUN.            Natrona:   COUNTY
 SRVC.      Dresser Atlas:   SERVICE COMPANY
 DATE.                   :   LOGDATE
 APIN.         4902511207:   API NUMBER
~CURVE INFORMATION
#MNEM.UNIT       API CODE    CURVE DESCRIPTION
#----------   ------------   ------------------------------
 DEPT.F                  :
 DT  .us/f   60 520 00 00:   Delta t
 GR  .API    60 310 00 00:   Gamma Ray
 PORA.None               :   Porosity
~PARAMETER INFORMATION
#MNEM.UNIT          VALUE    DESCRIPTION
#----------   ------------   ------------------------------
 EKB .F         5215.0000:   Kelly bushing
 EGL .F         5203.0000:   Ground level
 EDF .F            0.0000:   Drilling floor
 EPD .F           10.0000:   Permanent datum
 TD  .F         3340.0000:   Total depth
 NRUN.             1.0000:   Number of Runs
#--RUN 1---   ------------   The following are for Run 1---
 RUN .             1.0000:   Run 1
 DATE.mm/dd/yyyy 02/19/1985:   Date Logged
 DD  .ft             5650:   Depth Driller
 DL  .ft             5649:   Depth Logger
 BLI .ft             5640:   Bottom Log Interval
 TLI .ft             2440:   Top Log Interval
 CSS .inch          9.625:   Casing Size
 CTD1.ft              510:   Casing Driller 1
 BS  .inch            8.5:   Bit Size
 DFT .            kcl gel:   Type Fluid In Hole
 DFD .lb/gal          9.5:   Mud Weight
 DFV .sec              44:   Viscosity
 DFPH.                8.5:   pH
 DFL .cc              9.0:   Fluid Loss
 WSS .           flowline:   Source Of Sample
 RM  .ohmm            .32:   Rm
 EMT .F                74:   Rm Meas. Temp.
 RMF .ohmm            .26:   Rmf
 MFT .F                74:   Rmf Meas. Temp.
 RMC .ohmm            .40:   Rmc
 MCST.F                74:   Rmc Meas. Temp.
 MFSS.               meas:   Source Rmf.
 MCSS.               calc:   Source Rmc.
 RMB .ohmm            .14:   Rm. At BHT
 BHT .F               164:   BHT.
 TCS .hh:mm        11 hrs:   Time Circ. Stopped
 MRT .F               164:   Maximum Recorded Temp.
 LUL .              Gltte:   Logging Unit Location
 ENGI.               Mack:   Recorded By
 WITN.          Mr. Strog:   Witnessed By
 DGBY.              Burke:   Digitized By
~T 1 Tops
First Wall Creek                 2512.0
~OTHER INFORMATION
# Repeat recorded off depth.
~A  DEPTH       DT         GR       PORA
 2398.5080  -999.2500  -999.2500    29.4147
 2399.0080    92.2194    96.3921    29.9263
 2399.5080    92.8424   103.1569    29.5357
 2400.0080    91.9914   107.2177    27.9407
 2400.5080    88.6579   108.1743    25.9000
 2401.0080    85.6040   102.4196    23.8592
 2401.5080    82.6118    94.4113    22.7031
 2402.0080    82.1487    87.9054    22.6086
 2402.5080    82.3062    80.8987    22.8328
 2403.0080    83.7050    79.3995    24.1788
 2403.5080    85.9483    79.4048    26.1764
 2404.0080    88.1221    81.2120    28.1741
 2404.5080    90.6173    83.4206    29.5525
 2405.0080    92.0161    82.4233    29.6445
 2405.5080    91.2427    82.6780    28.7118
 2406.0080    89.4305    84.1846    27.3449
 2406.5080    87.4670    83.6880    25.5272
 2407.0080    86.6633    81.4388    25.3562
 2407.5080    86.9859    79.6903    25.9441
 2408.0080    87.2210    79.7113    26.0979
 2408.5080    87.1452    82.4541    25.8172
 2409.0080    86.9154    82.9592    25.2262
 2409.5080    86.2196    82.9634    24.4224
 2410.0080    84.9023    82.7173    23.5088
 2410.5080    83.7849    82.2197    23.0495
 2411.0080    83.2016    80.9730    23.1722
 2411.5080    83.5919    79.2245    23.4191
 2412.0080    83.9046    75.9403    23.6659
 2412.5080    84.1397    74.7260    23.8507
 2413.0080    84.3748    76.4840    23.9115
 2413.5080    84.6917    81.2457    24.0342
 2414.0080    85.1560    81.5004    24.5686
 2414.5080    85.5462    82.2558    24.7451
 2415.0080    85.3158    84.0128    24.4641
 2415.5080    84.5424    86.7713    23.7490
 2416.0080    83.9242    88.2779    23.3442
 2416.5080    83.8489    86.7809    23.4048
 2417.0080    84.0841    86.5337    23.6517
 2417.5080    84.1640    89.0429    23.7744
 2418.0080    83.7791    90.0487    23.5865
 2418.5080    83.3160    89.0514    22.8093
 2419.0080    82.6977    85.2998    22.6528
 2419.5080    82.5443    85.0536    22.7445
 2420.0080    83.0127    83.5055    23.2706
 2420.5080    84.0426    80.5562    23.7658
 2421.0080    84.9576    79.3074    24.2346
 2421.5080    85.5030    78.8109    24.7955
 2422.0080    85.8157    79.8177    25.1578
 2422.5080    85.8181    82.5763    25.1878
 2423.0080    85.8204    83.5821    25.2171
 2423.5080    86.1331    83.3360    25.4019
 2424.0080    86.4541    83.0898    25.5949
 2424.5080    86.8367    82.8437    25.9263
 2425.0080    86.9942    84.3513    26.0490
 2425.5080    87.1517    86.3587    26.0166
 2426.0080    87.0765    88.1157    25.8911
 2426.5080    86.9237    88.1200    25.7035
 2427.0080    86.7709    87.3730    25.5780
 2427.5080    86.6181    85.6245    25.3904
 2428.0080    86.4660    81.8563    25.3266
 2428.5080    86.3132    79.8751    25.3566
 2429.0080    86.4707    80.1297    25.5411
 2429.5080    86.7834    80.3844    25.9121
 2430.0080    87.0961    83.3933    26.2584
 2430.5080    87.4893    83.6480    26.6417
 2431.0080    88.0567    82.4003    26.9939
 2431.5080    88.6553    81.9037    27.2408
 2432.0080    88.8905    82.9430    27.3945
 2432.5080    88.8928    86.1699    27.2690
 2433.0080    88.8170    86.1742    27.2986
 2433.5080    88.8200    86.1784    27.3283
 2434.0080    88.9775    86.4331    27.7300
 2434.5080    89.7563    88.4405    28.6238
 2435.0080    90.8444    86.6909    29.3410
 2435.5080    91.5565    86.6962    29.2461
 2436.0080    91.2376    90.5066    28.6551
 2436.5080    90.3090    91.7136    27.6607
 2437.0080    89.5356    90.4659    27.2870
 2437.5080    88.9173    88.4670    27.2549
 2438.0080    88.8420    87.2193    27.2574
 2438.5080    88.8445    86.2209    27.2828
 2439.0080    89.0026    86.2262    27.3476
 2439.5080    89.0825    88.2336    27.5279
 2440.0080    89.3952    90.7549    27.6817
 2440.5080    89.6303    91.5627    27.7427
 2441.0080    89.7879    92.5041    27.8961
 2441.5080    89.8678    89.2532    27.9882
 2442.0080    89.9478    88.2559    27.9865
 2442.5080    89.9507    87.7594    27.9230
 2443.0080    89.6428    87.7636    27.7661
 2443.5080    89.1797    87.7679    27.6096
 2444.0080    89.0263    88.2730    27.5775
 2444.5080    89.1844    89.0294    27.7309
 2445.0080    89.2644    90.5360    27.6985
 2445.5080    89.2605    89.7891    27.6040
 2446.0080    88.8042    88.2910    26.9879
 2446.5080    87.7205    87.2937    25.9728
 2447.0080    86.4816    87.2979    24.9576
 2447.5080    84.8548    85.7998    23.0055
 2448.0080    83.2280    83.5004    22.5386
 2448.5080    81.7563    82.3028    21.9476
 2449.0080    81.6035    82.5585    21.9504
 2449.5080    82.0720    82.8132    22.2548
 2450.0080    82.4622    83.5686    22.9362
 2450.5080    83.0077    85.8264    23.3692
 2451.0080    83.7859    86.3314    23.5230
 2451.5080    84.2537    86.0853    23.7698
 2452.0080    84.3336    84.2866    23.9236
 2452.5080    84.2584    82.3379    23.8912
 2453.0080    84.2614    82.0918    23.7653
 2453.5080    84.2638    83.5994    23.7022
 2454.0080    84.2661    85.8572    23.8556
 2454.5080    84.0358    88.8661    23.7922
 2455.0080    83.6502    93.8782    23.5426
 2455.5080    83.1862    94.6336    23.2308
 2456.0080    82.9568    93.5191    23.0433
 2456.5080    82.9597    86.8811    23.0108
 2457.0080    83.0397    84.8822    23.0715
 2457.5080    83.6627    85.8880    23.8145
 2458.0080    84.9839    86.1426    24.5907
 2458.5080    85.5293    85.8954    25.4257
 2459.0080    86.1587    85.1496    25.5791
 2459.5080    86.6208    85.1538    25.6401
 2460.0080    86.4680    85.4253    25.5453
 2460.5080    86.0825    87.9177    25.2646
 2461.0080    85.6969    88.9235    24.9528
 2461.5080    85.2338    88.4269    24.4425
 2462.0080    84.7707    86.4281    24.1119
 2462.5080    84.3800    86.1809    24.0485
 2463.0080    84.3881    86.1862    24.1095
 2463.5080    84.3905    86.4408    24.1391
 2464.0080    84.0826    86.4451    23.9202
 2464.5080    83.7740    86.9512    23.5774
 2465.0080    83.7770    87.7066    23.3278
 2465.5080    83.5466    87.9612    23.2640
 2466.0080    83.1539    87.9655    23.0454
 2466.5080    82.6986    87.4689    22.8267
 2467.0080    82.4676    86.7220    22.5150
 2467.5080    81.9275    84.7231    22.3275
 2468.0080    81.6196    82.1900    22.2019
 2468.5080    81.4662    79.4745    22.0764
 2469.0080    81.4692    79.7291    21.9819
 2469.5080    81.4716    81.4861    22.0423
 2470.0080    81.6296    82.7423    22.2581
 2470.5080    81.8647    82.2458    22.4429
 2471.0080    82.7205    82.2500    22.6587
 2471.5080    83.2659    83.7566    23.1539
 2472.0080    83.7338    86.5487    23.7731
 2472.5080    83.5033    88.7740    23.5462
 2473.0080    82.3078    89.7798    22.5597
 2473.5080    81.8790    90.0334    22.4032
 2474.0080    82.6577    88.5364    22.7742
 2474.5080    83.5309    86.7879    23.3936
 2475.0080    84.5242    85.5391    24.0190
 2475.5080    84.7599    86.5460    24.2283
 2476.0080    84.8398    90.1228    24.3510
 2476.5080    85.4628    95.3192    25.3737
 2477.0080    87.0944    96.8248    26.3963
 2477.5080    87.3295    96.3282    26.4574
 2478.0080    87.3319    97.5855    26.2384
 2478.5080    86.4446    99.0921    24.4995
 2479.0080    83.2255    97.5940    22.8014
 2479.5080    81.5987    91.8393    22.1687
 2480.0080    81.1356    88.2711    21.6708
 2480.5080    80.8270    86.0888    21.2660
 2481.0080    80.0542    85.8426    20.9854
 2481.5080    80.1341    85.0967    20.9529
 2482.0080    80.4842    82.8475    21.2619
 2482.5080    81.2256    82.0995    21.7260
 2483.0080    80.9176    83.1064    21.6001
 2483.5080    80.7648    84.8634    21.5677
 2484.0080    80.8448    84.6172    21.5973
 2484.5080    80.9247    84.3711    21.5959
 2485.0080    80.9271    84.1249    21.5945
 2485.5080    80.9296    85.1318    21.6552
 2486.0080    81.0100    86.6373    21.7469
 2486.5080    81.4003    84.6385    21.9710
 2487.0080    81.7130    85.8957    22.1475
 2487.5080    81.7929    87.9031    22.1148
 2488.0080    81.1747    88.4081    21.8031
 2488.5080    80.1644    86.6596    21.3362
 2489.0080    79.0078    86.9154    20.9004
