~VERSION INFORMATION
 VERS.               2.10:   CWLS LOG ASCII STANDARD - VERSION 2.10
 WRAP.                 NO:   ONE LINE PER DEPTH STEP
~WELL INFORMATION
#MNEM.UNIT      DATA TYPE    INFORMATION
#----------   ------------   ------------------------------
 STRT.F         2398.5081:   START DEPTH
 STOP.F         5645.6445:   STOP DEPTH
 STEP.F            0.5000:   STEP LENGTH
 NULL.          -999.2500:   NO VALUE
 COMP. Lawrence Allison and Associates:   COMPANY
 WELL.          43 TPX 10:   WELL
 FLD .           N.P.R. 3:   FIELD
 LOC . 10-38N-78W-NATRONA-WY:   LOCATION
 STAT.                 WY:   STATE
 COUN.            Natrona:   COUNTY
 SRVC.      Dresser Atlas:   SERVICE COMPANY
 DATE.                   :   LOGDATE
 APIN.         4902511207:   API NUMBER
~CURVE INFORMATION
#MNEM.UNIT       API CODE    CURVE DESCRIPTION
#----------   ------------   ------------------------------
 DEPT.F                  :
 DT  .us/f   60 520 00 00:   Delta t
 GR  .API    60 310 00 00:   Gamma Ray
 PORA.None               :   Porosity
~PARAMETER INFORMATION
#MNEM.UNIT          VALUE    DESCRIPTION
#----------   ------------   ------------------------------
 EKB .F         5215.0000:   Kelly bushing
 EGL .F         5203.0000:   Ground level
 EDF .F            0.0000:   Drilling floor
 EPD .F           10.0000:   Permanent datum
 TD  .F         3340.0000:   Total depth
 NRUN.             1.0000:   Number of Runs
#--RUN 1---   ------------   The following are for Run 1---
 RUN .             1.0000:   Run 1
 DATE.mm/dd/yyyy 02/19/1985:   Date Logged
 DD  .ft             5650:   Depth Driller
 DL  .ft             5649:   Depth Logger
 BLI .ft             5640:   Bottom Log Interval
 TLI .ft             2440:   Top Log Interval
 CSS .inch          9.625:   Casing Size
 CTD1.ft              510:   Casing Driller 1
 BS  .inch            8.5:   Bit Size
 DFT .            kcl gel:   Type Fluid In Hole
 DFD .lb/gal          9.5:   Mud Weight
 DFV .sec              44:   Viscosity
 DFPH.                8.5:   pH
 DFL .cc              9.0:   Fluid Loss
 WSS .           flowline:   Source Of Sample
 RM  .ohmm            .32:   Rm
 EMT .F                74:   Rm Meas. Temp.
 RMF .ohmm            .26:   Rmf
 MFT .F                74:   Rmf Meas. Temp.
 RMC .ohmm            .40:   Rmc
 MCST.F                74:   Rmc Meas. Temp.
 MFSS.               meas:   Source Rmf.
 MCSS.               calc:   Source Rmc.
 RMB .ohmm            .14:   Rm. At BHT
 BHT .F               164:   BHT.
 TCS .hh:mm        11 hrs:   Time Circ. Stopped
 MRT .F               164:   Maximum Recorded Temp.
 LUL .              Gltte:   Logging Unit Location
 ENGI.               Mack:   Recorded By
 WITN.          Mr. Strog:   Witnessed By
 DGBY.              Burke:   Digitized By
~T 1 Tops
First Wall Creek                 2512.0
~OTHER INFORMATION
# Repeat recorded off depth.
~A  DEPTH       DT         GR       PORA
# ...
 5128.5080    57.1113    61.8766     4.1573
 5129.0080    57.2706    64.8853     4.2492
 5129.5080    57.3532    67.6805     4.3141
 5130.0080    57.2796    69.4120     4.3399
 5130.5080    57.1285    65.9410     4.2453
 5131.0080    56.8998    63.4669     4.1199
 5131.5080    56.8252    62.9821     3.9325
 5132.0080    56.8302    64.5000     3.8072
 5132.5080    56.8343    66.5119     3.7129
 5133.0080    56.8393    66.5344     3.7738
 5133.5080    56.9985    62.8964     3.8343
 5134.0080    57.5456    59.5185     4.2055
 5134.5080    58.1703    57.6153     5.0732
 5135.0080    59.3380    57.8827     5.6616
 5135.5080    59.6523    58.3992     5.8156
 5136.0080    59.8891    58.6897     5.9695
 5136.5080    59.9707    59.9353     6.1248
 5137.0080    60.2085    62.1964     6.3392
 5137.5080    60.5228    64.2082     6.7104
 5138.0080    60.9148    65.2187     6.9264
 5138.5080    61.3067    62.7491     7.2355
 5139.0080    61.5435    62.7672     7.4826
 5139.5080    61.8578    63.7834     7.6676
 5140.0080    61.8620    66.3606     7.7906
 5140.5080    62.1772    67.8105     8.0065
 5141.0080    62.4140    69.0747     7.9430
 5141.5080    62.1853    70.0897     7.8176
 5142.0080    61.8014    71.3539     7.6923
 5142.5080    61.4165    72.8673     7.6601
 5143.0080    61.8874    72.8854     7.7210
 5143.5080    62.2017    72.4051     7.9370
 5144.0080    62.5161    72.6769     8.1840
 5144.5080    62.7562    72.9443     8.3997
 5145.0080    63.0682    71.9655     8.8951
 5145.5080    63.3050    69.9898     9.2042
 5146.0080    63.9296    69.0065     9.5133
 5146.5080    64.3991    68.7754     9.8845
 5147.0080    65.0228    70.2934     9.9197
 5147.5080    64.6399    72.3470     9.7548
 5148.0080    63.4770    74.0724     9.1048
 5148.5080    62.8048    75.0874     8.5450
 5149.0080    61.3947    73.6102     7.5508
 5149.5080    61.4763    69.6407     7.3634
 5150.0080    62.4889    67.4158     7.4243
 5150.5080    63.0360    66.4371     8.1058
 5151.0080    63.5644    65.2091     8.6099
 5151.5080    64.3988    64.9477     9.2028
 5152.0080    65.3761    65.0006     9.7958
 5152.5080    65.7680    66.2648    10.4281
 5153.0080    65.7721    68.0274    10.4890
 5153.5080    65.6209    70.0393    10.4243
 5154.0080    64.7696    71.3035    10.1043
 5154.5080    63.8336    71.5940     9.6575
 5155.0080    63.3066    70.8338     9.1943
 5155.5080    63.0769    69.0340     8.6829
 5156.0080    62.9268    66.6452     8.5886
 5156.5080    62.6981    64.9188     8.3391
 5157.0080    62.1591    62.6939     8.0586
 5157.5080    61.4649    62.4583     7.5263
 5158.0080    61.3913    62.4809     7.2801
 5158.5080    62.0170    60.5052     7.2482
 5159.0080    62.3314    59.2772     7.5260
 5159.5080    63.0336    59.2999     8.4247
 5160.0080    63.6583    58.8195     8.7028
 5160.5080    62.6538    58.5839     8.3292
 5161.0080    60.2528    56.8620     6.3264
 5161.5080    57.5413    54.1386     4.2931
 5162.0080    54.7938    50.6676     2.2597
 5162.5080    52.1198    40.5455     0.3180
 5163.0080    51.5031    30.0503    -0.0556
 5163.5080    51.5848    19.5550    -0.0541
 5164.0080    51.5806    14.3538     0.2213
 5164.5080    51.1283    14.1226     0.0646
 5165.0080    50.3566    14.8929    -0.1848
 5165.5080    49.8951    15.9079    -0.5894
 5166.0080    49.7430    16.6737    -1.0561
 5166.5080    49.9032    16.4426    -1.2745
 5167.0080    51.9255    16.2114    -1.2156
 5167.5080    55.2522    16.4833     1.2393
 5168.0080    58.2946    17.2491     3.7121
 5168.5080    58.6079    20.2578     5.1444
 5169.0080    55.6649    28.0018     4.5533
 5169.5080    53.7294    35.4965     2.5562
 5170.0080    53.9582    32.0255     1.6956
 5170.5080    56.2632    26.7946     2.1088
 5171.0080    58.5682    28.0787     4.2557
 5171.5080    60.8732    32.2435     6.4026
 5172.0080    63.3705    38.2223     8.5494
 5172.5080    64.3055    44.2011     9.6648
 5173.0080    64.5422    50.1800     9.6319
 5173.5080    64.2980    56.1588     9.2180
 5174.0080    62.6118    58.8416     8.7299
 5174.5080    60.7539    59.6078     7.5550
 5175.0080    58.2736    57.6362     5.6818
 5175.5080    54.6563    51.6730     3.8087
 5176.0080    52.4653    42.2250     1.9355
 5176.5080    51.5384    31.0608     0.1279
 5177.0080    51.2321    18.3331    -0.1836
 5177.5080    51.0810    15.8590    -0.3399
 5178.0080    51.0061    15.1295    -0.5584
 5178.5080    51.4365    15.3968    -0.4975
 5179.0080    53.6542    15.9133    -0.2504
 5179.5080    55.5830    16.6971     2.5153
 5180.0080    59.4689    19.4432     5.2849
 5180.5080    63.3549    22.5603     8.0545
 5181.0080    66.4926    30.2331    11.1951
 5181.5080    66.8636    37.9058    11.3180
 5182.0080    66.6349    45.5786    11.3168
 5182.5080    66.7941    51.6847    11.2846
 5183.0080    67.1860    53.4474    11.5006
 5183.5080    67.2676    55.4593    11.6856
 5184.0080    66.1855    58.2188    11.6509
 5184.5080    63.3199    59.9902     9.7733
 5185.0080    59.3730    60.4988     6.7288
 5185.5080    55.4261    52.0471     3.6842
 5186.0080    51.7728    47.0806     0.5700
 5186.5080    52.3975    37.7236     0.1964
 5187.0080    55.4422    29.1731     1.7155
 5187.5080    59.2486    28.6882     3.9951
 5188.0080    63.0550    32.1999     6.8399
 5188.5080    65.2139    38.7836     9.9663
 5189.0080    62.3546    41.7065     7.7758
 5189.5080    57.4654    32.5080     5.3445
 5190.0080    58.5555    30.7815     6.3098
 5190.5080    64.0040    29.5535     9.9002
 5191.0080    69.9801    29.3179    13.4905
 5191.5080    75.9562    31.5835    17.0809
 5192.0080    77.5018    34.8415    18.4386
 5192.5080    73.5364    36.6335    16.0530
 5193.0080    69.9835    38.3713    13.6675
 5193.5080    68.2812    39.8847    12.2816
 5194.0080    68.4404    45.1365    12.4976
 5194.5080    66.9714    48.1452    12.0307
 5195.0080    64.0689    50.1571     8.6698
 5195.5080    60.4338    50.4245     6.1010
 5196.0080    61.2436    50.1933     6.0070
 5196.5080    64.6611    52.0342     7.2331
 5197.0080    64.8979    53.9724     9.6660
 5197.5080    64.2813    54.2397     9.2924
 5198.0080    63.4319    51.7656     8.8257
 5198.5080    62.8143    49.7899     8.1108
 5199.0080    63.7202    50.0573     8.2224
 5199.5080    66.3931    55.0598     9.7217
 5200.0080    66.5523    61.3479    10.9928
 5200.5080    66.1684    66.9214    11.2402
 5201.0080    64.4372    73.0571    10.6804
 5201.5080    61.6894    73.0728     8.4733
 5202.0080    58.9416    67.5580     6.6343
 5202.5080    56.2261    57.0265     4.4806
 5203.0080    55.8705    46.4950     2.9433
 5203.5080    56.3410    35.9635     2.7246
 5204.0080    57.1984    30.0360     3.6111
 5204.5080    58.2284    31.8002     4.5390
 5205.0080    59.3982    38.7928     5.4669
 5205.5080    60.2300    42.7960     6.3948
 5206.0080    61.4730    46.3008     7.4001
 5206.5080    62.4057    53.1124     8.0228
 5207.0080    62.0196    56.8034     8.0789
 5207.5080    60.7533    59.0621     7.0835
 5208.0080    59.9290    58.0809     6.5229
 5208.5080    59.5429    58.8443     5.8693
 5209.0080    59.0016    59.1092     5.4329
 5209.5080    58.3827    57.6296     5.2137
 5210.0080    56.4450    55.6515     4.4336
 5210.5080    54.4298    52.3091     3.1302
 5211.0080    52.5406    41.0553     1.6698
 5211.5080    51.3306    28.0825     0.6438
 5212.0080    50.7117    19.3306    -0.2891
 5212.5080    50.3252    17.8510    -0.7566
 5213.0080    51.0256    17.6174    -0.7666
 5213.5080    53.2772    22.6215     0.0477
 5214.0080    55.2960    32.6060     2.3538
 5214.5080    59.8188    42.1602     4.6598
 5215.0080    62.1917    53.5816     6.9659
 5215.5080    63.6028    65.7995     8.7889
 5216.0080    61.9755    69.5535     8.5387
 5216.5080    59.5723    72.3107     7.3362
 5217.0080    57.0139    71.2587     5.4380
 5217.5080    54.6883    58.9532     3.5398
 5218.0080    52.8282    46.6262     1.5797
 5218.5080    53.1595    34.2993     1.1433
 5219.0080    53.6856    25.2916     0.8620
