~VERSION INFORMATION
 VERS.               2.10:   CWLS LOG ASCII STANDARD - VERSION 2.10
 WRAP.                 NO:   ONE LINE PER DEPTH STEP
~WELL INFORMATION
#MNEM.UNIT      DATA TYPE    INFORMATION
#----------   ------------   ------------------------------
 STRT.F         2389.7727:   START DEPTH
 STOP.F         5660.0845:   STOP DEPTH
 STEP.F            0.5000:   STEP LENGTH
 NULL.          -999.2500:   NO VALUE
 COMP. Lawrence Allison and Associates:   COMPANY
 WELL.            43 X 10:   WELL
 FLD .           N.P.R. 3:   FIELD
 LOC . 10-38N-78W-NATRONA-WY:   LOCATION
 STAT.                 WY:   STATE
 COUN.            Natrona:   COUNTY
 SRVC.      Dresser Atlas:   SERVICE COMPANY
 DATE.                   :   LOGDATE
 APIN.         4902511207:   API NUMBER
~CURVE INFORMATION
#MNEM.UNIT       API CODE    CURVE DESCRIPTION
#----------   ------------   ------------------------------
 DEPT.F                  :
 DPHI.none   42 890 12 00:   Den. Porosity, Ss [%]
 NPHI.none   42 890 03 00:   Neu. Porosity, Ss [%]
 RHOB.gm/cc  42 350 01 00:   Bulk Density
 GR  .GAPI   42 310 00 00:   Gamma Ray
~PARAMETER INFORMATION
#MNEM.UNIT          VALUE    DESCRIPTION
#----------   ------------   ------------------------------
 EKB .F         5215.0000:   Kelly bushing
 EGL .F         5203.0000:   Ground level
 EDF .F            0.0000:   Drilling floor
 EPD .F           10.0000:   Permanent datum
 TD  .F         3458.0000:   Total depth
 NRUN.             1.0000:   Number of Runs
#--RUN 1---   ------------   The following are for Run 1---
 RUN .             1.0000:   Run 1
 DATE.mm/dd/yyyy 02/19/1985:   Date Logged
 DD  .ft             5650:   Depth Driller
 DL  .ft             5649:   Depth Logger
 BLI .ft             5647:   Bottom Log Interval
 TLI .ft             2400:   Top Log Interval
 CSS .inch          9.625:   Casing Size
 CTD1.ft              510:   Casing Driller 1
 CTL1.ft       not logged:   Casing Logger 1
 BS  .inch            8.5:   Bit Size
 DFT .            kcl gel:   Type Fluid In Hole
 DFD .lb/gal          9.5:   Mud Weight
 DFV .sec              44:   Viscosity
 DFPH.                8.5:   pH
 DFL .cc              9.0:   Fluid Loss
 WSS .           flowline:   Source Of Sample
 RM  .ohmm            .32:   Rm
 EMT .F                74:   Rm Meas. Temp.
 RMF .ohmm            .26:   Rmf
 MFT .F                74:   Rmf Meas. Temp.
 RMC .ohmm            .40:   Rmc
 MCST.F                74:   Rmc Meas. Temp.
 MFSS.               meas:   Source Rmf.
 MCSS.               calc:   Source Rmc.
 RMB .ohmm            .14:   Rm. At BHT
 BHT .F               164:   BHT.
 TCS .hh:mm        8 hrs.:   Time Circ. Stopped
 MRT .F               170:   Maximum Recorded Temp.
 LUL .               Glte:   Logging Unit Location
 ENGI.               Mack:   Recorded By
 WITN.         Mr. Strong:   Witnessed By
 DGBY.              Burke:   Digitized By
~T 2 Tops
First Wall Creek                 2512.0
Second Wall Creek                2912.0
~OTHER INFORMATION
# Density Matrix = 2.65
# Neutron Matrix = Sandstone
~A  DEPTH     DPHI       NPHI       RHOB         GR
# ...
 2608.7730    10.4287    17.7739     2.4781    77.7156
 2609.2730    10.6244    17.9087     2.4748    82.0339
 2609.7730    10.9758    17.9658     2.4639    82.0126
 2610.2730    11.1778    17.2536     2.4610    81.9914
 2610.7730    10.3771    16.9793     2.4739    81.3432
 2611.2730     9.6782    17.5367     2.4851    80.6949
 2611.7730     9.3743    18.0408     2.4915    79.4197
 2612.2730     9.1927    18.1057     2.4906    77.5176
 2612.7730     9.5004    17.9845     2.4803    83.1650
 2613.2730    11.5207    17.8634     2.4545    84.5676
 2613.7730    11.2168    17.8663     2.4624    87.6944
 2614.2730    11.1575    17.8692     2.4624    89.3447
 2614.7730    11.2818    17.8723     2.4608    87.4394
 2615.2730    10.6408    17.9651     2.4639    87.1927
 2615.7730    10.1755    18.3091     2.4717    86.1416
 2616.2730     9.8525    18.8390     2.4841    87.3553
 2616.7730     9.9508    19.8064     2.4856    89.5766
 2617.2730    10.3137    20.8647     2.4790    91.7143
 2617.7730    10.6825    21.3017     2.4741    93.5739
 2618.2730    11.4184    21.9044     2.4657   110.4805
 2618.7730    11.6038    19.5448     2.4459   119.2367
 2619.2730    12.0950    17.6054     2.4307   113.8650
 2619.7730    12.7085    17.2198     2.4311    98.0749
 2620.2730    11.7515    17.4976     2.4437    79.6709
 2620.7730    11.0283    18.0488     2.4653    74.6340
 2621.2730    10.3349    18.3462     2.4824    70.8510
 2621.7730     9.6481    18.2867     2.4886    73.9645
 2622.2730     8.0204    17.7318     2.5195    77.0780
 2622.7730     7.5153    17.4246     2.5211    78.3109
 2623.2730     7.3791    17.4290     2.5180    78.9163
 2623.7730     7.9541    17.6238     2.5102    77.6412
 2624.2730     8.3841    17.9683     2.5055    81.3816
 2624.7730     8.4472    18.0563     2.5071    81.9873
 2625.2730     8.5103    17.9352     2.5071    80.7090
 2625.7730     8.7119    17.7250     2.5025    80.0601
 2626.2730     9.7792    17.4721     2.4785    79.1490
 2626.7730    10.4183    17.5112     2.4679    75.3472
 2627.2730    10.8980    18.0722     2.4629    69.5073
 2627.7730    11.2113    18.3852     2.4572    67.1876
 2628.2730    10.8537    18.6982     2.4558    71.7965
 2628.7730     9.4405    18.9491     2.4605    74.9100
 2629.2730     7.7926    18.7508     2.5178    74.2618
 2629.7730     7.6815    18.5077     2.5116    69.2248
 2630.2730     8.4692    18.3810     2.4945    61.0531
 2630.7730    10.0613    18.4279     2.4837    56.6431
 2631.2730    10.9806    18.5606     2.4773    55.3351
 2631.7730    11.2305    18.6578     2.4709    54.6458
 2632.2730    11.3515    18.5987     2.4666    54.8089
 2632.7730    11.2789    18.2295     2.4673    57.3130
 2633.2730    10.9681    18.1704     2.4838    65.2059
 2633.7730     8.8247    18.2353     2.5047    70.1403
 2634.2730     7.9956    18.2382     2.5146    71.8075
 2634.7730     8.0926    18.2659     2.5099    73.0789
 2635.2730     8.7950    18.5063     2.4889    74.0006
 2635.7730    10.6929    18.7597     2.4635    75.2285
 2636.2730    11.9181    19.2311     2.4462    77.7151
 2636.7730    11.9200    19.4317     2.4432    80.2017
 2637.2730    11.7384    19.3732     2.4497    78.9265
 2637.7730    11.1191    19.1281     2.4587    76.3974
 2638.2730    10.7636    19.3170     2.4649    78.2570
 2638.7730    10.9150    19.7540     2.4633    80.7435
 2639.2730    11.2144    20.0050     2.4610    80.0946
 2639.7730    11.2587    19.9458     2.4578    80.0727
 2640.2730    11.1999    19.8867     2.4570    80.1713
 2640.7730    11.2695    19.8276     2.4570    81.2854
 2641.2730    11.6323    19.5227     2.4570    79.8071
 2641.7730    11.6954    18.9142     2.4539    79.3579
 2642.2730    11.9419    18.9382     2.4446    79.0567
 2642.7730    12.3108    19.3445     2.4430    75.8497
 2643.2730    12.3739    19.4714     2.4430    73.2909
 2643.7730    12.3759    19.4123     2.4383    70.4889
 2644.2730    12.3778    19.1051     2.4399    67.9597
 2644.7730    12.3933    18.8599     2.4417    69.8194
 2645.2730    12.0634    18.2903     2.4537    72.3059
 2645.7730    10.7176    17.8552     2.4678    75.4194
 2646.2730     9.3719    17.6903     2.4784    77.9060
 2646.7730     8.0873    18.5411     2.5056    81.0288
 2647.2730     7.6800    18.8655     2.5151    82.8792
 2647.7730     8.0824    18.9700     2.5158    82.8564
 2648.2730    10.1269    18.1374     2.5033    82.2075
 2648.7730    10.3838    17.0240     2.4801    81.2214
 2649.2730    10.8079    17.0136     2.4754    79.4474
 2649.7730    11.9718    17.2159     2.4645    77.2575
 2650.2730    12.7077    17.2808     2.4444    72.5329
 2650.7730    13.3824    16.8462     2.4333    67.3500
 2651.2730    12.4057    14.5323     2.4377    68.3894
 2651.7730    10.9175    13.6620     2.4552    70.1416
 2652.2730     9.4071    13.3844     2.4946    71.3706
 2652.7730     7.8967    13.1676     2.5093    70.0954
 2653.2730     6.4812    13.8349     2.5262    66.9393
 2653.7730     5.0153    15.6191     2.5392    62.5293
 2654.2730     4.7112    18.9177     2.5676    66.2698
 2654.7730     5.4472    19.1687     2.5640    71.9439
 2655.2730     7.0552    19.4196     2.5425    75.0611
 2655.7730     8.7562    19.6086     2.5178    75.6104
 2656.2730    10.4044    19.7355     2.4971    75.5868
 2656.7730    11.1357    19.5423     2.4852    74.9379
 2657.2730    11.4695    19.4932     2.4731    74.0726
 2657.7730    11.5141    19.7447     2.4550    72.7568
 2658.2730    11.2789    19.7204     2.4566    73.2869
 2658.7730    10.6490    19.5937     2.4689    75.5206
 2659.2730     9.7467    18.5760     2.4829    78.5856
 2659.7730     8.4642    18.0207     2.4968    79.1949
 2660.2730     8.3315    18.0856     2.5092    78.5431
 2660.7730    10.6087    18.6467     2.4992    75.3870
 2661.2730    11.0999    18.8976     2.4783    70.3501
 2661.7730    11.2853    19.0247     2.4589    69.6497
 2662.2730    10.5840    19.0897     2.4633    73.4424
 2662.7730     9.3127    19.0303     2.4844    77.8889
 2663.2730     8.3240    18.8255     2.5085    81.1210
 2663.7730     7.9290    18.9622     2.5123    83.4099
 2664.2730     8.9558    19.1018     2.5025    81.8406
 2664.7730    10.1079    18.9193     2.4812    78.2348
 2665.2730     9.3424    18.5501     2.4796    69.7266
 2665.7730     8.7327    18.1809     2.5029    67.3819
 2666.2730     8.1230    18.3078     2.5184    66.0662
 2666.7730     7.8802    17.2195     2.5106    63.0913
 2667.2730     8.2491    16.0811     2.5199    52.5294
 2667.7730     8.1738    15.3795     2.5340    46.2385
 2668.2730     7.5164    15.2806     2.5500    44.9633
 2668.7730     5.9517    15.6682     2.5604    53.7195
 2669.2730     5.3821    16.6485     2.5617    65.4337
 2669.7730     6.3784    17.7153     2.5527    78.4404
 2670.2730     7.0341    18.6425     2.5332    89.8007
 2670.7730     7.3521    19.0175     2.5306    92.1220
 2671.2730     7.4091    19.1444     2.5306    91.8564
 2671.7730     7.2887    18.8992     2.5315    88.3577
 2672.2730     7.1071    18.5287     2.5337    85.8068
 2672.7730     7.1090    18.1608     2.5290    86.7711
 2673.2730     7.8448    18.1017     2.5244    90.5115
 2673.7730     8.0368    19.5280     2.5182    92.3736
 2674.2730     8.2936    20.2785     2.5057    89.8420
 2674.7730     8.5027    20.4634     2.5042    86.0590
 2675.2730     8.8499    20.7878     2.5026    86.0377
 2675.7730     8.9553    20.9703     2.5091    86.6434
 2676.2730     8.4145    20.6631     2.5153    85.9943
 2676.7730     8.0695    20.1699     2.5185    85.3470
 2677.2730     7.9222    19.1185     2.5201    86.8438
 2677.7730     7.8018    18.1826     2.5233    89.8632
 2678.2730     7.6814    16.9893     2.5249    91.9734
 2678.7730     6.9738    16.6221     2.5312    93.4124
 2679.2730     5.5953    16.1177     2.5428    91.2993
 2679.7730     4.2169    15.6898     2.5629    85.1418
 2680.2730     3.4606    15.2328     2.5722    72.6483
 2680.7730     3.2129    14.9143     2.6032    70.7461
 2681.2730     3.1302    12.9415     2.6032    66.9631
