~VERSION INFORMATION
 VERS.               2.10:   CWLS LOG ASCII STANDARD - VERSION 2.10
 WRAP.                 NO:   ONE LINE PER DEPTH STEP
~WELL INFORMATION
#MNEM.UNIT      DATA TYPE    INFORMATION
#----------   ------------   ------------------------------
 STRT.F         2399.8379:   START DEPTH
 STOP.F         5667.9595:   STOP DEPTH
 STEP.F            0.5000:   STEP LENGTH
 NULL.          -999.2500:   NO VALUE
 COMP. Lawrence Allison & Associates:   COMPANY
 WELL.          43-TPX-10:   WELL
 FLD .           N.P.R. 3:   FIELD
 LOC . 10-38N-78W-NATRONA-WY:   LOCATION
 STAT.                 WY:   STATE
 COUN.            Natrona:   COUNTY
 SRVC.      Dresser Atlas:   SERVICE COMPANY
 DATE.                   :   LOGDATE
 APIN.         4902511207:   API NUMBER
~CURVE INFORMATION
#MNEM.UNIT       API CODE    CURVE DESCRIPTION
#----------   ------------   ------------------------------
 DEPT.F                  :
 LLD .ohmm   11 220 04 00:   Dual Laterolog, Deep
 LLS .ohmm   11 220 06 00:   Dual Laterolog, shallow
 MNOR.ohmm   15 252 02 00:   Microlog, normal 2"
 GR  .GAPI   06 310 01 00:   Gamma Ray
 SP  .mV     06 010 01 00:   Spontaneous Potential
~PARAMETER INFORMATION
#MNEM.UNIT          VALUE    DESCRIPTION
#----------   ------------   ------------------------------
 EKB .F         5215.0000:   Kelly bushing
 EGL .F         5203.0000:   Ground level
 EDF .F            0.0000:   Drilling floor
 EPD .F           10.0000:   Permanent datum
 TD  .F         5260.0000:   Total depth
 NRUN.             1.0000:   Number of Runs
#--RUN 1---   ------------   The following are for Run 1---
 RUN .             1.0000:   Run 1
 DATE.mm/dd/yyyy 02/19/85:   Date Logged
 DD  .ft             5650:   Depth Driller
 DL  .ft             5649:   Depth Logger
 BLI .ft             5646:   Bottom Log Interval
 TLI .ft              511:   Top Log Interval
 CSS .inch          9-5/8:   Casing Size
 CTD1.ft              510:   Casing Driller 1
 CTL1.ft              511:   Casing Logger 1
 BS  .inch            8.5:   Bit Size
 DFT .            kcl-gel:   Type Fluid In Hole
 DFD .lb/gal          9.5:   Mud Weight
 DFV .sec              44:   Viscosity
 DFPH.                8.5:   pH
 DFL .cc              9.0:   Fluid Loss
 WSS .           flowline:   Source Of Sample
 RM  .ohmm            .32:   Rm
 EMT .F                74:   Rm Meas. Temp.
 RMF .ohmm            .26:   Rmf
 MFT .F                74:   Rmf Meas. Temp.
 RMC .ohmm            .40:   Rmc
 MCST.F                74:   Rmc Meas. Temp.
 MFSS.              meas.:   Source Rmf.
 MCSS.              calc.:   Source Rmc.
 RMB .ohmm            .14:   Rm. At BHT
 BHT .F               164:   BHT.
 TCS .hh:mm         5 hrs:   Time Circ. Stopped
 MRT .F               164:   Maximum Recorded Temp.
 LUL .               Glte:   Logging Unit Location
 ENGI.               Mack:   Recorded By
 WITN.         Mr. Strong:   Witnessed By
 DGBY.              Burke:   Digitized By
~T 1 Tops
First Wall Creek                 2512.0
~A  DEPTH      LLD        LLS       MNOR         GR         SP
# ...
 4778.8380    12.4425    10.6267    12.9498   100.4081    63.0786
 4779.3380    13.5528    11.4956    14.2105    97.0306    62.7759
 4779.8380    16.4282    12.7057    15.4830    94.5008    62.4716
 4780.3380    21.0824    15.3988    18.2008    92.2993    62.0119
 4780.8380    23.3525    18.1402    24.1093    81.5370    61.8614
 4781.3380    25.7359    21.1116    26.8368    72.3037    61.8699
 4781.8380    28.8433    23.0024    28.4167    70.9615    61.8767
 4782.3380    31.4171    25.7903    30.7409    68.6234    62.0390
 4782.8380    33.4966    26.9276    32.3190    62.2942    62.3570
 4783.3380    36.2265    27.5703    32.7865    58.2836    62.6764
 4783.8380    37.2717    28.9093    31.6393    55.4135    62.9942
 4784.3380    38.9069    29.9593    30.9714    57.4457    63.3120
 4784.8380    39.7359    31.2705    31.6452    59.5755    63.1616
 4785.3380    39.7325    31.7188    33.9900    61.9665    63.3256
 4785.8380    38.3386    31.2640    35.7349    64.7551    63.6434
 4786.3380    32.5386    29.1018    38.1089    67.0776    63.9613
 4786.8380    29.2367    23.6295    27.0601    67.3233    64.2918
 4787.3380    28.2110    22.6484    22.9589    65.8904    64.7541
 4787.8380    28.6142    22.4846    21.9980    64.7295    65.3830
 4788.3380    30.5258    24.3236    27.9924    63.8224    65.8564
 4788.8380    32.6464    25.5705    31.8929    66.9270    65.8631
 4789.3380    32.1610    26.3110    29.4560    81.7555    65.7127
 4789.8380    29.8188    25.3828    26.8755    87.2551    65.5654
 4790.3380    26.4463    23.2876    23.4680    89.9915    65.5725
 4790.8380    22.9306    20.2690    22.6469    92.5572    65.1127
 4791.3380    20.8996    18.9219    20.7891    91.3771    64.6546
 4791.8380    20.6023    17.9955    16.7821    88.8275    64.5042
 4792.3380    20.4546    16.9924    16.1949    87.8601    63.7351
 4792.8380    20.7469    16.7496    19.0872    88.0160    63.5846
 4793.3380    20.8938    17.7342    20.9454    89.4728    63.2804
 4793.8380    20.3050    17.6060    20.6501    92.2256    63.2888
 4794.3380    20.1591    17.3469    19.0919    91.6880    63.4512
 4794.8380    20.5934    16.6224    17.2772    86.3633    63.7691
 4795.3380    21.8005    16.9814    17.0180    80.0286    64.0885
 4795.8380    24.6075    17.8519    19.0966    72.5260    64.0953
 4796.3380    26.4240    20.4499    25.2965    75.9604    64.4131
 4796.8380    28.3745    22.6026    27.8854    77.0911    64.7309
 4797.3380    29.4063    24.1037    28.6951    76.7236    65.0488
 4797.8380    30.0674    24.2744    26.5304    75.9508    65.5221
 4798.3380    30.6827    24.0987    25.9698    75.8069    65.6844
 4798.8380    29.6058    24.0956    26.5347    77.5488    65.6914
 4799.3380    28.3642    23.9213    27.1115    80.4662    65.5425
 4799.8380    27.5649    23.4108    27.3080    83.2349    65.3955
 4800.3380    26.4089    22.4245    23.7445    84.1905    65.2426
 4800.8380    25.8483    20.4302    20.6747    79.5871    65.4018
 4801.3380    26.2260    20.4281    20.5289    74.4753    65.3961
 4801.8380    27.0076    21.0346    21.4296    69.3636    65.2523
 4802.3380    28.9648    23.6429    24.7210    64.2518    64.9451
 4802.8380    30.4448    24.7741    25.6216    61.2319    64.7918
 4803.3380    31.3232    25.4908    26.3660    60.9166    64.7956
 4803.8380    31.9981    26.2284    26.1806    60.5654    64.9541
 4804.3380    32.9214    26.9879    26.7962    62.4725    65.1126
 4804.8380    33.3919    26.7920    29.1455    64.9698    64.9601
 4805.3380    34.1290    26.9816    30.8612    62.0869    64.9632
 4805.8380    35.3460    27.7743    32.4455    60.2756    64.9669
 4806.3380    36.1082    29.1846    35.0993    60.4098    64.8144
 4806.8380    37.1494    30.4619    37.4318    61.9420    64.8174
 4807.3380    37.6810    30.2415    37.7379    70.1690    64.9759
 4807.8380    35.3363    29.3851    33.6357    81.5131    65.1345
 4808.3380    30.8343    26.7718    29.6727    85.0900    65.2930
 4808.8380    26.1974    21.9083    26.0503    89.5942    65.3004
 4809.3380    21.5605    19.9876    22.4279    93.6912    65.6354
 4809.8380    19.2724    18.1847    20.6810    96.6766    65.7693
 4810.3380    18.2028    16.6865    20.8627    99.4267    65.7724
 4810.8380    17.0704    16.0936    20.0921   107.4318    66.0864
 4811.3380    16.0085    15.3829    17.5750   104.9097    66.5560
 4811.8380    15.4469    14.1493    16.2488   100.3894    67.3366
 4812.3380    15.4458    13.9468    15.7927    96.1724    67.0285
 4812.8380    16.4681    14.2479    16.0211    91.5186    67.0316
 4813.3380    18.0904    15.6355    19.8496    86.0538    66.1022
 4813.8380    23.5166    17.9109    23.5616    80.5889    65.9490
 4814.3380    26.1688    20.9628    26.6045    82.0092    65.9527
 4814.8380    27.9009    23.3657    27.7713    85.2193    66.1113
 4815.3380    26.7308    24.5321    26.2321    85.3445    66.4253
 4815.8380    25.4279    23.8367    24.9553    88.6905    66.4283
 4816.3380    24.1885    22.3475    23.4041    98.0224    66.4313
 4816.8380    22.8415    19.9276    21.1796    97.8935    66.6113
 4817.3380    22.3367    18.2858    19.1665    96.9510    66.7492
 4817.8380    22.5191    17.3905    18.4958    91.7630    66.7522
 4818.3380    23.6697    18.1517    19.4453    87.4564    66.9107
 4818.8380    27.1011    22.7577    22.8350    76.2814    67.2247
 4819.3380    38.3146    30.6392    30.7708    61.7536    67.2278
 4819.8380    52.5836    38.5029    43.6523    58.1341    67.3863
 4820.3380    57.6857    46.0011    56.2060    57.3730    67.3894
 4820.8380    57.2719    48.7065    62.2906    62.9942    67.2375
 4821.3380    54.4804    49.4036    53.6230    65.5435    67.0843
 4821.8380    48.2590    42.5044    45.8321    67.1013    66.9318
 4822.3380    44.2334    37.9019    42.6774    68.9224    66.7793
 4822.8380    40.7896    35.2805    41.7764    70.2165    66.6268
 4823.3380    35.2414    32.6063    43.6085    72.1179    66.6305
 4823.8380    29.9241    30.7888    42.3842    74.8505    66.4780
 4824.3380    28.0625    28.6594    38.7747    76.9694    66.1700
 4824.8380    26.1299    26.2712    30.7432    82.8877    65.8619
 4825.3380    24.1575    23.8752    24.1190    95.4661    65.7102
 4825.8380    22.8167    20.6136    20.7624    95.1138    65.5577
 4826.3380    22.8151    20.3185    20.4693    92.8505    65.4044
 4826.8380    23.6410    21.2078    20.9146    83.5817    65.2519
 4827.3380    27.8512    22.6163    25.0038    82.9541    64.7890
 4827.8380    36.5141    32.3427    30.3223    82.9404    64.7921
 4828.3380    40.9229    35.7473    31.4270    82.3223    64.6396
 4828.8380    42.1044    36.8039    31.6554    81.3538    64.6434
 4829.3380    42.1008    37.8458    32.1126    80.7450    64.6464
 4829.8380    41.1906    37.3031    30.5503    80.1254    64.9604
 4830.3380    39.1131    35.9882    29.0633    79.6981    65.2745
 4830.8380    38.0933    33.7398    28.6530    78.1377    65.5885
 4831.3380    37.5515    32.5505    33.7701    71.3661    65.5916
 4831.8380    38.0887    32.3150    40.9534    66.9319    66.0612
 4832.3380    37.0148    32.0812    46.5735    65.1104    66.2204
 4832.8380    34.2207    30.8654    43.6877    71.9817    66.0672
 4833.3380    32.0919    28.3997    40.8840    73.9766    65.9146
 4833.8380    31.1759    26.8166    38.1446    76.6635    66.0739
 4834.3380    30.3082    26.2443    34.0296    76.6598    66.0770
 4834.8380    29.6649    25.8687    29.5037    77.1849    66.0992
 4835.3380    29.0352    25.1360    28.6753    79.1747    66.0830
 4835.8380    27.6199    24.5991    26.8929    83.3667    66.2416
 4836.3380    24.6409    23.5628    26.1379    87.5587    66.2453
 4836.8380    23.2734    22.7322    26.8979    92.5816    66.2483
 4837.3380    22.4569    20.7106    27.6794    93.1013    66.2513
 4837.8380    22.1374    19.1408    27.6817    94.7635    66.0980
 4838.3380    22.1355    18.0738    24.5197    96.8426    65.9455
 4838.8380    22.7742    18.4684    23.6613    94.8785    65.6382
 4839.3380    24.1091    19.4331    26.9090    90.0666    65.1464
