~VERSION INFORMATION
 VERS.               2.10:   CWLS LOG ASCII STANDARD - VERSION 2.10
 WRAP.                 NO:   ONE LINE PER DEPTH STEP
~WELL INFORMATION
#MNEM.UNIT      DATA TYPE    INFORMATION
#----------   ------------   ------------------------------
 STRT.F         2389.7727:   START DEPTH
 STOP.F         5660.0845:   STOP DEPTH
 STEP.F            0.5000:   STEP LENGTH
 NULL.          -999.2500:   NO VALUE
 COMP. Lawrence Allison and Associates:   COMPANY
 WELL.            43 X 10:   WELL
 FLD .           N.P.R. 3:   FIELD
 LOC . 10-38N-78W-NATRONA-WY:   LOCATION
 STAT.                 WY:   STATE
 COUN.            Natrona:   COUNTY
 SRVC.      Dresser Atlas:   SERVICE COMPANY
 DATE.                   :   LOGDATE
 APIN.         4902511207:   API NUMBER
~CURVE INFORMATION
#MNEM.UNIT       API CODE    CURVE DESCRIPTION
#----------   ------------   ------------------------------
 DEPT.F                  :
 DPHI.none   42 890 12 00:   Den. Porosity, Ss [%]
 NPHI.none   42 890 03 00:   Neu. Porosity, Ss [%]
 RHOB.gm/cc  42 350 01 00:   Bulk Density
 GR  .GAPI   42 310 00 00:   Gamma Ray
~PARAMETER INFORMATION
#MNEM.UNIT          VALUE    DESCRIPTION
#----------   ------------   ------------------------------
 EKB .F         5215.0000:   Kelly bushing
 EGL .F         5203.0000:   Ground level
 EDF .F            0.0000:   Drilling floor
 EPD .F           10.0000:   Permanent datum
 TD  .F         3458.0000:   Total depth
 NRUN.             1.0000:   Number of Runs
#--RUN 1---   ------------   The following are for Run 1---
 RUN .             1.0000:   Run 1
 DATE.mm/dd/yyyy 02/19/1985:   Date Logged
 DD  .ft             5650:   Depth Driller
 DL  .ft             5649:   Depth Logger
 BLI .ft             5647:   Bottom Log Interval
 TLI .ft             2400:   Top Log Interval
 CSS .inch          9.625:   Casing Size
 CTD1.ft              510:   Casing Driller 1
 CTL1.ft       not logged:   Casing Logger 1
 BS  .inch            8.5:   Bit Size
 DFT .            kcl gel:   Type Fluid In Hole
 DFD .lb/gal          9.5:   Mud Weight
 DFV .sec              44:   Viscosity
 DFPH.                8.5:   pH
 DFL .cc              9.0:   Fluid Loss
 WSS .           flowline:   Source Of Sample
 RM  .ohmm            .32:   Rm
 EMT .F                74:   Rm Meas. Temp.
 RMF .ohmm            .26:   Rmf
 MFT .F                74:   Rmf Meas. Temp.
 RMC .ohmm            .40:   Rmc
 MCST.F                74:   Rmc Meas. Temp.
 MFSS.               meas:   Source Rmf.
 MCSS.               calc:   Source Rmc.
 RMB .ohmm            .14:   Rm. At BHT
 BHT .F               164:   BHT.
 TCS .hh:mm        8 hrs.:   Time Circ. Stopped
 MRT .F               170:   Maximum Recorded Temp.
 LUL .               Glte:   Logging Unit Location
 ENGI.               Mack:   Recorded By
 WITN.         Mr. Strong:   Witnessed By
 DGBY.              Burke:   Digitized By
~T 2 Tops
First Wall Creek                 2512.0
Second Wall Creek                2912.0
~OTHER INFORMATION
# Density Matrix = 2.65
# Neutron Matrix = Sandstone
~A  DEPTH     DPHI       NPHI       RHOB         GR
# ...
 3484.7730    13.7891    25.4515     2.4226   105.3287
 3485.2730    13.9766    23.0972     2.3962   115.0510
 3485.7730    15.9989    22.1072     2.3789   121.2292
 3486.2730    17.1038    21.7993     2.3854   123.3451
 3486.7730    16.2856    21.2434     2.4427   118.2966
 3487.2730    13.9655    20.8735     2.4912   102.5953
 3487.7730    11.6454    20.9998     2.5112    95.6714
 3488.2730     9.5369    21.6842     2.5043    91.8824
 3488.7730     9.1739    24.3469     2.4806    89.9742
 3489.2730     9.8507    29.5650     2.3981    93.0817
 3489.7730    21.0895    29.6292     2.2998   110.4937
 3490.2730    29.8593    29.6511     2.2016   127.9571
 3490.7730   -49.4155    29.5096     2.1965   145.4205
 3491.2730    26.5161    27.9615     2.3142   163.4579
 3491.7730    19.8407    25.7311     2.3226   171.9421
 3492.2730    19.7223    25.1132     2.3179   169.6686
 3492.7730    19.4205    24.6193     2.3240   156.3561
 3493.2730    17.2695    23.8773     2.3643   128.8371
 3493.7730    16.7655    23.2594     2.3813   100.3504
 3494.2730    15.5533    23.1993     2.4495    92.7996
 3494.7730    11.6701    23.2638     2.4556    91.5175
 3495.2730    11.7353    23.9482     2.4445    91.3299
 3495.7730    12.1674    24.6946     2.4321    88.2047
 3496.2730    12.8441    25.3790     2.4072    89.4147
 3496.7730    14.3249    25.2572     2.3906    95.1182
 3497.2730    16.1251    24.5773     2.3717   107.6368
 3497.7730    17.9472    24.0834     2.3438   113.6297
 3498.2730    17.8791    24.0534     2.3718   110.7217
 3498.7730    15.4377    24.6460     2.4367   105.0794
 3499.2730    12.1965    24.7722     2.4474   105.6790
 3499.7730    12.5420    25.0881     2.4501   112.5483
 3500.2730    14.0371    25.1684     2.4285   116.0294
 3500.7730    14.5881    25.1037     2.4050   118.1540
 3501.2730    15.2615    25.2919     2.3852   123.9313
 3501.7730    15.8737    25.4177     2.3898   126.8483
 3502.2730    15.3823    25.5436     2.4007   130.5811
 3502.7730    15.0098    25.3593     2.4161   143.7184
 3503.2730    14.5642    25.0510     2.4254   143.0625
 3503.7730    13.5407    23.9986     2.4270   130.4114
 3504.2730    13.3395    23.1308     2.4316   116.4439
 3504.7730    13.0027    22.9423     2.4411   102.4764
 3505.2730    13.1692    22.9599     2.4439    93.4218
 3505.7730    13.3350    23.0902     2.4350    94.9108
 3506.2730    13.4327    23.2391     2.4245    99.2782
 3506.7730    13.5909    23.4747     2.4186   103.0748
 3507.2730    13.9945    23.5154     2.4175   102.6959
 3507.7730    14.0463    23.5808     2.4175   103.2939
 3508.2730    13.9857    24.0357     2.4158   112.6694
 3508.7730    13.9863    24.8857     2.4128   120.7909
 3509.2730    14.0481    25.1355     2.4127   127.6585
 3509.7730    14.2322    24.2691     2.4112   125.7487
 3510.2730    14.5386    23.9608     2.4034   123.8389
 3510.7730    15.0896    23.8385     2.3770   123.1830
 3511.2730    16.2609    24.0892     2.3708   123.8254
 3511.7730    16.6867    24.4713     2.3739   124.4597
 3512.2730    16.4800    24.6591     2.3771   125.6041
 3512.7730    16.2416    24.7140     2.3820   125.5715
 3513.2730    15.9270    23.2181     2.3890   125.3500
 3513.7730    15.2403    20.9243     2.4034   123.5719
 3514.2730    13.6867    19.8564     2.4337   103.6084
 3514.7730    11.5720    19.8529     2.4528    84.0704
 3515.2730    11.8495    20.5608     2.4598    84.6684
 3515.7730    12.7880    23.8652     2.4432    94.6708
 3516.2730    18.4589    27.5736     2.4078   104.3419
 3516.7730    25.5302   -50.9919     2.3183   116.6713
 3517.2730  -999.2500   -45.7806     2.2070   129.0007
 3517.7730  -999.2500   -50.9881     2.0956   141.3300
 3518.2730   -44.9661  -999.2500     2.1302   152.7614
 3518.7730   -46.2277    27.7444     2.2163   154.5382
 3519.2730   -49.4871    25.5425     2.3024   150.8850
 3519.7730  -999.2500    23.1900     2.3999   143.3325
 3520.2730    14.3100    22.9437     2.4262   128.9588
 3520.7730    13.3894    23.0695     2.4324   112.9560
 3521.2730    13.6958    23.2040     2.4292   111.2722
 3521.7730    14.6138    24.6582     2.4230   115.1747
 3522.2730    15.6542    25.1476     2.4165   130.7785
 3522.7730    15.9606    25.3093     2.4072   137.4073
 3523.2730    15.9574    24.9177     2.3898   137.5200
 3523.7730    15.8934    24.7811     2.3857   136.2016
 3524.2730    15.8294    25.1249     2.3950   139.9277
 3524.7730    15.8549    25.0816     2.3919   144.2874
 3525.2730    16.1565    24.2029     2.3803   151.1550
 3525.7730    16.4535    23.7086     2.3787   154.2609
 3526.2730    16.3929    23.5574     2.3918   152.9781
 3526.7730    16.1311    24.3943     2.3995   149.1874
 3527.2730    14.8893    24.1481     2.4042   145.3967
 3527.7730    14.3241    23.5917     2.4088   142.2329
 3528.2730    13.9491    23.2153     2.4196   140.9140
 3528.7730    14.3166    23.0992     2.4196   138.9674
 3529.2730    14.4396    23.4230     2.4149   143.3124
 3529.7730    14.6848    23.4912     2.4118   148.6733
 3530.2730    14.8077    23.6010     2.4135   150.2387
 3530.7730    14.6860    23.5781     2.4185   147.0429
 3531.2730    14.2584    23.0109     2.4234   142.7693
 3531.7730    14.0067    21.7032     2.4277   141.9947
 3532.2730    13.5769    21.1902     2.4303   141.6373
 3532.7730    13.4651    21.5641     2.4311   141.3082
 3533.2730    13.6358    22.5581     2.4262   143.1541
 3533.7730    15.7526    23.6762     2.3774   143.1252
 3534.2730    18.9052    24.6082     2.2767   141.8423
 3534.7730    22.5197    24.7366     2.2747   138.8312
 3535.2730    22.6563    24.6064     2.2798   134.4249
 3535.7730    19.2449    24.0746     2.3217   130.0186
 3536.2730    15.2828    23.3439     2.3890   125.6122
 3536.7730    13.2867    22.0923     2.4378   127.2824
 3537.2730    13.0426    21.7903     2.4443   127.2471
 3537.7730    12.7374    21.9245     2.4464   128.1530
 3538.2730    12.5545    22.2943     2.4301   131.0192
 3538.7730    12.8609    22.3303     2.3990   130.2870
 3539.2730    15.2469    22.2705     2.3984   126.4963
 3539.7730    14.8193    21.6522     2.4160   125.8404
 3540.2730    14.2083    21.4059     2.4545   126.4414
 3540.7730    12.0723    21.1596     2.4988   123.9016
 3541.2730     9.6836    20.6033     2.5167   112.5874
 3541.7730     7.7270    20.1710     2.5291   107.5428
 3542.2730     7.6664    19.9867     2.5259   105.6037
 3542.7730     7.9728    20.2562     2.5197   103.6710
 3543.2730     8.8297    20.3624     2.4888   103.0673
 3543.7730     9.9898    20.1162     2.4258   111.8065
 3544.2730    14.7077    20.3139     2.3627   115.7056
 3544.7730    19.1469    20.8343     2.3305   110.4788
 3545.2730    19.1007    20.3876     2.3782    98.4112
 3545.7730    14.4646    19.4416     2.4431    95.1226
 3546.2730     9.3228    19.9921     2.5102    95.6699
 3546.7730     8.8341    20.9500     2.5211   100.5285
 3547.2730     8.2841    22.4112     2.5273   113.4796
 3547.7730     8.8964    23.8725     2.5156   128.4977
 3548.2730     9.6921    25.0663     2.5008   129.7227
 3548.7730    11.4556    25.5515     2.4507   131.5746
 3549.2730    14.4750    26.4627     2.4006   130.2918
 3549.7730    17.4945    26.7746     2.3519   128.3820
 3550.2730    18.1515    26.3423     2.3558   128.9800
 3550.7730    17.5837    25.9720     2.3662   132.8163
 3551.2730    17.6899    25.9738     2.3705   141.5056
 3551.7730    18.5650    25.9136     2.3488   142.0593
 3552.2730    18.0763    25.9201     2.3630   142.0276
 3552.7730    17.5264    26.2365     2.3660   143.7142
 3553.2730    18.1998    26.2911     2.3375   149.1954
 3553.7730    19.9129    25.5222     2.3254   152.4258
 3554.2730    18.7730    24.5582     2.3378   153.8208
 3554.7730    16.0511    24.5247     2.4199   154.1161
 3555.2730    13.4947    24.5315     2.4354   152.4588
 3555.7730    13.1155    23.8844     2.4447   146.2021
 3556.2730    12.9878    22.7058     2.4369   140.5305
 3556.7730    12.2300    22.3355     2.4400   139.8746
 3557.2730    11.2478    22.3373     2.4499   134.2030
