~VERSION INFORMATION
 VERS.               2.10:   CWLS LOG ASCII STANDARD - VERSION 2.10
 WRAP.                 NO:   ONE LINE PER DEPTH STEP
~WELL INFORMATION
#MNEM.UNIT      DATA TYPE    INFORMATION
#----------   ------------   ------------------------------
 STRT.F         2398.5081:   START DEPTH
 STOP.F         5645.6445:   STOP DEPTH
 STEP.F            0.5000:   STEP LENGTH
 NULL.          -999.2500:   NO VALUE
 COMP. Lawrence Allison and Associates:   COMPANY
 WELL.          43 TPX 10:   WELL
 FLD .           N.P.R. 3:   FIELD
 LOC . 10-38N-78W-NATRONA-WY:   LOCATION
 STAT.                 WY:   STATE
 COUN.            Natrona:   COUNTY
 SRVC.      Dresser Atlas:   SERVICE COMPANY
 DATE.                   :   LOGDATE
 APIN.         4902511207:   API NUMBER
~CURVE INFORMATION
#MNEM.UNIT       API CODE    CURVE DESCRIPTION
#----------   ------------   ------------------------------
 DEPT.F                  :
 DT  .us/f   60 520 00 00:   Delta t
 GR  .API    60 310 00 00:   Gamma Ray
 PORA.None               :   Porosity
~PARAMETER INFORMATION
#MNEM.UNIT          VALUE    DESCRIPTION
#----------   ------------   ------------------------------
 EKB .F         5215.0000:   Kelly bushing
 EGL .F         5203.0000:   Ground level
 EDF .F            0.0000:   Drilling floor
 EPD .F           10.0000:   Permanent datum
 TD  .F         3340.0000:   Total depth
 NRUN.             1.0000:   Number of Runs
#--RUN 1---   ------------   The following are for Run 1---
 RUN .             1.0000:   Run 1
 DATE.mm/dd/yyyy 02/19/1985:   Date Logged
 DD  .ft             5650:   Depth Driller
 DL  .ft             5649:   Depth Logger
 BLI .ft             5640:   Bottom Log Interval
 TLI .ft             2440:   Top Log Interval
 CSS .inch          9.625:   Casing Size
 CTD1.ft              510:   Casing Driller 1
 BS  .inch            8.5:   Bit Size
 DFT .            kcl gel:   Type Fluid In Hole
 DFD .lb/gal          9.5:   Mud Weight
 DFV .sec              44:   Viscosity
 DFPH.                8.5:   pH
 DFL .cc              9.0:   Fluid Loss
 WSS .           flowline:   Source Of Sample
 RM  .ohmm            .32:   Rm
 EMT .F                74:   Rm Meas. Temp.
 RMF .ohmm            .26:   Rmf
 MFT .F                74:   Rmf Meas. Temp.
 RMC .ohmm            .40:   Rmc
 MCST.F                74:   Rmc Meas. Temp.
 MFSS.               meas:   Source Rmf.
 MCSS.               calc:   Source Rmc.
 RMB .ohmm            .14:   Rm. At BHT
 BHT .F               164:   BHT.
 TCS .hh:mm        11 hrs:   Time Circ. Stopped
 MRT .F               164:   Maximum Recorded Temp.
 LUL .              Gltte:   Logging Unit Location
 ENGI.               Mack:   Recorded By
 WITN.          Mr. Strog:   Witnessed By
 DGBY.              Burke:   Digitized By
~T 1 Tops
First Wall Creek                 2512.0
~OTHER INFORMATION
# Repeat recorded off depth.
~A  DEPTH       DT         GR       PORA
# ...
 3035.5080    89.7606    89.2168    28.0871
 3036.0080    89.9876    89.2501    28.1787
 3036.5080    90.0630    90.0280    28.0216
 3037.0080    89.9826    91.8074    27.9894
 3037.5080    89.9803    91.3333    28.0806
 3038.0080    89.7453    89.8576    28.2342
 3038.5080    89.8983    86.8795    28.3568
 3039.0080    90.2063    86.9073    28.5104
 3039.5080    90.4368    87.1842    28.6640
 3040.0080    90.7443    88.2182    28.9107
 3040.5080    90.9748    88.4952    29.1925
 3041.0080    91.2829    88.7723    29.5279
 3041.5080    91.8237    88.0478    29.9298
 3042.0080    92.7524    87.0662  -999.2500
 3042.5080    93.1380    87.3499   -49.5458
 3043.0080    93.2133    88.9078   -49.4232
 3043.5080    92.8226    92.6681   -49.7661
 3044.0080    91.9670    94.4475    29.5498
 3044.5080    91.3441    95.9766    28.9893
 3045.0080    91.1091    95.5024    29.3602
 3045.5080    91.4172    93.0252    29.7310
 3046.0080    93.3544    92.3007   -50.0841
 3046.5080    94.6736    94.5809   -48.3793
 3047.0080    94.7464    97.1679   -48.5980
 3047.5080    93.9678    98.3967   -49.3133
 3048.0080    92.4915    96.4203    30.0026
 3048.5080    91.8686    93.1918    29.3800
 3049.0080    91.0906    92.2169    28.5096
 3049.5080    89.7695    91.9866    27.3401
 3050.0080    88.3708    90.5175    25.8429
 3050.5080    87.7107    88.7840    24.1143
 3051.0080    83.6334    87.8166    23.2438
 3051.5080    83.1656    87.5928    23.0403
 3052.0080    83.7064    88.6277    24.0004
 3052.5080    85.7213    90.9079    25.0849
 3053.0080    85.8747    94.6905    25.2700
 3053.5080    85.0961    99.7250    23.9958
 3054.0080    83.1378   100.5140    22.3065
 3054.5080    79.3502    95.4108    20.5406
 3055.0080    77.5636    87.3917    19.0879
 3055.5080    77.0183    77.3031    18.9001
 3056.0080    76.7057    76.0711    18.6503
 3056.5080    76.0052    76.8556    18.3695
 3057.0080    75.7703    77.1260    18.0266
 3057.5080    76.0042    75.6570    18.1178
 3058.0080    76.4761    73.1750    18.2714
 3058.5080    76.6945    71.6705    18.5492
 3059.0080    77.1571    71.9878    18.9821
 3059.5080    77.8531    74.2680    19.5391
 3060.0080    78.7042    76.0474    20.1272
 3060.5080    79.7105    76.3178    20.8393
 3061.0080    80.4065    75.5933    21.1481
 3061.5080    80.0771    77.1289    20.2152
 3062.0080    77.1431    80.9880    18.9184
 3062.5080    75.5892    87.9557    17.2643
 3063.0080    74.4233    89.9855    16.6421
 3063.5080    74.8089    90.5063    17.0045
 3064.0080    76.9789    86.5334    18.4130
 3064.5080    78.8386    86.0526    20.5781
 3065.0080    79.6941    88.8402    21.2593
 3065.5080    80.3075    89.3677    21.6301
 3066.0080    81.0035    88.6156    22.1251
 3066.5080    81.6218    88.4195    22.6511
 3067.0080    82.1627    87.9520    22.8358
 3067.5080    82.7040    85.4748    22.6476
 3068.0080    82.4685    83.7487    22.4603
 3068.5080    82.3886    83.0175    22.6756
 3069.0080    82.7079    83.8020    23.0464
 3069.5080    83.3921    84.8305    23.4173
 3070.0080    83.7002    84.8569    23.6019
 3070.5080    83.7761    83.8887    23.5383
 3071.0080    83.6181    82.4130    23.5367
 3071.5080    83.9262    80.9307    23.6283
 3072.0080    84.2343    82.4663    23.7816
 3072.5080    84.2319    81.2411    23.9042
 3073.0080    84.2295    80.2659    24.0578
 3073.5080    84.2273    80.0424    24.0877
 3074.0080    84.3026    82.0789    24.0857
 3074.5080    84.2998    85.3606    24.1779
 3075.0080    84.4533    84.6361    24.2734
 3075.5080    84.5286    84.4057    24.3910
 3076.0080    84.6039    85.1902    24.3895
 3076.5080    84.6011    85.4673    24.2949
 3077.0080    84.3661    83.7412    24.1382
 3077.5080    83.9571    82.9467    23.8263
 3078.0080    82.7319    80.5395    23.2352
 3078.5080    81.7987    81.8248    22.0905
 3079.0080    79.3915    82.8530    20.6175
 3079.5080    77.5273    83.1300    19.1962
 3080.0080    76.4389    81.9047    18.6361
 3080.5080    75.9712    78.4259    18.0759
 3081.0080    75.5810    76.9503    17.8241
 3081.5080    75.6558    76.9836    17.9794
 3082.0080    76.1966    74.5063    18.3502
 3082.5080    76.8926    73.0240    18.7211
 3083.0080    77.8213    73.0573    19.1540
 3083.5080    78.6724    73.5848    19.7420
 3084.0080    79.2908    73.6114    20.1578
 3084.5080    79.7575    74.1389    20.5242
 3085.0080    80.3071    76.2869    20.9474
 3085.5080    80.5253    79.4571    21.1010
 3086.0080    80.3674    80.2349    21.2240
 3086.5080    80.2875    77.7577    21.1290
 3087.0080    79.8198    76.7828    20.6930
 3087.5080    79.0418    76.5524    20.1746
 3088.0080    78.5740    76.0843    19.6344
 3088.5080    78.0978    75.8612    19.4467
 3089.0080    78.0259    75.8890    19.4762
 3089.5080    78.5667    76.4220    19.9712
 3090.0080    79.6506    78.2014    21.3661
 3090.5080    80.9596    79.7304    22.3575
 3091.0080    82.5165    81.0090    22.8234
 3091.5080    82.9798    84.5412    23.0471
 3092.0080    82.7353    86.8214    22.8180
 3092.5080    81.8110    87.5992    22.1648
 3093.0080    80.8002    84.6278    21.4495
 3093.5080    80.1779    80.6482    20.8277
 3094.0080    80.4854    78.6718    21.4465
 3094.5080    80.6383    77.6969    21.7242
 3095.0080    80.8689    77.9739    21.9762
 3095.5080    81.0993    78.2510    22.0004
 3096.0080    81.1746    79.0288    21.8744
 3096.5080    80.7063    78.5197    21.5004
 3097.0080    79.8507    77.3361    21.2196
 3097.5080    78.7623    76.8553    20.5974
 3098.0080    77.7515    77.3894    19.8822
 3098.5080    76.7407    79.4192    18.8247
 3099.0080    76.0403    80.4474    18.1637
 3099.5080    75.9604    80.2237    17.9532
 3100.0080    76.5007    76.9107    18.2698
 3100.5080    76.4984    73.7691    18.5170
 3101.0080    76.6514    74.2966    18.6090
 3101.5080    77.0376    75.5760    18.6389
 3102.0080    77.7330    75.3515    19.0412
 3102.5080    78.8628    74.3832    21.0260
 3103.0080    80.0572    73.6520    22.0179
 3103.5080    81.2947    73.6854    22.0792
 3104.0080    81.8355    75.7152    21.9847
 3104.5080    81.7460    78.4961    21.9526
 3105.0080    81.2874    81.5660    22.2368
 3105.5080    81.7506    84.5655    22.6639
 3106.0080    82.4466    84.8426    22.8800
 3106.5080    82.6776    84.1181    23.0651
 3107.0080    82.9075    80.1385    23.2192
 3107.5080    83.0604    79.4140    23.5905
 3108.0080    83.6409    79.9414    24.2190
 3108.5080    85.6449    82.7224    25.4835
 3109.0080    87.4393    83.2505    26.7480
 3109.5080    89.1797    82.5253    27.4960
 3110.0080    89.5653    82.5587    27.8695
 3110.5080    90.0285    83.3365    28.0524
 3111.0080    89.8711    85.1159    27.9269
 3111.5080    89.1573    86.6449    26.8249
 3112.0080    87.5070    87.6731    25.3444
 3112.5080    85.1764    87.4434    23.8639
 3113.0080    82.8458    84.9338    22.3834
 3113.5080    80.0841    83.9973    20.7531
 3114.0080    78.7630    84.5314    20.0693
 3114.5080    78.5280    84.3077    19.9716
 3115.0080    79.0688    81.5800    20.9437
 3115.5080    81.1833    79.1028    22.2970
 3116.0080    83.4975    78.6283    23.8816
 3116.5080    84.4188    79.1566    24.4390
 3117.0080    84.6455    79.4332    24.1587
 3117.5080    84.0997    75.2098    23.4749
 3118.0080    82.9337    73.7342    22.8531
 3118.5080    82.6211    73.5038    22.7571
 3119.0080    82.6970    74.2883    22.9815
 3119.5080    83.1597    75.8173    23.6254
 3120.0080    83.9956    77.3466    24.1829
 3120.5080    85.4060    80.9461    24.9412
 3121.0080    86.8163    82.6645    25.8451
 3121.5080    88.2267    82.4408    26.7489
 3122.0080    89.6370    80.9651    27.6528
 3122.5080    91.0474    80.9918    28.6150
 3123.0080    92.2548    82.5208   -50.0515
 3123.5080    92.9934    85.8025   -49.6805
 3124.0080    93.2244    88.6236   -49.9316
 3124.5080    90.8864    90.6200  -999.2500
 3125.0080    88.5965    92.1490  -999.2500
 3125.5080    86.3065    91.6749  -999.2500
 3126.0080    84.0166    86.6937  -999.2500
