~VERSION INFORMATION
 VERS.               2.10:   CWLS LOG ASCII STANDARD - VERSION 2.10
 WRAP.                 NO:   ONE LINE PER DEPTH STEP
~WELL INFORMATION
#MNEM.UNIT      DATA TYPE    INFORMATION
#----------   ------------   ------------------------------
 STRT.F         2398.5081:   START DEPTH
 STOP.F         5645.6445:   STOP DEPTH
 STEP.F            0.5000:   STEP LENGTH
 NULL.          -999.2500:   NO VALUE
 COMP. Lawrence Allison and Associates:   COMPANY
 WELL.          43 TPX 10:   WELL
 FLD .           N.P.R. 3:   FIELD
 LOC . 10-38N-78W-NATRONA-WY:   LOCATION
 STAT.                 WY:   STATE
 COUN.            Natrona:   COUNTY
 SRVC.      Dresser Atlas:   SERVICE COMPANY
 DATE.                   :   LOGDATE
 APIN.         4902511207:   API NUMBER
~CURVE INFORMATION
#MNEM.UNIT       API CODE    CURVE DESCRIPTION
#----------   ------------   ------------------------------
 DEPT.F                  :
 DT  .us/f   60 520 00 00:   Delta t
 GR  .API    60 310 00 00:   Gamma Ray
 PORA.None               :   Porosity
~PARAMETER INFORMATION
#MNEM.UNIT          VALUE    DESCRIPTION
#----------   ------------   ------------------------------
 EKB .F         5215.0000:   Kelly bushing
 EGL .F         5203.0000:   Ground level
 EDF .F            0.0000:   Drilling floor
 EPD .F           10.0000:   Permanent datum
 TD  .F         3340.0000:   Total depth
 NRUN.             1.0000:   Number of Runs
#--RUN 1---   ------------   The following are for Run 1---
 RUN .             1.0000:   Run 1
 DATE.mm/dd/yyyy 02/19/1985:   Date Logged
 DD  .ft             5650:   Depth Driller
 DL  .ft             5649:   Depth Logger
 BLI .ft             5640:   Bottom Log Interval
 TLI .ft             2440:   Top Log Interval
 CSS .inch          9.625:   Casing Size
 CTD1.ft              510:   Casing Driller 1
 BS  .inch            8.5:   Bit Size
 DFT .            kcl gel:   Type Fluid In Hole
 DFD .lb/gal          9.5:   Mud Weight
 DFV .sec              44:   Viscosity
 DFPH.                8.5:   pH
 DFL .cc              9.0:   Fluid Loss
 WSS .           flowline:   Source Of Sample
 RM  .ohmm            .32:   Rm
 EMT .F                74:   Rm Meas. Temp.
 RMF .ohmm            .26:   Rmf
 MFT .F                74:   Rmf Meas. Temp.
 RMC .ohmm            .40:   Rmc
 MCST.F                74:   Rmc Meas. Temp.
 MFSS.               meas:   Source Rmf.
 MCSS.               calc:   Source Rmc.
 RMB .ohmm            .14:   Rm. At BHT
 BHT .F               164:   BHT.
 TCS .hh:mm        11 hrs:   Time Circ. Stopped
 MRT .F               164:   Maximum Recorded Temp.
 LUL .              Gltte:   Logging Unit Location
 ENGI.               Mack:   Recorded By
 WITN.          Mr. Strog:   Witnessed By
 DGBY.              Burke:   Digitized By
~T 1 Tops
First Wall Creek                 2512.0
~OTHER INFORMATION
# Repeat recorded off depth.
~A  DEPTH       DT         GR       PORA
# ...
 5401.5080    66.2493    80.0757    10.7556
 5402.0080    67.6483    83.0894    11.5498
 5402.5080    68.3665    85.6046    12.3439
 5403.0080    69.5934    86.8679    13.1381
 5403.5080    70.4321    85.8941    13.9365
 5404.0080    71.4685    85.9228    14.7832
 5404.5080    72.5049    86.1950    15.6298
 5405.0080    73.5413    86.2371    16.4765
 5405.5080    74.7264    89.4866    17.3062
 5406.0080    75.3524    92.9987    17.8323
 5406.5080    75.6625    95.2647    17.8932
 5407.0080    75.5104    94.2909    17.6431
 5407.5080    74.9699    91.0740    17.4181
 5408.0080    74.8942    86.3618    17.3019
 5408.5080    76.2938    82.8957    17.5795
 5409.0080    77.6084    82.1710    18.3993
 5409.5080    79.5490    81.1327    19.9336
 5410.0080    80.5587    78.7337    21.0819
 5410.5080    80.5598    75.5168    21.1737
 5411.0080    80.5639    70.5218    21.2345
 5411.5080    80.7172    64.6195    21.3266
 5412.0080    80.4083    58.7172    21.2318
 5412.5080    79.4785    55.4238    21.0133
 5413.0080    78.2383    54.4442    19.5225
 5413.5080    77.8512    53.7253    19.1177
 5414.0080    78.0854    53.9975    19.4885
 5414.5080    79.1726    54.0205    21.8145
 5415.0080    80.4510    55.3137    21.1926
 5415.5080    79.6406    57.3121    20.1362
 5416.0080    75.2642    58.0828    17.1657
 5416.5080    68.4620    58.8534    12.9304
 5417.0080    61.6457    58.3780     7.9365
 5417.5080    61.5689    56.6564     7.2218
 5418.0080    63.1219    53.8830     7.6546
 5418.5080    65.2925    50.3545     9.5914
 5419.0080    67.6990    46.8260    11.2191
 5419.5080    69.1765    43.7146    12.8950
 5420.0080    68.9239    42.5658    12.8006
 5420.5080    67.3379    40.3516    12.0732
 5421.0080    64.8741    36.7796    10.5492
 5421.5080    62.4103    31.8596     9.0253
 5422.0080    59.9444    26.9397     6.4293
 5422.5080    58.3006    22.7489     5.4080
 5423.0080    57.7031    21.0273     4.9722
 5423.5080    57.3939    19.5338     4.7537
 5424.0080    57.3950    17.8392     4.5041
 5424.5080    57.4737    17.1088     4.2856
 5425.0080    57.3197    17.3868     4.1912
 5425.5080    57.0881    17.6590     4.0961
 5426.0080    56.6946    17.4270     3.8955
 5426.5080    56.5473    16.4589     3.6594
 5427.0080    56.7038    15.9829     3.6273
 5427.5080    57.0153    16.0066     3.7498
 5428.0080    57.0940    16.2795     3.9347
 5428.5080    56.9397    16.5566     3.9647
 5429.0080    56.9411    16.8289     3.9631
 5429.5080    57.3325    17.5995     3.9928
 5430.0080    57.5770    17.8718     4.1508
 5430.5080    57.8757    18.3932     4.5174
 5431.0080    58.3423    18.9146     4.9195
 5431.5080    58.7313    19.6853     5.3836
 5432.0080    58.8876    20.2072     5.5685
 5432.5080    58.8111    20.2355     5.5051
 5433.0080    58.5795    20.0035     5.3487
 5433.5080    58.7445    20.2815     5.1922
 5434.0080    58.8148    21.0521     5.1945
 5434.5080    58.8159    22.0720     5.2826
 5435.0080    58.5068    21.8401     5.1879
 5435.5080    58.1976    21.8688     5.0314
 5436.0080    57.8108    21.8986     4.8439
 5436.5080    57.5792    22.1649     4.6254
 5437.0080    57.6579    20.6975     4.4379
 5437.5080    57.5814    19.7236     4.4055
 5438.0080    57.5828    19.9958     4.4042
 5438.5080    57.3512    21.0157     4.3405
 5439.0080    57.1196    21.2879     4.1220
 5439.5080    56.8104    21.8093     3.9034
 5440.0080    56.5788    21.5829     3.6849
 5440.5080    56.3470    19.8208     3.4663
 5441.0080    56.0272    18.3950     3.2788
 5441.5080    55.6512    17.9138     3.0913
 5442.0080    55.5748    18.1918     3.0279
 5442.5080    55.6538    18.9624     3.0884
 5443.0080    55.6549    19.7331     3.2112
 5443.5080    55.8112    20.2546     3.3650
 5444.0080    56.4329    20.7760     3.5499
 5444.5080    56.8220    22.0452     3.7348
 5445.0080    55.8924    22.3181     3.7956
 5445.5080    54.9626    20.6015     3.4536
 5446.0080    54.4982    19.6277     2.7340
 5446.5080    54.0339    19.1522     1.9916
 5447.0080    53.8796    19.1752     1.7420
 5447.5080    54.1913    19.4474     1.8720
 5448.0080    54.5844    19.4704     2.2356
 5448.5080    55.1499    20.2411     2.6377
 5449.0080    55.6690    21.5313     2.8846
 5449.5080    55.9804    22.7851     3.2246
 5450.0080    56.2918    24.3034     3.3474
 5450.5080    56.4481    25.8217     3.5013
 5451.0080    56.5268    26.3432     3.5931
 5451.5080    56.5280    26.3662     3.6848
 5452.0080    56.4432    25.6415     3.6522
 5452.5080    55.9874    23.6707     3.4336
 5453.0080    55.6782    22.6968     3.1841
 5453.5080    55.4466    23.5031     2.9965
 5454.0080    55.4478    23.9947     2.9021
 5454.5080    55.5265    23.2643     2.9008
 5455.0080    55.2173    22.0469     2.8685
 5455.5080    54.4307    21.5657     2.7684
 5456.0080    53.5676    21.0960     1.6242
 5456.5080    51.3131    21.3683     0.2575
 5457.0080    49.0587    21.1418    -0.4047
 5457.5080    47.2324    20.1490    -1.5719
 5458.0080    46.7635    18.7016    -2.6945
 5458.5080    46.5364    18.7246    -3.3785
 5459.0080    46.5378    18.9968    -3.6591
 5459.5080    46.6165    20.2659    -3.6914
 5460.0080    47.2383    21.5350    -3.5379
 5460.5080    48.0928    22.0507    -3.0117
 5461.0080    48.4818    21.3312    -2.1441
 5461.5080    48.5605    21.3549    -1.9589
 5462.0080    48.2402    21.9106    -2.2088
 5462.5080    47.9421    24.1480    -2.3963
 5463.0080    47.7105    25.6663    -2.6769
 5463.5080    47.6341    25.4343    -2.7733
 5464.0080    47.6355    25.2081    -2.8040
 5464.5080    47.8694    24.2400    -2.7122
 5465.0080    49.3262    24.2630    -2.3101
 5465.5080    51.2793    26.5290    -1.2745
 5466.0080    53.2324    26.8012     0.0946
 5466.5080    54.9339    24.3377     1.4637
 5467.0080    55.4005    21.8685     2.5876
 5467.5080    55.7119    19.6485     2.7754
 5468.0080    55.8682    18.1762     2.9059
 5468.5080    55.9469    18.4484     3.1109
 5469.0080    55.8705    19.2191     3.2030
 5469.5080    55.7164    18.9923     3.2327
 5470.0080    55.3299    18.0155     3.0449
 5470.5080    54.7880    18.0764     2.5781
 5471.0080    54.0133    23.5536     2.1733
 5471.5080    53.2387    26.3180     1.7018
 5472.0080    52.3864    27.3379     0.7495
 5472.5080    51.4566    27.1117    -0.2204
 5473.0080    50.5095    25.6394    -0.5010
 5473.5080    49.8299    22.9209    -1.0299
 5474.0080    49.3656    20.4517    -1.3105
 5474.5080    49.2113    18.7120    -1.5290
 5475.0080    49.2127    17.7563    -1.6855
 5475.5080    49.1359    17.0316    -1.7489
 5476.0080    49.1374    17.3096    -1.7457
 5476.5080    49.1385    18.0803    -1.6894
 5477.0080    49.1399    19.5986    -1.5980
 5477.5080    49.2962    20.6185    -1.4131
 5478.0080    49.8404    21.8876    -1.0420
 5478.5080    52.0138    23.4096    -0.3917
 5479.0080    55.1060    24.4265     0.5740
 5479.5080    58.1982    22.7100     3.1887
 5480.0080    61.2904    20.2408     5.8034
 5480.5080    64.3535    18.2700     8.2606
 5481.0080    65.9837    17.5454     9.7752
 5481.5080    67.4143    17.3134    11.2897
 5482.0080    69.7101    17.0920    12.9424
 5482.5080    71.5161    17.3651    14.0893
 5483.0080    73.7507    18.1548    16.7378
 5483.5080    80.2644    18.9122    19.7373
 5484.0080    82.2050    17.4399    22.6575
 5484.5080    82.6716    17.2079    22.8660
 5485.0080    82.5949    16.9817    22.6161
 5485.5080    81.4326    18.2565    21.6762
 5486.0080    79.8821    20.2733    20.5354
 5486.5080    78.5220    20.3221    19.3946
 5487.0080    76.5487    20.5712    18.2538
 5487.5080    75.6189    22.1202    17.1130
 5488.0080    73.4478    22.6141    16.0372
 5488.5080    72.2852    22.6371    15.4072
 5489.0080    72.0533    22.6601    15.2197
 5489.5080    72.7530    22.9323    15.3115
 5490.0080    74.4662    23.4537    16.5515
 5490.5080    74.9275    21.7322    17.2053
 5491.0080    74.6961    21.0075    17.3557
 5491.5080    74.4642    20.5321    17.2300
 5492.0080    74.6208    20.5608    17.0114
