~VERSION INFORMATION
 VERS.               2.10:   CWLS LOG ASCII STANDARD - VERSION 2.10
 WRAP.                 NO:   ONE LINE PER DEPTH STEP
~WELL INFORMATION
#MNEM.UNIT      DATA TYPE    INFORMATION
#----------   ------------   ------------------------------
 STRT.F         2398.5081:   START DEPTH
 STOP.F         5645.6445:   STOP DEPTH
 STEP.F            0.5000:   STEP LENGTH
 NULL.          -999.2500:   NO VALUE
 COMP. Lawrence Allison and Associates:   COMPANY
 WELL.          43 TPX 10:   WELL
 FLD .           N.P.R. 3:   FIELD
 LOC . 10-38N-78W-NATRONA-WY:   LOCATION
 STAT.                 WY:   STATE
 COUN.            Natrona:   COUNTY
 SRVC.      Dresser Atlas:   SERVICE COMPANY
 DATE.                   :   LOGDATE
 APIN.         4902511207:   API NUMBER
~CURVE INFORMATION
#MNEM.UNIT       API CODE    CURVE DESCRIPTION
#----------   ------------   ------------------------------
 DEPT.F                  :
 DT  .us/f   60 520 00 00:   Delta t
 GR  .API    60 310 00 00:   Gamma Ray
 PORA.None               :   Porosity
~PARAMETER INFORMATION
#MNEM.UNIT          VALUE    DESCRIPTION
#----------   ------------   ------------------------------
 EKB .F         5215.0000:   Kelly bushing
 EGL .F         5203.0000:   Ground level
 EDF .F            0.0000:   Drilling floor
 EPD .F           10.0000:   Permanent datum
 TD  .F         3340.0000:   Total depth
 NRUN.             1.0000:   Number of Runs
#--RUN 1---   ------------   The following are for Run 1---
 RUN .             1.0000:   Run 1
 DATE.mm/dd/yyyy 02/19/1985:   Date Logged
 DD  .ft             5650:   Depth Driller
 DL  .ft             5649:   Depth Logger
 BLI .ft             5640:   Bottom Log Interval
 TLI .ft             2440:   Top Log Interval
 CSS .inch          9.625:   Casing Size
 CTD1.ft              510:   Casing Driller 1
 BS  .inch            8.5:   Bit Size
 DFT .            kcl gel:   Type Fluid In Hole
 DFD .lb/gal          9.5:   Mud Weight
 DFV .sec              44:   Viscosity
 DFPH.                8.5:   pH
 DFL .cc              9.0:   Fluid Loss
 WSS .           flowline:   Source Of Sample
 RM  .ohmm            .32:   Rm
 EMT .F                74:   Rm Meas. Temp.
 RMF .ohmm            .26:   Rmf
 MFT .F                74:   Rmf Meas. Temp.
 RMC .ohmm            .40:   Rmc
 MCST.F                74:   Rmc Meas. Temp.
 MFSS.               meas:   Source Rmf.
 MCSS.               calc:   Source Rmc.
 RMB .ohmm            .14:   Rm. At BHT
 BHT .F               164:   BHT.
 TCS .hh:mm        11 hrs:   Time Circ. Stopped
 MRT .F               164:   Maximum Recorded Temp.
 LUL .              Gltte:   Logging Unit Location
 ENGI.               Mack:   Recorded By
 WITN.          Mr. Strog:   Witnessed By
 DGBY.              Burke:   Digitized By
~T 1 Tops
First Wall Creek                 2512.0
~OTHER INFORMATION
# Repeat recorded off depth.
~A  DEPTH       DT         GR       PORA
# ...
 4309.5080    71.2792    54.2264    14.3378
 4310.0080    71.2780    55.7049    14.4608
 4310.5080    71.2768    55.2200    14.5217
 4311.0080    71.2756    55.2427    14.5516
 4311.5080    71.5144    55.2608    14.7985
 4312.0080    72.0486    56.0266    15.1697
 4312.5080    72.7456    56.7924    15.5100
 4313.0080    73.5978    57.5582    15.8502
 4313.5080    74.9930    58.8384    17.1214
 4314.0080    75.6900    60.3404    17.7125
 4314.5080    76.0767    61.1062    17.9623
 4315.0080    76.0740    60.6259    18.0489
 4315.5080    75.9076    59.6426    17.9544
 4316.0080    75.5296    59.4116    17.7982
 4316.5080    75.4511    59.9327    17.6108
 4317.0080    76.1478    61.4461    17.7338
 4317.5080    77.3879    61.2027    18.6016
 4318.0080    78.6279    60.4427    19.1744
 4318.5080    79.3249    60.2544    20.2748
 4319.0080    79.7947    61.7724    20.7081
 4319.5080    80.2531    63.0366    20.8932
 4320.0080    80.7174    64.0517    21.2644
 4320.5080    81.7247    64.8175    21.8219
 4321.0080    82.8872    65.5832    22.7207
 4321.5080    83.5066    65.6016    23.4333
 4322.0080    83.7381    65.9091    23.5252
 4322.5080    83.6593    67.8852    23.3997
 4323.0080    83.1830    69.6479    23.2124
 4323.5080    82.8032    70.9121    22.9940
 4324.0080    82.4916    70.4318    22.7757
 4324.5080    82.3353    67.9577    22.6194
 4325.0080    82.4119    67.2277    22.6493
 4325.5080    82.6432    67.4955    22.8673
 4326.0080    83.1850    66.4807    23.1633
 4326.5080    83.9766    66.2857    23.6076
 4327.0080    84.8408    66.8068    24.1962
 4327.5080    85.7049    67.5726    24.7806
 4328.0080    86.5691    68.0892    25.3961
 4328.5080    87.5230    68.8550    26.0116
 4329.0080    88.2976    69.1223    26.6271
 4329.5080    88.6067    69.8881    27.1694
 4330.0080    88.9934    70.6545    27.3545
 4330.5080    89.0697    71.4242    27.3844
 4331.0080    88.9906    70.9439    27.3522
 4331.5080    88.9118    69.2175    27.3508
 4332.0080    88.9106    67.2419    27.3497
 4332.5080    88.9873    68.2569    27.3486
 4333.0080    89.0636    74.0071    27.3785
 4333.5080    89.2948    73.5268    27.6566
 4334.0080    89.6844    70.0266    27.9969
 4334.5080    90.6465    70.5769    28.5928
 4335.0080    91.9286    74.8318    29.6653
 4335.5080    92.7032    76.5945   -49.9895
 4336.0080    92.8574    77.6050   -49.7734
 4336.5080    92.7007    73.1417   -49.9299
 4337.0080    92.6219    72.1629   -50.0552
 4337.5080    93.0086    71.4333   -49.9632
 4338.0080    93.6335    71.4520   -49.6540
 4338.5080    94.1695    71.9726   -49.2114
 4339.0080    94.4786    72.9877   -48.5394
 4339.5080    94.9429    74.9996   -48.1061
 4340.0080    95.5623    78.5068   -47.5797
 4340.5080    96.0266    79.7710   -47.0533
 4341.0080    96.7236    79.5399   -46.7131
 4341.5080    97.4981    81.0534   -46.3728
 4342.0080    97.8947    83.3622   -46.0636
 4342.5080    97.4178    84.0803   -46.2259
 4343.0080    96.5632    80.6139   -47.1523
 4343.5080    95.7086    79.6306   -47.8051
 4344.0080    95.2419    79.9025   -48.0855
 4344.5080    95.4734    76.6807   -47.9935
 4345.0080    95.6274    75.4520   -47.8085
 4345.5080    95.7037    76.4678   -47.7785
 4346.0080    95.3919    79.2474   -47.9692
 4346.5080    94.7700    80.4961   -48.5094
 4347.0080    94.0961    78.2713   -49.1476
 4347.5080    92.8380    75.0633   -49.5832
 4348.0080    91.8151    71.2285    29.4850
 4348.5080    91.5844    67.3584    29.5146
 4349.0080    91.9709    68.4497    29.5448
 4349.5080    91.9697    71.6050    29.5434
 4350.0080    91.8133    75.1896    29.5092
 4350.5080    91.3466    78.8982    29.1685
 4351.0080    91.3454    79.4147    29.0743
 4351.5080    91.4217    79.4333    29.1042
 4352.0080    91.4205    77.3667    29.1654
 4352.5080    90.8759    75.3685    29.1019
 4353.0080    89.5459    74.0029    28.5112
 4353.5080    87.6211    71.7825    26.9747
 4354.0080    85.6964    68.3112    25.3783
 4354.5080    84.8975    63.8214    24.2872
 4355.0080    85.5942    60.8697    24.5033
 4355.5080    86.3688    61.6400    25.1538
 4356.0080    86.6006    62.9043    25.6802
 4356.5080    86.2887    64.1691    25.7415
 4357.0080    85.3566    64.9349    24.9643
 4357.5080    84.8899    62.9632    24.4657
 4358.0080    84.9662    61.9799    24.2748
 4358.5080    84.8766    64.2456    24.2469
 4359.0080    84.0325    67.0051    24.2147
 4359.5080    82.9452    68.7678    23.6550
 4360.0080    79.9960    66.7922    22.1644
 4360.5080    77.1918    63.3212    20.5994
 4361.0080    74.0314    56.5251    18.0741
 4361.5080    70.8710    53.3932    15.5488
 4362.0080    67.7106    51.4175    13.0235
 4362.5080    65.1720    49.4419    10.4595
 4363.0080    65.0932    47.7155    10.1481
 4363.5080    65.0919    45.9845    10.0849
 4364.0080    65.0907    46.0072    10.0191
 4364.5080    64.9225    48.7668     9.8547
 4365.0080    63.5364    50.8038     9.4606
 4365.5080    63.0697    52.5459     9.0250
 4366.0080    63.6115    53.3117     8.9308
 4366.5080    65.3946    53.3298     9.0538
 4367.0080    67.2553    51.3542    12.0007
 4367.5080    71.5210    50.3709    13.5822
 4368.0080    71.9117    51.6397    14.7939
 4368.5080    69.3063    53.9008    13.1452
 4369.0080    67.7932    56.4549    11.8408
 4369.5080    66.9389    58.4276    11.5603
 4370.0080    67.7132    57.6935    11.9316
 4370.5080    67.7898    58.2146    11.8994
 4371.0080    67.4780    60.2265    11.1225
 4371.5080    64.9184    61.9892     9.2722
 4372.0080    62.2012    61.5089     6.6516
 4372.5080    59.6387    58.7856     6.0919
 4373.0080    59.0944    55.5288     5.7790
 4373.5080    59.3330    55.0835     5.8411
 4374.0080    59.8675    55.6046     6.0572
 4374.5080    60.8748    59.3611     6.2733
 4375.0080    62.0373    62.6191     6.6445
 4375.5080    63.4379    68.3767     7.4502
 4376.0080    65.0393    77.5401     9.0938
 4376.5080    66.6884    86.3525    10.7374
 4377.0080    67.1526    85.8722    11.5120
 4377.5080    66.7413    78.9122    11.1693
 4378.0080    65.5983    76.6873    10.6406
 4378.5080    64.9764    73.7148     9.8327
 4379.0080    64.4322    70.9915     9.5522
 4379.5080    63.8882    68.0086     9.3339
 4380.0080    64.0421    64.5157     9.3948
 4380.5080    64.0461    69.5551     9.4868
 4381.0080    64.0394    73.8100     9.5477
 4381.5080    64.3485    77.5664     9.6084
 4382.0080    64.3471    80.3260     9.7934
 4382.5080    64.5109    79.3472     9.8854
 4383.0080    64.8099    73.8101     9.8843
 4383.5080    64.8865    65.9969     9.8832
 4384.0080    64.6523    58.1837     9.8200
 4384.5080    64.3407    54.0003     9.7867
 4385.0080    64.3395    54.0190     9.7557
 4385.5080    65.0365    54.0773     9.9097
 4386.0080    65.3528    54.3089    10.1565
 4386.5080    66.1199    54.3270    10.9933
 4387.0080    67.2048    54.0959    11.6128
 4387.5080    67.6693    50.8742    11.8599
 4388.0080    67.0472    46.1571    11.7657
 4388.5080    66.1150    44.9291    11.0321
 4389.0080    65.1052    43.9504    10.2115
 4389.5080    64.7937    43.7193     9.6519
 4390.0080    64.8854    46.2342     9.8059
 4390.5080    66.1874    49.2429    11.0771
 4391.0080    67.1171    52.0025    11.4483
 4391.5080    67.5814    56.2574    11.7265
 4392.0080    66.8820    54.2818    11.7883
 4392.5080    66.4153    50.5616    11.3754
 4393.0080    66.6468    49.3256    11.1642
 4393.5080    66.9573    46.3291    11.2252
 4394.0080    67.1991    45.6315    11.5033
 4394.5080    67.3413    45.1512    11.6574
 4395.0080    67.4177    45.4231    11.6252
 4395.5080    67.1058    47.6843    11.5310
 4396.0080    67.0270    48.9485    11.5617
 4396.5080    67.1813    49.7143    11.7508
 4397.0080    67.2573    49.9817    11.8069
 4397.5080    67.0175    50.4987    11.6193
 4398.0080    66.4012    51.5178    11.2768
 4398.5080    66.2448    51.0375    10.9654
 4399.0080    65.9333    51.0556    10.8091
 4399.5080    65.8548    53.0675    10.8700
 4400.0080    66.2412    54.5810    11.0882
