~VERSION INFORMATION
 VERS.               2.10:   CWLS LOG ASCII STANDARD - VERSION 2.10
 WRAP.                 NO:   ONE LINE PER DEPTH STEP
~WELL INFORMATION
#MNEM.UNIT      DATA TYPE    INFORMATION
#----------   ------------   ------------------------------
 STRT.F         2379.5000:   START DEPTH
 STOP.F         5659.0000:   STOP DEPTH
 STEP.F            0.5000:   STEP LENGTH
 NULL.          -999.2500:   NO VALUE
 COMP. Lawrence Allison and Asociates:   COMPANY
 WELL.            43 X 10:   WELL
 FLD .           N.P.R. 3:   FIELD
 LOC . 10-38N-78W-NATRONA-WY:   LOCATION
 STAT.                 WY:   STATE
 COUN.            Natrona:   COUNTY
 SRVC.      Dresser Atlas:   SERVICE COMPANY
 DATE.                   :   LOGDATE
 APIN.         4902511207:   API NUMBER
~CURVE INFORMATION
#MNEM.UNIT       API CODE    CURVE DESCRIPTION
#----------   ------------   ------------------------------
 DEPT.F                  :
 DPHI.none   42 890 12 00:   Den. Porosity, Ss [%]
 CNL .none               :   Compensated Neutron Log
 RHOB.gm/cc  42 350 01 00:   Bulk Density
 GR  .GAPI   42 310 00 00:   Gamma Ray
~PARAMETER INFORMATION
#MNEM.UNIT          VALUE    DESCRIPTION
#----------   ------------   ------------------------------
 EKB .F         5215.0000:   Kelly bushing
 EGL .F         5203.0000:   Ground level
 EDF .F            0.0000:   Drilling floor
 EPD .F           10.0000:   Permanent datum
 TD  .F         3268.0000:   Total depth
 NRUN.             1.0000:   Number of Runs
#--RUN 1---   ------------   The following are for Run 1---
 RUN .             1.0000:   Run 1
 DATE.mm/dd/yyyy 02/19/1985:   Date Logged
 DD  .ft             5650:   Depth Driller
 DL  .ft             5649:   Depth Logger
 BLI .ft             5647:   Bottom Log Interval
 TLI .ft             2400:   Top Log Interval
 CSS .inch          9.625:   Casing Size
 CTD1.ft              510:   Casing Driller 1
 CTL1.ft       not logged:   Casing Logger 1
 BS  .inch            8.5:   Bit Size
 DFT .            kcl gel:   Type Fluid In Hole
 DFD .lb/gal          9.5:   Mud Weight
 DFV .sec              44:   Viscosity
 DFPH.                8.5:   pH
 DFL .cc              9.0:   Fluid Loss
 WSS .           flowline:   Source Of Sample
 RM  .ohmm            .32:   Rm
 EMT .F                74:   Rm Meas. Temp.
 RMF .ohmm            .26:   Rmf
 MFT .F                74:   Rmf Meas. Temp.
 RMC .ohmm            .40:   Rmc
 MCST.F                74:   Rmc Meas. Temp.
 MFSS.               meas:   Source Rmf.
 MCSS.               calc:   Source Rmc.
 RMB .ohmm            .14:   Rm. At BHT
 BHT .F               164:   BHT.
 TCS .hh:mm         8 hrs:   Time Circ. Stopped
 MRT .F               170:   Maximum Recorded Temp.
 LUL .               Glte:   Logging Unit Location
 ENGI.               Hack:   Recorded By
 WITN.         Mr. Strong:   Witnessed By
 DGBY.              Burke:   Digitized By
~A  DEPTH     DPHI        CNL       RHOB         GR
# ...
 4934.5000    -1.3989    17.8734     2.6641   107.4687
 4935.0000    -1.2764    16.7578     2.6631   101.1734
 4935.5000    -1.2152    15.4473     2.6630    92.9795
 4936.0000    -1.1541    14.9971     2.6638    86.6842
 4936.5000    -1.2298    14.2385     2.6669    84.7892
 4937.0000    -1.5393    11.0106     2.6722    81.6011
 4937.5000    -1.8538    10.5668     2.6768    78.9566
 4938.0000    -2.1511    10.3126     2.6814    75.6067
 4938.5000    -2.1958    10.3155     2.6845    66.9399
 4939.0000    -1.7414    10.5636     2.6690    66.6343
 4939.5000    -0.7910    10.9175     2.6489    68.3999
 4940.0000    -0.5052    11.4415     2.6473    71.1392
 4940.5000    -0.3584    12.0650     2.6488    71.4619
 4941.0000    -0.2360    13.1233     2.6472    76.9432
 4941.5000    -0.1748    14.0574     2.6455    83.0762
 4942.0000     0.3764    15.5505     2.6418    92.8039
 4942.5000     0.3850    16.1740     2.6379    96.0023
 4943.0000     0.1925    17.4187     2.6432    96.0362
 4943.5000     0.0699    18.1665     2.6486    99.8676
 4944.0000     0.0698    18.1574     2.6316   103.0660
 4944.5000     0.4052    16.5311     2.6337   103.0999
 4945.0000     0.7435    15.3696     2.6376    98.7034
 4945.5000     0.8047    14.2080     2.6431    85.4158
 4946.0000     0.3796    13.0465     2.6445    75.9112
 4946.5000     0.1075    11.8849     2.6422    74.6114
 4947.0000     0.1919    10.7234     2.6484    72.1515
 4947.5000     0.1606     9.9192     2.6488    71.5191
 4948.0000    -0.0624     9.5445     2.6483    70.5333
 4948.5000    -0.3597     9.1855     2.6452    66.8762
 4949.0000    -0.2985     8.7531     2.6436    64.6970
 4949.5000    -0.1760     7.9481     2.6451    61.7452
 4950.0000    -0.4824     7.4536     2.6605    56.0089
 4950.5000    -1.7076     7.1455     2.6715    48.7341
 4951.0000    -2.1977     7.2100     2.6860    50.3927
 4951.5000    -2.5092     7.2768     2.6993    52.3253
 4952.0000    -2.8830     7.6126     2.6946    54.8908
 4952.5000    -2.7334     8.1047     2.6630    56.8234
 4953.0000    -1.5666     8.4379     2.6496    56.8573
 4953.5000    -0.2926     8.8572     2.6391    56.2563
 4954.0000     0.6196     9.4784     2.6356    58.1909
 4954.5000     0.7420    10.7412     2.6371    62.6551
 4955.0000     0.4969    12.1813     2.6426    70.6025
 4955.5000    -0.1770    13.6214     2.6487    86.2644
 4956.0000    -0.2383    15.0615     2.6509   100.3046
 4956.5000    -0.3615    16.5017     2.6524   102.6677
 4957.0000    -0.5494    17.6741     2.6554   101.0961
 4957.5000    -0.6846    16.9317     2.6601    98.3222
 4958.0000    -0.8638    16.9342     2.6662    96.4366
 4958.5000    -1.0683    16.9366     2.6739    95.6521
 4959.0000    -1.5664    16.8154     2.6754    92.7279
 4959.5000    -1.7090    15.8240     2.6692    90.1613
 4960.0000    -1.7418    15.5780     2.6770    86.4625
 4960.5000    -1.6479    15.4561     2.6815    85.2305
 4961.0000    -1.8317    15.5207     2.6817    85.2644
 4961.5000    -2.3218    15.8336     2.6844    87.1970
 4962.0000    -2.3832    17.2646     2.7006    91.6613
 4962.5000    -2.8120    17.8386     2.7118    97.3913
 4963.0000    -4.0985    18.2012     2.7159   100.5898
 4963.5000    -4.2823    18.1314     2.7168    99.9908
 4964.0000    -4.2211    18.0058     2.7168    97.4683
 4964.5000    -4.0956    17.3811     2.7152    96.8358
 4965.0000    -3.8394    16.6580     2.7106    95.6620
 4965.5000    -3.5364    16.9132     2.7105    94.3039
 4966.0000    -3.4864    17.5623     2.7090    92.0778
 4966.5000    -3.5668    17.4069     2.7105    89.8732
 4967.0000    -3.5248    17.0415     2.7058    87.9742
 4967.5000    -3.3983    16.9197     2.7042    87.3419
 4968.0000    -3.2107    15.4935     2.7026    86.6835
 4968.5000    -3.1455    15.4959     2.7011    87.6804
 4969.0000    -3.0581    15.4983     2.6995    87.7221
 4969.5000    -3.0581    15.6871     2.7010    88.3889
 4970.0000    -3.0582    16.1243     2.7014    92.2203
 4970.5000    -3.1195    17.1397     2.7120    94.7858
 4971.0000    -3.9772    18.0659     2.7252    96.7184
 4971.5000    -4.4061    18.3150     2.7342    95.4865
 4972.0000    -4.8397    18.6940     2.7364    95.5203
 4972.5000    -5.2025    18.4734     2.7262    96.1871
 4973.0000    -4.7911    18.0850     2.7127    97.5064
 4973.5000    -3.0315    16.9394     2.6961    99.4209
 4974.0000    -2.8575    15.4944     2.6880    96.1332
 4974.5000    -2.4614    15.3689     2.6821    89.1153
 4975.0000    -1.9666    15.3157     2.6790    87.4958
 4975.5000    -1.8952    15.7793     2.6790    88.3605
 4976.0000    -1.9287    17.3966     2.6836    92.9132
 4976.5000    -2.0791    17.5233     2.6944   100.7878
 4977.0000    -2.3855    17.5257     2.7005   101.2665
 4977.5000    -2.8143    16.6585     2.6897    96.2235
 4978.0000    -2.2631    15.2945     2.6834    92.9377
 4978.5000    -2.4469    14.9212     2.6819    89.6519
 4979.0000    -2.9371    14.6066     2.7040    86.3661
 4979.5000    -3.6725    14.3443     2.7081    83.0803
 4980.0000    -3.7948    13.7897     2.7065    79.7945
 4980.5000    -3.6724    12.2490     2.7088    76.5087
 4981.0000    -3.8189    10.7972     2.7146    73.2229
 4981.5000    -4.0560    10.6056     2.7157    69.5987
 4982.0000    -4.0001    10.4973     2.7051    67.7339
 4982.5000    -3.4064    10.5342     2.6987    68.4489
 4983.0000    -2.9148    10.5366     2.6900    70.3354
 4983.5000    -2.6288    10.6638     2.6820    71.0032
 4984.0000    -2.3506    11.1010     2.6794    71.0380
 4984.5000    -2.3253    11.6624     2.7016    70.6999
 4985.0000    -3.8568    11.4164     2.7108    68.9877
 4985.5000    -3.9928    11.1703     2.7077    67.8406
 4986.0000    -2.9994    10.9864     2.6721    65.8229
 4986.5000    -1.6518    10.9267     2.6690    65.5158
 4987.0000    -1.2231    11.3174     2.6674    66.2725
 4987.5000    -1.2362    11.7710     2.6735    68.7563
 4988.0000    -1.8971    12.2993     2.6781    73.8535
 4988.5000    -1.6819    12.8275     2.6745    77.0520
 4989.0000    -1.2881    13.3615     2.6586    77.0858
 4989.5000    -0.7263    14.0543     2.6480    71.4209
 4990.0000    -0.1373    14.5152     2.6456    74.6220
 4990.5000     0.0627    15.3846     2.6440    79.0862
 4991.0000     0.1544    16.2979     2.6455    86.1013
 4991.5000     0.2463    17.2337     2.6461    89.9146
 4992.0000     0.1237    17.4758     2.6470    89.8733
 4992.5000     0.1236    17.3654     2.6469    89.0196
 4993.0000     0.1236    13.7735     2.6478    76.8268
 4993.5000     0.0622    11.3839     2.6530    68.4473
 4994.0000    -0.4891    11.3363     2.6623    61.9998
 4994.5000    -1.7756    11.2570     2.6854    58.2275
 4995.0000    -2.2677    11.0457     2.6808    57.5315
 4995.5000    -2.4495    10.5641     2.6668    58.8665
 4996.0000    -1.9848     9.7002     2.6653    60.2027
 4996.5000    -1.4920     9.5746     2.6745    59.2565
 4997.0000    -1.3472     9.6129     2.6791    57.3917
 4997.5000    -1.3892     9.8637     2.6758    56.1551
 4998.0000    -1.8146    10.3009     2.6729    56.8265
 4998.5000    -1.8410    10.7381     2.6780    59.3920
 4999.0000    -1.7150    11.2374     2.6840    61.9576
 4999.5000    -2.0214    11.6125     2.6899    68.9535
 5000.0000    -2.9249    11.9876     2.6990    78.4887
 5000.5000    -1.9443    14.5505     2.6847    86.1298
 5001.0000    -1.2699    17.1133     2.6769    91.2393
 5001.5000    -0.8406    19.5412     2.6645    96.3487
 5002.0000    -0.5338    20.3242     2.6630    97.7256
 5002.5000    -0.4690    20.2469     2.6800    95.1752
 5003.0000    -1.5766    15.6732     2.6893    92.6822
 5003.5000    -2.0142    14.8069     2.6815    89.4544
 5004.0000    -2.1244    14.0649     2.6799    82.9327
 5004.5000    -1.3167    13.6334     2.6800    68.7435
 5005.0000    -1.2658    13.2020     2.6974    64.2513
 5005.5000    -2.3257    13.0811     2.7132    63.8066
 5006.0000    -3.3950    13.0743     2.7219    65.5908
 5006.5000    -3.9475    12.9014     2.7231    70.3708
 5007.0000    -3.9354    13.0507     2.7194    73.0584
