~VERSION INFORMATION
 VERS.               2.10:   CWLS LOG ASCII STANDARD - VERSION 2.10
 WRAP.                 NO:   ONE LINE PER DEPTH STEP
~WELL INFORMATION
#MNEM.UNIT      DATA TYPE    INFORMATION
#----------   ------------   ------------------------------
 STRT.F         2379.5000:   START DEPTH
 STOP.F         5659.0000:   STOP DEPTH
 STEP.F            0.5000:   STEP LENGTH
 NULL.          -999.2500:   NO VALUE
 COMP. Lawrence Allison and Asociates:   COMPANY
 WELL.            43 X 10:   WELL
 FLD .           N.P.R. 3:   FIELD
 LOC . 10-38N-78W-NATRONA-WY:   LOCATION
 STAT.                 WY:   STATE
 COUN.            Natrona:   COUNTY
 SRVC.      Dresser Atlas:   SERVICE COMPANY
 DATE.                   :   LOGDATE
 APIN.         4902511207:   API NUMBER
~CURVE INFORMATION
#MNEM.UNIT       API CODE    CURVE DESCRIPTION
#----------   ------------   ------------------------------
 DEPT.F                  :
 DPHI.none   42 890 12 00:   Den. Porosity, Ss [%]
 CNL .none               :   Compensated Neutron Log
 RHOB.gm/cc  42 350 01 00:   Bulk Density
 GR  .GAPI   42 310 00 00:   Gamma Ray
~PARAMETER INFORMATION
#MNEM.UNIT          VALUE    DESCRIPTION
#----------   ------------   ------------------------------
 EKB .F         5215.0000:   Kelly bushing
 EGL .F         5203.0000:   Ground level
 EDF .F            0.0000:   Drilling floor
 EPD .F           10.0000:   Permanent datum
 TD  .F         3268.0000:   Total depth
 NRUN.             1.0000:   Number of Runs
#--RUN 1---   ------------   The following are for Run 1---
 RUN .             1.0000:   Run 1
 DATE.mm/dd/yyyy 02/19/1985:   Date Logged
 DD  .ft             5650:   Depth Driller
 DL  .ft             5649:   Depth Logger
 BLI .ft             5647:   Bottom Log Interval
 TLI .ft             2400:   Top Log Interval
 CSS .inch          9.625:   Casing Size
 CTD1.ft              510:   Casing Driller 1
 CTL1.ft       not logged:   Casing Logger 1
 BS  .inch            8.5:   Bit Size
 DFT .            kcl gel:   Type Fluid In Hole
 DFD .lb/gal          9.5:   Mud Weight
 DFV .sec              44:   Viscosity
 DFPH.                8.5:   pH
 DFL .cc              9.0:   Fluid Loss
 WSS .           flowline:   Source Of Sample
 RM  .ohmm            .32:   Rm
 EMT .F                74:   Rm Meas. Temp.
 RMF .ohmm            .26:   Rmf
 MFT .F                74:   Rmf Meas. Temp.
 RMC .ohmm            .40:   Rmc
 MCST.F                74:   Rmc Meas. Temp.
 MFSS.               meas:   Source Rmf.
 MCSS.               calc:   Source Rmc.
 RMB .ohmm            .14:   Rm. At BHT
 BHT .F               164:   BHT.
 TCS .hh:mm         8 hrs:   Time Circ. Stopped
 MRT .F               170:   Maximum Recorded Temp.
 LUL .               Glte:   Logging Unit Location
 ENGI.               Hack:   Recorded By
 WITN.         Mr. Strong:   Witnessed By
 DGBY.              Burke:   Digitized By
~A  DEPTH     DPHI        CNL       RHOB         GR
# ...
 4058.5000    -2.4738     5.5234     2.6841    25.7936
 4059.0000    -1.1245     5.5249     2.6783    25.1699
 4059.5000    -0.9994     5.5893     2.6766    25.1804
 4060.0000    -0.8148     6.2975     2.6711    25.8228
 4060.5000    -1.2638     8.1606     2.6733    26.7126
 4061.0000    -1.5675     8.5340     2.6770    28.0251
 4061.5000    -1.6672     8.7425     2.6769    29.9814
 4062.0000    -1.2317     9.1093     2.6614    32.5486
 4062.5000    -0.0503     9.4281     2.6350    32.2011
 4063.0000     1.3888     9.8328     2.6056    30.9445
 4063.5000     2.8999    10.2518     2.6009    30.9537
 4064.0000     2.8755    10.6634     2.6039    31.5959
 4064.5000     2.8822    11.1775     2.6023    33.5038
 4065.0000     3.6749    11.4444     2.5944    36.0447
 4065.5000     4.0442    11.3217     2.5866    36.6868
 4066.0000     3.9234    11.2609     2.5851    36.6752
 4066.5000     3.6188    11.3247     2.5900    35.3240
 4067.0000     3.2530    11.1399     2.5970    34.0881
 4067.5000     1.9683    10.9551     2.6065    33.5592
 4068.0000     2.3376    11.0808     2.6163    35.6369
 4068.5000     3.4419    11.5171     2.6081    36.9491
 4069.0000     3.9337    12.0239     2.5894    37.8708
 4069.5000     3.8741    12.7601     2.5862    39.8541
 4070.0000     3.9535    14.6497     2.5845    43.1025
 4070.5000     4.4363    16.8287     2.5814    51.1894
 4071.0000     4.8743    19.3510     2.5751    62.3056
 4071.5000     4.9226    20.0357     2.5720    73.4219
 4072.0000     4.6157    20.2866     2.5827    82.8861
 4072.5000     4.1420    20.4942     2.5919    82.4948
 4073.0000     3.2184    20.7856     2.5980    78.9286
 4073.5000     3.1540    20.6629     2.5995    81.4267
 4074.0000     3.9266    20.6787     2.5897    89.7127
 4074.5000     5.3010    21.3890     2.5738    98.1184
 4075.0000     5.6703    22.4277     2.5614   106.5241
 4075.5000     5.9170    23.2639     2.5553   114.9298
 4076.0000     6.0412    23.6023     2.5528   119.2485
 4076.5000     5.9817    24.6169     2.5538   116.9484
 4077.0000     5.9759    23.6537     2.5573   111.8208
 4077.5000     6.0464    22.7255     2.5550   110.3306
 4078.0000     6.1706    22.7891     2.5548   112.5150
 4078.5000     6.0449    23.1633     2.5628   112.8829
 4079.0000     4.9744    23.1648     2.5694   111.5636
 4079.5000     3.1026    23.1663     2.5739   104.6759
 4080.0000     2.4532    22.7951     2.6048   101.5205
 4080.5000     2.1210    22.4861     2.6109    97.7323
 4081.0000     2.0155    22.4876     2.6139    96.4757
 4081.5000     2.1842    22.3568     2.6154    93.9533
 4082.0000     2.4122    21.8692     2.6107    90.1650
 4082.5000     2.7723    19.5399     2.6044    88.9084
 4083.0000     3.1867    19.0039     2.6012    89.5506
 4083.5000     3.0569    18.8631     2.5997    86.2524
 4084.0000     2.8230    18.5729     2.5999    71.7196
 4084.5000     2.8860    18.0882     2.6011    62.7538
 4085.0000     3.2552    19.0092     2.5990    66.9620
 4085.5000     3.7470    19.9094     2.5921    72.0222
 4086.0000     3.7682    20.5785     2.5913    77.8144
 4086.5000     2.7703    20.6687     2.5984    79.7596
 4087.0000     2.7720    20.5189     2.6031    77.6432
 4087.5000     3.1413    20.8931     2.6028    72.7847
 4088.0000     3.1430    22.3232     2.5990    70.6601
 4088.5000     3.0026    22.2005     2.6005    70.0364
 4089.0000     2.6981    21.6430     2.6051    70.6785
 4089.5000     2.5356    21.3961     2.6081    72.5865
 4090.0000     2.5375    21.3976     2.6096    77.6590
 4090.5000     2.6397    21.8339     2.6049    82.0986
 4091.0000     3.3520    22.1459     2.6017    85.2724
 4091.5000     4.0561    20.8761     2.5813    89.0791
 4092.0000     4.5612    19.8896     2.5738    87.6097
 4092.5000     3.8857    16.9479     2.6160    78.4703
 4093.0000     2.8227    13.8914     2.6355    67.1473
 4093.5000     0.3545    13.3339     2.6522    55.8243
 4094.0000    -1.4316    13.1490     2.6739    44.1916
 4094.5000    -1.3523    13.7917     2.6754    46.0995
 4095.0000    -0.5362    14.3033     2.6561    50.5391
 4095.5000     0.0913    14.8773     2.6375    54.9787
 4096.0000     0.6866    15.5104     2.6239    60.0512
 4096.5000     1.3279    17.5229     2.6179    61.9592
 4097.0000     1.6858    17.5683     2.6194    63.2343
 4097.5000     1.8289    17.4333     2.6240    61.9244
 4098.0000     1.6861    16.9679     2.6301    60.0249
 4098.5000     1.2173    16.2669     2.6362    59.3646
 4099.0000     0.7242    15.9173     2.6377    58.8408
 4099.5000     0.9174    15.9615     2.6284    60.1769
 4100.0000     1.2867    16.7103     2.6206    63.4369
 4100.5000     1.9257    18.2466     2.5818    65.9564
 4101.0000     2.6892    19.7829     2.5804    70.8698
 4101.5000     3.4210    20.7901     2.5806    72.2326
 4102.0000     3.8565    21.3481     2.5838    71.6266
 4102.5000     3.8869    22.3690     2.5878    72.2915
 4103.0000     3.2767    23.0314     2.5912    74.8493
 4103.5000     3.1562    23.1682     2.5927    77.4071
 4104.0000     3.4652    22.6292     2.5792    76.1674
 4104.5000     3.8351    21.6869     2.5742    77.4594
 4105.0000     3.9599    20.1769     2.5701    78.1185
 4105.5000     4.0236    20.3623     2.5618    77.5117
 4106.0000     4.5772    20.4235     2.5665    73.7405
 4106.5000     4.8881    20.0499     2.5788    74.4384
 4107.0000     4.9494    19.6142     2.5896    74.2823
 4107.5000     3.9623    18.8059     2.5974    70.9655
 4108.0000     3.0309    18.2416     2.5989    67.8647
 4108.5000     2.8585    17.6575     2.6020    65.4680
 4109.0000     2.6549    17.2417     2.6066    64.1943
 4109.5000     2.3165    17.1873     2.6099    62.6711
 4110.0000     1.8400    17.3932     2.6144    60.3799
 4110.5000     1.8424    19.3989     2.6108    61.3320
 4111.0000     1.9703    20.6962     2.6060    66.0137
 4111.5000     2.7951    21.5156     2.5961    82.2692
 4112.0000     3.5652    24.0875     2.5707    86.0929
 4112.5000     5.8340    26.0016     2.5558    89.2836
 4113.0000     5.8364    25.9383     2.5530    89.9427
 4113.5000     5.5324    25.5648     2.5625    89.9688
 4114.0000     4.8610    24.8806     2.5681    86.8305
 4114.5000     4.5570    24.3207     2.5726    84.9579
 4115.0000     4.4368    24.0714     2.5732    84.3512
 4115.5000     4.4400    24.0682     2.5680    85.0924
 4116.0000     4.7070    24.5125     2.5603    87.8746
 4116.5000     5.1403    25.0845     2.5541    95.3341
 4117.0000     5.5704    25.3816     2.5510   101.9868
 4117.5000     5.8718    25.3576     2.5495   105.3681
 4118.0000     5.9211    24.8955     2.5495    97.7847
 4118.5000     5.8009    23.7310     2.5495    95.0461
 4119.0000     5.9263    23.5052     2.5495    95.2689
 4119.5000     5.9287    25.0456     2.5497    97.2655
 4120.0000     5.9004    25.4656     2.5513    98.9027
 4120.5000     5.7158    25.5148     2.5545    99.2091
 4121.0000     5.4463    23.7495     2.5592    98.5981
 4121.5000     5.2037    23.3760     2.5624    97.3626
 4122.0000     5.0222    23.0645     2.5627    93.5913
 4122.5000     5.1471    23.0015     2.5573    88.5542
 4123.0000     5.3945    23.0627     2.5486    84.7829
 4123.5000     5.7643    23.8692     2.5495    84.8091
 4124.0000     5.4604    24.4348     2.5510    86.1013
 4124.5000     5.4628    24.7370     2.5526    84.8190
 4125.0000     5.7179    24.7360     2.5495    84.2547
 4125.5000     6.2439    24.7208     2.5479    85.6634
 4126.0000     6.8268    24.4491     2.5402    84.7931
 4126.5000     7.0038    24.1700     2.5355    84.3332
 4127.0000     6.9903    22.5143     2.5355    84.9968
 4127.5000     6.8670    21.6278     2.5371    84.5113
 4128.0000     6.6600    21.5967     2.5439    73.0762
 4128.5000     6.4106    22.2449     2.5545    72.1124
 4129.0000     5.8964    22.6787     2.5606    74.7965
 4129.5000     5.2960    22.9263     2.5637    80.0729
 4130.0000     4.8561    22.8012     2.5665    80.7320
 4130.5000     4.5120    22.8002     2.5680    81.3911
 4131.0000     4.4951    23.4205     2.5667    82.0501
