~VERSION INFORMATION
 VERS.               2.10:   CWLS LOG ASCII STANDARD - VERSION 2.10
 WRAP.                 NO:   ONE LINE PER DEPTH STEP
~WELL INFORMATION
#MNEM.UNIT      DATA TYPE    INFORMATION
#----------   ------------   ------------------------------
 STRT.F         2379.5000:   START DEPTH
 STOP.F         5659.0000:   STOP DEPTH
 STEP.F            0.5000:   STEP LENGTH
 NULL.          -999.2500:   NO VALUE
 COMP. Lawrence Allison and Asociates:   COMPANY
 WELL.            43 X 10:   WELL
 FLD .           N.P.R. 3:   FIELD
 LOC . 10-38N-78W-NATRONA-WY:   LOCATION
 STAT.                 WY:   STATE
 COUN.            Natrona:   COUNTY
 SRVC.      Dresser Atlas:   SERVICE COMPANY
 DATE.                   :   LOGDATE
 APIN.         4902511207:   API NUMBER
~CURVE INFORMATION
#MNEM.UNIT       API CODE    CURVE DESCRIPTION
#----------   ------------   ------------------------------
 DEPT.F                  :
 DPHI.none   42 890 12 00:   Den. Porosity, Ss [%]
 CNL .none               :   Compensated Neutron Log
 RHOB.gm/cc  42 350 01 00:   Bulk Density
 GR  .GAPI   42 310 00 00:   Gamma Ray
~PARAMETER INFORMATION
#MNEM.UNIT          VALUE    DESCRIPTION
#----------   ------------   ------------------------------
 EKB .F         5215.0000:   Kelly bushing
 EGL .F         5203.0000:   Ground level
 EDF .F            0.0000:   Drilling floor
 EPD .F           10.0000:   Permanent datum
 TD  .F         3268.0000:   Total depth
 NRUN.             1.0000:   Number of Runs
#--RUN 1---   ------------   The following are for Run 1---
 RUN .             1.0000:   Run 1
 DATE.mm/dd/yyyy 02/19/1985:   Date Logged
 DD  .ft             5650:   Depth Driller
 DL  .ft             5649:   Depth Logger
 BLI .ft             5647:   Bottom Log Interval
 TLI .ft             2400:   Top Log Interval
 CSS .inch          9.625:   Casing Size
 CTD1.ft              510:   Casing Driller 1
 CTL1.ft       not logged:   Casing Logger 1
 BS  .inch            8.5:   Bit Size
 DFT .            kcl gel:   Type Fluid In Hole
 DFD .lb/gal          9.5:   Mud Weight
 DFV .sec              44:   Viscosity
 DFPH.                8.5:   pH
 DFL .cc              9.0:   Fluid Loss
 WSS .           flowline:   Source Of Sample
 RM  .ohmm            .32:   Rm
 EMT .F                74:   Rm Meas. Temp.
 RMF .ohmm            .26:   Rmf
 MFT .F                74:   Rmf Meas. Temp.
 RMC .ohmm            .40:   Rmc
 MCST.F                74:   Rmc Meas. Temp.
 MFSS.               meas:   Source Rmf.
 MCSS.               calc:   Source Rmc.
 RMB .ohmm            .14:   Rm. At BHT
 BHT .F               164:   BHT.
 TCS .hh:mm         8 hrs:   Time Circ. Stopped
 MRT .F               170:   Maximum Recorded Temp.
 LUL .               Glte:   Logging Unit Location
 ENGI.               Hack:   Recorded By
 WITN.         Mr. Strong:   Witnessed By
 DGBY.              Burke:   Digitized By
~A  DEPTH     DPHI        CNL       RHOB         GR
# ...
 4715.5000     0.6488     9.3457     2.6371    68.9449
 4716.0000     0.5748     8.9119     2.6371    62.0015
 4716.5000     0.3856     8.9128     2.6447    57.5898
 4717.0000     0.1783     9.0379     2.6648    58.8742
 4717.5000    -0.5551    11.1121     2.6820    62.6903
 4718.0000    -1.2890    11.9094     2.6973    65.8735
 4718.5000    -2.9767    12.1561     2.7032    80.5098
 4719.0000    -3.0972    12.2714     2.7029    84.3791
 4719.5000    -2.9147    12.2724     2.6978    86.1835
 4720.0000    -2.6097    12.4182     2.6905    86.1182
 4720.5000    -1.8146    12.6955     2.6768    82.8124
 4721.0000    -1.2646    13.1322     2.6678    70.0251
 4721.5000    -1.0820    14.0220     2.6670    68.5357
 4722.0000    -1.2058    15.4430     2.6696    70.7866
 4722.5000    -1.2683    16.0669     2.6671    83.0699
 4723.0000    -1.0858    15.9436     2.6647    88.0652
 4723.5000    -1.2357    15.0129     2.6639    95.1926
 4724.0000    -1.4902    12.2187     2.6778    90.4275
 4724.5000    -1.9739    11.7227     2.6823    81.8826
 4725.0000    -2.3672    11.3510     2.6838    71.5190
 4725.5000    -2.5310    11.0413     2.6853    68.3036
 4726.0000    -2.6251    10.9801     2.6930    64.1852
 4726.5000    -2.6879    11.1674     2.6945    62.3987
 4727.0000    -2.6279    11.2304     2.6943    61.7848
 4727.5000    -2.2004    11.1692     2.6928    61.8067
 4728.0000    -1.5891    11.2323     2.6911    62.4583
 4728.5000    -0.9778    11.2953     2.6769    66.2744
 4729.0000    -0.5503    11.2963     2.6707    65.6602
 4729.5000     0.0136    11.3247     2.6500    63.1472
 4730.0000     0.8069    11.7323     2.6368    63.7987
 4730.5000     0.9774    12.9913     2.6368    65.0832
 4731.0000     0.7488    14.2815     2.6372    72.0639
 4731.5000     0.4099    15.7110     2.6403    83.2911
 4732.0000     0.0700    17.4511     2.6456   104.0465
 4732.5000    -0.4157    18.2594     2.6622   113.5980
 4733.0000    -1.4207    18.5088     2.6759   115.8101
 4733.5000    -1.7353    18.1991     2.6766   115.2503
 4734.0000    -2.0949    16.3367     2.6858   110.4873
 4734.5000    -2.4024    15.0107     2.6903   103.4308
 4735.0000    -2.4649    13.4045     2.6907    94.0272
 4735.5000    -2.4048    11.6456     2.6871    83.7350
 4736.0000    -2.0999    11.2844     2.6855    71.6236
 4736.5000    -2.2237    11.2480     2.6916    69.7435
 4737.0000    -2.5347    11.7198     2.6947    69.5783
 4737.5000    -2.4559    12.2747     2.6791    71.6796
 4738.0000    -2.1682    12.7601     2.6543    76.1286
 4738.5000    -1.3750    13.5756     2.6495    82.9270
 4739.0000    -0.0866    14.8243     2.6432    90.5271
 4739.5000     0.2065    16.4092     2.6403    98.1271
 4740.0000     0.2501    17.8387     2.6451   107.2189
 4740.5000     0.0896    18.5849     2.6583   109.7692
 4741.0000    -0.3980    18.8964     2.6663   111.6866
 4741.5000    -0.8280    18.7109     2.6663   114.8698
 4742.0000    -1.0130    17.7802     2.6662   116.7872
 4742.5000    -1.0143    17.2842     2.6677   116.1729
 4743.0000    -0.9542    17.3562     2.6676   104.7991
 4743.5000    -0.9555    18.6762     2.6667    99.1216
 4744.0000    -0.9583    19.1585     2.6660    97.8744
 4744.5000    -1.2180    19.3494     2.6705   106.7538
 4745.0000    -1.6424    19.4005     2.6766   109.3041
 4745.5000    -1.6958    19.1674     2.6770   109.9557
 4746.0000    -1.6795    18.3567     2.6734   108.6561
 4746.5000    -1.6369    17.9841     2.6718   106.1471
 4747.0000    -1.5866    17.7594     2.6687   104.1730
 4747.5000    -1.1820    17.7334     2.6547   101.1695
 4748.0000    -0.8031    18.3505     2.6515   105.4605
 4748.5000    -0.3562    19.2210     2.6515   109.8603
 4749.0000    -0.2348    20.5262     2.6514   112.3170
 4749.5000    -0.2362    22.5147     2.6529   114.0929
 4750.0000    -0.1762    22.8262     2.6497   113.7135
 4750.5000    -0.1775    22.5786     2.6500   111.5762
 4751.0000    -0.2400    22.2069     2.6531   109.6502
 4751.5000    -0.3049    21.6453     2.6582   107.1624
 4752.0000    -0.5466    20.7306     2.6635   103.8734
 4752.5000    -1.5841    19.6243     2.6755   105.1796
 4753.0000    -2.4926    19.2291     2.6954   107.4258
 4753.5000    -3.5698    20.8433     2.7042   108.7337
 4754.0000    -3.8004    21.0323     2.7056   108.3832
 4754.5000    -3.3921    20.9267     2.7017   107.7658
 4755.0000    -2.8823    18.8914     2.6954   106.5218
 4755.5000    -2.6555    18.3379     2.6892    92.6164
 4756.0000    -2.2134    17.7938     2.6783    85.6730
 4756.5000    -2.0309    14.7017     2.6736    83.7929
 4757.0000    -1.4196    13.0877     2.6736    84.4445
 4757.5000    -1.5434    13.1508     2.6797    84.6105
 4758.0000    -1.7896    13.3380     2.6873    80.6843
 4758.5000    -2.1584    13.7737     2.6904    80.7029
 4759.0000    -2.4163    15.5137     2.6872    85.1520
 4759.5000    -2.5285    17.1295     2.6841    91.5402
 4760.0000    -2.2847    17.6894     2.6877    94.1362
 4760.5000    -2.4416    17.8218     2.6950    96.6667
 4761.0000    -2.7773    18.0018     2.6936    97.2519
 4761.5000    -2.5820    17.5976     2.6830    96.0047
 4762.0000    -2.2934    17.1818     2.6791    96.6582
 4762.5000    -2.1638    17.1350     2.6790    97.4687
 4763.0000    -2.1089    17.4062     2.6783    98.5949
 4763.5000    -1.5591    17.2813     2.6691    97.9780
 4764.0000    -0.8253    16.3138     2.6564    97.7723
 4764.5000    -0.7652    15.6090     2.6580    97.1352
 4765.0000    -0.8890    15.0437     2.6633    94.0505
 4765.5000    -1.2578    14.5322     2.6740    87.0752
 4766.0000    -1.8766    14.0981     2.6817    83.8310
 4766.5000    -2.1179    14.3476     2.6739    83.8815
 4767.0000    -1.8357    14.7833     2.6707    85.1895
 4767.5000    -1.6304    15.8401     2.6738    87.3770
 4768.0000    -1.7111    17.0211     2.6783    89.2944
 4768.5000    -1.8612    17.1463     2.6876    90.5788
 4769.0000    -2.2563    17.9175     2.6968    91.2304
 4769.5000    -2.8606    18.8940     2.7030    93.1478
 4770.0000    -3.2993    18.8571     2.7044    92.5335
 4770.5000    -3.5375    15.2149     2.7025    88.1218
 4771.0000    -3.3550    13.7365     2.7012    82.4442
 4771.5000    -3.2338    12.8039     2.7061    77.3996
 4772.0000    -3.7251    13.4631     2.7147    76.1519
 4772.5000    -4.2164    14.1903     2.7195    75.5381
 4773.0000    -4.2789    15.7250     2.7088    79.4173
 4773.5000    -3.3578    17.5803     2.6820    85.1426
 4774.0000    -2.3816    19.7654     2.6730    99.6040
 4774.5000    -1.4910    20.3253     2.6666   106.8752
 4775.0000    -1.0272    20.5125     2.6617   109.9158
 4775.5000    -0.7940    20.6377     2.6573   111.0949
 4776.0000    -0.6728    21.3839     2.6526   112.5320
 4776.5000    -0.5515    21.7575     2.6510   113.8398
 4777.0000     0.3661    22.2553     2.6355   114.9494
 4777.5000     0.9774    22.3183     2.6261   113.8925
 4778.0000     1.2211    22.0146     2.6261   109.8661
 4778.5000     0.7029    19.8696     2.6445   103.7123
 4779.0000     0.0386    17.0900     2.6476    99.3030
 4779.5000     0.5065    14.4773     2.6428    95.1133
 4780.0000     1.1424    13.1304     2.6227    85.5757
 4780.5000     1.5213    11.7484     2.6134    73.8551
 4781.0000     1.8506    10.5700     2.6149    68.9024
 4781.5000     1.9181    10.1507     2.6287    66.3894
 4782.0000    -0.4736     9.8607     2.6596    63.8764
 4782.5000    -0.9960     9.4707     2.6657    60.7305
 4783.0000    -1.1811     9.2852     2.6656    56.3188
 4783.5000    -1.3048     9.2239     2.6673    55.7025
 4784.0000    -1.7961     9.1627     2.6726    56.9890
 4784.5000    -2.3487     9.5364     2.6855    59.5392
 4785.0000    -2.2887    10.0963     2.6605    61.4566
 4785.5000    -1.4168    10.4078     2.6448    64.0069
 4786.0000    -0.0595    10.8535     2.6420    65.2914
 4786.5000     0.3415    11.5389     2.6462    64.0317
 4787.0000     0.3129    11.7770     2.6525    62.7970
 4787.5000    -0.2860    11.6899     2.6558    61.4978
 4788.0000    -0.8263    11.5303     2.6541    60.9356
