~VERSION INFORMATION
 VERS.               2.10:   CWLS LOG ASCII STANDARD - VERSION 2.10
 WRAP.                 NO:   ONE LINE PER DEPTH STEP
~WELL INFORMATION
#MNEM.UNIT      DATA TYPE    INFORMATION
#----------   ------------   ------------------------------
 STRT.F         2379.5000:   START DEPTH
 STOP.F         5659.0000:   STOP DEPTH
 STEP.F            0.5000:   STEP LENGTH
 NULL.          -999.2500:   NO VALUE
 COMP. Lawrence Allison and Asociates:   COMPANY
 WELL.            43 X 10:   WELL
 FLD .           N.P.R. 3:   FIELD
 LOC . 10-38N-78W-NATRONA-WY:   LOCATION
 STAT.                 WY:   STATE
 COUN.            Natrona:   COUNTY
 SRVC.      Dresser Atlas:   SERVICE COMPANY
 DATE.                   :   LOGDATE
 APIN.         4902511207:   API NUMBER
~CURVE INFORMATION
#MNEM.UNIT       API CODE    CURVE DESCRIPTION
#----------   ------------   ------------------------------
 DEPT.F                  :
 DPHI.none   42 890 12 00:   Den. Porosity, Ss [%]
 CNL .none               :   Compensated Neutron Log
 RHOB.gm/cc  42 350 01 00:   Bulk Density
 GR  .GAPI   42 310 00 00:   Gamma Ray
~PARAMETER INFORMATION
#MNEM.UNIT          VALUE    DESCRIPTION
#----------   ------------   ------------------------------
 EKB .F         5215.0000:   Kelly bushing
 EGL .F         5203.0000:   Ground level
 EDF .F            0.0000:   Drilling floor
 EPD .F           10.0000:   Permanent datum
 TD  .F         3268.0000:   Total depth
 NRUN.             1.0000:   Number of Runs
#--RUN 1---   ------------   The following are for Run 1---
 RUN .             1.0000:   Run 1
 DATE.mm/dd/yyyy 02/19/1985:   Date Logged
 DD  .ft             5650:   Depth Driller
 DL  .ft             5649:   Depth Logger
 BLI .ft             5647:   Bottom Log Interval
 TLI .ft             2400:   Top Log Interval
 CSS .inch          9.625:   Casing Size
 CTD1.ft              510:   Casing Driller 1
 CTL1.ft       not logged:   Casing Logger 1
 BS  .inch            8.5:   Bit Size
 DFT .            kcl gel:   Type Fluid In Hole
 DFD .lb/gal          9.5:   Mud Weight
 DFV .sec              44:   Viscosity
 DFPH.                8.5:   pH
 DFL .cc              9.0:   Fluid Loss
 WSS .           flowline:   Source Of Sample
 RM  .ohmm            .32:   Rm
 EMT .F                74:   Rm Meas. Temp.
 RMF .ohmm            .26:   Rmf
 MFT .F                74:   Rmf Meas. Temp.
 RMC .ohmm            .40:   Rmc
 MCST.F                74:   Rmc Meas. Temp.
 MFSS.               meas:   Source Rmf.
 MCSS.               calc:   Source Rmc.
 RMB .ohmm            .14:   Rm. At BHT
 BHT .F               164:   BHT.
 TCS .hh:mm         8 hrs:   Time Circ. Stopped
 MRT .F               170:   Maximum Recorded Temp.
 LUL .               Glte:   Logging Unit Location
 ENGI.               Hack:   Recorded By
 WITN.         Mr. Strong:   Witnessed By
 DGBY.              Burke:   Digitized By
~A  DEPTH     DPHI        CNL       RHOB         GR
# ...
 4496.5000    17.5257    22.4780     2.3536    35.2051
 4497.0000    19.0109    23.3621     2.3073    33.3404
 4497.5000    20.4962    23.8634     2.2933    33.2171
 4498.0000    21.3339    24.1665     2.2918    34.6742
 4498.5000    21.3945    24.2208     2.2980    35.3411
 4499.0000    21.2644    23.4802     2.2856    36.0080
 4499.5000    21.8167    21.6760     2.2809    35.4082
 4500.0000    22.4858    21.6564     2.2846    37.3284
 4500.5000    22.8208    21.6157     2.2774    36.2155
 4501.0000    22.9564    21.5901     2.2758    34.1456
 4501.5000    22.9246    21.3720     2.2772    34.4228
 4502.0000    22.7015    21.1183     2.2787    37.9291
 4502.5000    22.2225    20.3137     2.2802    41.4081
 4503.0000    19.0376    19.9436     2.2832    43.5728
 4503.5000    18.1804    20.0067     2.2911    44.1902
 4504.0000    17.3232    20.3181     2.3039    47.3393
 4504.5000    16.9560    20.6917     2.3292    49.2225
 4505.0000    16.9544    20.9411     2.3742    49.2071
 4505.5000    17.0180    20.3209     2.3741    47.2928
 4506.0000    16.7941    18.2100     2.3741    46.6444
 4506.5000    16.0143    17.7761     2.3911    47.2619
 4507.0000    15.0664    17.7807     2.4136    49.1451
 4507.5000    14.5614    18.6691     2.4180    49.7626
 4508.0000    14.5084    19.2272     2.3912    43.3354
 4508.5000    15.9730    19.8583     2.3636    38.8831
 4509.0000    18.1169    21.0033     2.3520    37.6899
 4509.5000    18.3074    20.8104     2.3520    37.7726
 4510.0000    18.3079    20.3168     2.3535    38.9256
 4510.5000    18.3083    20.0076     2.3534    37.0114
 4511.0000    18.4924    19.8887     2.3518    37.8081
 4511.5000    18.6765    19.8299     2.3517    39.2952
 4512.0000    18.5544    19.6532     2.3517    41.6286
 4512.5000    18.0035    19.1872     2.3532    43.1694
 4513.0000    17.4525    17.5072     2.3531    43.8924
 4513.5000    16.6586    16.3132     2.3778    43.8766
 4514.0000    13.7724    15.9978     2.4208    46.2244
 4514.5000    10.8862    16.0339     2.4637    49.2816
 4515.0000     8.2696    16.0659     2.5067    48.2567
 4515.5000     7.8622    16.0692     2.5305    45.7095
 4516.0000     7.8376    15.2490     2.5306    32.4029
 4516.5000     7.7272    13.1465     2.5435    26.6912
 4517.0000     5.7107    11.0440     2.5926    24.7770
 4517.5000     3.3537     8.6916     2.6417    21.5969
 4518.0000     0.9967     6.3968     2.6856    19.6827
 4518.5000    -1.3512     5.8411     2.6894    19.6672
 4519.0000    -2.0355     5.5339     2.6914    20.2848
 4519.5000    -2.3978     5.5372     2.6945    20.2690
 4520.0000    -2.5115     5.7268     2.6954    20.1674
 4520.5000    -2.5273     5.9165     2.6968    18.1302
 4521.0000    -2.8770     6.0480     2.6992    15.6941
 4521.5000    -3.2320     6.1717     2.7060    15.1424
 4522.0000    -3.3063     6.2373     2.7106    16.8472
 4522.5000    -2.7506     6.2407     2.7028    19.7205
 4523.0000    -2.8965     6.1618     2.7043    20.1608
 4523.5000    -4.2852     6.0370     2.7227    19.5095
 4524.0000    -4.8361     6.1768     2.7428    18.3378
 4524.5000    -5.6933     6.8179     2.7504    15.1018
 4525.0000    -5.7542     7.1014     2.7488    14.3987
 4525.5000    -5.4475     7.1934     2.7472    14.7271
 4526.0000    -4.8346     7.1342     2.7470    15.3707
 4526.5000    -4.5877     6.7653     2.7435    16.2471
 4527.0000    -4.5276     6.2096     2.7356    17.4975
 4527.5000    -4.6347     5.8402     2.7374    18.7478
 4528.0000    -5.1043     5.5330     2.7454    17.4665
 4528.5000    -5.5066     5.3476     2.7405    18.0839
 4529.0000    -5.3619     5.2911     2.7294    20.6001
 4529.5000    -4.6837     5.2221     2.7236    21.2175
 4530.0000    -4.3130     5.0973     2.7259    21.8354
 4530.5000    -4.7847     4.9724     2.7372    21.8194
 4531.0000    -5.4433     4.8696     2.7465    20.5253
 4531.5000    -5.0141     4.8736     2.7372    19.7715
 4532.0000    -4.1562     4.8770     2.7232    14.6762
 4532.5000    -3.5432     4.8804     2.7170    13.5285
 4533.0000    -3.3591     5.0087     2.7138    13.5127
 4533.5000    -3.4200     5.0741     2.7122    14.1316
 4534.0000    -3.7259     5.2016     2.7199    14.1139
 4534.5000    -3.9705     5.3913     2.7229    14.3024
 4535.0000    -3.8353     5.5188     2.7229    15.1801
 4535.5000    -3.7860     5.6464     2.7211    17.3766
 4536.0000    -4.1195     5.7783     2.7181    20.9533
 4536.5000    -4.3978     6.4752     2.7253    23.2063
 4537.0000    -4.2929     6.9344     2.7304    27.1902
 4537.5000    -3.1875     7.5293     2.7220    31.5204
 4538.0000    -1.1433     8.4808     2.7035    35.8506
 4538.5000     0.9008     9.3538     2.6680    40.1808
 4539.0000     2.5261    10.5039     2.6296    44.5110
 4539.5000     2.7715    11.4881     2.6110    48.8412
 4540.0000     2.8944    12.6131     2.6032    53.1714
 4540.5000     3.2623    13.5693     2.5970    57.5016
 4541.0000     3.8140    16.4919     2.5906    61.5007
 4541.5000     4.0594    18.8554     2.5925    70.4377
 4542.0000     3.1409    19.4798     2.6030    77.7344
 4542.5000     2.4399    19.7937     2.6431    85.3639
 4543.0000     1.2647    20.1697     2.6605   106.0775
 4543.5000     0.0894    22.0985     2.6718   113.6541
 4544.0000    -1.0859    21.2052     2.6739   116.0000
 4544.5000    -1.3512    20.0069     2.6701   117.9392
 4545.0000    -1.1447    18.4610     2.6668   118.1116
 4545.5000    -0.8380    18.1216     2.6589   113.7470
 4546.0000    -0.2251    18.1598     2.6369   108.6682
 4546.5000     0.7554    18.4629     2.6281   104.4736
 4547.0000     1.3683    19.4851     2.6302   112.4347
 4547.5000     1.3677    20.4183     2.6332   118.1154
 4548.0000     1.4496    20.1138     2.6270   119.9986
 4548.5000     1.7370    17.9717     2.6285   117.4515
 4549.0000     1.6634    17.1055     2.6330   113.6386
 4549.5000     1.0424    16.7361     2.6392   109.1927
 4550.0000     0.5740    16.4910     2.6468   106.6456
 4550.5000     0.0857    16.3700     2.6547   107.2630
 4551.0000    -0.5789    16.0007     2.6591   106.5595
 4551.5000    -0.8335    14.1923     2.6567   104.2888
 4552.0000    -0.6640    13.4148     2.6475    97.8049
 4552.5000     0.3593    12.3498     2.6270    76.8187
 4553.0000     2.2305    11.7212     2.6065    67.9425
 4553.5000     3.7623    11.1635     2.5830    62.2308
 4554.0000     4.1302    10.5917     2.5814    59.0354
 4554.5000     4.1306    10.1079     2.5814    56.3617
 4555.0000     4.0697     9.7567     2.5828    53.9557
 4555.5000     3.9457     9.6397     2.5905    53.3070
 4556.0000     3.7358     9.7621     2.6028    53.4096
 4556.5000     3.1651     9.8276     2.6043    54.0535
 4557.0000     3.0911     9.8930     2.6027    55.3310
 4557.5000     3.3978    10.3932     2.6009    57.4429
 4558.0000     3.3157    12.3978     2.6029    66.8254
 4558.5000     3.0421    15.5188     2.6098    79.6235
 4559.0000     2.5800    18.6398     2.6246    92.4216
 4559.5000     1.6948    21.3773     2.6453   105.2196
 4560.0000     0.2757    22.1116     2.6611   118.0177
 4560.5000    -0.7040    22.1817     2.6642   128.2946
 4561.0000    -0.8874    21.2870     2.6578   131.6139
 4561.5000    -0.0294    20.2344     2.6523   129.0639
 4562.0000     0.1547    17.0700     2.6515   122.7192
 4562.5000     0.1601    13.4087     2.6484   111.9443
 4563.0000     0.1554    12.7909     2.6344    92.9414
 4563.5000     0.3477    12.3594     2.6220    80.9006
 4564.0000     0.8627    12.0522     2.6173    78.9864
 4564.5000     1.5582    12.2457     2.6157    78.9709
 4565.0000     2.3621    14.2765     2.6141    82.1200
 4565.5000     2.0631    14.8913     2.6155    83.3829
 4566.0000     1.6229    15.1093     2.6218    86.5531
 4566.5000     1.2088    14.7750     2.6264    88.4026
 4567.0000     1.1072    13.4314     2.6277    86.2221
 4567.5000     1.1727    12.5052     2.6240    81.6925
 4568.0000     1.8745    12.0795     2.6195    79.2082
 4568.5000     1.9974    12.6774     2.6167    77.4076
 4569.0000     1.9365    12.7702     2.6167    76.9304
