~VERSION INFORMATION
 VERS.               2.10:   CWLS LOG ASCII STANDARD - VERSION 2.10
 WRAP.                 NO:   ONE LINE PER DEPTH STEP
~WELL INFORMATION
#MNEM.UNIT      DATA TYPE    INFORMATION
#----------   ------------   ------------------------------
 STRT.F         2379.5000:   START DEPTH
 STOP.F         5659.0000:   STOP DEPTH
 STEP.F            0.5000:   STEP LENGTH
 NULL.          -999.2500:   NO VALUE
 COMP. Lawrence Allison and Asociates:   COMPANY
 WELL.            43 X 10:   WELL
 FLD .           N.P.R. 3:   FIELD
 LOC . 10-38N-78W-NATRONA-WY:   LOCATION
 STAT.                 WY:   STATE
 COUN.            Natrona:   COUNTY
 SRVC.      Dresser Atlas:   SERVICE COMPANY
 DATE.                   :   LOGDATE
 APIN.         4902511207:   API NUMBER
~CURVE INFORMATION
#MNEM.UNIT       API CODE    CURVE DESCRIPTION
#----------   ------------   ------------------------------
 DEPT.F                  :
 DPHI.none   42 890 12 00:   Den. Porosity, Ss [%]
 CNL .none               :   Compensated Neutron Log
 RHOB.gm/cc  42 350 01 00:   Bulk Density
 GR  .GAPI   42 310 00 00:   Gamma Ray
~PARAMETER INFORMATION
#MNEM.UNIT          VALUE    DESCRIPTION
#----------   ------------   ------------------------------
 EKB .F         5215.0000:   Kelly bushing
 EGL .F         5203.0000:   Ground level
 EDF .F            0.0000:   Drilling floor
 EPD .F           10.0000:   Permanent datum
 TD  .F         3268.0000:   Total depth
 NRUN.             1.0000:   Number of Runs
#--RUN 1---   ------------   The following are for Run 1---
 RUN .             1.0000:   Run 1
 DATE.mm/dd/yyyy 02/19/1985:   Date Logged
 DD  .ft             5650:   Depth Driller
 DL  .ft             5649:   Depth Logger
 BLI .ft             5647:   Bottom Log Interval
 TLI .ft             2400:   Top Log Interval
 CSS .inch          9.625:   Casing Size
 CTD1.ft              510:   Casing Driller 1
 CTL1.ft       not logged:   Casing Logger 1
 BS  .inch            8.5:   Bit Size
 DFT .            kcl gel:   Type Fluid In Hole
 DFD .lb/gal          9.5:   Mud Weight
 DFV .sec              44:   Viscosity
 DFPH.                8.5:   pH
 DFL .cc              9.0:   Fluid Loss
 WSS .           flowline:   Source Of Sample
 RM  .ohmm            .32:   Rm
 EMT .F                74:   Rm Meas. Temp.
 RMF .ohmm            .26:   Rmf
 MFT .F                74:   Rmf Meas. Temp.
 RMC .ohmm            .40:   Rmc
 MCST.F                74:   Rmc Meas. Temp.
 MFSS.               meas:   Source Rmf.
 MCSS.               calc:   Source Rmc.
 RMB .ohmm            .14:   Rm. At BHT
 BHT .F               164:   BHT.
 TCS .hh:mm         8 hrs:   Time Circ. Stopped
 MRT .F               170:   Maximum Recorded Temp.
 LUL .               Glte:   Logging Unit Location
 ENGI.               Hack:   Recorded By
 WITN.         Mr. Strong:   Witnessed By
 DGBY.              Burke:   Digitized By
~A  DEPTH     DPHI        CNL       RHOB         GR
# ...
 3693.5000  -999.2500  -999.2500     2.1990    93.3287
 3694.0000  -999.2500   -48.1532     2.1395    95.3451
 3694.5000   -47.6082   -48.8637     2.1481    94.7307
 3695.0000   -48.5844   -49.6738     2.1964    93.4833
 3695.5000  -999.2500   -49.9971     2.2446    91.6030
 3696.0000  -999.2500   -49.9139     2.2859    92.2544
 3696.5000    22.4838   -49.7274     2.2843    92.9058
 3697.0000    22.3039   -48.9183     2.2611    88.4938
 3697.5000    24.7834   -46.7078     2.2502    85.9549
 3698.0000    24.1854   -45.8434     2.2720    87.4547
 3698.5000    22.6218   -46.1703     2.2836    91.2822
 3699.0000    24.4514   -48.3853     2.2621    93.7703
 3699.5000    25.3253   -49.4463     2.2454    92.9547
 3700.0000    25.3975   -49.5031     2.2330    89.8743
 3700.5000    25.2852   -49.6199     2.2345    89.0126
 3701.0000    25.2120   -49.7378     2.2298    87.4533
 3701.5000    26.9183   -49.7529     2.2050    83.2972
 3702.0000  -999.2500   -46.4953     2.1509    80.1012
 3702.5000  -999.2500   -45.4330     2.1182    79.8260
 3703.0000   -47.0493   -46.0478     2.1742    79.8445
 3703.5000   -49.3142   -48.9175     2.1824    81.7587
 3704.0000    27.1956  -999.2500     2.2017    90.6349
 3704.5000    27.1360  -999.2500     2.2042    96.9794
 3705.0000    26.1983    26.9473     2.2156    96.9948
 3705.5000    25.8529    25.9115     2.2024    97.0103
 3706.0000    27.3859    26.2905     2.1903    96.3928
 3706.5000    24.5314    27.4149     2.2226    94.4968
 3707.0000    23.4509    28.2908     2.3312    88.6847
 3707.5000    20.6554    28.3593     2.4378    85.6795
 3708.0000    12.3675    24.0799     2.5443    86.5308
 3708.5000     2.5864    23.6512     2.6090    91.0791
 3709.0000     3.2006    22.6640     2.6016    97.1202
 3709.5000     3.3247    21.4199     2.6031    97.1361
 3710.0000     3.2649    21.2423     2.5938    97.1519
 3710.5000     3.2054    21.1924     2.5675    97.4322
 3711.0000     4.3097    24.3377     2.5531   102.1707
 3711.5000     6.7003    25.4953     2.5454   104.7943
 3712.0000     6.7036    26.0944     2.5326   104.8101
 3712.5000     6.8415    27.2284     2.4936   104.1959
 3713.0000     8.3232   -48.7621     2.3448   101.6797
 3713.5000    22.2346   -48.6662     2.2249    99.1635
 3714.0000  -999.2500   -47.9926     2.1601    96.0144
 3714.5000  -999.2500   -48.3189     2.0952    88.4348
 3715.0000   -48.5403   -49.6790     2.0251    85.2857
 3715.5000  -999.2500  -999.2500     2.0359    81.5037
 3716.0000  -999.2500  -999.2500     2.0699    80.2533
 3716.5000    19.0856  -999.2500     2.2834    80.2690
 3717.0000    12.7066    20.2701     2.5041    80.3413
 3717.5000     6.3276    19.8234     2.5757    80.9335
 3718.0000     4.7005    19.9711     2.5430    80.9494
 3718.5000     7.5151    21.0552     2.5256    92.1903
 3719.0000     8.5631    22.4101     2.5248    94.2721
 3719.5000     7.9720    23.1088     2.5350    93.6524
 3720.0000     7.5250    23.3996     2.5319    93.6709
 3720.5000     8.1989    23.8041     2.5226    94.8916
 3721.0000     8.2637    27.1073     2.5303    97.5044
 3721.5000     8.2119    27.6106     2.5442    99.4843
 3722.0000     7.4111    27.9275     2.5535   105.1296
 3722.5000     7.0039    28.4928     2.5798   108.3096
 3723.0000     5.9430    29.4309     2.6122   109.5908
 3723.5000     5.3321    29.9341     2.6354   108.9734
 3724.0000     3.1286    27.9529     2.5898   102.6597
 3724.5000     1.8897    27.2086     2.5447    98.8776
 3725.0000     5.5837    27.0339     2.4995   100.1589
 3725.5000    10.1888  -999.2500     2.4640   105.2376
 3726.0000    12.7525  -999.2500     2.4406   105.8861
 3726.5000    14.4081   -49.4102     2.4235   104.5448
 3727.0000    20.6759  -999.2500     2.3921    99.2766
 3727.5000    24.2335  -999.2500     2.3274    94.6223
 3728.0000    24.5413   -48.3296     2.2626    93.2894
 3728.5000    25.3788   -48.8823     2.2442    92.6719
 3729.0000    26.2912   -49.6213     2.2288    92.6899
 3729.5000    26.4850    29.3902     2.2159    93.1889
 3730.0000    25.6291    27.9680     2.2261    96.7080
 3730.5000    24.6237  -999.2500     2.2550    99.3731
 3731.0000    22.2467  -999.2500     2.2839   100.3481
 3731.5000    22.9478   -48.6575     2.2704   101.3694
 3732.0000    23.3065   -49.1603     2.2967   101.8732
 3732.5000    24.3070   -49.9768     2.2688    99.1321
 3733.0000    25.2989   -50.2537     2.2178    96.6159
 3733.5000    25.8861   -50.1002     2.2132    95.9984
 3734.0000    23.5805   -49.4070     2.2258    96.6467
 3734.5000    19.7477   -49.4545     2.2496    97.9280
 3735.0000    15.4662   -49.9522     2.3476   101.7409
 3735.5000    11.1848    29.5046     2.4511   105.5563
 3736.0000     7.4087    29.5391     2.5299   110.1344
 3736.5000     6.4281   -50.2704     2.5516   113.1804
 3737.0000     5.8931   -49.8770     2.5781   113.0967
 3737.5000     5.3841   -49.3634     2.5991   110.9176
 3738.0000     2.0119   -49.1938     2.5902   108.1626
 3738.5000     4.7032   -49.9582     2.5510   108.3776
 3739.0000     7.9646    29.7624     2.5118   109.9216
 3739.5000    10.8202    29.5824     2.4726   110.4807
 3740.0000    11.6154    29.4163     2.4402   109.1982
 3740.5000     9.0883    26.4511     2.4715   106.6272
 3741.0000     5.9726    25.0650     2.5190   103.3795
 3741.5000     3.8613    24.9944     2.5885    96.8858
 3742.0000     4.1693    26.5118     2.5817    95.0025
 3742.5000     4.7222    27.5119     2.5738    93.1192
 3743.0000     5.9490    27.5804     2.5577    98.1979
 3743.5000     5.6443    28.0215     2.5529   102.4697
 3744.0000     4.2371    28.5247     2.5730   107.0895
 3744.5000     4.2577    28.4069     2.5663   109.6366
 3745.0000     5.4042    28.2888     2.5591   110.9178
 3745.5000     5.0901    28.2332     2.5582   109.6011
 3746.0000     5.1625    28.2398     2.5714   106.4088
 3746.5000     4.3963    28.1771     2.5760   105.2679
 3747.0000     4.2469    27.9517     2.5806   105.9177
 3747.5000     4.2489    27.0887     2.5914   105.7802
 3748.0000     3.8113    25.4285     2.6146   102.4886
 3748.5000     1.9571    25.0415     2.6083    95.1601
 3749.0000     1.8218    25.1354     2.5707    89.9071
 3749.5000     3.9401    25.6568     2.5330    89.4752
 3750.0000     6.0583    27.6708     2.4954    93.0370
 3750.5000     8.1766    28.6158     2.4578    97.5831
 3751.0000    10.8820    28.6640     2.4202   100.9841
 3751.5000    15.7027    26.8219     2.3826   103.5311
 3752.0000    19.1761    25.8344     2.3425   106.0782
 3752.5000    17.3747    25.8261     2.3579   108.6253
 3753.0000    12.6409    25.9713     2.3935   103.5774
 3753.5000     7.6286    25.1081     2.4526    97.8966
 3754.0000     6.6263    24.9130     2.5118    96.6462
 3754.5000     7.7101    25.3693     2.5437    96.6617
 3755.0000     8.5701    25.6273     2.5377   101.1888
 3755.5000     8.7478    25.8495     2.5145   110.0704
 3756.0000     8.6882    26.2584     2.5073   112.6077
 3756.5000     8.5673    26.1361     2.5057   113.1791
 3757.0000     7.5888    24.5236     2.5079   109.4660
 3757.5000     6.9779    23.6682     2.5189   103.1971
 3758.0000     6.9738    24.0572     2.5308    99.9342
 3758.5000     7.5325    24.6036     2.5316   104.3137
 3759.0000    10.3054    25.7333     2.4855   112.9953
 3759.5000    11.5364    26.8630     2.4628   117.9651
 3760.0000    12.0173    26.3739     2.4536   124.1762
 3760.5000    11.8651    25.8213     2.4520   128.9739
 3761.0000    11.5232    25.8276     2.5014   127.2496
 3761.5000     9.6636    25.8340     2.5107   122.8347
 3762.0000     6.8435    24.8412     2.5231   113.9893
 3762.5000     6.3668    23.7203     2.5339   110.8402
 3763.0000     5.9614    22.5611     2.5400   110.2215
 3763.5000     5.6468    22.0084     2.5494   109.6052
 3764.0000     5.2021    22.0198     2.5587   109.6207
 3764.5000     4.4289    22.6215     2.5635   111.5348
 3765.0000     3.8793    23.8145     2.5696   112.8165
 3765.5000     2.9621    25.3268     2.5746   112.7042
 3766.0000     0.7585    25.3375     2.5826   111.4852
