~VERSION INFORMATION
 VERS.               2.10:   CWLS LOG ASCII STANDARD - VERSION 2.10
 WRAP.                 NO:   ONE LINE PER DEPTH STEP
~WELL INFORMATION
#MNEM.UNIT      DATA TYPE    INFORMATION
#----------   ------------   ------------------------------
 STRT.F         2379.5000:   START DEPTH
 STOP.F         5659.0000:   STOP DEPTH
 STEP.F            0.5000:   STEP LENGTH
 NULL.          -999.2500:   NO VALUE
 COMP. Lawrence Allison and Asociates:   COMPANY
 WELL.            43 X 10:   WELL
 FLD .           N.P.R. 3:   FIELD
 LOC . 10-38N-78W-NATRONA-WY:   LOCATION
 STAT.                 WY:   STATE
 COUN.            Natrona:   COUNTY
 SRVC.      Dresser Atlas:   SERVICE COMPANY
 DATE.                   :   LOGDATE
 APIN.         4902511207:   API NUMBER
~CURVE INFORMATION
#MNEM.UNIT       API CODE    CURVE DESCRIPTION
#----------   ------------   ------------------------------
 DEPT.F                  :
 DPHI.none   42 890 12 00:   Den. Porosity, Ss [%]
 CNL .none               :   Compensated Neutron Log
 RHOB.gm/cc  42 350 01 00:   Bulk Density
 GR  .GAPI   42 310 00 00:   Gamma Ray
~PARAMETER INFORMATION
#MNEM.UNIT          VALUE    DESCRIPTION
#----------   ------------   ------------------------------
 EKB .F         5215.0000:   Kelly bushing
 EGL .F         5203.0000:   Ground level
 EDF .F            0.0000:   Drilling floor
 EPD .F           10.0000:   Permanent datum
 TD  .F         3268.0000:   Total depth
 NRUN.             1.0000:   Number of Runs
#--RUN 1---   ------------   The following are for Run 1---
 RUN .             1.0000:   Run 1
 DATE.mm/dd/yyyy 02/19/1985:   Date Logged
 DD  .ft             5650:   Depth Driller
 DL  .ft             5649:   Depth Logger
 BLI .ft             5647:   Bottom Log Interval
 TLI .ft             2400:   Top Log Interval
 CSS .inch          9.625:   Casing Size
 CTD1.ft              510:   Casing Driller 1
 CTL1.ft       not logged:   Casing Logger 1
 BS  .inch            8.5:   Bit Size
 DFT .            kcl gel:   Type Fluid In Hole
 DFD .lb/gal          9.5:   Mud Weight
 DFV .sec              44:   Viscosity
 DFPH.                8.5:   pH
 DFL .cc              9.0:   Fluid Loss
 WSS .           flowline:   Source Of Sample
 RM  .ohmm            .32:   Rm
 EMT .F                74:   Rm Meas. Temp.
 RMF .ohmm            .26:   Rmf
 MFT .F                74:   Rmf Meas. Temp.
 RMC .ohmm            .40:   Rmc
 MCST.F                74:   Rmc Meas. Temp.
 MFSS.               meas:   Source Rmf.
 MCSS.               calc:   Source Rmc.
 RMB .ohmm            .14:   Rm. At BHT
 BHT .F               164:   BHT.
 TCS .hh:mm         8 hrs:   Time Circ. Stopped
 MRT .F               170:   Maximum Recorded Temp.
 LUL .               Glte:   Logging Unit Location
 ENGI.               Hack:   Recorded By
 WITN.         Mr. Strong:   Witnessed By
 DGBY.              Burke:   Digitized By
~A  DEPTH     DPHI        CNL       RHOB         GR
# ...
 2598.5000    12.5062    18.9618     2.4406    73.8329
 2599.0000    12.9367    18.5551     2.4365    73.1509
 2599.5000    13.3673    18.5047     2.4305    72.4688
 2600.0000    12.5700    18.9243     2.4258    72.7936
 2600.5000    11.7432    18.8112     2.4181    71.2238
 2601.0000    10.9164    18.6095     2.4223    71.6836
 2601.5000    10.0896    18.8046     2.4720    74.4665
 2602.0000     9.6467    18.8613     2.4803    78.3000
 2602.5000     9.7519    18.4696     2.4830    77.7532
 2603.0000     9.9234    18.3959     2.4814    79.4141
 2603.5000    10.0257    18.5401     2.4814    77.4629
 2604.0000     9.9363    17.9853     2.4829    77.4104
 2604.5000     9.7522    17.3063     2.4876    78.6237
 2605.0000     9.5473    16.9337     2.4906    83.0015
 2605.5000     9.5330    16.9810     2.4906    82.3161
 2606.0000     9.7382    17.6107     2.4875    80.9977
 2606.5000    10.0481    18.1765     2.4829    77.1477
 2607.0000    10.2354    18.5470     2.4783    73.9114
 2607.5000    10.1777    18.6358     2.4784    73.2452
 2608.0000    10.0587    17.9917     2.4816    77.7546
 2608.5000    10.0753    17.8675     2.4829    80.4905
 2609.0000    10.4754    17.8422     2.4788    83.9709
 2609.5000    10.9093    17.9715     2.4696    85.0604
 2610.0000    11.1143    18.0999     2.4629    84.1772
 2610.5000    10.8453    17.7315     2.4589    82.6070
 2611.0000     9.8087    17.1767     2.4705    79.0772
 2611.5000     9.4100    16.8703     2.4905    77.5252
 2612.0000     9.9265    17.1892     2.4797    78.4557
 2612.5000    11.2564    17.7587     2.4689    79.3778
 2613.0000    11.4437    17.9391     2.4596    81.2532
 2613.5000    11.0185    17.8397     2.4581    84.6234
 2614.0000    10.8996    17.6190     2.4613    85.8272
 2614.5000    11.0256    17.6867     2.4642    86.4146
 2615.0000    11.0292    17.9213     2.4627    84.4563
 2615.5000    10.5381    18.0543     2.4635    84.4038
 2616.0000     9.7499    18.1872     2.4741    86.2500
 2616.5000     9.8239    18.5914     2.4818    89.9949
 2617.0000    10.0765    19.4031     2.4797    93.1070
 2617.5000    10.2849    20.1270     2.4757   100.1266
 2618.0000    10.6848    21.7061     2.4719   108.5599
 2618.5000    11.1058    22.2965     2.4580   116.4411
 2619.0000    11.9087    20.8903     2.4441   111.4298
 2619.5000    12.6919    19.4290     2.4348   101.7254
 2620.0000    11.3116    18.0124     2.4518    92.0210
 2620.5000    10.7638    17.4822     2.4704    82.3166
 2621.0000    10.3999    17.2628     2.4813    73.8633
 2621.5000    10.0359    17.6421     2.4854    73.0031
 2622.0000     9.1206    18.1309     2.4994    76.2532
 2622.5000     7.7153    17.9959     2.5196    80.8123
 2623.0000     7.7189    17.3639     2.5275    80.0842
 2623.5000     7.9198    17.1609     2.5188    79.7396
 2624.0000     8.3534    17.7249     2.5089    80.3200
 2624.5000     8.4649    17.9775     2.5104    84.0649
 2625.0000     8.5299    18.0438     2.5120    82.7466
 2625.5000     9.1708    17.9857     2.4811    79.5295
 2626.0000    10.0539    17.9901     2.4749    78.2112
 2626.5000    10.3106    17.9943     2.4702    76.8928
 2627.0000    10.5372    17.7362     2.4671    73.6757
 2627.5000    10.8238    17.5569     2.4640    69.1928
 2628.0000    11.0028    17.5100     2.4642    67.8745
 2628.5000    10.2713    17.9898     2.4818    73.0519
 2629.0000     7.8859    18.5731     2.5131    76.0804
 2629.5000     7.4603    18.9189     2.5196    69.8924
 2630.0000     8.0155    18.8572     2.5153    65.3171
 2630.5000     8.9991    18.5269     2.4965    61.5525
 2631.0000     9.9921    18.4062     2.4877    60.1705
 2631.5000    10.6107    18.4111     2.4748    59.0291
 2632.0000    10.8576    18.4774     2.4655    57.6791
 2632.5000    10.9740    18.6058     2.4639    56.6297
 2633.0000     9.8088    18.6721     2.4717    57.5399
 2633.5000     8.3175    18.4251     2.4918    62.7595
 2634.0000     7.9222    18.1837     2.5041    69.7495
 2634.5000     8.0762    18.3124     2.5149    70.9628
 2635.0000     8.7167    18.3168     2.5112    72.8090
 2635.5000    10.2616    18.3832     2.5013    72.1236
 2636.0000    11.1228    18.5192     2.4737    73.9698
 2636.5000    11.9227    19.2475     2.4535    78.3476
 2637.0000    11.9875    19.5143     2.4506    78.2951
 2637.5000    11.5622    19.5186     2.4546    78.2426
 2638.0000    10.8920    19.4609     2.4625    78.1899
 2638.5000    10.7730    19.4658     2.4685    78.8038
 2639.0000    10.9079    19.6563     2.4654    80.0463
 2639.5000    11.0867    19.7848     2.4623    80.6563
 2640.0000    11.0287    19.9132     2.4654    82.6582
 2640.5000    11.0815    19.9174     2.4638    84.2565
 2641.0000    11.9143    19.8595     2.4576    81.4770
 2641.5000    11.9590    19.7308     2.4514    80.1266
 2642.0000    12.0239    19.5933     2.4514    78.7763
 2642.5000    12.2175    19.2609     2.4495    77.7791
 2643.0000    12.5220    18.9855     2.4448    74.8228
 2643.5000    12.5256    19.1265     2.4421    69.9551
 2644.0000    12.4679    19.2952     2.4421    68.0506
 2644.5000    12.4102    19.3932     2.4437    69.2531
 2645.0000    12.2300    19.2120     2.4452    70.4664
 2645.5000    10.3346    18.7193     2.4483    73.5784
 2646.0000     8.1330    17.9781     2.4560    76.0575
 2646.5000     7.5852    17.7339     2.4699    79.1695
 2647.0000     7.6839    17.8002     2.4838    81.6487
 2647.5000     8.5899    18.5497     2.5178    82.8620
 2648.0000     9.8605    18.9921     2.5077    83.4430
 2648.5000    10.2101    19.0550     2.4821    83.3753
 2649.0000    10.5960    18.7630     2.4789    81.9810
 2649.5000    11.1444    17.5342     2.4702    80.6753
 2650.0000    12.9402    17.0179     2.4549    78.5873
 2650.5000    13.2236    17.1723     2.4324    75.1709
 2651.0000    12.4582    17.3673     2.4281    70.5937
 2651.5000    11.4226    17.3369     2.4384    67.2519
 2652.0000     9.7978    16.2887     2.4837    69.1392
 2652.5000     8.1731    15.0152     2.5023    71.8247
 2653.0000     6.5483    13.8968     2.5146    72.1456
 2653.5000     4.9416    13.7571     2.5332    70.5063
 2654.0000     4.5776    14.0249     2.5564    66.2062
 2654.5000     4.9033    14.5741     2.5687    63.1130
 2655.0000     5.4979    16.1390     2.5610    70.0224
 2655.5000     7.1145    18.0443     2.5213    76.2990
 2656.0000     8.7311    19.0178     2.4947    76.2465
 2656.5000     9.6847    19.2021     2.4843    75.5611
 2657.0000    10.5084    19.3350     2.4779    74.8756
 2657.5000    11.1051    19.6398     2.4706    74.1902
 2658.0000    11.1610    19.7250     2.4666    72.2389
 2658.5000    11.0092    19.8580     2.4675    71.5462
 2659.0000    10.5137    20.0791     2.4759    74.0551
 2659.5000     9.1990    19.8970     2.5084    76.5117
 2660.0000     8.3052    19.2801     2.5130    76.3715
 2660.5000     9.2068    18.1041     2.5037    75.0214
 2661.0000    10.0816    18.2947     2.4790    72.8924
 2661.5000    10.5139    18.6715     2.4681    70.2449
 2662.0000    11.0075    19.1735     2.4635    69.2871
 2662.5000    10.8886    19.3686     2.4838    73.7342
 2663.0000     8.6257    19.4295     2.5055    76.6684
 2663.5000     7.7717    19.1852     2.5191    81.0323
 2664.0000     8.2653    19.2886     2.5032    81.3924
 2664.5000     9.0166    19.3807     2.4876    78.6886
 2665.0000     9.4723    19.3313     2.4884    72.7431
 2665.5000     9.6848    18.8912     2.5206    68.2602
 2666.0000     9.1996    18.5507     2.5144    65.6760
 2666.5000     8.5638    18.6535     2.5113    64.9906
 2667.0000     8.2866    18.0987     2.5113    60.5077
 2667.5000     7.9519    16.8100     2.5252    56.6577
 2668.0000     7.0053    15.7469     2.5391    47.1115
 2668.5000     5.6467    15.6267     2.5517    45.1602
 2669.0000     5.3953    15.9416     2.5609    47.0139
 2669.5000     5.9172    16.9093     2.5367    52.8882
 2670.0000     6.5946    17.6290     2.5314    80.3165
 2670.5000     7.0269    18.6301     2.5334    88.8046
 2671.0000     6.9692    19.5334     2.5366    91.2196
