~VERSION INFORMATION
 VERS.               2.10:   CWLS LOG ASCII STANDARD - VERSION 2.10
 WRAP.                 NO:   ONE LINE PER DEPTH STEP
~WELL INFORMATION
#MNEM.UNIT      DATA TYPE    INFORMATION
#----------   ------------   ------------------------------
 STRT.F         2379.5000:   START DEPTH
 STOP.F         5659.0000:   STOP DEPTH
 STEP.F            0.5000:   STEP LENGTH
 NULL.          -999.2500:   NO VALUE
 COMP. Lawrence Allison and Asociates:   COMPANY
 WELL.            43 X 10:   WELL
 FLD .           N.P.R. 3:   FIELD
 LOC . 10-38N-78W-NATRONA-WY:   LOCATION
 STAT.                 WY:   STATE
 COUN.            Natrona:   COUNTY
 SRVC.      Dresser Atlas:   SERVICE COMPANY
 DATE.                   :   LOGDATE
 APIN.         4902511207:   API NUMBER
~CURVE INFORMATION
#MNEM.UNIT       API CODE    CURVE DESCRIPTION
#----------   ------------   ------------------------------
 DEPT.F                  :
 DPHI.none   42 890 12 00:   Den. Porosity, Ss [%]
 CNL .none               :   Compensated Neutron Log
 RHOB.gm/cc  42 350 01 00:   Bulk Density
 GR  .GAPI   42 310 00 00:   Gamma Ray
~PARAMETER INFORMATION
#MNEM.UNIT          VALUE    DESCRIPTION
#----------   ------------   ------------------------------
 EKB .F         5215.0000:   Kelly bushing
 EGL .F         5203.0000:   Ground level
 EDF .F            0.0000:   Drilling floor
 EPD .F           10.0000:   Permanent datum
 TD  .F         3268.0000:   Total depth
 NRUN.             1.0000:   Number of Runs
#--RUN 1---   ------------   The following are for Run 1---
 RUN .             1.0000:   Run 1
 DATE.mm/dd/yyyy 02/19/1985:   Date Logged
 DD  .ft             5650:   Depth Driller
 DL  .ft             5649:   Depth Logger
 BLI .ft             5647:   Bottom Log Interval
 TLI .ft             2400:   Top Log Interval
 CSS .inch          9.625:   Casing Size
 CTD1.ft              510:   Casing Driller 1
 CTL1.ft       not logged:   Casing Logger 1
 BS  .inch            8.5:   Bit Size
 DFT .            kcl gel:   Type Fluid In Hole
 DFD .lb/gal          9.5:   Mud Weight
 DFV .sec              44:   Viscosity
 DFPH.                8.5:   pH
 DFL .cc              9.0:   Fluid Loss
 WSS .           flowline:   Source Of Sample
 RM  .ohmm            .32:   Rm
 EMT .F                74:   Rm Meas. Temp.
 RMF .ohmm            .26:   Rmf
 MFT .F                74:   Rmf Meas. Temp.
 RMC .ohmm            .40:   Rmc
 MCST.F                74:   Rmc Meas. Temp.
 MFSS.               meas:   Source Rmf.
 MCSS.               calc:   Source Rmc.
 RMB .ohmm            .14:   Rm. At BHT
 BHT .F               164:   BHT.
 TCS .hh:mm         8 hrs:   Time Circ. Stopped
 MRT .F               170:   Maximum Recorded Temp.
 LUL .               Glte:   Logging Unit Location
 ENGI.               Hack:   Recorded By
 WITN.         Mr. Strong:   Witnessed By
 DGBY.              Burke:   Digitized By
~A  DEPTH     DPHI        CNL       RHOB         GR
# ...
 4277.5000     5.6495    16.2694     2.5591    37.3995
 4278.0000     5.6866    15.0280     2.5540    36.1599
 4278.5000     5.8794    14.7778     2.5482    34.2873
 4279.0000     6.1335    14.7189     2.5467    33.6804
 4279.5000     6.2105    14.5864     2.5467    32.4135
 4280.0000     6.2129    13.5402     2.5482    31.2012
 4280.5000     6.2492    12.9810     2.5396    31.2294
 4281.0000     7.0145    12.4909     2.5336    31.8892
 4281.5000     7.1393    11.9629     2.5327    32.5490
 4282.0000     7.0192    11.5046     2.5360    31.9621
 4282.5000     6.1639    11.4325     2.5435    28.9579
 4283.0000     5.4312    11.5276     2.5528    29.3824
 4283.5000     4.2084    11.8870     2.5652    32.0008
 4284.0000     3.9045    12.6150     2.5729    37.6200
 4284.5000     3.8456    14.2307     2.5822    43.3625
 4285.0000     3.7178    14.7905     2.5883    49.1051
 4285.5000     3.2814    15.4745     2.5883    54.8477
 4286.0000     2.6706    15.6616     2.5978    59.9264
 4286.5000     2.5074    15.8486     2.6053    62.8769
 4287.0000     2.8956    15.7873     2.6035    62.2448
 4287.5000     3.3279    15.2290     2.6019    60.0922
 4288.0000     3.3724    15.5572     2.5991    59.4810
 4288.5000     3.1331    16.0842     2.6063    59.5116
 4289.0000     1.7188    17.3944     2.6179    60.8036
 4289.5000     0.5583    19.0265     2.6259    64.6273
 4290.0000     0.4060    20.6587     2.6323    70.7827
 4290.5000     0.3387    21.8176     2.6417    77.5026
 4291.0000     1.0596    22.0047     2.6346    80.9436
 4291.5000     1.1844    22.0054     2.6346    81.8162
 4292.0000     0.9417    22.3650     2.6361    81.2152
 4292.5000     1.0053    23.0420     2.6330    79.6522
 4293.0000     1.1302    23.7190     2.6222    83.1692
 4293.5000     1.3163    24.3960     2.5959    85.0941
 4294.0000     3.0995    25.0731     2.5928    86.3861
 4294.5000     3.5263    25.7501     2.5897    89.0768
 4295.0000     3.5287    26.4271     2.5897    92.9062
 4295.5000     3.7128    27.1239     2.5771    96.0644
 4296.0000     4.2074    28.4547     2.5758    96.6174
 4296.5000     4.2098    28.6153     2.5773    95.3777
 4297.0000     4.2331    28.2583     2.5773    96.0368
 4297.5000     4.2754    26.3380     2.5794    93.6787
 4298.0000     4.1894    25.5957     2.5826    91.1028
 4298.5000     4.0045    25.5576     2.5835    90.4256
 4299.0000     3.7588    26.5688     2.5859    92.4213
 4299.5000     3.6121    27.8565     2.5912    94.2820
 4300.0000     3.6145    28.0436     2.5881    95.5732
 4300.5000     4.5852    25.9326     2.5800   100.0252
 4301.0000     4.9773    25.0016     2.5705   100.6796
 4301.5000     5.2013    24.6297     2.5612   100.7012
 4302.0000     5.4599    24.3820     2.5567   101.3557
 4302.5000     5.9778    23.7617     2.5504    99.4785
 4303.0000     6.1655    23.0171     2.5536    97.6013
 4303.5000     5.8018    21.1905     2.5599    89.9332
 4304.0000     5.9895    19.9685     2.5562    81.0448
 4304.5000     5.9933    18.9064     2.5545    67.8587
 4305.0000     5.7522    17.8443     2.5536    58.4506
 4305.5000     5.7561    16.7822     2.5559    52.1431
 4306.0000     5.8825    15.6690     2.5563    51.5316
 4306.5000     6.0089    14.5651     2.5472    50.9204
 4307.0000     5.9515    14.0021     2.5502    50.9430
 4307.5000     5.7535    13.6784     2.5579    51.0656
 4308.0000     4.8275    13.9290     2.5640    52.3879
 4308.5000     4.4544    14.2504     2.5733    53.7115
 4309.0000     4.0200    14.6414     2.5794    54.8291
 4309.5000     3.7888    14.8906     2.5855    54.3734
 4310.0000     3.6253    15.0777     2.5901    53.6076
 4310.5000     3.6773    15.2648     2.5901    53.6297
 4311.0000     3.7170    15.6383     2.5885    53.6519
 4311.5000     3.6891    15.8875     2.5920    55.5275
 4312.0000     3.4971    16.1988     2.5984    57.9340
 4312.5000     2.9333    16.4480     2.6081    60.6835
 4313.0000     1.9571    16.6385     2.6114    60.7051
 4313.5000     2.1448    16.8289     2.6027    60.0937
 4314.0000     2.8837    16.9572     2.5969    60.7482
 4314.5000     3.2552    17.1607     2.5958    61.4019
 4315.0000     3.2659    17.5781     2.5987    62.2578
 4315.5000     2.9566    18.0874     2.6019    63.8152
 4316.0000     3.2668    18.1768     2.5933    65.8058
 4316.5000     3.6432    18.7872     2.5919    70.0463
 4317.0000     3.5702    19.5810     2.5955    67.7960
 4317.5000     3.2529    19.8306     2.6001    66.9725
 4318.0000     3.0259    19.1787     2.6032    71.0544
 4318.5000     2.9504    19.0039     2.6046    71.7089
 4319.0000     2.7388    19.1911     2.6030    70.4647
 4319.5000     2.9912    19.5645     2.6014    68.5875
 4320.0000     3.2374    20.1864     2.5983    68.5226
 4320.5000     3.1583    20.8704     2.5967    73.0610
 4321.0000     2.9391    21.0575     2.6029    77.5129
 4321.5000     3.0383    21.1204     2.6043    78.8003
 4322.0000     3.6828    20.6175     2.5957    76.8147
 4322.5000     3.9930    19.9998     2.5869    75.6789
 4323.0000     4.0581    20.0892     2.5856    77.7258
 4323.5000     3.8783    20.6078     2.5860    77.6207
 4324.0000     3.8205    21.0987     2.5917    77.2567
 4324.5000     3.9473    22.4815     2.5874    72.9552
 4325.0000     3.9512    22.8027     2.5838    70.4648
 4325.5000     3.8325    22.5692     2.5868    70.4158
 4326.0000     3.7115    22.3075     2.5907    73.6716
 4326.5000     3.5340    22.3389     2.5930    78.4920
 4327.0000     3.8060    22.7613     2.5883    79.6811
 4327.5000     4.3708    23.5522     2.5743    79.0698
 4328.0000     4.6626    23.5743     2.5738    76.5597
 4328.5000     4.7139    23.6158     2.5819    76.5812
 4329.0000     4.4734    24.1756     2.5757    81.0332
 4329.5000     4.3536    25.6670     2.5648    81.0547
 4330.0000     4.5951    26.2889     2.5648    81.0763
 4330.5000     4.8542    26.3517     2.5678    81.1121
 4331.0000     4.4187    25.5450     2.5801    81.8014
 4331.5000     3.2104    24.7704     2.5944    82.4068
 4332.0000     2.6598    23.3447     2.6078    79.8967
 4332.5000     2.4187    22.8766     2.6078    78.6525
 4333.0000     2.6676    22.9394     2.6062    78.6772
 4333.5000     2.8552    23.0379     2.6046    81.6758
 4334.0000     2.6141    23.1896     2.6050    82.5146
 4334.5000     2.4342    23.5630     2.6096    79.3766
 4335.0000     2.1931    24.6818     2.6106    78.7658
 4335.5000     2.2584    27.4776     2.6061    80.1438
 4336.0000     2.6529    27.6123     2.5929    82.6116
 4336.5000     3.6904    27.3549     2.5786    82.6332
 4337.0000     4.5557    25.4923     2.5733    82.6547
 4337.5000     4.7984    25.0582     2.5809    82.0434
 4338.0000     4.8503    24.9868     2.5814    82.0649
 4338.5000     4.4867    24.6871     2.5747    81.4536
 4339.0000     5.1537    24.7078     2.5591    81.4751
 4339.5000     5.4753    25.4166     2.5606    82.7855
 4340.0000     5.4507    27.1739     2.5637    87.9320
 4340.5000     5.2336    27.1152     2.5698    89.8454
 4341.0000     4.7698    26.7565     2.5759    91.8017
 4341.5000     4.5119    26.5195     2.5805    92.3449
 4342.0000     4.5552    27.0135     2.5820    92.3671
 4342.5000     4.3972    27.4926     2.5802    92.1724
 4343.0000     4.1560    27.6498     2.5750    90.6433
 4343.5000     5.0787    27.6986     2.5692    88.3501
 4344.0000     4.9601    26.2486     2.5679    82.6323
 4344.5000     4.6577    26.6220     2.5703    80.8077
 4345.0000     4.2328    26.6849     2.5771    85.5421
 4345.5000     3.9896    26.1266     2.5887    86.8295
 4346.0000     3.7454    26.2516     2.5962    87.0209
 4346.5000     3.5540    26.4387     2.5962    88.1384
 4347.0000     3.3678    26.1835     2.5914    90.0587
 4347.5000     3.4712    24.5645     2.5922    88.8145
 4348.0000     3.5828    24.3068     2.5968    87.5702
 4348.5000     3.4219    24.1436     2.5998    86.3247
 4349.0000     3.0162    24.3871     2.6044    85.0817
 4349.5000     2.6486    24.8360     2.6075    86.4401
 4350.0000     2.8329    25.6795     2.6012    87.0235
