~VERSION INFORMATION
 VERS.               2.10:   CWLS LOG ASCII STANDARD - VERSION 2.10
 WRAP.                 NO:   ONE LINE PER DEPTH STEP
~WELL INFORMATION
#MNEM.UNIT      DATA TYPE    INFORMATION
#----------   ------------   ------------------------------
 STRT.F         2379.5000:   START DEPTH
 STOP.F         5659.0000:   STOP DEPTH
 STEP.F            0.5000:   STEP LENGTH
 NULL.          -999.2500:   NO VALUE
 COMP. Lawrence Allison and Asociates:   COMPANY
 WELL.            43 X 10:   WELL
 FLD .           N.P.R. 3:   FIELD
 LOC . 10-38N-78W-NATRONA-WY:   LOCATION
 STAT.                 WY:   STATE
 COUN.            Natrona:   COUNTY
 SRVC.      Dresser Atlas:   SERVICE COMPANY
 DATE.                   :   LOGDATE
 APIN.         4902511207:   API NUMBER
~CURVE INFORMATION
#MNEM.UNIT       API CODE    CURVE DESCRIPTION
#----------   ------------   ------------------------------
 DEPT.F                  :
 DPHI.none   42 890 12 00:   Den. Porosity, Ss [%]
 CNL .none               :   Compensated Neutron Log
 RHOB.gm/cc  42 350 01 00:   Bulk Density
 GR  .GAPI   42 310 00 00:   Gamma Ray
~PARAMETER INFORMATION
#MNEM.UNIT          VALUE    DESCRIPTION
#----------   ------------   ------------------------------
 EKB .F         5215.0000:   Kelly bushing
 EGL .F         5203.0000:   Ground level
 EDF .F            0.0000:   Drilling floor
 EPD .F           10.0000:   Permanent datum
 TD  .F         3268.0000:   Total depth
 NRUN.             1.0000:   Number of Runs
#--RUN 1---   ------------   The following are for Run 1---
 RUN .             1.0000:   Run 1
 DATE.mm/dd/yyyy 02/19/1985:   Date Logged
 DD  .ft             5650:   Depth Driller
 DL  .ft             5649:   Depth Logger
 BLI .ft             5647:   Bottom Log Interval
 TLI .ft             2400:   Top Log Interval
 CSS .inch          9.625:   Casing Size
 CTD1.ft              510:   Casing Driller 1
 CTL1.ft       not logged:   Casing Logger 1
 BS  .inch            8.5:   Bit Size
 DFT .            kcl gel:   Type Fluid In Hole
 DFD .lb/gal          9.5:   Mud Weight
 DFV .sec              44:   Viscosity
 DFPH.                8.5:   pH
 DFL .cc              9.0:   Fluid Loss
 WSS .           flowline:   Source Of Sample
 RM  .ohmm            .32:   Rm
 EMT .F                74:   Rm Meas. Temp.
 RMF .ohmm            .26:   Rmf
 MFT .F                74:   Rmf Meas. Temp.
 RMC .ohmm            .40:   Rmc
 MCST.F                74:   Rmc Meas. Temp.
 MFSS.               meas:   Source Rmf.
 MCSS.               calc:   Source Rmc.
 RMB .ohmm            .14:   Rm. At BHT
 BHT .F               164:   BHT.
 TCS .hh:mm         8 hrs:   Time Circ. Stopped
 MRT .F               170:   Maximum Recorded Temp.
 LUL .               Glte:   Logging Unit Location
 ENGI.               Hack:   Recorded By
 WITN.         Mr. Strong:   Witnessed By
 DGBY.              Burke:   Digitized By
~A  DEPTH     DPHI        CNL       RHOB         GR
# ...
 5153.5000    -5.8608    21.2546     2.7523    78.0262
 5154.0000    -6.1509    21.7554     2.7491    80.3291
 5154.5000    -5.8788    21.8751     2.7258    80.6709
 5155.0000    -4.9799    21.8175     2.7254    80.0000
 5155.5000    -4.6272    20.8282     2.7396    80.9430
 5156.0000    -5.7319    19.8708     2.7472    81.8228
 5156.5000    -5.9166    18.6650     2.7379    81.7783
 5157.0000    -5.9176    17.4592     2.7208    79.8425
 5157.5000    -5.3060    16.4365     2.6960    76.6409
 5158.0000    -4.4494    15.8199     2.7054    74.0723
 5158.5000    -2.6127    15.3275     2.7177    67.0732
 5159.0000    -2.3073    15.3323     2.7221    63.2387
 5159.5000    -2.8264    15.4980     2.7220    61.9358
 5160.0000    -3.5588    16.0250     2.7219    60.6329
 5160.5000    -3.8885    16.7140     2.7241    61.8617
 5161.0000    -4.3018    17.5627     2.7326    61.8228
 5161.5000    -4.4561    17.8001     2.7549    60.9616
 5162.0000    -4.3346    17.8438     2.8264    58.9615
 5162.5000    -4.8922    15.9152     2.8688    52.6883
 5163.0000    -7.4477     8.1041     2.9363    47.1247
 5163.5000  -999.2500     3.3248     2.9455    33.6681
 5164.0000  -999.2500     3.1430     2.9454    24.5063
 5164.5000  -999.2500     3.1475     2.9469    15.3228
 5165.0000  -999.2500     3.0899     2.9638     7.4051
 5165.5000  -999.2500     3.2189     2.9792     6.0696
 5166.0000  -999.2500     3.2953     2.9790     5.1065
 5166.5000  -999.2500     3.4146     2.9704     4.4366
 5167.0000  -999.2500     3.6375     2.9516     2.5008
 5167.5000  -999.2500     4.0788     2.8757     3.0966
 5168.0000  -999.2500     6.0567     2.7562     4.3254
 5168.5000  -999.2500     8.7135     2.6366    13.1491
 5169.0000  -999.2500    11.2342     2.4964    18.8083
 5169.5000     6.7069    11.5904     2.5352    22.5687
 5170.0000     9.2723    11.6460     2.6867    25.6962
 5170.5000     4.9121     9.9655     2.8548    23.6644
 5171.0000    -0.1655     8.7132     2.8825    20.5569
 5171.5000    -5.2430     7.9323     2.8809    19.8861
 5172.0000  -999.2500     9.8589     2.8344    19.2152
 5172.5000  -999.2500    12.1571     2.7957    24.3987
 5173.0000  -999.2500    14.4553     2.7246    44.3924
 5173.5000  -999.2500    16.7536     2.7010    49.5127
 5174.0000    -6.0909    18.2050     2.6855    53.6203
 5174.5000    -4.0400    18.6444     2.6826    59.4695
 5175.0000    -2.0329    18.3379     2.6825    60.7595
 5175.5000    -1.4213    16.7302     2.6967    59.3910
 5176.0000    -2.1055    13.0224     2.7557    54.9799
 5176.5000    -4.6064     9.3147     2.8358    44.2087
 5177.0000    -6.9586     5.6069     2.9157    30.8231
 5177.5000    -9.3108     3.8474     2.9343    17.4375
 5178.0000  -999.2500     3.5351     2.9437     7.9963
 5178.5000  -999.2500     3.3469     2.9734     6.6934
 5179.0000  -999.2500     3.2514     2.9756     5.3905
 5179.5000  -999.2500     3.4176     2.9630     4.0877
 5180.0000  -999.2500     3.9761     2.9364     4.0506
 5180.5000  -999.2500     4.9123     2.8740     7.9367
 5181.0000  -999.2500     9.3911     2.8117    15.9367
 5181.5000  -999.2500    14.7868     2.7494    44.6329
 5182.0000  -999.2500    20.1825     2.7265    47.1899
 5182.5000    -6.1521    22.8800     2.7246    48.3228
 5183.0000    -4.0704    21.9082     2.7283    48.9497
 5183.5000    -3.9363    21.7090     2.7212    51.7301
 5184.0000    -4.3174    21.8998     2.7105    56.2810
 5184.5000    -3.7058    20.8250     2.7099    59.9747
 5185.0000    -3.2167    19.9731     2.7165    62.8475
 5185.5000    -3.2265    16.1894     2.7319    63.4120
 5186.0000    -4.4246    11.7635     2.8586    49.7901
 5186.5000    -6.7035     7.2036     2.8621    40.9501
 5187.0000  -999.2500     7.3323     2.8087    29.9644
 5187.5000  -999.2500     8.1006     2.7068    20.6760
 5188.0000  -999.2500     9.6154     2.6048    26.2215
 5188.5000  -999.2500    11.6711     2.5029    39.2355
 5189.0000  -999.2500    13.7269     2.3867    43.5987
 5189.5000  -999.2500    15.7826     2.4192    41.9296
 5190.0000  -999.2500    17.8384     2.4570    34.2976
 5190.5000  -999.2500    19.8941     2.4978    28.5644
 5191.0000  -999.2500    22.2149     2.2858    27.2615
 5191.5000  -999.2500    21.1635     2.0107    27.8574
 5192.0000     1.4533    20.4227     2.0060    28.4532
 5192.5000    -2.1212    20.7999     2.0720    33.4795
 5193.0000    -5.6958    22.6678     2.2189    37.8728
 5193.5000    -9.9719    23.1693     2.3657    41.0101
 5194.0000  -999.2500    23.2980     2.4007    42.3116
 5194.5000  -999.2500    20.7828     2.3904    44.9422
 5195.0000  -999.2500    18.0613     2.4030    48.6937
 5195.5000  -999.2500    14.9753     2.4759    51.5266
 5196.0000  -999.2500    13.6268     2.5488    56.5078
 5196.5000  -999.2500    14.1371     2.5989    61.4253
 5197.0000  -999.2500    14.8832     2.6020    64.3836
 5197.5000  -999.2500    15.1320     2.6110    64.1139
 5198.0000  -999.2500    15.3464     2.7114    61.9235
 5198.5000  -999.2500    16.2662     2.7269    57.3601
 5199.0000  -999.2500    17.4869     2.7183    55.4132
 5199.5000  -999.2500    17.1391     2.7023    53.8284
 5200.0000  -999.2500    17.0182     2.6694    56.1181
 5200.5000    -1.0423    17.1697     2.6812    63.5779
 5201.0000    -2.2039    17.4525     2.7185    72.1562
 5201.5000    -3.7112    17.6153     2.7299    77.1089
 5202.0000    -5.3968    17.1163     2.7488    77.9745
 5202.5000    -6.2080    13.7329     2.7746    74.4866
 5203.0000    -7.7068     9.7328     2.8282    63.6255
 5203.5000    -9.4580     7.3872     2.9038    50.2740
 5204.0000  -999.2500     6.9762     2.9146    36.9225
 5204.5000  -999.2500     7.2911     2.8944    26.5506
 5205.0000  -999.2500     8.1857     2.8603    27.2777
 5205.5000  -999.2500    10.1498     2.8417    40.0817
 5206.0000  -999.2500    12.9589     2.8308    47.6397
 5206.5000  -999.2500    13.1035     2.8060    48.2357
 5207.0000  -999.2500    13.1089     2.7827    50.7304
 5207.5000    -7.0532    12.8862     2.7703    55.7567
 5208.0000    -6.3049    12.1520     2.7593    59.5173
 5208.5000    -5.5862    11.5954     2.7530    63.2778
 5209.0000    -6.0686    11.3494     2.7500    63.8738
 5209.5000    -6.7741    11.1655     2.7592    63.7870
 5210.0000    -8.1273    10.7331     2.8021    61.4785
 5210.5000    -9.3633     9.8659     2.8161    49.5451
 5211.0000  -999.2500     8.7503     2.8983    36.9953
 5211.5000  -999.2500     7.4312     2.9293    30.8865
 5212.0000  -999.2500     5.9605     2.9626    22.5786
 5212.5000  -999.2500     4.9586     2.9755    14.1872
 5213.0000  -999.2500     5.1579     2.9835     9.1735
 5213.5000  -999.2500     6.0299     2.9749     7.8354
 5214.0000  -999.2500     7.9194     2.9466     8.1693
 5214.5000  -999.2500     9.8543     2.9000    23.5757
 5215.0000  -999.2500    11.7891     2.8456    35.5453
 5215.5000  -999.2500    13.7240     2.7911    54.0594
 5216.0000    -2.4445    15.5156     2.7360    72.5735
 5216.5000    -0.9272    16.0021     2.6909    78.8330
 5217.0000    -0.8025    16.0472     2.6788    79.7215
 5217.5000    -1.2051    12.5688     2.7046    78.4113
 5218.0000    -2.5543     5.1828     2.8838    67.3179
 5218.5000    -3.8422     4.5641     2.9078    47.9885
 5219.0000  -999.2500     4.6286     2.9154    28.6591
 5219.5000  -999.2500     5.0681     2.9059    15.9736
 5220.0000  -999.2500     5.5072     2.8936    15.5746
 5220.5000  -999.2500     5.5675     2.8854    23.2359
 5221.0000  -999.2500     5.2985     2.9554    30.0577
 5221.5000  -999.2500     4.1142     2.9917    28.8267
 5222.0000  -999.2500     3.7735     2.9966    21.7697
 5222.5000  -999.2500     3.9067     2.9875    13.7022
 5223.0000  -999.2500     5.2140     2.9627    12.1700
 5223.5000  -999.2500     6.7881     2.9348    14.0318
 5224.0000  -999.2500     7.8165     2.9270    15.8936
 5224.5000  -999.2500     9.1905     2.9068    19.0212
 5225.0000  -999.2500     9.4414     2.9175    19.6203
 5225.5000  -999.2500     4.4128     2.9113    17.6815
 5226.0000  -999.2500     3.9183     2.9035    15.7458
