~VERSION INFORMATION
 VERS.               2.10:   CWLS LOG ASCII STANDARD - VERSION 2.10
 WRAP.                 NO:   ONE LINE PER DEPTH STEP
~WELL INFORMATION
#MNEM.UNIT      DATA TYPE    INFORMATION
#----------   ------------   ------------------------------
 STRT.F         2379.5000:   START DEPTH
 STOP.F         5659.0000:   STOP DEPTH
 STEP.F            0.5000:   STEP LENGTH
 NULL.          -999.2500:   NO VALUE
 COMP. Lawrence Allison and Asociates:   COMPANY
 WELL.            43 X 10:   WELL
 FLD .           N.P.R. 3:   FIELD
 LOC . 10-38N-78W-NATRONA-WY:   LOCATION
 STAT.                 WY:   STATE
 COUN.            Natrona:   COUNTY
 SRVC.      Dresser Atlas:   SERVICE COMPANY
 DATE.                   :   LOGDATE
 APIN.         4902511207:   API NUMBER
~CURVE INFORMATION
#MNEM.UNIT       API CODE    CURVE DESCRIPTION
#----------   ------------   ------------------------------
 DEPT.F                  :
 DPHI.none   42 890 12 00:   Den. Porosity, Ss [%]
 CNL .none               :   Compensated Neutron Log
 RHOB.gm/cc  42 350 01 00:   Bulk Density
 GR  .GAPI   42 310 00 00:   Gamma Ray
~PARAMETER INFORMATION
#MNEM.UNIT          VALUE    DESCRIPTION
#----------   ------------   ------------------------------
 EKB .F         5215.0000:   Kelly bushing
 EGL .F         5203.0000:   Ground level
 EDF .F            0.0000:   Drilling floor
 EPD .F           10.0000:   Permanent datum
 TD  .F         3268.0000:   Total depth
 NRUN.             1.0000:   Number of Runs
#--RUN 1---   ------------   The following are for Run 1---
 RUN .             1.0000:   Run 1
 DATE.mm/dd/yyyy 02/19/1985:   Date Logged
 DD  .ft             5650:   Depth Driller
 DL  .ft             5649:   Depth Logger
 BLI .ft             5647:   Bottom Log Interval
 TLI .ft             2400:   Top Log Interval
 CSS .inch          9.625:   Casing Size
 CTD1.ft              510:   Casing Driller 1
 CTL1.ft       not logged:   Casing Logger 1
 BS  .inch            8.5:   Bit Size
 DFT .            kcl gel:   Type Fluid In Hole
 DFD .lb/gal          9.5:   Mud Weight
 DFV .sec              44:   Viscosity
 DFPH.                8.5:   pH
 DFL .cc              9.0:   Fluid Loss
 WSS .           flowline:   Source Of Sample
 RM  .ohmm            .32:   Rm
 EMT .F                74:   Rm Meas. Temp.
 RMF .ohmm            .26:   Rmf
 MFT .F                74:   Rmf Meas. Temp.
 RMC .ohmm            .40:   Rmc
 MCST.F                74:   Rmc Meas. Temp.
 MFSS.               meas:   Source Rmf.
 MCSS.               calc:   Source Rmc.
 RMB .ohmm            .14:   Rm. At BHT
 BHT .F               164:   BHT.
 TCS .hh:mm         8 hrs:   Time Circ. Stopped
 MRT .F               170:   Maximum Recorded Temp.
 LUL .               Glte:   Logging Unit Location
 ENGI.               Hack:   Recorded By
 WITN.         Mr. Strong:   Witnessed By
 DGBY.              Burke:   Digitized By
~A  DEPTH     DPHI        CNL       RHOB         GR
# ...
 2817.5000     5.4747    25.3402     2.5457   120.1266
 2818.0000     5.3873    26.2051     2.5472   119.4177
 2818.5000     5.1654    26.6240     2.5504   116.4414
 2819.0000     5.3475    26.7499     2.5567   109.3282
 2819.5000     5.5909    26.5057     2.5630   107.7833
 2820.0000     5.8343    23.9633     2.5696   108.3544
 2820.5000     3.7131    23.5948     2.5921   107.6351
 2821.0000     3.4264    23.5990     2.5932   107.5610
 2821.5000     3.1768    23.9138     2.5932   108.1266
 2822.0000     3.1202    24.2293     2.5890   109.3115
 2822.5000     3.3686    24.4193     2.5724   109.9260
 2823.0000     4.0452    24.2457     2.5564   109.7962
 2823.5000     5.5794    22.8225     2.5494   109.0785
 2824.0000     6.1947    22.4895     2.5480   107.7050
 2824.5000     6.1975    22.3220     2.5495   106.9638
 2825.0000     6.1391    21.2264     2.5495   104.3246
 2825.5000     6.1418    20.6283     2.5509   102.4557
 2826.0000     6.2060    20.3780     2.5493   101.5783
 2826.5000     6.3968    21.8461     2.5415   101.0380
 2827.0000     6.8243    22.9062     2.5399   100.9620
 2827.5000     6.7656    23.0968     2.5399   100.8861
 2828.0000     6.9464    23.1114     2.5429   101.7383
 2828.5000     7.4334    23.1673     2.5256   102.9598
 2829.0000     7.6933    23.2957     2.5227   104.1814
 2829.5000     7.5148    23.1719     2.5246   106.8972
 2830.0000     7.2984    24.7099     2.5272   111.8864
 2830.5000     9.3564    27.8249     2.5163   114.9769
 2831.0000    10.0330  -999.2500     2.4276   116.8015
 2831.5000    13.7709  -999.2500     2.3232   114.8287
 2832.0000    23.9046  -999.2500     2.2188   109.0583
 2832.5000  -999.2500  -999.2500     2.1356   103.9209
 2833.0000  -999.2500    22.6751     2.1566   100.6823
 2833.5000  -999.2500    22.1089     2.2496    99.3418
 2834.0000  -999.2500    22.0530     2.3427    99.2658
 2834.5000    15.6082    22.5366     2.4357    97.8506
 2835.0000     7.2288    22.6651     2.5218    97.2152
 2835.5000     7.1667    22.4829     2.5312    97.1392
 2836.0000     7.0270    21.6176     2.5311    97.0633
 2836.5000     6.8784    21.2491     2.5342    96.3544
 2837.0000     7.3066    20.8116     2.5387    95.4137
 2837.5000     7.6534    20.6364     2.5327    97.8897
 2838.0000     7.5914    20.8753     2.5278   105.1552
 2838.5000     7.3372    21.6583     2.5292   109.3418
 2839.0000     6.8324    22.0367     2.5338   109.2658
 2839.5000     6.5290    22.2316     2.5430   110.4415
 2840.0000     6.4089    22.3934     2.5414   111.6332
 2840.5000     6.4120    22.6547     2.5475   109.0275
 2841.0000     6.4761    23.0282     2.5493   107.0547
 2841.5000     6.0501    23.0324     2.5474   106.3476
 2842.0000     6.1141    22.9123     2.5443   107.5394
 2842.5000     7.0454    22.9043     2.5303   109.3640
 2843.0000     7.4131    23.2934     2.5270   111.1886
 2843.5000     7.5634    23.8566     2.5254   115.5747
 2844.0000     7.8979    24.9121     2.5203   119.5630
 2844.5000     8.5496    26.5541     2.5142   131.4718
 2845.0000     9.9189    28.3420     2.5090   149.7050
 2845.5000    11.7851    28.0978     2.4766   150.6916
 2846.0000    14.0410    26.7646     2.4157   147.1060
 2846.5000    16.2970    25.0804     2.3582   142.7680
 2847.0000    16.2054    23.3963     2.4161   126.4437
 2847.5000    13.2581    21.8413     2.4710   117.7858
 2848.0000    10.3108    22.0325     2.5258   113.2997
 2848.5000     7.3636    22.2852     2.5466   110.9664
 2849.0000     6.1540    22.0975     2.5459   109.6456
 2849.5000     6.2467    21.8529     2.5427   108.9225
 2850.0000     6.5021    21.6563     2.5386   107.5826
 2850.5000     6.7358    21.4183     2.5386   103.0781
 2851.0000     6.9261    21.3745     2.5339    98.5736
 2851.5000     7.1164    20.8914     2.5245    99.7654
 2852.0000     7.2455    19.9228     2.5245   100.9571
 2852.5000     7.2776    19.1195     2.5260   100.8830
 2853.0000     7.0353    19.0418     2.5274   100.8089
 2853.5000     6.6093    20.1554     2.5305    99.4576
 2854.0000     6.4283    20.9671     2.5335    98.7595
 2854.5000     6.4924    21.4813     2.5381    98.6836
 2855.0000     6.6177    20.9755     2.5396    98.6076
 2855.5000     6.9880    20.4207     2.5378    98.5316
 2856.0000     7.4238    19.9901     2.5320    99.4257
 2856.5000     7.7428    20.1807     2.5192   101.9447
 2857.0000     8.0992    20.1077     2.5146   101.4056
 2857.5000     7.6617    18.9114     2.5166    97.0673
 2858.0000     7.0161    18.6087     2.5224    93.7633
 2858.5000     6.7044    18.5825     2.5350    87.9494
 2859.0000     5.9878    18.7118     2.5406    88.2320
 2859.5000     5.1220    18.8072     2.5494    88.4304
 2860.0000     4.1654    19.1967     2.5668    90.8737
 2860.5000     4.0764    21.0618     2.5744    93.9642
 2861.0000     4.2023    22.4559     2.5790    98.3205
 2861.5000     4.3888    21.6926     2.5793   102.0438
 2862.0000     4.5754    21.0807     2.5712   103.2405
 2862.5000     4.5782    20.6652     2.5726   100.6298
 2863.0000     4.8873    21.5097     2.5726    99.2899
 2863.5000     5.3801    23.1326     2.5694    99.8696
 2864.0000     8.5682    24.7556     2.5614   108.9725
 2864.5000    12.6285    26.3785     2.4890   134.8243
 2865.0000    18.2252    27.9263     2.3643   170.7167
 2865.5000    20.3398    28.2708     2.3208   172.9700
 2866.0000    16.2304    26.1038     2.3875   168.5811
 2866.5000    12.0249    23.4532     2.4541   164.6127
 2867.0000     8.0168    20.8025     2.5195   137.0680
 2867.5000     6.1953    19.3996     2.5303    97.7525
 2868.0000     4.5482    19.5362     2.5472    85.5782
 2868.5000     4.6769    19.4783     2.5595    86.1247
 2869.0000     4.9322    19.4052     2.5626    85.3627
 2869.5000     5.3537    19.3625     2.5594    84.7700
 2870.0000     6.2753    19.1803     2.5468    89.3547
 2870.5000     7.3194    19.5572     2.5340    89.2806
 2871.0000     7.6285    20.7529     2.5217    88.5736
 2871.5000     7.9988    21.2429     2.5143    87.8666
 2872.0000     8.1854    21.0479     2.5143    86.5267
 2872.5000     8.1882    20.3991     2.5127    86.4526
 2873.0000     8.1824    20.1807     2.5126    88.9102
 2873.5000     7.1991    20.2747     2.5132    91.3874
 2874.0000     6.0411    20.9485     2.5295    96.4800
 2874.5000     5.9941    21.9258     2.5441   100.8571
 2875.0000     6.1773    22.1429     2.5424   104.1149
 2875.5000     6.6584    22.1479     2.5401   109.3322
 2876.0000     6.9402    22.5248     2.5339   113.8545
 2876.5000     9.5089    25.3613     2.5075   124.9969
 2877.0000    15.9706    28.6414     2.4064   140.7342
 2877.5000    22.4322    30.0523     2.2910   156.4716
 2878.0000    28.0728    29.2736     2.1757   167.5205
 2878.5000    28.4977    28.4236     2.1509   168.4625
 2879.0000    26.9166    27.5752     2.2277   159.8807
 2879.5000    23.2857    25.4177     2.3045   140.7315
 2880.0000    16.9934    22.9946     2.3813   121.5823
 2880.5000    11.5798    21.5703     2.4581    99.7870
 2881.0000     9.5007    21.2639     2.4994    99.0800
 2881.5000     9.4650    21.5166     2.4976    98.3729
 2882.0000     9.3163    21.9555     2.5116   102.0963
 2882.5000     8.7842    22.0219     2.5161   102.0222
 2883.0000     8.3103    21.7751     2.5092   101.3152
 2883.5000     8.8031    21.2182     2.5033   101.2405
 2884.0000     9.0509    21.0940     2.5057   101.3342
 2884.5000     8.3186    21.0449     2.5198   107.1523
 2885.0000     7.7701    21.5095     2.5334   109.8796
 2885.5000     7.2216    22.2963     2.5389   106.5784
 2886.0000     6.8568    22.1242     2.5278   103.2232
 2886.5000     7.1133    21.8095     2.5179   106.6166
 2887.0000     7.6450    21.6882     2.5155   110.8490
 2887.5000     8.2743    21.6304     2.5201   111.1289
 2888.0000     8.1282    21.3870     2.5231   109.1222
 2888.5000     7.8955    21.2048     2.5246   108.7089
 2889.0000     7.8537    21.1981     2.5214   111.7759
 2889.5000     8.3832    23.2629     2.5121   117.4035
 2890.0000     8.8068    24.1988     2.5090   120.4940
