~VERSION INFORMATION
 VERS.               2.10:   CWLS LOG ASCII STANDARD - VERSION 2.10
 WRAP.                 NO:   ONE LINE PER DEPTH STEP
~WELL INFORMATION
#MNEM.UNIT      DATA TYPE    INFORMATION
#----------   ------------   ------------------------------
 STRT.F         2379.5000:   START DEPTH
 STOP.F         5659.0000:   STOP DEPTH
 STEP.F            0.5000:   STEP LENGTH
 NULL.          -999.2500:   NO VALUE
 COMP. Lawrence Allison and Asociates:   COMPANY
 WELL.            43 X 10:   WELL
 FLD .           N.P.R. 3:   FIELD
 LOC . 10-38N-78W-NATRONA-WY:   LOCATION
 STAT.                 WY:   STATE
 COUN.            Natrona:   COUNTY
 SRVC.      Dresser Atlas:   SERVICE COMPANY
 DATE.                   :   LOGDATE
 APIN.         4902511207:   API NUMBER
~CURVE INFORMATION
#MNEM.UNIT       API CODE    CURVE DESCRIPTION
#----------   ------------   ------------------------------
 DEPT.F                  :
 DPHI.none   42 890 12 00:   Den. Porosity, Ss [%]
 CNL .none               :   Compensated Neutron Log
 RHOB.gm/cc  42 350 01 00:   Bulk Density
 GR  .GAPI   42 310 00 00:   Gamma Ray
~PARAMETER INFORMATION
#MNEM.UNIT          VALUE    DESCRIPTION
#----------   ------------   ------------------------------
 EKB .F         5215.0000:   Kelly bushing
 EGL .F         5203.0000:   Ground level
 EDF .F            0.0000:   Drilling floor
 EPD .F           10.0000:   Permanent datum
 TD  .F         3268.0000:   Total depth
 NRUN.             1.0000:   Number of Runs
#--RUN 1---   ------------   The following are for Run 1---
 RUN .             1.0000:   Run 1
 DATE.mm/dd/yyyy 02/19/1985:   Date Logged
 DD  .ft             5650:   Depth Driller
 DL  .ft             5649:   Depth Logger
 BLI .ft             5647:   Bottom Log Interval
 TLI .ft             2400:   Top Log Interval
 CSS .inch          9.625:   Casing Size
 CTD1.ft              510:   Casing Driller 1
 CTL1.ft       not logged:   Casing Logger 1
 BS  .inch            8.5:   Bit Size
 DFT .            kcl gel:   Type Fluid In Hole
 DFD .lb/gal          9.5:   Mud Weight
 DFV .sec              44:   Viscosity
 DFPH.                8.5:   pH
 DFL .cc              9.0:   Fluid Loss
 WSS .           flowline:   Source Of Sample
 RM  .ohmm            .32:   Rm
 EMT .F                74:   Rm Meas. Temp.
 RMF .ohmm            .26:   Rmf
 MFT .F                74:   Rmf Meas. Temp.
 RMC .ohmm            .40:   Rmc
 MCST.F                74:   Rmc Meas. Temp.
 MFSS.               meas:   Source Rmf.
 MCSS.               calc:   Source Rmc.
 RMB .ohmm            .14:   Rm. At BHT
 BHT .F               164:   BHT.
 TCS .hh:mm         8 hrs:   Time Circ. Stopped
 MRT .F               170:   Maximum Recorded Temp.
 LUL .               Glte:   Logging Unit Location
 ENGI.               Hack:   Recorded By
 WITN.         Mr. Strong:   Witnessed By
 DGBY.              Burke:   Digitized By
~A  DEPTH     DPHI        CNL       RHOB         GR
# ...
 3255.5000     8.9378    21.2915     2.5089   107.5271
 3256.0000     8.7577    20.6513     2.5135   106.0680
 3256.5000     8.7666    20.4050     2.5120   103.4793
 3257.0000     8.7648    20.6561     2.5104   103.2520
 3257.5000     8.7072    20.7828     2.5119   105.5806
 3258.0000     8.5139    20.7231     2.5166   108.9620
 3258.5000     8.3148    20.9740     2.5197   108.3354
 3259.0000     8.2279    21.6597     2.5211   107.3503
 3259.5000     8.1703    21.6621     2.5229   107.0823
 3260.0000     8.0276    21.6646     2.5284   106.4557
 3260.5000     7.5245    21.6671     2.5354   108.9945
 3261.0000     7.0806    21.3919     2.5385   110.4134
 3261.5000     6.8665    21.0259     2.5408   107.7411
 3262.0000     6.6737    20.9910     2.5471   106.4814
 3262.5000     5.9884    21.1982     2.5574   109.6522
 3263.0000     5.4407    21.4108     2.5610   111.5571
 3263.5000     5.2605    21.8152     2.5615   115.3823
 3264.0000     5.2490    22.1722     2.5517   116.6327
 3264.5000     6.2311    22.3374     2.5300   115.2994
 3265.0000     7.3265    22.2785     2.5130   114.7463
 3265.5000     8.4218    22.2858     2.5083   115.5229
 3266.0000     8.8422    22.5645     2.5129   116.8274
 3266.5000     8.2836    22.9115     2.5222   115.4291
 3267.0000     7.9773    23.3412     2.5156   114.7710
 3267.5000     7.9985    23.7710     2.5016   116.5714
 3268.0000     8.5984    24.2007     2.4931   120.0584
 3268.5000     9.3491    24.6305     2.4865   126.2267
 3269.0000     9.9555    25.1877     2.4903   128.4475
 3269.5000     9.7445    25.5628     2.4967   128.9705
 3270.0000     9.4365    25.8758     2.5003   126.8365
 3270.5000     9.2720    25.6203     2.4920   119.2477
 3271.0000     9.3552    24.3279     2.4764   117.9881
 3271.5000    10.7065    24.4052     2.4684   117.3613
 3272.0000    11.6588    24.7871     2.4570   118.0004
 3272.5000    10.5433    25.6636     2.4708   118.0066
 3273.0000     9.0066    25.8904     2.4893   119.9115
 3273.5000     8.0907    25.0526     2.5094   122.4696
 3274.0000     7.9106    24.1389     2.5202   124.3542
 3274.5000     7.9142    23.8480     2.5217   121.1221
 3275.0000     8.1015    23.9752     2.5216   117.0877
 3275.5000     8.2276    23.3135     2.5170   113.0665
 3276.0000     8.1697    21.9877     2.5123   109.4857
 3276.5000     8.1123    20.8577     2.5154   107.9294
 3277.0000     8.1772    20.1968     2.5153   109.6676
 3277.5000     9.0996    19.8886     2.5113   111.1076
 3278.0000     9.2882    19.5184     2.5041   110.8187
 3278.5000     9.4131    19.5208     2.5024   110.8352
 3279.0000     9.2941    19.8338     2.5013   111.4009
 3279.5000     9.3075    20.1468     2.5019   110.5012
 3280.0000     9.3013    20.3356     2.5035   109.2415
 3280.5000     9.1679    20.5243     2.5082   109.8806
 3281.0000     8.9060    20.8373     2.5129   110.5197
 3281.5000     8.7409    20.9019     2.5104   109.8930
 3282.0000     9.0101    20.4579     2.5042   109.2658
 3282.5000     9.0138    20.0260     2.5057   108.6395
 3283.0000     8.9274    19.8364     2.5103   109.2786
 3283.5000     8.6201    19.7936     2.5180   109.9285
 3284.0000     8.0914    20.3975     2.5257   111.1899
 3284.5000     7.6816    20.7189     2.5303   111.0492
 3285.0000     7.5620    21.0404     2.5318   108.5656
 3285.5000     7.6888    21.3561     2.5286   107.4107
 3286.0000     7.6306    21.1722     2.5271   106.7840
 3286.5000     7.0221    21.2934     2.5305   106.1572
 3287.0000     6.2294    21.5190     2.5359   107.0294
 3287.5000     5.6817    21.7443     2.5496   108.0696
 3288.0000     5.8078    21.8808     2.5579   107.1475
 3288.5000     6.0564    21.3098     2.5517   106.8165
 3289.0000     6.0600    21.1259     2.5532   108.1729
 3289.5000     5.9411    21.3146     2.5517   110.6278
 3290.0000     6.0061    21.7518     2.5501   110.0000
 3290.5000     6.0800    22.0027     2.5500   109.3734
 3291.0000     6.1360    21.8809     2.5516   109.3805
 3291.5000     6.1397    21.8211     2.5500   110.6525
 3292.0000     6.2905    22.1342     2.5453   113.8232
 3292.5000     7.0031    22.6957     2.5376   118.2598
 3293.0000     7.3825    23.0731     2.5313   119.5318
 3293.5000     7.6395    23.1354     2.5251   118.9050
 3294.0000     8.0143    23.1998     2.5158   118.2783
 3294.5000     8.6439    22.7570     2.5032   120.3318
 3295.0000     9.0505    22.7078     2.4970   122.1938
 3295.5000     9.2938    22.9457     2.4956   125.4477
 3296.0000     9.1137    23.3913     2.5045   129.8647
 3296.5000     8.7497    23.4604     2.5376   130.5363
 3297.0000     8.0795    22.4070     2.5713   130.9747
 3297.5000     4.5915    22.8447     2.5790   130.4539
 3298.0000     5.2077    22.6052     2.5678   127.2323
 3298.5000     7.1715    21.8811     2.5441   126.5633
 3299.0000     7.5426    21.6362     2.5284   126.2107
 3299.5000     6.9949    21.7992     2.5273   124.0455
 3300.0000     6.6277    21.9259     2.5433   123.4177
 3300.5000     6.2643    22.3229     2.5463   122.1035
 3301.0000     6.3591    22.7973     2.5414   122.9213
 3301.5000     6.8664    23.2717     2.5352   126.3900
 3302.0000     7.2022    23.9196     2.5324   129.0771
 3302.5000     7.4115    23.7968     2.5304   128.4813
 3303.0000     7.6655    21.5002     2.5277   126.2914
 3303.5000     7.8625    21.3775     2.5277   125.2500
 3304.0000     7.8634    21.4411     2.5261   129.9749
 3304.5000     7.8645    22.0637     2.5238   133.5289
 3305.0000     7.8040    24.0844     2.5230   130.9160
 3305.5000     7.8663    26.1124     2.5238   129.4387
 3306.0000     8.1122    26.2918     2.5229   131.5304
 3306.5000     8.2968    23.9830     2.5182   135.9516
 3307.0000     8.3018    23.5289     2.5136   134.0437
 3307.5000     8.0536    23.4392     2.5151   129.6041
 3308.0000     7.6829    23.5279     2.5213   127.6961
 3308.5000     7.6266    23.6289     2.5228   125.7268
 3309.0000     7.7011    23.5021     2.5197   123.1774
 3309.5000     7.7509    23.3838     2.5181   122.4960
 3310.0000     7.2823    23.4475     2.5245   121.9631
 3310.5000     7.1401    23.5111     2.5320   129.6616
 3311.0000     7.2311    23.6368     2.5314   134.6452
 3311.5000     7.5830    24.0110     2.5262   132.6363
 3312.0000     9.4709    24.7578     2.5136   127.6202
 3312.5000    10.2681    25.1941     2.5010   128.2437
 3313.0000    10.7591    25.5103     2.4812   135.1944
 3313.5000    10.9437    25.4829     2.4777   138.9826
 3314.0000    10.8834    25.0740     2.4808   140.8722
 3314.5000     8.8628    23.8631     2.5003   133.9009
 3315.0000     8.9250    22.2000     2.4947   130.7272
 3315.5000     9.1831    21.6006     2.4869   130.7180
 3316.0000     9.7394    21.9628     2.4838   131.3416
 3316.5000     9.9078    22.7964     2.4869   131.2877
 3317.0000     9.8312    23.1587     2.4899   128.6078
 3317.5000     9.5626    23.4707     2.4946   125.3172
 3318.0000     8.7587    23.9691     2.5007   122.4441
 3318.5000     8.1392    23.9829     2.5146   123.7007
 3319.0000     8.1442    23.4753     2.5161   124.5401
 3319.5000     8.8109    23.6010     2.5112   124.9481
 3320.0000     8.8730    23.9130     2.5018   124.9367
 3320.5000     8.9352    24.4735     2.4954   123.3271
 3321.0000     9.1811    25.6015     2.4890   122.3842
 3321.5000     9.9783    25.2968     2.4846   123.0095
 3322.0000    10.0445    24.2092     2.4851   123.6329
 3322.5000     9.3675    22.8855     2.4857   125.5211
 3323.0000     9.2459    22.7419     2.4925   128.0435
 3323.5000     9.3940    22.8928     2.4974   128.6677
 3324.0000    10.1542    23.7601     2.4949   128.0251
 3324.5000    12.6258    25.0453     2.4556   129.2957
 3325.0000    13.1904    25.9164     2.4478   132.0680
 3325.5000    13.2320    24.9241     2.4401   135.5924
 3326.0000    12.6002    24.5529     2.4351   134.6880
 3326.5000    11.5225    24.5544     2.4694   128.4408
 3327.0000    10.7236    24.5560     2.4696   127.7593
 3327.5000    10.8470    24.4953     2.4601   127.3259
 3328.0000    11.5217    24.0456     2.4539   127.0296
