~VERSION INFORMATION
 VERS.               2.10:   CWLS LOG ASCII STANDARD - VERSION 2.10
 WRAP.                 NO:   ONE LINE PER DEPTH STEP
~WELL INFORMATION
#MNEM.UNIT      DATA TYPE    INFORMATION
#----------   ------------   ------------------------------
 STRT.F         2379.5000:   START DEPTH
 STOP.F         5659.0000:   STOP DEPTH
 STEP.F            0.5000:   STEP LENGTH
 NULL.          -999.2500:   NO VALUE
 COMP. Lawrence Allison and Asociates:   COMPANY
 WELL.            43 X 10:   WELL
 FLD .           N.P.R. 3:   FIELD
 LOC . 10-38N-78W-NATRONA-WY:   LOCATION
 STAT.                 WY:   STATE
 COUN.            Natrona:   COUNTY
 SRVC.      Dresser Atlas:   SERVICE COMPANY
 DATE.                   :   LOGDATE
 APIN.         4902511207:   API NUMBER
~CURVE INFORMATION
#MNEM.UNIT       API CODE    CURVE DESCRIPTION
#----------   ------------   ------------------------------
 DEPT.F                  :
 DPHI.none   42 890 12 00:   Den. Porosity, Ss [%]
 CNL .none               :   Compensated Neutron Log
 RHOB.gm/cc  42 350 01 00:   Bulk Density
 GR  .GAPI   42 310 00 00:   Gamma Ray
~PARAMETER INFORMATION
#MNEM.UNIT          VALUE    DESCRIPTION
#----------   ------------   ------------------------------
 EKB .F         5215.0000:   Kelly bushing
 EGL .F         5203.0000:   Ground level
 EDF .F            0.0000:   Drilling floor
 EPD .F           10.0000:   Permanent datum
 TD  .F         3268.0000:   Total depth
 NRUN.             1.0000:   Number of Runs
#--RUN 1---   ------------   The following are for Run 1---
 RUN .             1.0000:   Run 1
 DATE.mm/dd/yyyy 02/19/1985:   Date Logged
 DD  .ft             5650:   Depth Driller
 DL  .ft             5649:   Depth Logger
 BLI .ft             5647:   Bottom Log Interval
 TLI .ft             2400:   Top Log Interval
 CSS .inch          9.625:   Casing Size
 CTD1.ft              510:   Casing Driller 1
 CTL1.ft       not logged:   Casing Logger 1
 BS  .inch            8.5:   Bit Size
 DFT .            kcl gel:   Type Fluid In Hole
 DFD .lb/gal          9.5:   Mud Weight
 DFV .sec              44:   Viscosity
 DFPH.                8.5:   pH
 DFL .cc              9.0:   Fluid Loss
 WSS .           flowline:   Source Of Sample
 RM  .ohmm            .32:   Rm
 EMT .F                74:   Rm Meas. Temp.
 RMF .ohmm            .26:   Rmf
 MFT .F                74:   Rmf Meas. Temp.
 RMC .ohmm            .40:   Rmc
 MCST.F                74:   Rmc Meas. Temp.
 MFSS.               meas:   Source Rmf.
 MCSS.               calc:   Source Rmc.
 RMB .ohmm            .14:   Rm. At BHT
 BHT .F               164:   BHT.
 TCS .hh:mm         8 hrs:   Time Circ. Stopped
 MRT .F               170:   Maximum Recorded Temp.
 LUL .               Glte:   Logging Unit Location
 ENGI.               Hack:   Recorded By
 WITN.         Mr. Strong:   Witnessed By
 DGBY.              Burke:   Digitized By
~A  DEPTH     DPHI        CNL       RHOB         GR
# ...
 5591.5000    -3.4534    13.9717     2.7239    23.7588
 5592.0000    -1.4411    13.5545     2.7023    26.6908
 5592.5000     3.2452    12.7352     2.6720    21.1713
 5593.0000     5.6318    11.3105     2.6416    13.9622
 5593.5000     6.4871    11.0039     2.6113    11.8702
 5594.0000     7.0984    10.9453     2.5857    11.7848
 5594.5000     7.5574    10.9496     2.5627    11.9721
 5595.0000    10.8944    10.8914     2.5052    12.8595
 5595.5000    11.6881    10.6446     2.4667    18.2613
 5596.0000    12.1754    10.5201     2.4526    27.0059
 5596.5000    12.3264    10.4683     2.4462    35.7505
 5597.0000    12.1315    10.4727     2.4400    44.4951
 5597.5000    11.6130    10.4767     2.4370    53.2397
 5598.0000    10.7531    10.7873     2.4406    59.8269
 5598.5000     9.8932    11.4057     2.4519    48.3512
 5599.0000     9.5234    11.7964     2.4704    36.2426
 5599.5000     9.3373    12.1086     2.4778    34.2605
 5600.0000     9.4022    12.1125     2.4861    29.2788
 5600.5000    10.0228     9.4979     2.4912    24.3366
 5601.0000     9.9022     9.4380     2.4915    20.7718
 5601.5000     9.4974    10.3494     2.4822    19.4532
 5602.0000     8.5819    10.6915     2.4773    18.7658
 5602.5000     7.5507    10.8178     2.4764    19.4486
 5603.0000     7.1944    10.8605     2.4822    20.0895
 5603.5000     7.1321    10.5201     2.5098    21.3627
 5604.0000     7.2487     9.9958     2.5291    21.7089
 5604.5000     6.6178     9.7050     2.5318    20.6613
 5605.0000     6.8605     9.6013     2.5394    19.6906
 5605.5000     6.9808     9.4858     2.5525    19.6378
 5606.0000     6.7726     9.4221     2.5682    20.2215
 5606.5000     5.8406     9.6070     2.6049    20.1653
 5607.0000     4.0105     9.9160     2.6167    20.0680
 5607.5000     2.1805    10.1629     2.6240    19.4225
 5608.0000     0.9041    11.2193     2.6332    18.3970
 5608.5000     0.6568    12.8633     2.6440    13.5519
 5609.0000     0.0419    14.5074     2.6439    11.3657
 5609.5000     0.1641    16.1514     2.6500     9.3486
 5610.0000     0.2211    17.1429     2.6545     7.1115
 5610.5000     0.0456    17.3106     2.6477     6.4258
 5611.0000    -0.3352    17.2422     2.6372     8.2718
 5611.5000     0.3187    16.5236     2.6216     9.4857
 5612.0000     1.3089    15.8136     2.5921     9.4321
 5612.5000     2.2991    15.4323     2.5784     9.2697
 5613.0000     3.2893    15.2071     2.5702     7.0830
 5613.5000     4.2795    15.4688     2.5690     6.0997
 5614.0000     5.0704    15.8569     2.5771     6.0443
 5614.5000     5.0915    15.9798     2.5814     6.6218
 5615.0000     4.5457    15.9781     2.5858     7.1994
 5615.5000     3.8083    15.9145     2.5919     8.4036
 5616.0000     3.1934    15.7266     2.6026    10.2496
 5616.5000     2.8848    11.8742     2.5964    10.8298
 5617.0000     3.1899    10.7546     2.5793    12.7156
 5617.5000     4.3589     9.9999     2.5591    14.6237
 5618.0000     5.5279     9.6148     2.5405    16.6980
 5618.5000     6.6969     9.3116     2.5341    18.4363
 5619.0000     7.8658     9.1958     2.5281    19.4145
 5619.5000     9.0348     9.3806     2.5140    16.1376
 5620.0000    10.1080     9.4412     2.4912    11.0672
 5620.5000    10.4067     9.5880     2.4810    10.3815
 5621.0000    10.8269     9.7701     2.4782     9.6959
 5621.5000     8.0671    10.0902     2.4853     9.0102
 5622.0000     6.0757    10.3396     2.5102     8.9575
 5622.5000     4.0842    10.9236     2.5431    10.9043
 5623.0000     2.0928    11.4811     2.5759    12.8113
 5623.5000    -0.0893    12.4734     2.6088    14.0850
 5624.0000    -0.3979    14.7079     2.6417    14.1354
 5624.5000    -0.6452    15.5760     2.6582    11.9486
 5625.0000    -1.7902    15.6987     2.6744    10.5134
 5625.5000    -4.0296    15.6351     2.6908    11.0935
 5626.0000    -5.5777    13.8174     2.7250    12.3066
 5626.5000    -6.0233    13.1363     2.7409    14.1526
 5627.0000    -6.2201    12.9411     2.7495    15.4471
 5627.5000    -6.2037    12.6968     2.7554    17.2117
 5628.0000    -6.0782    12.7247     2.7553    12.7286
 5628.5000    -7.7705    12.6055     2.7537    14.7970
 5629.0000    -9.1816    11.8929     2.7675    16.4082
 5629.5000    -9.6127    10.9439     2.7984    16.6272
 5630.0000    -9.2475    10.6212     2.8101    16.9216
 5630.5000    -7.7059    10.5264     2.8007    15.6030
 5631.0000    -5.6460    10.5867     2.7775    16.1832
 5631.5000    -5.0806    11.7032     2.7526    16.7642
 5632.0000    -4.3570    12.2607     2.7411    16.6660
 5632.5000    -4.1143    13.9983     2.7361    16.0206
 5633.0000    -4.4229    14.1211     2.7278    16.1338
 5633.5000    -4.7928    13.8089     2.7236    17.4082
 5634.0000    -5.1013    13.6211     2.7283    18.6811
 5634.5000    -3.9572    13.8725     2.7329    20.3139
 5635.0000    -2.8315    14.3013     2.7342    22.6969
 5635.5000    -2.9696    14.2820     2.7078    23.9100
 5636.0000    -3.7339    13.6019     2.7031    23.9001
 5636.5000    -4.1811    12.7898     2.7046    23.8891
 5637.0000    -4.3780    12.7425     2.7199    23.8780
 5637.5000    -4.7240    12.8260     2.7229    23.8669
 5638.0000    -5.2435    12.8634     2.7238    23.8558
 5638.5000    -5.2772    12.8924     2.7291    23.8448
 5639.0000    -4.9418    13.4938     2.7371    23.8337
 5639.5000    -3.9027    13.6055     2.7434    23.8226
 5640.0000    -3.4150    13.6091     2.7303    23.8115
 5640.5000    -3.1723    13.6126     2.7162    23.8005
 5641.0000    -3.2573    13.6162     2.7079    23.7894
 5641.5000    -3.7793    13.6197     2.7018    23.7783
 5642.0000    -5.8080    13.6232     2.6991    23.7672
 5642.5000    -7.1474    13.6268     2.6990    23.7562
 5643.0000    -7.4749    13.6303     2.7144    23.7451
 5643.5000    -7.9652    13.6339     2.7359    23.7340
 5644.0000    -7.7838    13.6374     2.7544    23.7229
 5644.5000    -7.2960    13.6409     2.7698    23.7119
 5645.0000    -6.9921    13.6445     2.7805    23.7008
 5645.5000    -6.7493    13.6480     2.7860    23.6897
 5646.0000    -6.0778    13.6515     2.7817    23.6786
 5646.5000    -6.2877    13.6551     2.7500    23.6675
 5647.0000    -6.8840    13.6586     2.7141    23.6565
 5647.5000    -7.3288    13.6622     2.6750    23.6454
 5648.0000    -7.6056    13.6657     2.6623    23.6343
 5648.5000    -7.8344    13.6692     2.6505    23.6232
 5649.0000    -8.1216    13.6728     2.6362    23.6122
 5649.5000    -8.4841    13.6763     2.6379    23.6011
 5650.0000    -8.7314    13.6798     2.6479    23.5900
 5650.5000    -8.8563    13.6834  -999.2500    23.5789
 5651.0000    -9.2261    13.6869  -999.2500    23.5679
 5651.5000  -999.2500    13.6905  -999.2500    23.5568
 5652.0000  -999.2500    13.6940  -999.2500    23.5457
 5652.5000  -999.2500    13.6975  -999.2500    23.5346
 5653.0000  -999.2500    13.7011  -999.2500    23.5236
 5653.5000  -999.2500    13.7046  -999.2500    23.5125
 5654.0000  -999.2500    13.7082  -999.2500    23.5014
 5654.5000  -999.2500    13.7117  -999.2500    23.4903
 5655.0000  -999.2500    13.7152  -999.2500    23.4793
 5655.5000  -999.2500    13.7188  -999.2500    23.4682
 5656.0000  -999.2500    13.7223     2.6957    23.4571
 5656.5000  -999.2500    13.7258     2.6968    23.4460
 5657.0000  -999.2500    13.7294     2.6561  -999.2500
 5657.5000  -999.2500    13.7329     2.6472  -999.2500
 5658.0000  -999.2500  -999.2500     2.6455  -999.2500
 5658.5000  -999.2500  -999.2500     2.6579  -999.2500
 5659.0000  -999.2500  -999.2500     2.6640  -999.2500
