~VERSION INFORMATION
 VERS.               2.10:   CWLS LOG ASCII STANDARD - VERSION 2.10
 WRAP.                 NO:   ONE LINE PER DEPTH STEP
~WELL INFORMATION
#MNEM.UNIT      DATA TYPE    INFORMATION
#----------   ------------   ------------------------------
 STRT.F         2379.5000:   START DEPTH
 STOP.F         5659.0000:   STOP DEPTH
 STEP.F            0.5000:   STEP LENGTH
 NULL.          -999.2500:   NO VALUE
 COMP. Lawrence Allison and Asociates:   COMPANY
 WELL.            43 X 10:   WELL
 FLD .           N.P.R. 3:   FIELD
 LOC . 10-38N-78W-NATRONA-WY:   LOCATION
 STAT.                 WY:   STATE
 COUN.            Natrona:   COUNTY
 SRVC.      Dresser Atlas:   SERVICE COMPANY
 DATE.                   :   LOGDATE
 APIN.         4902511207:   API NUMBER
~CURVE INFORMATION
#MNEM.UNIT       API CODE    CURVE DESCRIPTION
#----------   ------------   ------------------------------
 DEPT.F                  :
 DPHI.none   42 890 12 00:   Den. Porosity, Ss [%]
 CNL .none               :   Compensated Neutron Log
 RHOB.gm/cc  42 350 01 00:   Bulk Density
 GR  .GAPI   42 310 00 00:   Gamma Ray
~PARAMETER INFORMATION
#MNEM.UNIT          VALUE    DESCRIPTION
#----------   ------------   ------------------------------
 EKB .F         5215.0000:   Kelly bushing
 EGL .F         5203.0000:   Ground level
 EDF .F            0.0000:   Drilling floor
 EPD .F           10.0000:   Permanent datum
 TD  .F         3268.0000:   Total depth
 NRUN.             1.0000:   Number of Runs
#--RUN 1---   ------------   The following are for Run 1---
 RUN .             1.0000:   Run 1
 DATE.mm/dd/yyyy 02/19/1985:   Date Logged
 DD  .ft             5650:   Depth Driller
 DL  .ft             5649:   Depth Logger
 BLI .ft             5647:   Bottom Log Interval
 TLI .ft             2400:   Top Log Interval
 CSS .inch          9.625:   Casing Size
 CTD1.ft              510:   Casing Driller 1
 CTL1.ft       not logged:   Casing Logger 1
 BS  .inch            8.5:   Bit Size
 DFT .            kcl gel:   Type Fluid In Hole
 DFD .lb/gal          9.5:   Mud Weight
 DFV .sec              44:   Viscosity
 DFPH.                8.5:   pH
 DFL .cc              9.0:   Fluid Loss
 WSS .           flowline:   Source Of Sample
 RM  .ohmm            .32:   Rm
 EMT .F                74:   Rm Meas. Temp.
 RMF .ohmm            .26:   Rmf
 MFT .F                74:   Rmf Meas. Temp.
 RMC .ohmm            .40:   Rmc
 MCST.F                74:   Rmc Meas. Temp.
 MFSS.               meas:   Source Rmf.
 MCSS.               calc:   Source Rmc.
 RMB .ohmm            .14:   Rm. At BHT
 BHT .F               164:   BHT.
 TCS .hh:mm         8 hrs:   Time Circ. Stopped
 MRT .F               170:   Maximum Recorded Temp.
 LUL .               Glte:   Logging Unit Location
 ENGI.               Hack:   Recorded By
 WITN.         Mr. Strong:   Witnessed By
 DGBY.              Burke:   Digitized By
~A  DEPTH     DPHI        CNL       RHOB         GR
# ...
 3474.5000    15.0519    23.4783     2.4092   115.4726
 3475.0000    14.7474    23.1600     2.4231   106.9625
 3475.5000    14.0754    22.8979     2.4200   104.8970
 3476.0000    14.2071    26.1790     2.3697   127.5593
 3476.5000    17.8652    27.6708     2.2421   147.7501
 3477.0000    24.3755    27.0670     2.1145   150.4412
 3477.5000    24.8060    25.7649     2.1368   140.5601
 3478.0000    22.5382    22.5374     2.2466   120.4524
 3478.5000    21.9274    22.2291     2.3564    97.2422
 3479.0000    16.1258    22.3084     2.4590    94.0684
 3479.5000    11.8850    23.5575     2.4614   100.3883
 3480.0000    12.1931    23.9917     2.4489   107.9741
 3480.5000    13.1137    24.3499     2.4423   111.7623
 3481.0000    13.2992    24.1511     2.4412   111.7531
 3481.5000    13.4848    24.3668     2.4305   111.7106
 3482.0000    13.5076    24.6275     2.4194   110.3244
 3482.5000    13.9817    24.7943     2.4108   107.5948
 3483.0000    14.4092    24.7678     2.4178   100.9092
 3483.5000    14.2767    24.7989     2.4255    92.7184
 3484.0000    13.7387    24.8990     2.4259    93.7981
 3484.5000    13.9151    25.4872     2.4224    97.8321
 3485.0000    14.4103    24.9926     2.4115   111.2030
 3485.5000    16.3384    22.6346     2.3867   121.5629
 3486.0000    15.8482    22.0158     2.4120   121.1501
 3486.5000    14.1453    21.2727     2.4383   106.5839
 3487.0000    12.4424    20.7781     2.4645    98.3469
 3487.5000    10.7395    20.6561     2.4948    93.2744
 3488.0000     9.2863    21.2271     2.5032    91.9993
 3488.5000     8.9774    22.4134     2.4885    91.9364
 3489.0000    12.2059    24.6941     2.3854    96.4113
 3489.5000    29.7473    26.9748     2.2590   118.6509
 3490.0000    29.6265    29.2554     2.1407   141.1543
 3490.5000    26.7513   -49.3618     2.1928   159.0403
 3491.0000    23.0999   -49.2489     2.2418   164.0944
 3491.5000    19.8662    29.6808     2.2907   172.9460
 3492.0000    19.7712    28.3266     2.3207   168.9422
 3492.5000    19.8955    25.1756     2.3213   137.8910
 3493.0000    19.1126    23.5772     2.3352   106.8397
 3493.5000    16.5553    23.0447     2.3676    95.9091
 3494.0000    15.7364    23.0470     2.3753    93.1500
 3494.5000    13.7779    23.1734     2.4525    91.2421
 3495.0000    11.9511    23.3620     2.4571    91.2329
 3495.5000    12.5564    23.6749     2.4474    90.5908
 3496.0000    12.9870    24.6088     2.4407    91.2152
 3496.5000    16.0515    24.9216     2.4307    95.0027
 3497.0000    18.0748    24.6115     2.3931   112.0821
 3497.5000    18.5666    23.7974     2.3460   114.6657
 3498.0000    15.3972    23.5620     2.3756   115.8612
 3498.5000    12.8710    23.8650     2.4212   107.4349
 3499.0000    12.2371    24.4158     2.4425   106.3491
 3499.5000    12.4199    24.7044     2.4503   117.2273
 3500.0000    13.8795    24.9173     2.4490   118.3549
 3500.5000    15.1089    25.1261     2.4284   124.6871
 3501.0000    15.6897    24.7216     2.4079   125.9560
 3501.5000    15.5752    24.8516     2.3930   131.0224
 3502.0000    15.2398    25.0780     2.3886   141.7850
 3502.5000    15.0325    25.1984     2.3980   143.6868
 3503.0000    14.7892    25.2212     2.4087   140.4388
 3503.5000    13.6884    25.1408     2.4265   126.4220
 3504.0000    13.4452    23.3419     2.4313   109.1164
 3504.5000    13.0794    22.5988     2.4363    95.5657
 3505.0000    12.8974    22.5937     2.4378    94.9684
 3505.5000    12.9015    22.7897     2.4362    96.2379
 3506.0000    13.2911    22.9162     2.4290   100.0384
 3506.5000    14.0220    23.4775     2.4229   107.0035
 3507.0000    14.1911    23.3985     2.4160   103.8421
 3507.5000    14.2540    23.1714     2.4160   112.0730
 3508.0000    14.1139    24.1231     2.4159   120.3039
 3508.5000    14.0125    24.5761     2.4174   125.3703
 3509.0000    14.2869    25.0821     2.4158   127.2721
 3509.5000    14.3228    24.6397     2.4158   126.3699
 3510.0000    15.1025    24.1046     2.4142   124.1137
 3510.5000    15.4067    23.8067     2.4049   124.8925
 3511.0000    16.6910    24.0007     2.3770   125.3861
 3511.5000    16.6218    24.3708     2.3724   126.4547
 3512.0000    16.3739    24.6836     2.3740   127.5443
 3512.5000    16.2049    24.7480     2.3771   127.2943
 3513.0000    15.1464    24.0049     2.3800   126.0107
 3513.5000    12.8558    21.4465     2.3932   114.0001
 3514.0000    12.2441    19.5374     2.4326    99.1015
 3514.5000    11.5419    19.6018     2.4533    86.1194
 3515.0000    13.2314    19.9146     2.4602    86.3280
 3515.5000    15.1566    20.7339     2.4460    94.3333
 3516.0000    15.8331    22.4875     2.4222   113.2621
 3516.5000    18.3972    25.3314     2.3893   132.1910
 3517.0000    24.6851    28.1753     2.3117   149.2117
 3517.5000  -999.2500    29.8025     2.2210   154.6200
 3518.0000  -999.2500    29.5441     2.1302   158.0676
 3518.5000   -47.0473    28.0479     2.1048   150.1928
 3519.0000  -999.2500    25.4581     2.2150   137.5581
 3519.5000  -999.2500    23.9809     2.3253   127.3392
 3520.0000  -999.2500    23.4410     2.4140   110.8866
 3520.5000  -999.2500    23.2321     2.4336   112.7884
 3521.0000    13.0659    23.2349     2.4341   119.1206
 3521.5000    13.3223    23.2371     2.4288   124.8199
 3522.0000    14.2544    23.9848     2.4241   134.9495
 3522.5000    15.1712    24.9187     2.4194   138.1172
 3523.0000    15.3529    25.4800     2.4008   140.0190
 3523.5000    15.4121    25.0475     2.3946   139.3891
 3524.0000    15.2875    25.2361     2.3943   140.5329
 3524.5000    15.2241    25.4265     2.4023   151.1505
 3525.0000    15.5896    25.5511     2.3976   155.0618
 3525.5000    16.0199    25.1465     2.3883   157.7559
 3526.0000    16.0755    24.5040     2.3852   154.2991
 3526.5000    15.7068    23.7567     2.3868   147.5566
 3527.0000    14.6817    24.0154     2.3967   143.5358
 3527.5000    14.0904    24.6929     2.4197   141.6033
 3528.0000    13.7390    23.4384     2.4255   139.4183
 3528.5000    13.9109    23.2694     2.4283   141.9531
 3529.0000    14.2223    23.3042     2.4243   150.1840
 3529.5000    14.3783    23.4342     2.4199   150.1871
 3530.0000    14.4043    23.6495     2.4173   147.6585
 3530.5000    13.9730    23.7760     2.4247   143.2312
 3531.0000    13.6034    23.7782     2.4295   143.2343
 3531.5000    13.2950    23.2215     2.4342   143.2373
 3532.0000    12.9867    22.1058     2.4342   143.2405
 3532.5000    12.9233    21.6111     2.4357   143.2437
 3533.0000    13.1050    21.3649     2.4310   145.1453
 3533.5000    15.5502    21.8076     2.4021   142.9444
 3534.0000    19.6250    22.8966     2.3433   137.4914
 3534.5000    22.0044    24.5334     2.2779   131.1827
 3535.0000    20.4470    24.9144     2.3044   127.2785
 3535.5000    18.4391    24.7779     2.3555   125.2085
 3536.0000    16.2917    23.8204     2.4065   127.4844
 3536.5000    14.1443    22.6611     2.4400   127.4462
 3537.0000    12.7555    22.2150     2.4492   127.4499
 3537.5000    12.2690    22.2451     2.4523   129.3517
 3538.0000    12.0425    22.6623     2.4346   133.7852
 3538.5000    12.9684    22.7302     2.4183   131.2566
 3539.0000    14.0857    22.7597     2.4089   124.9306
 3539.5000    12.6176    22.3272     2.4193   124.9336
 3540.0000     9.6821    21.8326     2.4652   124.9367
 3540.5000     8.2563    21.7725     2.4992   123.4896
 3541.0000     7.6125    21.2160     2.5325   115.2280
 3541.5000     7.1264    20.7835     2.5391   110.4688
 3542.0000     7.1243    20.5373     2.5371   105.8138
 3542.5000     7.3673    20.5401     2.5277   105.3318
 3543.0000     8.1003    20.7322     2.5110   106.2209
 3543.5000    11.6559    20.6611     2.4669   112.2097
 3544.0000    16.6429    20.5464     2.4164   117.4097
 3544.5000    19.1420    20.7777     2.3660   111.6104
 3545.0000    18.9343    21.4736     2.3250   104.7661
 3545.5000    17.5259    20.9231     2.4115    95.8581
 3546.0000    13.6932    20.4933     2.4843    96.4941
 3546.5000     9.8605    21.6720     2.5233   104.7076
 3547.0000     7.4095    22.4561     2.5292   116.6982
