~VERSION INFORMATION
 VERS.               2.10:   CWLS LOG ASCII STANDARD - VERSION 2.10
 WRAP.                 NO:   ONE LINE PER DEPTH STEP
~WELL INFORMATION
#MNEM.UNIT      DATA TYPE    INFORMATION
#----------   ------------   ------------------------------
 STRT.F         2379.5000:   START DEPTH
 STOP.F         5659.0000:   STOP DEPTH
 STEP.F            0.5000:   STEP LENGTH
 NULL.          -999.2500:   NO VALUE
 COMP. Lawrence Allison and Asociates:   COMPANY
 WELL.            43 X 10:   WELL
 FLD .           N.P.R. 3:   FIELD
 LOC . 10-38N-78W-NATRONA-WY:   LOCATION
 STAT.                 WY:   STATE
 COUN.            Natrona:   COUNTY
 SRVC.      Dresser Atlas:   SERVICE COMPANY
 DATE.                   :   LOGDATE
 APIN.         4902511207:   API NUMBER
~CURVE INFORMATION
#MNEM.UNIT       API CODE    CURVE DESCRIPTION
#----------   ------------   ------------------------------
 DEPT.F                  :
 DPHI.none   42 890 12 00:   Den. Porosity, Ss [%]
 CNL .none               :   Compensated Neutron Log
 RHOB.gm/cc  42 350 01 00:   Bulk Density
 GR  .GAPI   42 310 00 00:   Gamma Ray
~PARAMETER INFORMATION
#MNEM.UNIT          VALUE    DESCRIPTION
#----------   ------------   ------------------------------
 EKB .F         5215.0000:   Kelly bushing
 EGL .F         5203.0000:   Ground level
 EDF .F            0.0000:   Drilling floor
 EPD .F           10.0000:   Permanent datum
 TD  .F         3268.0000:   Total depth
 NRUN.             1.0000:   Number of Runs
#--RUN 1---   ------------   The following are for Run 1---
 RUN .             1.0000:   Run 1
 DATE.mm/dd/yyyy 02/19/1985:   Date Logged
 DD  .ft             5650:   Depth Driller
 DL  .ft             5649:   Depth Logger
 BLI .ft             5647:   Bottom Log Interval
 TLI .ft             2400:   Top Log Interval
 CSS .inch          9.625:   Casing Size
 CTD1.ft              510:   Casing Driller 1
 CTL1.ft       not logged:   Casing Logger 1
 BS  .inch            8.5:   Bit Size
 DFT .            kcl gel:   Type Fluid In Hole
 DFD .lb/gal          9.5:   Mud Weight
 DFV .sec              44:   Viscosity
 DFPH.                8.5:   pH
 DFL .cc              9.0:   Fluid Loss
 WSS .           flowline:   Source Of Sample
 RM  .ohmm            .32:   Rm
 EMT .F                74:   Rm Meas. Temp.
 RMF .ohmm            .26:   Rmf
 MFT .F                74:   Rmf Meas. Temp.
 RMC .ohmm            .40:   Rmc
 MCST.F                74:   Rmc Meas. Temp.
 MFSS.               meas:   Source Rmf.
 MCSS.               calc:   Source Rmc.
 RMB .ohmm            .14:   Rm. At BHT
 BHT .F               164:   BHT.
 TCS .hh:mm         8 hrs:   Time Circ. Stopped
 MRT .F               170:   Maximum Recorded Temp.
 LUL .               Glte:   Logging Unit Location
 ENGI.               Hack:   Recorded By
 WITN.         Mr. Strong:   Witnessed By
 DGBY.              Burke:   Digitized By
~A  DEPTH     DPHI        CNL       RHOB         GR
# ...
 3912.5000    12.9664   -49.7438     2.4349   101.5825
 3913.0000    13.0553   -50.0342     2.4312   118.0760
 3913.5000    13.0574  -999.2500     2.4389   122.6903
 3914.0000    12.8548  -999.2500     2.4466   128.4892
 3914.5000    11.8982    29.3258     2.4605   151.2087
 3915.0000    10.9687    27.9597     2.4743   187.2541
 3915.5000    10.6158    27.0283     2.4789  -192.3522
 3916.0000    10.5562    26.3454     2.4758  -999.2500
 3916.5000    11.0486    26.4699     2.4634  -999.2500
 3917.0000    11.3252    26.7211     2.4619  -999.2500
 3917.5000    10.9301    26.3097     2.4696   178.2418
 3918.0000    10.5646    24.3391     2.4774   154.8869
 3918.5000    10.3216    24.2972     2.4803   115.0259
 3919.0000    10.2011    24.6328     2.4811   104.9116
 3919.5000    10.0797    26.6854     2.4887   101.1171
 3920.0000     9.8171    27.4658     2.4938    99.1568
 3920.5000     9.1442    26.4517     2.4992    96.4970
 3921.0000     8.9841    24.1074     2.5039    92.7211
 3921.5000     8.9863    24.3812     2.5033    90.9100
 3922.0000     9.0496    24.7963     2.5040    89.7958
 3922.5000     9.0119    24.4861     2.5056    90.4430
 3923.0000     8.7471    24.2379     2.5054    90.4557
 3923.5000     8.8896    25.1699     2.4924    91.1013
 3924.0000     9.5430    26.3503     2.4846    91.1139
 3924.5000    10.4480    27.2823     2.4768    92.4330
 3925.0000    10.8384    27.3447     2.4737    95.0420
 3925.5000    10.7184    26.0659     2.4737    96.8503
 3926.0000    10.4141    25.3503     2.4829    96.2298
 3926.5000    10.2323    25.2003     2.4845    94.3434
 3927.0000    10.1118    24.5211     2.4844    93.7215
 3927.5000     9.8688    24.4270     2.4859    93.1022
 3928.0000     9.6258    24.9566     2.4875    91.8488
 3928.5000     8.8315    25.6240     2.4922    89.3295
 3929.0000     8.0985    25.7646     2.4955    89.3418
 3929.5000     8.0392    25.1586     2.5139    91.9171
 3930.0000     8.1578    24.4907     2.5121    93.1646
 3930.5000     8.7266    24.9718     2.5129    92.4485
 3931.0000     8.5957    26.2771     2.5156    90.5296
 3931.5000     8.2614    26.9906     2.5166    90.6709
 3932.0000     8.3322    27.3491     2.5144    90.6835
 3932.5000     8.6862    25.3653     2.5112    89.8363
 3933.0000     8.7276    24.0578     2.5103    87.9178
 3933.5000     8.7296    23.9960     2.5103    86.9240
 3934.0000     8.7632    24.2448     2.5103    88.2190
 3934.5000     9.0213    24.7420     2.5087    90.4716
 3935.0000     9.2263    25.3634     2.5056    93.2935
 3935.5000     9.3508    25.9227     2.5024    95.2046
 3936.0000     9.2913    26.0480     2.4993    97.1157
 3936.5000     9.4161    24.7173     2.4993    96.4951
 3937.0000     9.6019    23.3770     2.5008    93.9758
 3937.5000    10.0327    23.9055     2.4992    88.2919
 3938.0000    10.1572    24.5577     2.4837    86.4051
 3938.5000    10.0980    24.4160     2.4853    89.5824
 3939.0000     9.9144    24.2453     2.4883    92.1456
 3939.5000     9.8570    23.9744     2.4883    93.4564
 3940.0000     9.9980    24.4512     2.4883    94.0506
 3940.5000    10.2401    25.0921     2.4882    94.0633
 3941.0000    10.3211    25.2793     2.4877    94.2256
 3941.5000    10.5391    25.2432     2.4855    94.9042
 3942.0000    10.3158    25.3056     2.4807    96.4300
 3942.5000     9.9945    25.5544     2.4871    97.9114
 3943.0000     9.5109    25.4926     2.4958    97.6431
 3943.5000     9.9021    24.9339     2.4980    96.6709
 3944.0000    10.5887    24.3131     2.4866    96.0506
 3944.5000    11.1032    22.6355     2.4710    94.7975
 3945.0000    11.2890    22.5124     2.4617    94.1772
 3945.5000     9.9434    23.0569     2.4601    92.9259
 3946.0000     9.3941    23.5185     2.4832    91.0395
 3946.5000     8.8448    23.0885     2.5095    89.7848
 3947.0000     8.6018    22.7672     2.5141    88.5325
 3947.5000     8.7876    22.2428     2.5110    86.6461
 3948.0000     8.6671    22.2923     2.5109    83.4939
 3948.5000     8.3615    22.4827     2.5171    79.0607
 3949.0000     8.2424    22.3510     2.5153    77.1895
 3949.5000     8.7487    22.0805     2.5103    80.8776
 3950.0000     9.0021    24.0063     2.5000    86.7089
 3950.5000     9.1060    24.2550     2.5034    86.8596
 3951.0000     8.6861    23.2615     2.5082    87.3671
 3951.5000     8.0711    22.9513     2.5179    87.3797
 3952.0000     7.8416    22.7652     2.5221    87.6290
 3952.5000     7.5050    22.0202     2.5237    87.4051
 3953.0000     7.2204    21.3766     2.5298    86.4832
 3953.5000     6.9064    20.3169     2.5447    84.2303
 3954.0000     5.8288    19.7488     2.5693    79.6452
 3954.5000     3.8001    19.6611     2.5816    75.4327
 3955.0000     3.6727    20.5973     2.5847    76.0779
 3955.5000     3.8469    21.4390     2.5831    76.7232
 3956.0000     4.0725    22.2807     2.5800    76.7355
 3956.5000     4.0771    22.4852     2.5815    75.4820
 3957.0000     3.9535    22.3948     2.5830    73.5956
 3957.5000     3.1937    21.4600     2.5892    67.9118
 3958.0000     2.4607    19.4132     2.5984    63.3857
 3958.5000     2.2789    17.0550     2.6092    55.1083
 3959.0000     2.0359    15.5646     2.6108    50.5883
 3959.5000     1.3029    15.3786     2.6143    50.5455
 3960.0000     0.8761    15.2547     2.6248    50.2113
 3960.5000     0.8169    14.3233     2.6307    45.9913
 3961.0000     0.9414    13.5783     2.6269    45.6179
 3961.5000     1.5598    11.4018     2.6229    46.4956
 3962.0000     1.8030    11.3428     2.6229    49.0396
 3962.5000     1.5600    11.4778     2.6244    53.4823
 3963.0000     1.6233    11.6822     2.6244    58.5579
 3963.5000     1.5363    11.7165     2.6251    56.0386
 3964.0000     1.3210    11.7383     2.6282    54.1522
 3964.5000     1.5676    11.9675     2.6256    56.6962
 3965.0000     2.8084    14.7561     2.6119    59.9685
 3965.5000     3.9109    18.4141     2.5871    75.7165
 3966.0000     4.6012    22.2149     2.5716    88.3290
 3966.5000     5.4169    22.7742     2.5670    91.5557
 3967.0000     5.7445    22.7695     2.5608    83.7935
 3967.5000     4.3377    22.1973     2.5576    79.1663
 3968.0000     2.6245    21.9677     2.6086    75.7221
 3968.5000     1.6464    21.9817     2.6240    71.5777
 3969.0000     1.7097    22.1970     2.6194    67.2766
 3969.5000     1.8955    23.3575     2.6162    70.7849
 3970.0000     1.8975    23.7329     2.6164    73.7351
 3970.5000     1.8995    23.7705     2.6177    77.7365
 3971.0000     2.3921    22.9762     2.6072    78.5884
 3971.5000     2.6454    21.8358     2.6007    76.4954
 3972.0000     2.7019    21.8236     2.6006    75.2405
 3972.5000     2.3590    22.0327     2.6037    75.2542
 3973.0000     1.8099    21.9708     2.6185    79.6970
 3973.5000     1.1975    21.3500     2.6287    79.7093
 3974.0000     0.0147    21.2808     2.6476    79.0887
 3974.5000     0.3961    21.4749     2.6491    74.6512
 3975.0000     0.9278    21.5994     2.6410    72.7322
 3975.5000     1.1811    21.5301     2.6344    72.1637
 3976.0000     1.4346    21.3515     2.6251    74.3119
 3976.5000     1.7932    21.4587     2.6174    76.7712
 3977.0000     2.5393    22.2665     2.6081    78.7149
 3977.5000     3.0926    22.5326     2.5926    80.0262
 3978.0000     3.6459    22.5106     2.5895    82.8529
 3978.5000     3.6748    22.4451     2.5972    86.6580
 3979.0000     2.6086    22.1038     2.6110    93.4424
 3979.5000     1.9368    21.0047     2.6187   100.5826
 3980.0000     1.9347    20.7330     2.6185   109.6227
 3980.5000     2.4309    21.1060     2.6083   117.8629
 3981.0000     3.6078    21.7274     2.5888   128.6347
 3981.5000     4.0330    21.8519     2.5862   115.7596
 3982.0000     3.6719    21.8621     2.6013   100.7092
 3982.5000     2.9957    19.8028     2.6128    86.8996
 3983.0000     2.1978    19.4304     2.6139    81.2157
 3983.5000     1.9529    19.3686     2.6042    78.6964
 3984.0000     2.4291    19.6174     2.6006    78.0671
 3984.5000     2.8393    19.6886     2.6014    76.7403
 3985.0000     2.9671    19.7422     2.6022    72.4495
