~VERSION INFORMATION
 VERS.               2.10:   CWLS LOG ASCII STANDARD - VERSION 2.10
 WRAP.                 NO:   ONE LINE PER DEPTH STEP
~WELL INFORMATION
#MNEM.UNIT      DATA TYPE    INFORMATION
#----------   ------------   ------------------------------
 STRT.F         2379.5000:   START DEPTH
 STOP.F         5659.0000:   STOP DEPTH
 STEP.F            0.5000:   STEP LENGTH
 NULL.          -999.2500:   NO VALUE
 COMP. Lawrence Allison and Asociates:   COMPANY
 WELL.            43 X 10:   WELL
 FLD .           N.P.R. 3:   FIELD
 LOC . 10-38N-78W-NATRONA-WY:   LOCATION
 STAT.                 WY:   STATE
 COUN.            Natrona:   COUNTY
 SRVC.      Dresser Atlas:   SERVICE COMPANY
 DATE.                   :   LOGDATE
 APIN.         4902511207:   API NUMBER
~CURVE INFORMATION
#MNEM.UNIT       API CODE    CURVE DESCRIPTION
#----------   ------------   ------------------------------
 DEPT.F                  :
 DPHI.none   42 890 12 00:   Den. Porosity, Ss [%]
 CNL .none               :   Compensated Neutron Log
 RHOB.gm/cc  42 350 01 00:   Bulk Density
 GR  .GAPI   42 310 00 00:   Gamma Ray
~PARAMETER INFORMATION
#MNEM.UNIT          VALUE    DESCRIPTION
#----------   ------------   ------------------------------
 EKB .F         5215.0000:   Kelly bushing
 EGL .F         5203.0000:   Ground level
 EDF .F            0.0000:   Drilling floor
 EPD .F           10.0000:   Permanent datum
 TD  .F         3268.0000:   Total depth
 NRUN.             1.0000:   Number of Runs
#--RUN 1---   ------------   The following are for Run 1---
 RUN .             1.0000:   Run 1
 DATE.mm/dd/yyyy 02/19/1985:   Date Logged
 DD  .ft             5650:   Depth Driller
 DL  .ft             5649:   Depth Logger
 BLI .ft             5647:   Bottom Log Interval
 TLI .ft             2400:   Top Log Interval
 CSS .inch          9.625:   Casing Size
 CTD1.ft              510:   Casing Driller 1
 CTL1.ft       not logged:   Casing Logger 1
 BS  .inch            8.5:   Bit Size
 DFT .            kcl gel:   Type Fluid In Hole
 DFD .lb/gal          9.5:   Mud Weight
 DFV .sec              44:   Viscosity
 DFPH.                8.5:   pH
 DFL .cc              9.0:   Fluid Loss
 WSS .           flowline:   Source Of Sample
 RM  .ohmm            .32:   Rm
 EMT .F                74:   Rm Meas. Temp.
 RMF .ohmm            .26:   Rmf
 MFT .F                74:   Rmf Meas. Temp.
 RMC .ohmm            .40:   Rmc
 MCST.F                74:   Rmc Meas. Temp.
 MFSS.               meas:   Source Rmf.
 MCSS.               calc:   Source Rmc.
 RMB .ohmm            .14:   Rm. At BHT
 BHT .F               164:   BHT.
 TCS .hh:mm         8 hrs:   Time Circ. Stopped
 MRT .F               170:   Maximum Recorded Temp.
 LUL .               Glte:   Logging Unit Location
 ENGI.               Hack:   Recorded By
 WITN.         Mr. Strong:   Witnessed By
 DGBY.              Burke:   Digitized By
~A  DEPTH     DPHI        CNL       RHOB         GR
 2379.5000  -999.2500  -999.2500     2.5908  -999.2500
 2380.0000  -999.2500  -999.2500     2.5938  -999.2500
 2380.5000  -999.2500  -999.2500     2.5928  -999.2500
 2381.0000  -999.2500  -999.2500     2.5917  -999.2500
 2381.5000  -999.2500  -999.2500     2.5905  -999.2500
 2382.0000  -999.2500  -999.2500     2.5893  -999.2500
 2382.5000  -999.2500  -999.2500     2.5881  -999.2500
 2383.0000  -999.2500  -999.2500     2.5869  -999.2500
 2383.5000  -999.2500  -999.2500     2.5857  -999.2500
 2384.0000  -999.2500  -999.2500     2.5846  -999.2500
 2384.5000  -999.2500  -999.2500     2.5834  -999.2500
 2385.0000  -999.2500  -999.2500     2.5822  -999.2500
 2385.5000  -999.2500  -999.2500     2.5810  -999.2500
 2386.0000  -999.2500  -999.2500     2.5798  -999.2500
 2386.5000  -999.2500  -999.2500     2.5786  -999.2500
 2387.0000  -999.2500  -999.2500     2.5774  -999.2500
 2387.5000  -999.2500  -999.2500     2.5763  -999.2500
 2388.0000  -999.2500  -999.2500     2.5751  -999.2500
 2388.5000  -999.2500  -999.2500     2.5739  -999.2500
 2389.0000  -999.2500  -999.2500     2.5727  -999.2500
 2389.5000  -999.2500  -999.2500     2.5715  -999.2500
 2390.0000     4.8855  -999.2500     2.5703  -999.2500
 2390.5000     4.5202    21.6428     2.5719   112.1997
 2391.0000     4.2162    21.5462     2.5766   111.4420
 2391.5000     4.2184    20.9220     2.5795   110.1094
 2392.0000     4.5269    20.9189     2.5738   107.7402
 2392.5000     5.0192    21.1643     2.5570   103.4263
 2393.0000     5.6953    21.7203     2.5526   101.7242
 2393.5000     5.8813    23.1458     2.5515   101.3779
 2394.0000     5.7295    23.6397     2.5527   103.8542
 2394.5000     5.0929    23.1397     2.5606   108.8438
 2395.0000     4.3530    23.0124     2.5755   111.9526
 2395.5000     3.7139    23.1997     2.5856   112.5549
 2396.0000     3.5647    23.3169     2.5859   111.9006
 2396.5000     4.0732    23.1832     2.5806   108.0330
 2397.0000     4.4273    23.1160     2.5760   105.4853
 2397.5000     4.3386    23.0486     2.5775   103.5264
 2398.0000     4.3093    22.9938     2.5790   104.6105
 2398.5000     4.4346    22.9286     2.5774   110.3744
 2399.0000     5.0494    22.8638     2.5727   112.9579
 2399.5000     5.6029    23.6863     2.5634   117.2111
 2400.0000     5.6664    23.7272     2.5572   127.3535
 2400.5000     5.4236    23.5932     2.5591   136.1049
 2401.0000     4.8133    21.7327     2.5668   136.0789
 2401.5000     4.2643    20.6552     2.5716   134.7990
 2402.0000     3.8377    20.2402     2.5779   127.2495
 2402.5000     3.5337    20.2018     2.5868   113.6840
 2403.0000     3.5412    20.4907     2.5879   102.0377
 2403.5000     3.8261    21.5189     2.5783   100.7052
 2404.0000     4.6037    22.3969     2.5672    99.8179
 2404.5000     5.0743    21.8970     2.5646    98.0410
 2405.0000     5.0951    21.5212     2.5645    96.7083
 2405.5000     5.2233    21.5000     2.5537    95.3760
 2406.0000     5.6470    21.8257     2.5505    95.0535
 2406.5000     5.7041    22.6922     2.5551    98.7892
 2407.0000     4.9207    20.5152     2.5876   100.6441
 2407.5000     3.9486    19.8910     2.6014    98.7372
 2408.0000     3.0693    20.1364     2.6014    98.0842
 2408.5000     3.1941    20.7545     2.5983    98.0582
 2409.0000     3.5026    21.1241     2.5812   100.1164
 2409.5000     4.3011    23.2135     2.5657   103.1392
 2410.0000     4.5484    23.1863     2.5690   104.4170
 2410.5000     4.4894    20.7500     2.5739   104.8507
 2411.0000     4.2466    20.3236     2.6024   102.3902
 2411.5000     2.2186    20.3618     2.6291    98.1745
 2412.0000     0.8002    21.3249     2.6417    95.3553
 2412.5000     0.3329    22.4462     2.6428    94.0754
 2413.0000     0.4074    22.6359     2.6396    93.4224
 2413.5000     0.4602    22.7013     2.6394    92.7694
 2414.0000     0.3050    22.6425     2.6427    92.7434
 2414.5000     0.1581    22.4595     2.6410    96.4963
 2415.0000     0.5377    22.2144     2.6346    98.9610
 2415.5000     1.6503    21.9072     2.6116    98.3080
 2416.0000     2.8062    22.1118     2.5791    99.6926
 2416.5000     3.9622    22.8862     2.5775   101.8082
 2417.0000     4.3358    23.3460     2.5852   105.2806
 2417.5000     4.0930    23.2250     2.5914   109.4828
 2418.0000     3.6052    22.4825     2.6006   109.7182
 2418.5000     2.9949    21.8515     2.6068   108.7973
 2419.0000     2.5071    21.3844     2.6114   106.2634
 2419.5000     1.9580    20.7394     2.6145   100.5948
 2420.0000     1.8989    20.3603     2.6177    97.4340
 2420.5000     1.7175    20.1401     2.6225    95.5271
 2421.0000     1.5300    20.8552     2.6267    94.8732
 2421.5000     1.4157    21.7003     2.6247    97.3560
 2422.0000     1.5083    21.8279     2.6155    96.4030
 2422.5000     2.1709    22.8871     2.6033    94.5925
 2423.0000     3.2154    22.5799     2.5965    93.5162
 2423.5000     3.2823    21.9000     2.5949    94.7149
 2424.0000     3.4335    21.7102     2.5901    97.9253
 2424.5000     4.0909    22.3414     2.5709   102.2026
 2425.0000     4.7655    22.5311     2.5614   103.4305
 2425.5000     5.1756    22.3838     2.5629   103.4045
 2426.0000     5.2348    21.9166     2.5675   102.7515
 2426.5000     5.2370    22.2507     2.5675   103.3524
 2427.0000     5.0555    22.4826     2.5644   102.0374
 2427.5000     5.0577    21.8897     2.5628   101.3323
 2428.0000     5.1212    21.5572     2.5627    99.9998
 2428.5000     5.1234    21.4984     2.5643    98.0409
 2429.0000     5.0644    21.6532     2.5673    98.9186
 2429.5000     4.8829    21.6027     2.5673   101.6456
 2430.0000     4.8239    21.2899     2.5655    99.6290
 2430.5000     5.3421    21.3007     2.5605    96.2348
 2431.0000     5.8784    21.5167     2.5560    95.5818
 2431.5000     5.9332    22.5760     2.5548    95.5558
 2432.0000     5.7980    23.6352     2.5563    96.1568
 2432.5000     5.5575    24.6323     2.5547    96.7583
 2433.0000     5.3273    24.7599     2.5531    99.3308
 2433.5000     5.4670    24.7632     2.5538   102.4207
 2434.0000     5.8836    24.0212     2.5546   102.9493
 2434.5000     5.8540    23.4639     2.5554   103.7231
 2435.0000     5.5373    23.3446     2.5637   105.2296
 2435.5000     5.1558    24.3864     2.5684   106.9070
 2436.0000     5.0356    24.7801     2.5687   107.8541
 2436.5000     5.0378    24.0870     2.5664   109.7028
 2437.0000     4.9788    22.5881     2.5698   112.1846
 2437.5000     4.4297    22.3675     2.5759   112.7885
 2438.0000     4.0644    23.5366     2.5821   110.8787
 2438.5000     3.8829    24.8056     2.5836   108.9718
 2439.0000     3.7006    25.9363     2.5852   107.6917
 2439.5000     3.6423    26.5076     2.5866   107.0376
 2440.0000     3.8434    26.3769     2.5832   107.1246
 2440.5000     4.1371    25.2283     2.5803   108.2408
 2441.0000     4.0499    24.8921     2.5842   107.3667
 2441.5000     3.6256    24.6405     2.5894   109.2547
 2442.0000     3.4085    23.9565     2.5941   110.9832
 2442.5000     3.4965    23.8307     2.5925   110.0046
 2443.0000     3.5360    24.0892     2.5910   108.7247
 2443.5000     3.6000    24.3972     2.5886   107.9214
 2444.0000     3.8268    24.4005     2.5823   106.7918
 2444.5000     4.1559    24.3417     2.5816   103.6310
 2445.0000     4.4031    23.9103     2.5800   104.8589
 2445.5000     4.8954    23.3546     2.5753   109.3225
 2446.0000     5.3877    23.1095     2.5706   111.1771
 2446.5000     5.6962    23.1128     2.5551   111.6775
 2447.0000     5.7597    23.1161     2.5532   110.3933
 2447.5000     5.1494    23.1858     2.5582   109.1244
 2448.0000     3.6815    23.3939     2.5813   105.9647
 2448.5000     3.3774    23.5609     2.5905   102.8051
 2449.0000     3.4410    23.3219     2.5900    99.6455
 2449.5000     3.5755    22.3881     2.5810    96.4858
 2450.0000     3.9393    20.2794     2.5747    93.3262
 2450.5000     4.5669    20.0726     2.5734    91.8754
 2451.0000     4.6750    20.0305     2.5738    91.3679
 2451.5000     4.4709    20.5979     2.5749    95.4721
 2452.0000     4.4349    21.1685     2.5706    99.4642
