~VERSION INFORMATION
 VERS.               2.10:   CWLS LOG ASCII STANDARD - VERSION 2.10
 WRAP.                 NO:   ONE LINE PER DEPTH STEP
~WELL INFORMATION
#MNEM.UNIT      DATA TYPE    INFORMATION
#----------   ------------   ------------------------------
 STRT.F         2379.5000:   START DEPTH
 STOP.F         5659.0000:   STOP DEPTH
 STEP.F            0.5000:   STEP LENGTH
 NULL.          -999.2500:   NO VALUE
 COMP. Lawrence Allison and Asociates:   COMPANY
 WELL.            43 X 10:   WELL
 FLD .           N.P.R. 3:   FIELD
 LOC . 10-38N-78W-NATRONA-WY:   LOCATION
 STAT.                 WY:   STATE
 COUN.            Natrona:   COUNTY
 SRVC.      Dresser Atlas:   SERVICE COMPANY
 DATE.                   :   LOGDATE
 APIN.         4902511207:   API NUMBER
~CURVE INFORMATION
#MNEM.UNIT       API CODE    CURVE DESCRIPTION
#----------   ------------   ------------------------------
 DEPT.F                  :
 DPHI.none   42 890 12 00:   Den. Porosity, Ss [%]
 CNL .none               :   Compensated Neutron Log
 RHOB.gm/cc  42 350 01 00:   Bulk Density
 GR  .GAPI   42 310 00 00:   Gamma Ray
~PARAMETER INFORMATION
#MNEM.UNIT          VALUE    DESCRIPTION
#----------   ------------   ------------------------------
 EKB .F         5215.0000:   Kelly bushing
 EGL .F         5203.0000:   Ground level
 EDF .F            0.0000:   Drilling floor
 EPD .F           10.0000:   Permanent datum
 TD  .F         3268.0000:   Total depth
 NRUN.             1.0000:   Number of Runs
#--RUN 1---   ------------   The following are for Run 1---
 RUN .             1.0000:   Run 1
 DATE.mm/dd/yyyy 02/19/1985:   Date Logged
 DD  .ft             5650:   Depth Driller
 DL  .ft             5649:   Depth Logger
 BLI .ft             5647:   Bottom Log Interval
 TLI .ft             2400:   Top Log Interval
 CSS .inch          9.625:   Casing Size
 CTD1.ft              510:   Casing Driller 1
 CTL1.ft       not logged:   Casing Logger 1
 BS  .inch            8.5:   Bit Size
 DFT .            kcl gel:   Type Fluid In Hole
 DFD .lb/gal          9.5:   Mud Weight
 DFV .sec              44:   Viscosity
 DFPH.                8.5:   pH
 DFL .cc              9.0:   Fluid Loss
 WSS .           flowline:   Source Of Sample
 RM  .ohmm            .32:   Rm
 EMT .F                74:   Rm Meas. Temp.
 RMF .ohmm            .26:   Rmf
 MFT .F                74:   Rmf Meas. Temp.
 RMC .ohmm            .40:   Rmc
 MCST.F                74:   Rmc Meas. Temp.
 MFSS.               meas:   Source Rmf.
 MCSS.               calc:   Source Rmc.
 RMB .ohmm            .14:   Rm. At BHT
 BHT .F               164:   BHT.
 TCS .hh:mm         8 hrs:   Time Circ. Stopped
 MRT .F               170:   Maximum Recorded Temp.
 LUL .               Glte:   Logging Unit Location
 ENGI.               Hack:   Recorded By
 WITN.         Mr. Strong:   Witnessed By
 DGBY.              Burke:   Digitized By
~A  DEPTH     DPHI        CNL       RHOB         GR
# ...
 5372.5000  -999.2500     9.8090     2.8184    16.2332
 5373.0000  -999.2500    10.4165     2.8058    18.1133
 5373.5000  -999.2500    10.6638     2.7685    18.0946
 5374.0000    -5.2640    10.4961     2.7472    17.4393
 5374.5000    -5.1379     8.8468     2.7508    16.7622
 5375.0000    -5.5704     7.3455     2.7732    15.5063
 5375.5000    -6.7844     5.8441     2.8081    15.4873
 5376.0000    -8.4144     4.3435     2.8185    16.1028
 5376.5000  -999.2500     4.0381     2.8208    15.3235
 5377.0000  -999.2500     3.7948     2.8149    13.8645
 5377.5000  -999.2500     3.7999     2.7883    12.2468
 5378.0000    -8.8339     3.8051     2.7729    12.4258
 5378.5000    -7.9738     4.0587     2.7620    13.6966
 5379.0000    -7.1137     4.1907     2.7574    16.4816
 5379.5000    -6.2535     4.3230     2.7558    18.7711
 5380.0000    -6.0000     4.5964     2.7450    20.3382
 5380.5000    -5.8163     4.9208     2.7434    27.3417
 5381.0000    -5.2038     5.2314     2.7434    31.1554
 5381.5000    -5.2652     5.4908     2.7480    31.3478
 5382.0000    -5.5103     5.8719     2.7526    29.1610
 5382.5000    -5.7554     6.4279     2.7557    27.2437
 5383.0000    -5.8779     7.0552     2.7523    23.4276
 5383.5000    -5.8768     7.7661     2.7384    20.2444
 5384.0000    -5.6084     8.7463     2.7325    18.9599
 5384.5000    -4.8722     9.6281     2.7351    17.6755
 5385.0000    -4.6531    10.6501     2.7448    17.0239
 5385.5000    -4.8077    11.2143     2.7425    16.3724
 5386.0000    -5.0208    11.4058     2.7308    16.9873
 5386.5000    -4.6827    11.3488     2.7179    18.2338
 5387.0000    -4.0897    11.1050     2.7051    19.4823
 5387.5000    -3.2441    11.1107     2.6921    20.8602
 5388.0000    -2.6248    11.1230     2.6937    40.5061
 5388.5000    -2.6089    10.9968     2.6906    71.8535
 5389.0000    -2.5098    10.6914     2.6859   103.2008
 5389.5000    -2.2649    10.0693     2.6751   123.1823
 5390.0000    -2.0199     9.5135     2.6689   119.9991
 5390.5000    -1.6525     9.2644     2.6642   116.8159
 5391.0000    -0.9175     9.0971     2.6657   112.3669
 5391.5000    -1.0400     9.4649     2.6735   109.1634
 5392.0000    -1.7164    10.2226     2.6796   107.8307
 5392.5000    -1.8365    12.2199     2.6796   104.5992
 5393.0000    -1.7364    12.4735     2.6778   102.7987
 5393.5000    -1.2316    12.6029     2.6607   105.7337
 5394.0000    -0.2441    12.6702     2.6548   109.3488
 5394.5000    -0.5100    12.6132     2.6563   111.7563
 5395.0000    -0.5751    12.6805     2.6563   112.8507
 5395.5000    -0.5836    12.7477     2.6558   111.1770
 5396.0000    -0.3298    13.4982     2.6511   105.1649
 5396.5000     0.8474    14.9344     2.6396   102.1613
 5397.0000     3.8583    16.3991     2.6071   100.7468
 5397.5000     6.8692    17.8638     2.5704   101.3305
 5398.0000    10.2300    19.0149     2.5336   106.1327
 5398.5000    10.9037    18.1083     2.4968   111.5805
 5399.0000     8.3431    14.9927     2.4913   113.5888
 5399.5000     5.5388    14.2193     2.5625   108.8763
 5400.0000     2.7344    13.9128     2.6236    90.5002
 5400.5000     0.8717    13.8010     2.6340    92.3619
 5401.0000     0.8543    15.0396     2.6366    95.4894
 5401.5000     0.2695    16.9690     2.6489    97.3511
 5402.0000    -0.3784    17.2214     2.6754    98.0293
 5402.5000    -1.3619    17.7223     2.6867    94.7454
 5403.0000    -2.3811    18.3473     2.7005    95.3413
 5403.5000    -2.7498    19.0345     2.7051    97.2913
 5404.0000    -2.6727    19.2948     2.7050   104.8610
 5404.5000    -1.0915    20.9094     2.6988   105.9898
 5405.0000    -0.7932    21.1087     2.6879   103.9342
 5405.5000    -0.8645    21.4023     2.6723   103.3798
 5406.0000    -0.9794    22.1174     2.6723   104.1561
 5406.5000     0.1541    23.9604     2.6652   106.8971
 5407.0000     1.4745    24.0932     2.6318   108.9692
 5407.5000     2.9117    23.3519     2.5984   108.3649
 5408.0000     3.5488    23.6864     2.5950   105.0975
 5408.5000     1.9464    24.7781     2.6209   100.1611
 5409.0000     0.5836    25.4077     2.6440    94.2457
 5409.5000    -0.2626    25.5425     2.6563    93.5758
 5410.0000    -0.1437    25.4514     2.6547    91.6400
 5410.5000     0.7178    26.4870     2.6500    89.7043
 5411.0000     2.2897    27.1703     2.6392    81.4394
 5411.5000     3.1097    27.2985     2.6212    73.3272
 5412.0000     3.6841    26.3087     2.6032    63.0244
 5412.5000     3.7213    25.8778     2.5951    59.1826
 5413.0000     3.2304    25.8193     2.5969    59.7785
 5413.5000     2.7387    25.8857     2.6062    59.7342
 5414.0000     2.7041    25.8969     2.6109    57.2990
 5414.5000     2.6499    24.7135     2.6093    57.1253
 5415.0000     2.9799    24.4069     2.6076    60.6014
 5415.5000     6.0942    24.2239     2.5906    64.6382
 5416.0000     8.5519    23.4498     2.5318    68.3987
 5416.5000     6.5352    22.0758     2.5618    67.7287
 5417.0000     4.1993    18.1716     2.5957    65.7930
 5417.5000     1.8634    12.9797     2.6297    56.8952
 5418.0000    -0.2404     8.9698     2.6567    49.2632
 5418.5000    -0.3361     8.5353     2.6534    47.9604
 5419.0000     0.7998     8.5392     2.6429    46.0246
 5419.5000     1.4509     8.8537     2.6132    39.6582
 5420.0000     4.8347    10.2241     2.5835    40.2962
 5420.5000     8.3213     9.9175     2.5538    41.5559
 5421.0000     8.4374     9.4867     2.5240    42.0791
 5421.5000     8.5535     8.1863     2.5140    36.4127
 5422.0000     8.2309     7.0101     2.5201    31.1821
 5422.5000     8.2911     6.6414     2.5193    26.5832
 5423.0000     8.1884     6.3969     2.5201    21.9829
 5423.5000     7.4555     6.1480     2.5318    17.0211
 5424.0000     5.9035     5.9700     2.5738    14.3292
 5424.5000     4.0519     5.9740     2.5983    12.9930
 5425.0000     2.5267     5.7815     2.6113    11.6557
 5425.5000     1.7292     5.5345     2.6237    11.9806
 5426.0000     1.1767     5.3337     2.6356    13.2094
 5426.5000     0.8079     5.1460     2.6419    15.0711
 5427.0000     0.5602     4.8753     2.6492    15.6709
 5427.5000     0.0674     4.5461     2.6538    15.6300
 5428.0000     0.1362     4.4497     2.6522    16.2279
 5428.5000     0.3299     4.4537     2.6460    16.1889
 5429.0000     0.5788     4.4578     2.6382    15.5189
 5429.5000     0.8828     4.5239     2.6335    15.4810
 5430.0000     1.3508     4.5909     2.6318    15.3797
 5430.5000     1.3495     4.5327     2.6318    14.7721
 5431.0000     1.3482     4.5366     2.6317    14.7342
 5431.5000     1.5056     4.6027     2.6316    14.6962
 5432.0000     1.8827     4.6067     2.6307    15.2968
 5432.5000     2.2613     4.6727     2.6215    15.8927
 5433.0000     2.4170     4.6767     2.6160    15.8481
 5433.5000     2.4711     4.6806     2.6144    16.7354
 5434.0000     2.3207     4.6846     2.6149    17.9962
 5434.5000     2.2583     4.7506     2.6158    19.2564
 5435.0000     2.2571     4.7547     2.6157    20.1266
 5435.5000     2.2559     4.7585     2.6156    21.9812
 5436.0000     2.0709     4.7004     2.6171    22.1260
 5436.5000     1.7635     4.6945     2.6186    20.6414
 5437.0000     1.5172     4.5841     2.6216    19.9714
 5437.5000     1.0872     4.5109     2.6262    19.3015
 5438.0000     0.6573     4.3880     2.6323    19.8974
 5438.5000     0.3493     4.3272     2.6446    20.4937
 5439.0000     0.1648     4.2893     2.6368    20.4557
 5439.5000     1.5387     4.2941     2.6289    20.4177
 5440.0000     1.9388     4.2360     2.6243    19.6630
 5440.5000     1.8655     4.1780     2.6279    18.3264
 5441.0000     1.4612     4.1199     2.6404    17.1392
 5441.5000     0.7679     4.0618     2.6511    17.7395
 5442.0000     0.4072     3.9423     2.6569    17.0633
 5442.5000     0.0519     3.8842     2.6579    16.3924
 5443.0000    -0.1511     3.8881     2.6541    15.7215
 5443.5000    -0.0646     3.9542     2.6538    15.6835
 5444.0000     0.0300     4.1445     2.6569    16.2785
 5444.5000    -0.1870     4.2726     2.6592    16.2331
 5445.0000    -0.3400     4.3387     2.6421    16.8290
