~VERSION INFORMATION
 VERS.               2.10:   CWLS LOG ASCII STANDARD - VERSION 2.10
 WRAP.                 NO:   ONE LINE PER DEPTH STEP
~WELL INFORMATION
#MNEM.UNIT      DATA TYPE    INFORMATION
#----------   ------------   ------------------------------
 STRT.F         2379.5000:   START DEPTH
 STOP.F         5659.0000:   STOP DEPTH
 STEP.F            0.5000:   STEP LENGTH
 NULL.          -999.2500:   NO VALUE
 COMP. Lawrence Allison and Asociates:   COMPANY
 WELL.            43 X 10:   WELL
 FLD .           N.P.R. 3:   FIELD
 LOC . 10-38N-78W-NATRONA-WY:   LOCATION
 STAT.                 WY:   STATE
 COUN.            Natrona:   COUNTY
 SRVC.      Dresser Atlas:   SERVICE COMPANY
 DATE.                   :   LOGDATE
 APIN.         4902511207:   API NUMBER
~CURVE INFORMATION
#MNEM.UNIT       API CODE    CURVE DESCRIPTION
#----------   ------------   ------------------------------
 DEPT.F                  :
 DPHI.none   42 890 12 00:   Den. Porosity, Ss [%]
 CNL .none               :   Compensated Neutron Log
 RHOB.gm/cc  42 350 01 00:   Bulk Density
 GR  .GAPI   42 310 00 00:   Gamma Ray
~PARAMETER INFORMATION
#MNEM.UNIT          VALUE    DESCRIPTION
#----------   ------------   ------------------------------
 EKB .F         5215.0000:   Kelly bushing
 EGL .F         5203.0000:   Ground level
 EDF .F            0.0000:   Drilling floor
 EPD .F           10.0000:   Permanent datum
 TD  .F         3268.0000:   Total depth
 NRUN.             1.0000:   Number of Runs
#--RUN 1---   ------------   The following are for Run 1---
 RUN .             1.0000:   Run 1
 DATE.mm/dd/yyyy 02/19/1985:   Date Logged
 DD  .ft             5650:   Depth Driller
 DL  .ft             5649:   Depth Logger
 BLI .ft             5647:   Bottom Log Interval
 TLI .ft             2400:   Top Log Interval
 CSS .inch          9.625:   Casing Size
 CTD1.ft              510:   Casing Driller 1
 CTL1.ft       not logged:   Casing Logger 1
 BS  .inch            8.5:   Bit Size
 DFT .            kcl gel:   Type Fluid In Hole
 DFD .lb/gal          9.5:   Mud Weight
 DFV .sec              44:   Viscosity
 DFPH.                8.5:   pH
 DFL .cc              9.0:   Fluid Loss
 WSS .           flowline:   Source Of Sample
 RM  .ohmm            .32:   Rm
 EMT .F                74:   Rm Meas. Temp.
 RMF .ohmm            .26:   Rmf
 MFT .F                74:   Rmf Meas. Temp.
 RMC .ohmm            .40:   Rmc
 MCST.F                74:   Rmc Meas. Temp.
 MFSS.               meas:   Source Rmf.
 MCSS.               calc:   Source Rmc.
 RMB .ohmm            .14:   Rm. At BHT
 BHT .F               164:   BHT.
 TCS .hh:mm         8 hrs:   Time Circ. Stopped
 MRT .F               170:   Maximum Recorded Temp.
 LUL .               Glte:   Logging Unit Location
 ENGI.               Hack:   Recorded By
 WITN.         Mr. Strong:   Witnessed By
 DGBY.              Burke:   Digitized By
~A  DEPTH     DPHI        CNL       RHOB         GR
# ...
 3036.5000    10.5997    23.7948     2.4858   106.2089
 3037.0000    11.0425    23.8578     2.4692   105.3015
 3037.5000    11.4855    24.2314     2.4563   103.4018
 3038.0000    11.8454    24.1702     2.4532   100.7636
 3038.5000    12.0245    24.1089     2.4531   101.0696
 3039.0000    11.6909    24.2963     2.4624   102.3130
 3039.5000    11.2261    24.2145     2.4687   102.9274
 3040.0000    11.3849    23.8632     2.4638   106.0735
 3040.5000    12.0001    23.8892     2.4375   109.8525
 3041.0000    12.6154    23.8072     2.4189   111.0998
 3041.5000    13.5981    23.0134     2.4096   111.7152
 3042.0000    14.0296    22.3145     2.4065   109.1641
 3042.5000    14.3998    22.6880     2.4049   109.1456
 3043.0000    14.5250    23.6206     2.4017   109.7995
 3043.5000    14.7134    24.6153     2.4017   111.0074
 3044.0000    14.9037    25.6100     2.4035   109.5029
 3044.5000    15.0845    25.9836     2.4083   107.8038
 3045.0000    14.9728    25.7981     2.4192   107.1545
 3045.5000    14.5489    24.9047     2.4255   107.9800
 3046.0000    14.1727    24.0935     2.4293   109.0163
 3046.5000    13.8332    22.9314     2.4314   109.9103
 3047.0000    13.6282    23.0399     2.4316   111.5101
 3047.5000    13.6922    23.7779     2.4268   114.4469
 3048.0000    13.7309    24.7801     2.4245   117.1646
 3048.5000    13.8207    25.7823     2.4306   113.3450
 3049.0000    13.7617    26.2031     2.4398   108.2633
 3049.5000    13.3972    25.3718     2.4459   103.1815
 3050.0000    12.7261    25.0000     2.4474   103.1630
 3050.5000    12.4836    24.1174     2.4474   103.1445
 3051.0000    12.5477    23.2348     2.4504   103.7590
 3051.5000    12.1773    22.2489     2.4799   104.3734
 3052.0000    11.5357    21.3393     2.4860   105.6539
 3052.5000    10.1667    21.0297     2.4859   107.0728
 3053.0000    10.2434    21.4032     2.4849   110.9563
 3053.5000    10.5438    22.7706     2.4725   113.7932
 3054.0000    11.2339    23.0282     2.4559   112.1597
 3054.5000    12.0596    21.7786     2.4480   109.5405
 3055.0000    12.4808    20.7236     2.4587   105.5597
 3055.5000    11.1807    20.1531     2.4911    94.8521
 3056.0000     9.5468    19.6986     2.5103    83.3165
 3056.5000     8.9031    19.3351     2.5288    83.5694
 3057.0000     7.9257    19.1413     2.5287    85.3482
 3057.5000     7.7446    18.7200     2.5287    85.7941
 3058.0000     7.6245    18.8161     2.5271    85.1392
 3058.5000     7.7499    19.2685     2.5255    85.1203
 3059.0000     7.9364    19.3356     2.5223    85.1013
 3059.5000     8.2463    19.6763     2.5192    86.0605
 3060.0000     8.6278    20.3604     2.5160    90.7558
 3060.5000     8.8100    20.6719     2.5129    93.9019
 3061.0000     8.7817    20.4243     2.5147    93.2505
 3061.5000     8.6236    19.9904     2.5140    93.8671
 3062.0000     8.5650    19.2460     2.5113    94.4810
 3062.5000     8.8362    18.6258     2.5135    93.8280
 3063.0000     8.5944    17.8607     2.5247    91.2778
 3063.5000     7.5021    17.4310     2.5366    89.9935
 3064.0000     7.0033    17.1626     2.5413    90.6330
 3064.5000     6.6808    16.8407     2.5441    93.9324
 3065.0000     6.8059    16.7048     2.5326    99.1784
 3065.5000     8.1562    17.5016     2.5202   103.3390
 3066.0000     8.4652    18.6518     2.5155   103.0253
 3066.5000     8.5904    19.3800     2.5108   102.5380
 3067.0000     8.7156    20.1082     2.5092   104.7202
 3067.5000     8.8407    20.8364     2.5061   106.0287
 3068.0000     8.9725    21.5554     2.5045   104.7086
 3068.5000     9.1666    21.5563     2.5046   104.3608
 3069.0000     9.3388    20.8740     2.5096   104.3380
 3069.5000     8.8866    20.8581     2.5178   104.3195
 3070.0000     7.8439    21.0000     2.5289   104.3010
 3070.5000     7.4479    21.1417     2.5321   103.6496
 3071.0000     7.6516    21.9752     2.5252   104.2641
 3071.5000     8.1871    22.5183     2.5243   104.3320
 3072.0000     8.2807    22.8381     2.5242   101.6955
 3072.5000     8.1945    22.9921     2.5211    99.1453
 3073.0000     8.2589    22.4591     2.5210    98.4568
 3073.5000     8.3841    22.1287     2.5225    96.5767
 3074.0000     8.4481    21.8397     2.5194    97.9117
 3074.5000     8.5732    21.9402     2.5070    97.8038
 3075.0000     9.4948    22.0654     2.4915    97.1519
 3075.5000     9.8650    22.0663     2.4884    96.3070
 3076.0000    10.1176    22.0051     2.4868    95.8514
 3076.5000    10.3055    21.4470     2.4883    97.9907
 3077.0000    10.3630    21.0131     2.4903    99.2724
 3077.5000    10.0934    21.2003     2.4963   100.5535
 3078.0000     9.7823    21.3875     2.4994    99.8356
 3078.5000     9.4926    21.2477     2.5010    98.2814
 3079.0000     9.3691    20.8181     2.5026    99.5288
 3079.5000     9.2744    20.0066     2.5102    98.8774
 3080.0000     9.2159    19.0104     2.5276    98.2260
 3080.5000     7.6266    18.1874     2.5343    96.3088
 3081.0000     7.3842    18.0060     2.5388    94.3916
 3081.5000     6.5906    18.1684     2.5434    88.6769
 3082.0000     6.4095    18.7244     2.5511    84.2152
 3082.5000     6.8409    19.2222     2.5495    83.5283
 3083.0000     7.4562    19.5337     2.5325    83.6389
 3083.5000     7.8264    19.7830     2.5294    84.8055
 3084.0000     7.8291    19.8460     2.5293    85.0886
 3084.5000     7.4930    19.5985     2.5357    87.0382
 3085.0000     6.9495    19.2267     2.5436    89.3988
 3085.5000     6.6476    19.9937     2.5496    90.4278
 3086.0000     6.5534    20.4708     2.5508    89.8230
 3086.5000     6.6996    20.3599     2.5461    87.8544
 3087.0000     6.9141    20.0378     2.5377    88.5579
 3087.5000     7.1363    20.3907     2.5337    90.3446
 3088.0000     7.5473    20.8349     2.5297    89.6932
 3088.5000     7.8027    20.8523     2.5282    88.4089
 3089.0000     7.8392    20.3400     2.5288    85.8588
 3089.5000     7.6148    19.6078     2.5319    83.9416
 3090.0000     7.0662    19.6710     2.5380    83.8611
 3090.5000     6.6400    20.5414     2.5426    92.1325
 3091.0000     7.3048    21.6603     2.5379    98.4621
 3091.5000     8.7898    21.7855     2.5178   102.3453
 3092.0000     9.0375    21.7864     2.5069   106.0011
 3092.5000     9.1014    21.7873     2.5053   105.1259
 3093.0000     8.8591    22.0449     2.5101   102.5064
 3093.5000     8.5555    22.2239     2.5148    99.8863
 3094.0000     8.4310    21.8771     2.5145    95.5569
 3094.5000     8.8671    20.8056     2.5114    89.5828
 3095.0000     9.2404    20.3011     2.5055    88.1646
 3095.5000     9.3082    20.4761     2.5004    88.7855
 3096.0000     9.2829    21.3838     2.5004    92.2786
 3096.5000     8.7737    21.5794     2.5067    91.9015
 3097.0000     8.5564    21.4232     2.5126    90.6172
 3097.5000     8.5156    20.6787     2.5126    88.0671
 3098.0000     8.3804    19.0026     2.5125    86.7828
 3098.5000     7.9136    19.1277     2.5156    86.6616
 3099.0000     7.2727    19.4392     2.5186    87.3798
 3099.5000     6.5674    19.9370     2.5310    86.7273
 3100.0000     6.5076    19.2547     2.5510    85.4430
 3100.5000     6.8067    19.3829     2.5478    86.0513
 3101.0000     7.1254    19.6408     2.5416    85.3924
 3101.5000     7.4148    20.1443     2.5291    86.7377
 3102.0000     8.0728    20.7364     2.5182    88.6460
 3102.5000     8.5552    21.5105     2.5180    90.0947
 3103.0000     8.4375    21.6679     2.5180    91.8291
 3103.5000     8.4422    21.5847     2.5195    93.1041
 3104.0000     8.3245    21.4161     2.5194    95.2908
 3104.5000     7.1653    21.6755     2.5226    97.5484
 3105.0000     6.8638    22.1169     2.5344    98.7657
 3105.5000     6.7461    22.3418     2.5412    94.6534
 3106.0000     6.7510    22.3706     2.5423    92.0971
 3106.5000     6.8254    21.6805     2.5338    92.7053
 3107.0000     7.7150    21.1970     2.5238    96.4782
 3107.5000     8.3741    21.9019     2.5159    99.6181
 3108.0000     8.5250    22.7700     2.5102    99.5935
 3108.5000     8.7446    22.7684     2.5061    98.3030
 3109.0000     9.2099    23.0154     2.4985    96.3796
