~Version Information
 VERS.                2.00:   CWLS log ASCII Standard -VERSION 2.00
 WRAP.                  NO:   One line per frame
~Well Information Block
#MNEM.UNIT              Data                Description
#--------- -------------------------------  -------------------------------
 STRT.F                         1005.0000:   Starting Depth
 STOP.F                           -2.7500:   Ending Depth
 STEP.F                           -0.5000:   Level Spacing
 NULL.                          -999.2500:   Absent Value
 COMP.     FLUOR DANIEL (NPSOR), INC.    :   Company
 WELL.     23 X 35                       :   Well
 FLD .     NPR #3                        :   Field
 LOC .                                   :   Location
 CNTY.     NATRONA                       :   County
 STAT.     WYOMING                       :   State
 SRVC.                                   :   Service Company
 LIC .                                   :   License Number
 DATE.     09-SEPT-1994                  :   Log Date
 API .       4902522634                  :   API Number
~Curve Information Block
#MNEM.UNIT       API Codes    Curve Description
#---------    -------------   -------------------------------
 DEPT.F        0   0  0  0:   Depth
 CILD.MMHO     0   0  0  0:   Conductivity of Deep Induction
 GR  .API      0   0  0  0:   Gamma ray counts
 TEN .LBF      0   0  0  0:   Differential Tension
 RILM.OHMM     0   0  0  0:   Resistivity from CILM
 RILD.OHMM     0   0  0  0:   Resistivity from CILD
#  Curve Data
~A
# ...
   501.0000    157.9492    127.9462    -20.5061      6.4307      6.3311
   500.5000    161.9730    124.4037    -17.6528      6.2954      6.1739
   500.0000    165.5248    123.9473    -12.0444      6.2023      6.0414
   499.5000    168.1820    128.5477    -11.7520      6.1237      5.9459
   499.0000    170.1969    132.0680    -18.8734      6.0349      5.8755
   498.5000    171.9549    129.2207    -25.1942      5.9317      5.8155
   498.0000    173.5572    123.3662    -28.1244      5.8319      5.7618
   497.5000    175.0311    120.1758    -29.9354      5.7586      5.7133
   497.0000    176.0454    119.7528    -30.0885      5.7253      5.6804
   496.5000    176.1519    121.2158    -29.9364      5.7297      5.6769
   496.0000    175.5468    124.6412    -32.4297      5.7586      5.6965
   495.5000    174.6324    128.2051    -34.7798      5.8004      5.7263
   495.0000    173.5417    128.8292    -35.8381      5.8455      5.7623
   494.5000    172.5602    127.4875    -34.2817      5.8821      5.7951
   494.0000    171.9616    127.6647    -30.6485      5.9013      5.8153
   493.5000    171.5545    128.1556    -29.2974      5.9049      5.8291
   493.0000    171.0932    126.3403    -31.7581      5.9025      5.8448
   492.5000    170.4597    123.6667    -32.9443      5.9040      5.8665
   492.0000    169.5060    124.4435    -32.4331      5.9178      5.8995
   491.5000    167.9608    128.9059    -33.2758      5.9531      5.9538
   491.0000    165.5130    132.6465    -34.4433      6.0174      6.0418
   490.5000    162.1767    132.8941    -32.3690      6.1147      6.1661
   490.0000    158.4680    129.1820    -26.2587      6.2439      6.3104
   489.5000    154.9470    122.8420    -21.7679      6.3898      6.4538
   489.0000    151.9680    118.9212    -23.9321      6.5281      6.5803
   488.5000    149.9500    119.1005    -29.1498      6.6485      6.6689
   488.0000    149.0473    120.8111    -31.5007      6.7484      6.7093
   487.5000    149.0176    123.8010    -32.2824      6.8102      6.7106
   487.0000    149.5524    127.2303    -34.9981      6.8087      6.6866
   486.5000    150.4908    127.2861    -38.9086      6.7439      6.6449
   486.0000    151.5187    125.3446    -40.5915      6.6458      6.5998
   485.5000    152.3642    123.8902    -38.1887      6.5557      6.5632
   485.0000    153.0056    122.9424    -33.6427      6.5047      6.5357
   484.5000    153.5141    123.0576    -31.1487      6.4969      6.5141
   484.0000    153.9388    123.7912    -30.9746      6.5096      6.4961
   483.5000    154.6035    122.8347    -32.1427      6.5204      6.4682
   483.0000    155.8419    121.3592    -34.9359      6.5275      6.4168
   482.5000    157.4006    121.8042    -38.9778      6.5342      6.3532
   482.0000    158.6385    123.5603    -38.8994      6.5316      6.3036
   481.5000    158.7504    124.0942    -34.8414      6.5138      6.2992
   481.0000    157.0880    121.8109    -33.5097      6.4963      6.3659
   480.5000    154.0620    116.5831    -35.3974      6.4995      6.4909
   480.0000    151.4427    109.5892    -33.6025      6.5190      6.6032
   479.5000    150.8365     98.5413    -28.6471      6.5479      6.6297
   479.0000    151.9866     85.1650    -27.0254      6.6338      6.5795
   478.5000    153.0519     80.7649    -29.7497      6.8567      6.5337
   478.0000    152.4736     92.1749    -32.7299      7.2031      6.5585
   477.5000    150.5718    108.7349    -34.3808      7.4580      6.6413
   477.0000    149.2896    118.5576    -34.9170      7.3756      6.6984
   476.5000    150.2254    123.1451    -36.1980      7.0235      6.6567
   476.0000    152.9033    126.3205    -38.6365      6.6822      6.5401
   475.5000    155.2240    127.3126    -39.3596      6.5123      6.4423
   475.0000    155.5597    126.5686    -37.9594      6.5083      6.4284
   474.5000    153.7820    126.6701    -35.9638      6.5958      6.5027
   474.0000    150.8154    126.8165    -32.3062      6.7111      6.6306
   473.5000    147.7780    125.7564    -27.8919      6.8264      6.7669
   473.0000    145.4143    123.9942    -26.7433      6.9296      6.8769
   472.5000    143.7979    122.3313    -27.8666      7.0128      6.9542
   472.0000    142.7110    121.2575    -28.6197      7.0701      7.0072
   471.5000    142.1449    120.4715    -28.6974      7.0937      7.0351
   471.0000    142.3791    119.1679    -27.8767      7.0764      7.0235
   470.5000    143.6719    117.4077    -25.8256      7.0233      6.9603
   470.0000    145.7523    116.6259    -22.8783      6.9472      6.8610
   469.5000    147.9370    117.2604    -20.9700      6.8624      6.7596
   469.0000    149.8083    119.5022    -21.8233      6.7757      6.6752
   468.5000    151.4648    121.7489    -26.0293      6.6864      6.6022
   468.0000    153.0673    122.4733    -28.4626      6.5908      6.5331
   467.5000    154.7892    122.8589    -25.6532      6.4901      6.4604
   467.0000    156.7330    124.3771    -21.1097      6.3954      6.3803
   466.5000    158.8333    126.8938    -18.4891      6.3271      6.2959
   466.0000    160.9691    128.9019    -18.1350      6.2955      6.2124
   465.5000    162.9812    128.5016    -20.5597      6.2864      6.1357
   465.0000    164.6695    125.4127    -24.1956      6.2673      6.0728
   464.5000    166.0576    124.2977    -26.1046      6.2152      6.0220
   464.0000    167.4330    126.8577    -26.2208      6.1297      5.9725
   463.5000    168.9316    128.7573    -25.4044      6.0301      5.9196
   463.0000    170.3997    127.7033    -24.7867      5.9434      5.8686
   462.5000    171.4010    126.6289    -25.1347      5.8922      5.8343
   462.0000    171.4874    123.8451    -25.1771      5.8822      5.8313
   461.5000    170.6949    118.3767    -24.4259      5.9009      5.8584
   461.0000    169.4834    116.7667    -23.0132      5.9368      5.9003
   460.5000    168.0263    121.5715    -24.3472      5.9900      5.9514
   460.0000    166.1901    124.8922    -28.2159      6.0617      6.0172
   459.5000    164.2207    123.9194    -30.5982      6.1408      6.0894
   459.0000    162.6455    125.3887    -28.7862      6.2090      6.1483
   458.5000    161.8092    128.5837    -25.4678      6.2566      6.1801
   458.0000    161.8874    128.0580    -24.2502      6.2802      6.1771
   457.5000    162.8402    125.9061    -25.8259      6.2757      6.1410
   457.0000    164.2875    125.4310    -27.3005      6.2410      6.0869
   456.5000    165.7872    124.9096    -26.2538      6.1819      6.0318
   456.0000    167.1611    126.4193    -26.5661      6.1070      5.9823
   455.5000    168.2892    129.9059    -30.8355      6.0277      5.9422
   455.0000    168.9504    130.8646    -35.3190      5.9603      5.9189
   454.5000    168.9812    130.1770    -33.4622      5.9229      5.9178
   454.0000    168.3671    130.4310    -27.5766      5.9270      5.9394
   453.5000    167.4028    129.6189    -25.6868      5.9730      5.9736
   453.0000    166.4356    126.9039    -26.4609      6.0498      6.0083
   452.5000    165.8307    124.4369    -25.4104      6.1326      6.0302
   452.0000    166.0213    122.8505    -23.4932      6.1817      6.0233
   451.5000    167.2567    120.7497    -23.3057      6.1681      5.9788
   451.0000    169.0739    119.1149    -25.0082      6.1094      5.9146
   450.5000    170.7703    120.1640    -32.2071      6.0507      5.8558
   450.0000    171.8233    124.0134    -42.0171      6.0043      5.8199
   449.5000    172.0083    128.8172    -45.4871      5.9480      5.8137
   449.0000    171.5887    133.1178    -41.6063      5.8864      5.8279
   448.5000    170.7894    135.2052    -36.4911      5.8653      5.8552
   448.0000    169.1909    133.0975    -34.9375      5.9172      5.9105
   447.5000    166.4266    129.9042    -36.2166      6.0379      6.0087
   447.0000    162.5319    130.3644    -36.4466      6.2078      6.1526
   446.5000    157.1223    134.2217    -34.0899      6.4076      6.3645
   446.0000    149.7878    135.5954    -31.5047      6.6341      6.6761
   445.5000    141.0097    132.4000    -30.6549      6.9025      7.0917
