~Version Information
 VERS.                2.00:   CWLS log ASCII Standard -VERSION 2.00
 WRAP.                  NO:   One line per frame
~Well Information Block
#MNEM.UNIT              Data                Description
#--------- -------------------------------  -------------------------------
 STRT.F                         1005.0000:   Starting Depth
 STOP.F                           -2.7500:   Ending Depth
 STEP.F                           -0.5000:   Level Spacing
 NULL.                          -999.2500:   Absent Value
 COMP.     FLUOR DANIEL (NPSOR), INC.    :   Company
 WELL.     23 X 35                       :   Well
 FLD .     NPR #3                        :   Field
 LOC .                                   :   Location
 CNTY.     NATRONA                       :   County
 STAT.     WYOMING                       :   State
 SRVC.                                   :   Service Company
 LIC .                                   :   License Number
 DATE.     09-SEPT-1994                  :   Log Date
 API .       4902522634                  :   API Number
~Curve Information Block
#MNEM.UNIT       API Codes    Curve Description
#---------    -------------   -------------------------------
 DEPT.F        0   0  0  0:   Depth
 CILD.MMHO     0   0  0  0:   Conductivity of Deep Induction
 GR  .API      0   0  0  0:   Gamma ray counts
 TEN .LBF      0   0  0  0:   Differential Tension
 RILM.OHMM     0   0  0  0:   Resistivity from CILM
 RILD.OHMM     0   0  0  0:   Resistivity from CILD
#  Curve Data
~A
# ...
   109.0000    196.9361    118.2687    -51.9226      5.1073      5.0778
   108.5000    198.0076    122.4860    -47.0972      5.0422      5.0503
   108.0000    199.0246    118.8181    -42.5695      4.9810      5.0245
   107.5000    199.3884    111.4568    -37.5537      4.9457      5.0153
   107.0000    198.6035    108.5097    -30.2496      4.9602      5.0352
   106.5000    196.7737    111.5212    -25.0920      5.0240      5.0820
   106.0000    194.0544    115.0025    -29.8546      5.1104      5.1532
   105.5000    190.6815    115.9267    -38.4084      5.1912      5.2443
   105.0000    187.2201    117.3129    -37.8990      5.2537      5.3413
   104.5000    184.1252    120.1289    -30.6976      5.3065      5.4311
   104.0000    181.3170    118.5229    -27.4326      5.3718      5.5152
   103.5000    178.6430    111.7309    -26.6000      5.4638      5.5978
   103.0000    176.1471    106.4139    -26.3679      5.5704      5.6771
   102.5000    174.0318    105.7742    -28.6996      5.6578      5.7461
   102.0000    172.6887    106.4915    -32.2269      5.7043      5.7908
   101.5000    172.2505    105.6817    -33.8779      5.7196      5.8055
   101.0000    172.2350    103.5105    -36.9328      5.7241      5.8060
   100.5000    172.2593    103.1319    -45.7006      5.7248      5.8052
   100.0000    172.4419    106.1885    -56.6434      5.7115      5.7991
    99.5000    172.9675    108.0840    -63.2820      5.6738      5.7814
    99.0000    174.2416    106.3537    -63.3403      5.6119      5.7392
    98.5000    176.7737    105.1337    -60.7368      5.5388      5.6570
    98.0000    180.2548    107.2629    -58.1583      5.4716      5.5477
    97.5000    183.7748    111.4821    -54.1613      5.4204      5.4414
    97.0000    186.8196    115.1025    -47.0941      5.3758      5.3528
    96.5000    189.4481    115.6528    -44.5462      5.3111      5.2785
    96.0000    191.8960    113.5713    -49.8172      5.2112      5.2112
    95.5000    194.3608    112.4287    -50.7502      5.0959      5.1451
    95.0000    196.8775    112.4324    -39.0610      4.9987      5.0793
    94.5000    199.0495    112.1745    -25.7011      4.9358      5.0239
    94.0000    200.1218    113.1642    -26.0574      4.9168      4.9970
    93.5000    199.7537    116.8869    -34.6541      4.9432      5.0062
    93.0000    198.2686    120.6675    -36.0577      4.9972      5.0437
    92.5000    196.2930    120.6896    -28.0551      5.0420      5.0944
    92.0000    194.4756    116.9045    -21.8996      5.0644      5.1420
    91.5000    193.1660    112.2931    -18.4891      5.0818      5.1769
    91.0000    192.2106    109.8241    -13.7348      5.1079      5.2026
    90.5000    191.2033    110.2573    -14.1047      5.1378      5.2300
    90.0000    189.8692    111.0256    -24.3463      5.1702      5.2668
    89.5000    188.0482    110.4384    -36.9303      5.2071      5.3178
    89.0000    185.8545    108.3503    -44.0984      5.2441      5.3806
    88.5000    183.4882    107.2659    -46.0175      5.2853      5.4499
    88.0000    180.8831    110.6214    -45.6676      5.3431      5.5284
    87.5000    178.0518    117.1434    -46.6113      5.4178      5.6163
    87.0000    175.4619    118.4411    -47.4803      5.4936      5.6992
    86.5000    173.6289    112.2729    -43.4357      5.5535      5.7594
    86.0000    172.7824    108.8681    -36.3310      5.5942      5.7876
    85.5000    172.9025    111.8358    -30.1325      5.6229      5.7836
    85.0000    173.6444    114.2203    -24.9426      5.6369      5.7589
    84.5000    174.4808    112.8494    -23.4722      5.6222      5.7313
    84.0000    175.1048    110.8464    -28.1948      5.5769      5.7109
    83.5000    175.5884    107.9797    -35.7363      5.5168      5.6951
    83.0000    176.0309    104.2351    -38.1525      5.4679      5.6808
    82.5000    176.1237    101.7164    -33.0904      5.4576      5.6778
    82.0000    175.5372    101.6917    -29.3178      5.4977      5.6968
    81.5000    174.6042    106.0681    -31.8502      5.5708      5.7272
    81.0000    173.7416    111.2852    -35.9119      5.6476      5.7557
    80.5000    173.1129    111.7658    -39.3102      5.7143      5.7766
    80.0000    173.1005    110.2623    -43.6781      5.7678      5.7770
    79.5000    174.1534    111.1854    -44.3851      5.7790      5.7421
    79.0000    176.3442    112.1808    -39.4853      5.7119      5.6707
    78.5000    179.3360    112.5742    -34.9094      5.5836      5.5761
    78.0000    182.4644    114.4972    -31.2494      5.4537      5.4805
    77.5000    185.0804    116.2243    -24.2496      5.3537      5.4031
    77.0000    186.9899    115.1950    -15.3278      5.2720      5.3479
    76.5000    188.3551    113.2371    -11.2216      5.1936      5.3091
    76.0000    189.5115    112.0677    -11.3689      5.1295      5.2767
    75.5000    190.5276    111.5819    -12.0978      5.1057      5.2486
    75.0000    191.1004    110.7991    -11.6791      5.1275      5.2329
    74.5000    191.6576    110.1153     -9.3263      5.1547      5.2176
    74.0000    193.3736    109.1859    -10.0595      5.1309      5.1713
    73.5000    196.8059    106.9379    -17.6144      5.0537      5.0811
    73.0000    201.5147    104.6168    -26.2782      4.9726      4.9624
    72.5000    206.5882    104.3579    -30.7739      4.9087      4.8405
    72.0000    211.4593    106.6391    -34.4696      4.8207      4.7290
    71.5000    216.5467    108.4339    -39.9150      4.6732      4.6179
    71.0000    222.3047    107.8651    -41.5678      4.4979      4.4983
    70.5000    228.1722    107.1962    -36.7607      4.3463      4.3827
    70.0000    233.2341    108.3285    -30.8910      4.2380      4.2875
    69.5000    236.9272    108.4008    -27.0190      4.1685      4.2207
    69.0000    239.0338    106.5824    -23.9763      4.1308      4.1835
    68.5000    239.8525    106.4970    -25.5020      4.1203      4.1692
    68.0000    239.6057    108.4068    -32.3105      4.1371      4.1735
    67.5000    237.8176    109.3436    -38.2067      4.1835      4.2049
    67.0000    234.2613    109.4746    -40.7944      4.2562      4.2687
    66.5000    230.6069    109.3955    -43.0364      4.3445      4.3364
    66.0000    229.0261    107.6475    -44.9802      4.4389      4.3663
    65.5000    225.8252    105.1684    -44.7950      4.5377      4.4282
    65.0000    215.5951    104.8700    -43.8987      4.6423      4.6383
    64.5000    200.8565    106.0026    -46.3060      4.7488      4.9787
    64.0000    186.8924    105.3416    -50.2274      4.8483      5.3507
    63.5000    180.4749    102.4629    -47.1362      4.9468      5.5409
    63.0000    193.9640     99.5170    -36.3847      5.1484      5.1556
    62.5000    218.5941     98.0291    -30.4176      5.7088      4.5747
    62.0000    226.9518     97.2379    -34.4345      6.3196      4.4062
    61.5000    213.8881     96.9419    -39.9208      6.1646      4.6753
    61.0000    198.0738     96.4382    -40.1343      5.8532      5.0486
    60.5000    190.0838     94.0201    -37.1033      6.2888      5.2608
    60.0000    183.2056     88.6923    -35.6557      7.4476      5.4583
    59.5000    149.1507     82.8916    -37.6446      8.0348      6.7046
    59.0000    101.4700     82.0559    -38.0054      6.5051      9.8551
    58.5000    128.4502     88.2797    -33.7318      4.6693      7.7851
    58.0000    260.3921     96.3018    -29.9848      3.7219      3.8404
    57.5000    433.1152    101.9032    -31.8539      3.0787      2.3089
    57.0000    585.3425    107.9179    -37.7642      2.2900      1.7084
    56.5000    526.4324    114.0940    -43.2569      2.0922      1.8996
    56.0000    171.7860    115.6727    -43.9493      3.4037      5.8212
    55.5000   -135.3148    110.0808    -38.1842    280.5452  10000.0000
    55.0000   -204.3411     98.5729    -30.2496  10000.0000  10000.0000
    54.5000   -139.7884     84.8620    -26.0988  10000.0000  10000.0000
    54.0000    -98.6838     74.3109    -26.5984  10000.0000  10000.0000
    53.5000   -100.1817     70.0787    -29.7555  10000.0000  10000.0000
