~Version Information
 VERS.                2.00:   CWLS log ASCII Standard -VERSION 2.00
 WRAP.                  NO:   One line per frame
~Well Information Block
#MNEM.UNIT              Data                Description
#--------- -------------------------------  -------------------------------
 STRT.F                         1005.0000:   Starting Depth
 STOP.F                           -2.7500:   Ending Depth
 STEP.F                           -0.5000:   Level Spacing
 NULL.                          -999.2500:   Absent Value
 COMP.     FLUOR DANIEL (NPSOR), INC.    :   Company
 WELL.     23 X 35                       :   Well
 FLD .     NPR #3                        :   Field
 LOC .                                   :   Location
 CNTY.     NATRONA                       :   County
 STAT.     WYOMING                       :   State
 SRVC.                                   :   Service Company
 LIC .                                   :   License Number
 DATE.     09-SEPT-1994                  :   Log Date
 API .       4902522634                  :   API Number
~Curve Information Block
#MNEM.UNIT       API Codes    Curve Description
#---------    -------------   -------------------------------
 DEPT.F        0   0  0  0:   Depth
 CILD.MMHO     0   0  0  0:   Conductivity of Deep Induction
 GR  .API      0   0  0  0:   Gamma ray counts
 TEN .LBF      0   0  0  0:   Differential Tension
 RILM.OHMM     0   0  0  0:   Resistivity from CILM
 RILD.OHMM     0   0  0  0:   Resistivity from CILD
#  Curve Data
~A
# ...
   949.0000    108.3111     76.3246    207.3826      8.1124      9.2327
   948.5000    107.4069     76.3553    203.9193      8.1166      9.3104
   948.0000    106.0269     80.2346    201.7257      8.1844      9.4316
   947.5000    104.3124     85.9775    205.8643      8.3030      9.5866
   947.0000    102.3756     88.6414    211.6190      8.4670      9.7680
   946.5000    100.1071     85.2533    213.7858      8.6734      9.9893
   946.0000     97.6641     78.8503    211.9448      8.9040     10.2392
   945.5000     95.2698     75.0978    211.9121      9.1163     10.4965
   945.0000     93.1879     75.6354    211.4818      9.2969     10.7310
   944.5000     91.4716     77.9110    211.0993      9.5003     10.9324
   944.0000     90.0672     80.3465    214.0980      9.7472     11.1028
   943.5000     88.7570     81.3505    219.9437      9.9571     11.2667
   943.0000     87.3274     80.0388    219.5322     10.0868     11.4512
   942.5000     85.7096     77.4249    212.8710     10.2156     11.6673
   942.0000     83.9530     77.1002    205.7710     10.3982     11.9114
   941.5000     82.3383     78.5588    203.6042     10.5723     12.1450
   941.0000     81.1596     77.5311    207.1758     10.6673     12.3214
   940.5000     80.2256     75.2601    208.5461     10.7228     12.4648
   940.0000     79.1898     75.0060    204.9102     10.8550     12.6279
   939.5000     78.0670     75.5939    203.4100     11.1052     12.8095
   939.0000     77.0748     75.7334    205.3997     11.3639     12.9744
   938.5000     76.4218     75.8971    207.6742     11.4927     13.0853
   938.0000     76.2170     75.2919    211.3848     11.5205     13.1204
   937.5000     76.3893     74.4616    214.1042     11.5557     13.0908
   937.0000     76.7585     74.3798    213.0723     11.5804     13.0279
   936.5000     77.2458     73.8807    213.1056     11.5103     12.9457
   936.0000     77.8148     73.4383    218.0085     11.3573     12.8510
   935.5000     78.3746     73.7712    222.1092     11.2101     12.7592
   935.0000     78.8048     74.6885    222.3968     11.1170     12.6896
   934.5000     79.0347     75.7792    222.9531     11.0612     12.6527
   934.0000     79.1213     76.0062    225.9513     11.0071     12.6388
   933.5000     79.2328     75.5624    230.6037     10.9591     12.6210
   933.0000     79.4258     76.1565    233.9920     10.9518     12.5904
   932.5000     79.4548     78.1790    233.7364     10.9882     12.5858
   932.0000     79.2042     79.3079    231.9900     11.0600     12.6256
   931.5000     78.7800     78.2271    232.5732     11.1818     12.6936
   931.0000     78.1537     74.9596    231.6862     11.3177     12.7953
   930.5000     77.2617     70.8744    227.9981     11.3625     12.9430
   930.0000     76.3021     67.8918    227.0667     11.3414     13.1058
   929.5000     75.4507     66.3239    228.6679     11.4449     13.2537
   929.0000     74.7152     65.9378    232.4627     11.7422     13.3842
   928.5000     74.1230     66.1050    235.4587     12.0595     13.4911
   928.0000     73.6274     66.7710    235.6051     12.2518     13.5819
   927.5000     73.1222     67.6053    235.5252     12.4345     13.6757
   927.0000     72.3809     67.3450    237.8383     12.7488     13.8158
   926.5000     71.1626     66.0004    237.4294     13.1180     14.0523
   926.0000     69.4585     66.3854    233.9972     13.3870     14.3971
   925.5000     67.6590     70.7702    232.4438     13.5666     14.7800
   925.0000     66.1275     75.4639    229.7921     13.7645     15.1223
   924.5000     64.9117     76.2557    226.6281     14.0132     15.4055
   924.0000     63.8004     74.2442    228.7076     14.2847     15.6739
   923.5000     62.5540     72.4287    232.1077     14.5911     15.9862
   923.0000     61.1328     72.0130    233.8019     14.9731     16.3578
   922.5000     59.8011     73.9258    232.4383     15.3788     16.7221
   922.0000     59.2858     75.7479    224.6346     15.6012     16.8674
   921.5000     60.5091     74.6271    217.4519     15.4428     16.5264
   921.0000     63.8556     72.1747    221.0792     14.9628     15.6603
   920.5000     68.8142     71.4312    228.4748     14.4137     14.5319
   920.0000     74.4372     74.0706    231.1167     13.9285     13.4341
   919.5000     79.9930     80.6396    229.9464     13.3418     12.5011
   919.0000     85.4229     88.4280    227.0114     12.4302     11.7065
   918.5000     91.1935     94.3594    224.7950     11.2951     10.9657
   918.0000     97.3742     96.0788    226.5960     10.2629     10.2697
   917.5000    103.4187     94.4361    228.1509      9.5177      9.6694
   917.0000    108.4932     94.9466    225.2513      9.0725      9.2172
   916.5000    112.0894     97.4239    220.8925      8.8438      8.9214
   916.0000    114.3531     97.6421    220.9173      8.7375      8.7448
   915.5000    115.7445     97.0241    223.1187      8.6834      8.6397
   915.0000    116.6660     97.3487    223.6580      8.6404      8.5715
   914.5000    117.2274     96.7657    223.1608      8.5954      8.5304
   914.0000    117.5396     95.6114    221.7792      8.5454      8.5078
   913.5000    117.7225     95.5290    218.8094      8.4847      8.4946
   913.0000    117.7845     97.1496    216.5957      8.4035      8.4901
   912.5000    117.7030     99.7364    216.4758      8.3043      8.4960
   912.0000    117.4036     98.7849    215.7725      8.2470      8.5176
   911.5000    116.8407     94.9461    212.3044      8.3047      8.5587
   911.0000    116.0654     93.8024    211.6233      8.4552      8.6158
   910.5000    115.0947     95.7165    217.4088      8.5976      8.6885
   910.0000    113.9836     96.2378    220.9832      8.6804      8.7732
   909.5000    112.9898     96.0721    218.1689      8.7294      8.8504
   909.0000    112.3334     97.7546    213.5704      8.7748      8.9021
   908.5000    111.9241    101.6165    209.2629      8.8209      8.9346
   908.0000    111.5037    104.8059    206.4948      8.8675      8.9683
   907.5000    110.8626    104.9881    203.6168      8.9207      9.0202
   907.0000    109.9560    103.2670    199.1195      8.9847      9.0945
   906.5000    108.9688    102.0185    196.2818      9.0511      9.1769
   906.0000    108.2149    100.0056    199.5499      9.1082      9.2409
   905.5000    107.8920     96.6098    200.0818      9.1503      9.2685
   905.0000    107.9348     94.1656    192.0384      9.1807      9.2649
   904.5000    108.0396     93.9986    186.0682      9.2055      9.2559
   904.0000    108.1446     93.7456    189.7091      9.2147      9.2469
   903.5000    108.4921     93.4270    193.8864      9.1980      9.2173
   903.0000    109.1195     95.4708    191.6360      9.1608      9.1643
   902.5000    109.7532     99.2717    189.6279      9.1183      9.1114
   902.0000    110.2091    102.6763    188.3933      9.0807      9.0737
   901.5000    110.4577    105.9639    185.2554      9.0546      9.0532
   901.0000    110.4749    108.1333    182.8139      9.0445      9.0518
   900.5000    110.3261    106.1508    181.4930      9.0514      9.0640
   900.0000    110.1161    101.0450    179.6029      9.0713      9.0813
   899.5000    109.8905     98.3043    178.6800      9.0997      9.1000
   899.0000    109.6422     99.0931    179.6910      9.1312      9.1206
   898.5000    109.4041     97.6326    179.1399      9.1599      9.1404
   898.0000    109.2034     91.4607    175.3874      9.1851      9.1572
   897.5000    109.0043     87.8136    171.7784      9.2097      9.1740
   897.0000    108.8041     89.7185    170.7460      9.2255      9.1908
   896.5000    108.5675     93.6607    171.0052      9.2253      9.2109
   896.0000    108.2330     96.3322    170.3037      9.2211      9.2393
   895.5000    107.8509     95.7744    168.4057      9.2302      9.2721
   895.0000    107.5116     93.1338    166.2152      9.2528      9.3013
   894.5000    107.2103     93.0498    164.8451      9.2799      9.3275
   894.0000    106.9270     95.7401    164.4822      9.3055      9.3522
   893.5000    106.6785     98.1915    163.4059      9.3319      9.3740
