~Version Information
 VERS.                2.00:   CWLS log ASCII Standard -VERSION 2.00
 WRAP.                  NO:   One line per frame
~Well Information Block
#MNEM.UNIT              Data                Description
#--------- -------------------------------  -------------------------------
 STRT.F                         1005.0000:   Starting Depth
 STOP.F                           -2.7500:   Ending Depth
 STEP.F                           -0.5000:   Level Spacing
 NULL.                          -999.2500:   Absent Value
 COMP.     FLUOR DANIEL (NPSOR), INC.    :   Company
 WELL.     23 X 35                       :   Well
 FLD .     NPR #3                        :   Field
 LOC .                                   :   Location
 CNTY.     NATRONA                       :   County
 STAT.     WYOMING                       :   State
 SRVC.                                   :   Service Company
 LIC .                                   :   License Number
 DATE.     09-SEPT-1994                  :   Log Date
 API .       4902522634                  :   API Number
~Curve Information Block
#MNEM.UNIT       API Codes    Curve Description
#---------    -------------   -------------------------------
 DEPT.F        0   0  0  0:   Depth
 CILD.MMHO     0   0  0  0:   Conductivity of Deep Induction
 GR  .API      0   0  0  0:   Gamma ray counts
 TEN .LBF      0   0  0  0:   Differential Tension
 RILM.OHMM     0   0  0  0:   Resistivity from CILM
 RILD.OHMM     0   0  0  0:   Resistivity from CILD
#  Curve Data
~A
# ...
   893.0000    106.4180     98.9408    160.6346      9.3635      9.3969
   892.5000    106.1059     98.4477    156.8539      9.3974      9.4245
   892.0000    105.8176     96.4877    153.1082      9.4227      9.4502
   891.5000    105.6151     93.1029    151.8415      9.4346      9.4683
   891.0000    105.5297     90.5847    153.0901      9.4363      9.4760
   890.5000    105.5708     90.8363    153.2170      9.4317      9.4723
   890.0000    105.6839     92.0219    150.5065      9.4248      9.4622
   889.5000    105.6712     92.1310    146.2487      9.4192      9.4633
   889.0000    105.4547     91.2785    141.5468      9.4184      9.4827
   888.5000    105.1769     91.0182    139.4417      9.4224      9.5078
   888.0000    104.9452     92.6621    141.7377      9.4327      9.5288
   887.5000    104.7191     94.3284    145.5271      9.4495      9.5494
   887.0000    104.5075     94.9388    148.3312      9.4678      9.5687
   886.5000    104.3995     96.1426    149.3893      9.4737      9.5786
   886.0000    104.3869     97.7253    147.5190      9.4583      9.5797
   885.5000    104.3438     97.5994    145.7421      9.4350      9.5837
   885.0000    104.0022     96.0172    143.3524      9.4306      9.6152
   884.5000    103.2034     94.6391    139.0757      9.4565      9.6896
   884.0000    102.0599     93.8055    136.1035      9.5004      9.7982
   883.5000    100.8412     94.4646    132.4465      9.5453      9.9166
   883.0000     99.7424     96.0375    124.7749      9.5977     10.0258
   882.5000     98.8405     96.8916    120.6973      9.6788     10.1173
   882.0000     98.0444     97.1086    124.0545      9.7932     10.1995
   881.5000     97.2789     97.8647    125.5133      9.9176     10.2797
   881.0000     96.5554     98.2000    122.6527     10.0134     10.3567
   880.5000     96.0476     96.5865    120.9679     10.0479     10.4115
   880.0000     95.9631     93.1093    119.6774     10.0251     10.4207
   879.5000     96.2893     90.3415    119.2574      9.9831     10.3854
   879.0000     96.8216     91.5916    121.6115      9.9581     10.3283
   878.5000     97.3501     93.1850    123.2526      9.9513     10.2722
   878.0000     97.6938     90.9974    121.8985      9.9538     10.2361
   877.5000     97.7634     89.1961    123.5231      9.9793     10.2288
   877.0000     97.5788     90.2089    128.3748     10.0320     10.2481
   876.5000     97.1713     90.8456    129.0778     10.0901     10.2911
   876.0000     96.6401     90.6994    124.6309     10.1385     10.3477
   875.5000     96.1530     90.7197    120.4296     10.1904     10.4001
   875.0000     95.7622     88.7269    119.8363     10.2666     10.4425
   874.5000     95.4256     85.7516    120.1709     10.3649     10.4794
   874.0000     95.1445     85.5346    119.6585     10.4642     10.5103
   873.5000     94.9456     86.8865    118.4541     10.5377     10.5323
   873.0000     94.8507     86.9993    117.2740     10.5667     10.5429
   872.5000     94.8454     86.1020    116.9251     10.5497     10.5435
   872.0000     95.0086     85.4084    119.7406     10.5022     10.5254
   871.5000     95.4776     84.9793    122.7000     10.4439     10.4737
   871.0000     96.0129     85.1859    120.9236     10.3888     10.4153
   870.5000     96.2551     86.4656    116.7320     10.3474     10.3891
   870.0000     96.2066     86.2684    115.5309     10.3271     10.3943
   869.5000     96.0040     83.3780    118.8533     10.3345     10.4162
   869.0000     95.6205     80.6154    124.5922     10.3729     10.4580
   868.5000     95.0858     81.8116    125.2162     10.4389     10.5168
   868.0000     94.6143     85.0457    115.8619     10.5133     10.5692
   867.5000     94.3042     87.3862    106.1418     10.5718     10.6040
   867.0000     94.0478     88.1959    106.2540     10.6086     10.6329
   866.5000     93.7872     88.3381    111.3979     10.6315     10.6624
   866.0000     93.6334     89.2348    114.1594     10.6429     10.6800
   865.5000     93.6408     90.9805    114.4357     10.6395     10.6791
   865.0000     93.7139     91.1090    115.1241     10.6277     10.6708
   864.5000     93.6961     88.3086    114.4037     10.6168     10.6728
   864.0000     93.4560     85.4041    111.9838     10.6114     10.7002
   863.5000     93.0324     83.9741    109.2449     10.6193     10.7489
   863.0000     92.4907     83.2059    108.0420     10.6432     10.8119
   862.5000     91.9049     84.0495    107.1392     10.6767     10.8808
   862.0000     91.4277     87.2012    105.0936     10.7205     10.9376
   861.5000     91.1232     90.1059    101.6919     10.7811     10.9742
   861.0000     90.7919     89.7130     99.6282     10.8452     11.0142
   860.5000     90.4433     88.8679    100.5075     10.8947     11.0567
   860.0000     90.1026     90.6098    101.4338     10.9182     11.0985
   859.5000     89.6511     91.5499     99.8125     10.9231     11.1544
   859.0000     89.0649     87.0433     95.5690     10.9264     11.2278
   858.5000     88.5373     81.1953     91.1489     10.9475     11.2947
   858.0000     88.0468     80.4482     88.6739     10.9977     11.3576
   857.5000     87.4374     83.6783     86.2973     11.0869     11.4368
   857.0000     86.7535     85.2965     83.2604     11.2143     11.5269
   856.5000     86.2200     83.6485     81.1596     11.3478     11.5982
   856.0000     85.9214     81.8695     81.9721     11.4372     11.6385
   855.5000     85.7766     80.4425     84.3743     11.4626     11.6582
   855.0000     85.8349     78.7524     87.6521     11.4566     11.6503
   854.5000     86.1573     79.8288     93.0231     11.4459     11.6067
   854.0000     86.5839     82.0683     96.8253     11.4083     11.5495
   853.5000     86.9561     80.5847     93.2074     11.3157     11.5001
   853.0000     87.2876     78.6474     83.2366     11.2060     11.4564
   852.5000     87.5460     81.6217     73.7908     11.1384     11.4226
   852.0000     87.5025     85.3126     67.6389     11.1301     11.4282
   851.5000     86.8854     85.6566     66.7721     11.1780     11.5094
   851.0000     85.5949     85.1412     70.7524     11.3008     11.6829
   850.5000     83.5938     85.9319     74.8985     11.5202     11.9626
   850.0000     80.9026     86.5061     78.3697     11.8310     12.3605
   849.5000     77.9248     85.2004     79.9454     12.1927     12.8329
   849.0000     75.3306     83.5190     77.8049     12.5725     13.2748
   848.5000     73.1653     82.8428     76.3482     13.0092     13.6677
   848.0000     70.8862     82.9333     80.7140     13.5722     14.1071
   847.5000     68.3782     82.8153     85.9603     14.2093     14.6245
   847.0000     66.1105     81.9372     84.8120     14.7237     15.1262
   846.5000     64.3870     79.2995     80.3714     14.9881     15.5311
   846.0000     63.2181     76.8272     77.5249     15.0950     15.8182
   845.5000     62.4829     77.4776     75.6921     15.2237     16.0044
   845.0000     61.9743     77.6427     73.2570     15.4302     16.1357
   844.5000     61.4039     74.5234     73.1088     15.6886     16.2856
   844.0000     60.4796     72.1533     75.2069     16.0010     16.5345
   843.5000     59.1391     73.2329     76.2570     16.3737     16.9093
   843.0000     57.6042     74.5027     75.9675     16.7350     17.3598
   842.5000     56.1251     72.5477     75.7187     17.0111     17.8173
   842.0000     54.7510     68.1033     76.6315     17.2698     18.2645
   841.5000     53.5233     64.4693     76.4809     17.6791     18.6834
   841.0000     52.6163     63.1107     73.2912     18.2807     19.0055
   840.5000     52.0630     62.4529     69.2887     18.8972     19.2075
   840.0000     51.6553     62.9354     68.0800     19.3483     19.3591
   839.5000     51.2873     65.9792     69.1298     19.5944     19.4980
   839.0000     51.1287     68.9065     69.5494     19.5684     19.5585
   838.5000     51.3122     67.9874     68.8071     19.2111     19.4885
   838.0000     51.8592     65.3995     70.3006     18.7335     19.2830
   837.5000     52.6078     65.4859     74.7817     18.4456     19.0086
