~Version Information
 VERS.                2.00:   CWLS log ASCII Standard -VERSION 2.00
 WRAP.                  NO:   One line per frame
~Well Information Block
#MNEM.UNIT              Data                Description
#--------- -------------------------------  -------------------------------
 STRT.F                         1005.0000:   Starting Depth
 STOP.F                           -2.7500:   Ending Depth
 STEP.F                           -0.5000:   Level Spacing
 NULL.                          -999.2500:   Absent Value
 COMP.     FLUOR DANIEL (NPSOR), INC.    :   Company
 WELL.     23 X 35                       :   Well
 FLD .     NPR #3                        :   Field
 LOC .                                   :   Location
 CNTY.     NATRONA                       :   County
 STAT.     WYOMING                       :   State
 SRVC.                                   :   Service Company
 LIC .                                   :   License Number
 DATE.     09-SEPT-1994                  :   Log Date
 API .       4902522634                  :   API Number
~Curve Information Block
#MNEM.UNIT       API Codes    Curve Description
#---------    -------------   -------------------------------
 DEPT.F        0   0  0  0:   Depth
 CILD.MMHO     0   0  0  0:   Conductivity of Deep Induction
 GR  .API      0   0  0  0:   Gamma ray counts
 TEN .LBF      0   0  0  0:   Differential Tension
 RILM.OHMM     0   0  0  0:   Resistivity from CILM
 RILD.OHMM     0   0  0  0:   Resistivity from CILD
#  Curve Data
~A
# ...
   669.0000    132.2872    114.5190    -12.3940      7.5188      7.5593
   668.5000    131.7071    113.3017    -11.6418      7.5646      7.5926
   668.0000    130.8918    111.5211    -14.9313      7.6262      7.6399
   667.5000    130.0728    109.9731    -17.1364      7.6898      7.6880
   667.0000    129.1835    109.8456    -14.0239      7.7558      7.7409
   666.5000    128.1456    110.7190     -9.5486      7.8270      7.8036
   666.0000    127.0975    112.6767     -9.5294      7.8949      7.8680
   665.5000    126.1294    114.5182    -12.1073      7.9468      7.9284
   665.0000    125.0663    115.1385    -11.7916      7.9893      7.9958
   664.5000    123.8769    114.6222    -11.9749      8.0413      8.0725
   664.0000    122.7276    114.0336    -14.9502      8.1093      8.1481
   663.5000    121.5088    113.6746    -17.4411      8.1844      8.2299
   663.0000    120.0141    113.2623    -17.7562      8.2621      8.3324
   662.5000    118.4448    113.4115    -19.2351      8.3404      8.4427
   662.0000    117.1113    114.2953    -21.7889      8.4235      8.5389
   661.5000    115.9004    113.4046    -21.1832      8.5187      8.6281
   661.0000    114.6646    111.4412    -17.2737      8.6209      8.7211
   660.5000    113.5759    110.8307    -16.8021      8.7088      8.8047
   660.0000    112.7597    110.1066    -18.3470      8.7743      8.8684
   659.5000    112.0227    109.7904    -16.4532      8.8296      8.9268
   659.0000    111.1945    113.0401    -15.8615      8.8808      8.9933
   658.5000    110.4543    115.6440    -20.8449      8.9121      9.0535
   658.0000    110.2525    113.9787    -23.6247      8.9081      9.0701
   657.5000    110.7280    112.5614    -21.3939      8.8916      9.0311
   657.0000    111.2935    113.4372    -19.6316      8.9004      8.9853
   656.5000    111.3072    114.5659    -20.9956      8.9442      8.9841
   656.0000    110.6751    114.5418    -25.1884      8.9884      9.0355
   655.5000    109.7986    113.3302    -28.6953      8.9983      9.1076
   655.0000    108.9891    112.1655    -25.2924      8.9772      9.1752
   654.5000    108.2464    111.2423    -17.6656      8.9766      9.2382
   654.0000    107.4091    110.1972    -15.7234      9.0535      9.3102
   653.5000    106.2793    110.8622    -17.6772      9.2162      9.4092
   653.0000    104.6720    114.8205    -15.8740      9.4140      9.5536
   652.5000    102.7648    119.3233    -12.8414      9.5760      9.7310
   652.0000    101.0670    120.0805    -14.1358      9.6720      9.8944
   651.5000     99.9615    117.4128    -14.5610      9.7311     10.0039
   651.0000     99.4056    114.4287    -10.9660      9.8029     10.0598
   650.5000     98.9675    113.0052     -8.1011      9.8984     10.1043
   650.0000     98.3363    112.7277     -6.5203      9.9945     10.1692
   649.5000     97.6351    112.6481     -4.5817     10.0649     10.2422
   649.0000     97.3109    112.9833     -4.2261     10.0909     10.2763
   648.5000     97.7424    114.6783     -7.2581     10.0562     10.2310
   648.0000     99.0690    117.7073    -10.5466      9.9680     10.0940
   647.5000    101.0662    118.7816    -13.8577      9.8495      9.8945
   647.0000    103.2885    118.1459    -15.3607      9.7118      9.6816
   646.5000    105.3634    119.1291    -14.5171      9.5447      9.4910
   646.0000    107.3003    121.3219    -10.2141      9.3370      9.3196
   645.5000    109.4351    120.6874     -2.6074      9.0917      9.1378
   645.0000    112.0565    117.9154      3.1095      8.8388      8.9241
   644.5000    114.9467    117.0054     -0.5749      8.6201      8.6997
   644.0000    117.5322    118.0300     -8.9209      8.4606      8.5083
   643.5000    119.6331    120.6322    -10.8638      8.3537      8.3589
   643.0000    121.5803    126.2410     -9.5017      8.2672      8.2250
   642.5000    123.8659    131.9023    -11.4958      8.1580      8.0732
   642.0000    126.7881    131.1725    -13.6134      8.0026      7.8872
   641.5000    130.0532    125.5453    -13.0052      7.8234      7.6892
   641.0000    132.9642    122.5657    -14.7394      7.6644      7.5208
   640.5000    135.2204    123.5790    -18.9496      7.5356      7.3953
   640.0000    137.1063    124.4213    -20.5659      7.4100      7.2936
   639.5000    138.9581    125.3718    -17.2163      7.2724      7.1964
   639.0000    140.7501    127.5122    -14.2987      7.1465      7.1048
   638.5000    142.0273    128.7400    -16.9208      7.0719      7.0409
   638.0000    142.3715    128.9320    -23.5536      7.0608      7.0239
   637.5000    142.1331    130.7349    -28.7481      7.0807      7.0357
   637.0000    142.0113    134.3816    -27.1014      7.0905      7.0417
   636.5000    142.1191    137.3694    -23.1827      7.0850      7.0364
   636.0000    142.0261    137.5803    -23.6576      7.0874      7.0410
   635.5000    141.5276    134.8628    -25.4907      7.1038      7.0658
   635.0000    140.7608    130.7420    -25.2012      7.1227      7.1043
   634.5000    139.8848    128.3490    -25.4791      7.1377      7.1487
   634.0000    139.0415    128.7140    -24.8566      7.1581      7.1921
   633.5000    138.4412    129.4272    -21.3079      7.1960      7.2233
   633.0000    138.1104    128.9348    -18.0319      7.2465      7.2406
   632.5000    137.7998    129.0575    -18.5544      7.2878      7.2569
   632.0000    137.4899    129.1615    -21.6953      7.3047      7.2733
   631.5000    137.5659    128.4825    -23.8123      7.2956      7.2692
   631.0000    138.1823    128.5941    -24.7023      7.2632      7.2368
   630.5000    139.0623    128.0858    -26.0738      7.2092      7.1910
   630.0000    140.0708    125.4194    -25.3745      7.1425      7.1392
   629.5000    141.1664    124.3336    -21.5617      7.0850      7.0838
   629.0000    142.2296    128.0833    -18.6819      7.0477      7.0309
   628.5000    143.4189    131.8965    -17.7919      7.0138      6.9726
   628.0000    145.0106    130.1735    -16.9293      6.9678      6.8960
   627.5000    146.8171    126.1504    -17.4545      6.9086      6.8112
   627.0000    148.5681    125.7561    -19.1165      6.8389      6.7309
   626.5000    150.2896    127.5582    -20.8550      6.7663      6.6538
   626.0000    151.9579    128.0286    -20.7427      6.6906      6.5808
   625.5000    153.4501    127.9430    -20.6400      6.6028      6.5168
   625.0000    154.6175    128.8363    -21.9283      6.5123      6.4676
   624.5000    155.1901    130.4008    -24.8846      6.4491      6.4437
   624.0000    155.0265    134.1342    -23.7092      6.4352      6.4505
   623.5000    154.1581    137.6647    -18.2088      6.4769      6.4868
   623.0000    152.5124    136.3889    -14.1746      6.5613      6.5568
   622.5000    150.1539    133.3216    -14.4787      6.6670      6.6598
   622.0000    147.3470    133.5785    -18.2811      6.7840      6.7867
   621.5000    144.4720    134.4478    -22.5480      6.9097      6.9218
   621.0000    142.1841    132.1185    -22.9976      7.0293      7.0331
   620.5000    140.6557    127.8828    -21.2844      7.1335      7.1096
   620.0000    139.0774    124.5884    -24.4641      7.2490      7.1902
   619.5000    136.8796    124.0321    -28.7441      7.4028      7.3057
   619.0000    134.3597    126.1142    -27.0419      7.5615      7.4427
   618.5000    132.3246    125.8565    -20.0721      7.6385      7.5572
   618.0000    131.6126    121.4145    -17.4423      7.6081      7.5981
   617.5000    132.0810    115.8940    -22.9958      7.5521      7.5711
   617.0000    132.6487    115.2010    -27.1731      7.5654      7.5387
   616.5000    132.6206    119.5260    -24.1877      7.6637      7.5403
   616.0000    132.1300    123.5735    -20.6787      7.7690      7.5683
   615.5000    131.8669    126.2127    -21.0917      7.7775      7.5834
   615.0000    132.5928    130.5243    -22.4675      7.6725      7.5419
   614.5000    134.2326    133.8427    -22.8445      7.5347      7.4498
   614.0000    136.1203    131.8755    -22.3986      7.4284      7.3464
   613.5000    137.8937    129.2061    -21.6330      7.3575      7.2520
