~Version Information
 VERS.                2.00:   CWLS log ASCII Standard -VERSION 2.00
 WRAP.                  NO:   One line per frame
~Well Information Block
#MNEM.UNIT              Data                Description
#--------- -------------------------------  -------------------------------
 STRT.F                         1005.0000:   Starting Depth
 STOP.F                           -2.7500:   Ending Depth
 STEP.F                           -0.5000:   Level Spacing
 NULL.                          -999.2500:   Absent Value
 COMP.     FLUOR DANIEL (NPSOR), INC.    :   Company
 WELL.     23 X 35                       :   Well
 FLD .     NPR #3                        :   Field
 LOC .                                   :   Location
 CNTY.     NATRONA                       :   County
 STAT.     WYOMING                       :   State
 SRVC.                                   :   Service Company
 LIC .                                   :   License Number
 DATE.     09-SEPT-1994                  :   Log Date
 API .       4902522634                  :   API Number
~Curve Information Block
#MNEM.UNIT       API Codes    Curve Description
#---------    -------------   -------------------------------
 DEPT.F        0   0  0  0:   Depth
 CILD.MMHO     0   0  0  0:   Conductivity of Deep Induction
 GR  .API      0   0  0  0:   Gamma ray counts
 TEN .LBF      0   0  0  0:   Differential Tension
 RILM.OHMM     0   0  0  0:   Resistivity from CILM
 RILD.OHMM     0   0  0  0:   Resistivity from CILD
#  Curve Data
~A
# ...
   389.0000    125.6523    111.5885    -27.0910      7.6257      7.9585
   388.5000    127.4460    112.4870    -26.0025      7.5453      7.8465
   388.0000    130.8456    112.2399    -26.3846      7.4054      7.6426
   387.5000    135.9540    111.6072    -27.8071      7.2417      7.3554
   387.0000    142.2519    111.6225    -27.0807      7.0714      7.0298
   386.5000    148.4392    114.3731    -22.6447      6.9047      6.7368
   386.0000    153.4718    120.8764    -20.2200      6.7513      6.5159
   385.5000    157.3389    126.4380    -23.4472      6.6016      6.3557
   385.0000    160.4713    125.7720    -26.2138      6.4341      6.2316
   384.5000    163.1511    121.3198    -26.8247      6.2556      6.1293
   384.0000    165.5361    120.0682    -27.2429      6.1072      6.0410
   383.5000    167.5346    122.6805    -27.5839      6.0216      5.9689
   383.0000    168.8215    124.0188    -29.6588      5.9958      5.9234
   382.5000    169.2592    120.8273    -34.7130      6.0010      5.9081
   382.0000    169.0293    116.2599    -39.1010      6.0107      5.9161
   381.5000    168.5429    115.2453    -40.0462      6.0200      5.9332
   381.0000    168.1184    118.6021    -39.1428      6.0346      5.9482
   380.5000    167.6305    121.9025    -35.9180      6.0524      5.9655
   380.0000    166.8841    121.3139    -31.6776      6.0658      5.9922
   379.5000    165.7775    118.4315    -31.3534      6.0717      6.0322
   379.0000    164.6249    117.3769    -33.3499      6.0735      6.0744
   378.5000    163.7399    117.6598    -30.3435      6.0810      6.1072
   378.0000    163.0518    115.1450    -27.1465      6.1014      6.1330
   377.5000    162.2194    110.2222    -31.0517      6.1324      6.1645
   377.0000    161.1284    107.6700    -38.6304      6.1655      6.2062
   376.5000    160.0103    109.8206    -41.7438      6.1896      6.2496
   376.0000    159.6812    113.7028    -37.9405      6.1864      6.2625
   375.5000    161.2885    115.7159    -32.7170      6.1366      6.2001
   375.0000    165.1926    116.3355    -32.1497      6.0384      6.0535
   374.5000    170.6820    118.7876    -34.6367      5.8997      5.8588
   374.0000    176.8956    120.9992    -35.5834      5.7146      5.6531
   373.5000    183.5363    120.0979    -34.5901      5.4787      5.4485
   373.0000    190.5030    117.3945    -34.1527      5.2267      5.2493
   372.5000    197.1067    115.7784    -36.3401      5.0160      5.0734
   372.0000    202.3607    114.6855    -38.3644      4.8723      4.9417
   371.5000    206.6774    114.5381    -35.5947      4.7859      4.8385
   371.0000    212.6035    115.1071    -31.0978      4.7104      4.7036
   370.5000    223.9948    113.9636    -29.0750      4.5858      4.4644
   370.0000    244.9099    110.4580    -28.1854      4.3602      4.0831
   369.5000    278.2727    107.9035    -27.9020      4.0319      3.5936
   369.0000    317.4580    110.3825    -29.8857      3.6621      3.1500
   368.5000    353.1809    118.7808    -30.8934      3.3124      2.8314
   368.0000    381.0212    128.9538    -29.8000      2.9899      2.6245
   367.5000    402.5251    133.7469    -31.6361      2.6808      2.4843
   367.0000    420.5415    131.4391    -34.8392      2.4090      2.3779
   366.5000    434.0938    128.2285    -35.3205      2.2345      2.3036
   366.0000    437.5442    127.3840    -33.5405      2.2009      2.2855
   365.5000    426.1599    126.0813    -30.3896      2.2969      2.3465
   365.0000    401.5806    124.2021    -28.8600      2.4861      2.4902
   364.5000    370.6785    125.2253    -31.3107      2.7089      2.6978
   364.0000    340.2522    125.7940    -32.3892      2.9352      2.9390
   363.5000    314.5566    123.5105    -29.1565      3.1342      3.1791
   363.0000    295.2241    122.7928    -26.7549      3.2925      3.3873
   362.5000    281.6465    123.0520    -28.4571      3.4227      3.5506
   362.0000    271.7307    120.4193    -32.2013      3.5474      3.6801
   361.5000    263.5125    118.6436    -38.0381      3.6728      3.7949
   361.0000    256.5320    120.0714    -40.9240      3.7812      3.8981
   360.5000    252.0754    122.4905    -37.6196      3.8485      3.9671
   360.0000    252.9123    123.5847    -33.3042      3.8614      3.9539
   359.5000    262.0515    121.2865    -32.0647      3.8115      3.8160
   359.0000    280.7346    115.7102    -28.2921      3.6899      3.5621
   358.5000    306.4338    111.9765    -21.0987      3.5108      3.2633
   358.0000    333.5356    113.4184    -21.8087      3.3108      2.9982
   357.5000    357.4690    117.5254    -33.1242      3.1074      2.7974
   357.0000    377.7014    119.3147    -42.3422      2.8892      2.6476
   356.5000    395.5430    117.6323    -39.8824      2.6638      2.5282
   356.0000    410.3137    116.1563    -34.3043      2.4837      2.4372
   355.5000    418.0640    115.9801    -35.3300      2.4010      2.3920
   355.0000    414.0488    114.3804    -36.9776      2.4376      2.4152
   354.5000    398.0669    111.0740    -34.1457      2.5547      2.5121
   354.0000    375.8926    108.3056    -32.2037      2.7024      2.6603
   353.5000    354.2380    107.2629    -32.4895      2.8650      2.8230
   353.0000    336.8513    108.1339    -31.9478      3.0415      2.9687
   352.5000    325.4451    109.2869    -32.8427      3.2125      3.0727
   352.0000    319.5457    108.7578    -36.7388      3.3404      3.1294
   351.5000    315.6423    108.0133    -38.9265      3.4087      3.1681
   351.0000    310.4590    110.8552    -37.5858      3.4286      3.2210
   350.5000    304.0564    114.4477    -35.5362      3.3997      3.2889
   350.0000    298.5017    115.2596    -35.8610      3.3194      3.3501
   349.5000    294.9336    115.1255    -36.8861      3.2386      3.3906
   349.0000    291.5525    116.9341    -35.1262      3.2437      3.4299
   348.5000    284.2664    117.7695    -31.0243      3.3830      3.5178
   348.0000    271.1133    117.3616    -29.1479      3.6361      3.6885
   347.5000    254.5275    118.8335    -30.2151      3.9261      3.9288
   347.0000    239.7466    120.8014    -32.9379      4.1592      4.1711
   346.5000    229.3251    119.6079    -35.5450      4.2978      4.3606
   346.0000    223.3470    116.2614    -35.8146      4.3958      4.4773
   345.5000    219.4741    115.1681    -35.2681      4.5261      4.5563
   345.0000    215.1779    118.9034    -36.2953      4.6935      4.6473
   344.5000    210.2224    124.1393    -36.2093      4.8426      4.7569
   344.0000    206.1960    123.7988    -33.3591      4.9259      4.8498
   343.5000    204.7543    118.6464    -30.4317      4.9336      4.8839
   343.0000    206.3875    115.3299    -28.7389      4.8804      4.8453
   342.5000    209.6993    114.8951    -29.0729      4.8084      4.7687
   342.0000    212.1437    114.2103    -32.3465      4.7652      4.7138
   341.5000    212.4940    112.9652    -36.5835      4.7581      4.7060
   341.0000    211.5612    113.1315    -40.2039      4.7575      4.7268
   340.5000    210.5064    115.5173    -42.5887      4.7507      4.7505
   340.0000    209.9180    118.5752    -41.6883      4.7571      4.7638
   339.5000    210.7712    119.9193    -36.3764      4.7892      4.7445
   339.0000    214.4773    118.1092    -31.2073      4.8208      4.6625
   338.5000    222.1640    115.4553    -30.1450      4.7927      4.5012
   338.0000    233.5549    115.1738    -32.3806      4.6622      4.2816
   337.5000    245.3149    116.9597    -34.3348      4.4569      4.0764
   337.0000    253.1830    120.5168    -36.4957      4.2464      3.9497
   336.5000    256.2727    127.8540    -38.1189      4.0465      3.9021
   336.0000    257.3511    133.9866    -36.9666      3.8190      3.8857
   335.5000    258.7471    131.7043    -35.1384      3.5949      3.8648
   335.0000    259.5640    123.1489    -34.8106      3.5024      3.8526
   334.5000    255.3849    115.7926    -34.6721      3.6387      3.9157
   334.0000    242.8925    114.7210    -34.4726      3.9811      4.1170
   333.5000    225.2660    119.1678    -34.5968      4.3975      4.4392
