~Version Information
 VERS.                2.00:   CWLS log ASCII Standard -VERSION 2.00
 WRAP.                  NO:   One line per frame
~Well Information Block
#MNEM.UNIT              Data                Description
#--------- -------------------------------  -------------------------------
 STRT.F                         1005.0000:   Starting Depth
 STOP.F                           -2.7500:   Ending Depth
 STEP.F                           -0.5000:   Level Spacing
 NULL.                          -999.2500:   Absent Value
 COMP.     FLUOR DANIEL (NPSOR), INC.    :   Company
 WELL.     23 X 35                       :   Well
 FLD .     NPR #3                        :   Field
 LOC .                                   :   Location
 CNTY.     NATRONA                       :   County
 STAT.     WYOMING                       :   State
 SRVC.                                   :   Service Company
 LIC .                                   :   License Number
 DATE.     09-SEPT-1994                  :   Log Date
 API .       4902522634                  :   API Number
~Curve Information Block
#MNEM.UNIT       API Codes    Curve Description
#---------    -------------   -------------------------------
 DEPT.F        0   0  0  0:   Depth
 CILD.MMHO     0   0  0  0:   Conductivity of Deep Induction
 GR  .API      0   0  0  0:   Gamma ray counts
 TEN .LBF      0   0  0  0:   Differential Tension
 RILM.OHMM     0   0  0  0:   Resistivity from CILM
 RILD.OHMM     0   0  0  0:   Resistivity from CILD
#  Curve Data
~A
# ...
   221.0000    141.1839    117.7289    -40.5949      7.1508      7.0830
   220.5000    141.8538    118.7770    -37.7730      7.1128      7.0495
   220.0000    142.5496    119.3190    -37.9868      7.0685      7.0151
   219.5000    143.2654    116.9523    -41.1707      7.0219      6.9801
   219.0000    143.7287    112.2032    -40.6510      6.9884      6.9576
   218.5000    143.7484    109.5512    -40.4778      6.9771      6.9566
   218.0000    143.6002    111.5146    -45.5353      6.9792      6.9638
   217.5000    143.3719    115.3127    -51.2089      6.9839      6.9749
   217.0000    142.8191    117.6094    -52.1815      6.9969      7.0019
   216.5000    142.0176    118.1769    -46.4579      7.0311      7.0414
   216.0000    141.2320    118.0814    -36.4191      7.0810      7.0805
   215.5000    140.6344    118.2116    -31.8066      7.1187      7.1106
   215.0000    140.4491    118.8892    -38.8591      7.1272      7.1200
   214.5000    140.8813    118.6171    -48.5420      7.1167      7.0982
   214.0000    141.7304    115.1537    -50.9143      7.1030      7.0557
   213.5000    142.5628    111.5516    -48.0491      7.0862      7.0145
   213.0000    143.1590    111.7351    -48.1351      7.0548      6.9852
   212.5000    143.8667    113.8391    -52.2590      6.9955      6.9509
   212.0000    145.1150    114.8856    -55.3642      6.9143      6.8911
   211.5000    146.6798    116.1132    -55.8049      6.8381      6.8176
   211.0000    147.9719    119.0617    -53.8603      6.7887      6.7580
   210.5000    148.7350    120.1897    -46.6684      6.7550      6.7234
   210.0000    148.9931    117.4623    -37.5290      6.7129      6.7117
   209.5000    148.7592    115.4848    -36.0510      6.6694      6.7223
   209.0000    147.7629    117.1449    -40.8724      6.6642      6.7676
   208.5000    145.1572    119.0450    -43.4473      6.7355      6.8891
   208.0000    140.0692    118.0952    -45.9696      6.8985      7.1393
   207.5000    132.6512    114.2679    -46.9346      7.1514      7.5386
   207.0000    124.3797    107.1760    -41.2040      7.4855      8.0399
   206.5000    117.4603     95.7047    -33.3103      7.8780      8.5135
   206.0000    113.4741     83.2612    -30.3893      8.3135      8.8126
   205.5000    112.1464     76.0157    -31.3979      8.8449      8.9169
   205.0000    111.9312     78.5691    -36.2910      9.5100      8.9341
   204.5000    112.0723     89.0980    -44.7822     10.0401      8.9228
   204.0000    113.7375    102.0636    -50.3137      9.9051      8.7922
   203.5000    118.7763    110.4123    -47.1868      9.0527      8.4192
   203.0000    127.5390    113.6595    -39.4145      8.0359      7.8407
   202.5000    138.0612    114.3268    -34.9984      7.2592      7.2432
   202.0000    147.7075    113.0222    -35.6615      6.7765      6.7701
   201.5000    154.9061    110.1340    -38.0957      6.5010      6.4555
   201.0000    159.4461    109.3313    -40.8166      6.3415      6.2717
   200.5000    161.9969    110.4979    -42.9669      6.2380      6.1730
   200.0000    163.7733    109.3245    -43.5958      6.1551      6.1060
   199.5000    165.9536    107.3004    -46.1395      6.0794      6.0258
   199.0000    168.8173    107.9642    -49.6894      6.0118      5.9236
   198.5000    171.6878    110.1426    -44.4169      5.9599      5.8245
   198.0000    173.5416    112.0825    -35.1689      5.9297      5.7623
   197.5000    173.6464    116.3634    -37.4153      5.9153      5.7588
   197.0000    172.0711    120.6328    -45.4227      5.8995      5.8115
   196.5000    169.6492    119.8355    -42.2102      5.8668      5.8945
   196.0000    167.2593    115.9933    -32.8476      5.8342      5.9787
   195.5000    165.1210    115.2015    -29.4965      5.8590      6.0562
   195.0000    162.4687    115.4404    -32.5435      5.9967      6.1550
   194.5000    158.4946    113.2670    -38.6499      6.2370      6.3094
   194.0000    153.5351    111.7546    -46.6339      6.4969      6.5132
   193.5000    148.8412    112.1653    -50.7529      6.6822      6.7186
   193.0000    145.5898    113.2044    -47.8499      6.7605      6.8686
   192.5000    144.3504    114.4630    -41.6206      6.7719      6.9276
   192.0000    144.8472    116.9572    -33.8156      6.7692      6.9038
   191.5000    146.1284    119.6410    -29.5356      6.7691      6.8433
   191.0000    147.2626    119.9747    -35.1717      6.7534      6.7906
   190.5000    148.0351    118.9196    -46.0724      6.7025      6.7552
   190.0000    148.8584    119.8781    -51.5456      6.6130      6.7178
   189.5000    150.0340    120.6657    -52.0421      6.5050      6.6652
   189.0000    151.5705    117.5529    -52.0861      6.4083      6.5976
   188.5000    153.3397    113.8910    -53.1487      6.3468      6.5215
   188.0000    155.1953    113.3514    -52.4313      6.3260      6.4435
   187.5000    157.0287    116.5663    -47.6858      6.3275      6.3683
   187.0000    158.8565    120.4710    -43.5692      6.3206      6.2950
   186.5000    160.6156    121.0671    -43.4698      6.2864      6.2260
   186.0000    162.3267    119.6595    -40.7803      6.2267      6.1604
   185.5000    164.3059    118.7851    -35.5078      6.1448      6.0862
   185.0000    166.7462    118.5868    -38.0487      6.0394      5.9971
   184.5000    169.4259    117.7708    -48.6432      5.9224      5.9023
   184.0000    171.9384    117.7313    -55.2956      5.8230      5.8160
   183.5000    173.7739    118.8564    -53.6864      5.7632      5.7546
   183.0000    174.5005    119.7004    -49.5460      5.7387      5.7306
   182.5000    174.1151    117.3981    -45.8629      5.7302      5.7433
   182.0000    173.1150    113.5316    -42.3517      5.7279      5.7765
   181.5000    172.0284    111.9259    -39.0583      5.7377      5.8130
   181.0000    171.1729    112.3511    -38.4266      5.7652      5.8420
   180.5000    170.7584    113.1196    -34.6084      5.8024      5.8562
   180.0000    170.9877    115.0771    -27.3564      5.8372      5.8484
   179.5000    171.9081    118.6315    -25.7704      5.8601      5.8171
   179.0000    173.4432    120.3961    -31.9542      5.8583      5.7656
   178.5000    175.6961    118.0138    -35.6588      5.8142      5.6916
   178.0000    178.7502    114.9663    -34.5278      5.7218      5.5944
   177.5000    182.3849    115.6389    -33.3127      5.5977      5.4829
   177.0000    186.5482    118.4298    -34.3488      5.4599      5.3605
   176.5000    191.3323    118.5905    -39.3584      5.3181      5.2265
   176.0000    196.2067    114.6799    -44.9384      5.1866      5.0967
   175.5000    200.0983    111.0735    -45.4102      5.0885      4.9975
   175.0000    202.0374    112.5112    -41.9594      5.0353      4.9496
   174.5000    201.7094    116.7840    -41.9906      5.0131      4.9576
   174.0000    199.8575    117.0798    -43.8053      4.9952      5.0036
   173.5000    197.6424    112.9880    -41.0987      4.9838      5.0596
   173.0000    195.0749    111.4630    -38.5270      5.0195      5.1262
   172.5000    191.2026    114.6405    -41.9711      5.1333      5.2301
   172.0000    185.6687    118.4504    -47.5770      5.3145      5.3859
   171.5000    179.3366    120.2229    -52.7949      5.5201      5.5761
   171.0000    173.5067    120.4868    -54.8664      5.7118      5.7635
   170.5000    169.0959    119.9616    -48.7243      5.8737      5.9138
   170.0000    166.3196    118.4246    -39.1034      6.0000      6.0125
   169.5000    164.8892    118.5450    -33.3356      6.0792      6.0647
   169.0000    164.6048    121.0120    -31.8280      6.1053      6.0752
   168.5000    165.4673    122.9208    -35.6899      6.0825      6.0435
   168.0000    167.3194    121.0036    -42.5335      6.0182      5.9766
   167.5000    169.6948    117.0388    -44.5559      5.9304      5.8929
   167.0000    172.2777    113.9616    -43.0343      5.8431      5.8046
   166.5000    175.0375    113.6745    -42.8662      5.7609      5.7131
   166.0000    178.2456    116.3999    -42.1971      5.6654      5.6102
   165.5000    182.6420    117.9631    -41.3629      5.5422      5.4752
