~Version Information
 VERS.                2.00:   CWLS log ASCII Standard -VERSION 2.00
 WRAP.                  NO:   One line per frame
~Well Information Block
#MNEM.UNIT              Data                Description
#--------- -------------------------------  -------------------------------
 STRT.F                         1005.0000:   Starting Depth
 STOP.F                           -2.7500:   Ending Depth
 STEP.F                           -0.5000:   Level Spacing
 NULL.                          -999.2500:   Absent Value
 COMP.     FLUOR DANIEL (NPSOR), INC.    :   Company
 WELL.     23 X 35                       :   Well
 FLD .     NPR #3                        :   Field
 LOC .                                   :   Location
 CNTY.     NATRONA                       :   County
 STAT.     WYOMING                       :   State
 SRVC.                                   :   Service Company
 LIC .                                   :   License Number
 DATE.     09-SEPT-1994                  :   Log Date
 API .       4902522634                  :   API Number
~Curve Information Block
#MNEM.UNIT       API Codes    Curve Description
#---------    -------------   -------------------------------
 DEPT.F        0   0  0  0:   Depth
 CILD.MMHO     0   0  0  0:   Conductivity of Deep Induction
 GR  .API      0   0  0  0:   Gamma ray counts
 TEN .LBF      0   0  0  0:   Differential Tension
 RILM.OHMM     0   0  0  0:   Resistivity from CILM
 RILD.OHMM     0   0  0  0:   Resistivity from CILD
#  Curve Data
~A
# ...
   165.0000    188.3651    113.9982    -44.7264      5.4032      5.3088
   164.5000    194.1972    107.8769    -49.8038      5.2914      5.1494
   164.0000    198.5165    106.6694    -49.4844      5.2432      5.0374
   163.5000    200.3305    109.4270    -43.7297      5.2324      4.9918
   163.0000    199.6946    111.1556    -40.0276      5.1802      5.0076
   162.5000    198.0740    111.7634    -40.6660      5.0699      5.0486
   162.0000    196.4767    113.9105    -40.4668      4.9817      5.0897
   161.5000    194.0721    117.2533    -38.2747      4.9939      5.1527
   161.0000    189.7877    120.0932    -41.2769      5.1202      5.2690
   160.5000    183.6912    120.4902    -51.2144      5.3385      5.4439
   160.0000    176.5479    119.0792    -58.0717      5.6090      5.6642
   159.5000    169.8027    117.5095    -57.8323      5.8653      5.8892
   159.0000    165.0529    115.7716    -55.5686      6.0424      6.0587
   158.5000    162.9415    113.8134    -50.6739      6.1235      6.1372
   158.0000    163.2142    113.4477    -42.4496      6.1345      6.1269
   157.5000    165.2437    115.1229    -40.3320      6.0940      6.0517
   157.0000    168.1731    117.3069    -44.9854      6.0122      5.9463
   156.5000    171.2672    119.3609    -44.1890      5.9071      5.8388
   156.0000    174.3439    119.0849    -36.9242      5.7868      5.7358
   155.5000    177.6653    116.1140    -30.4811      5.6488      5.6286
   155.0000    181.3266    115.2260    -27.9621      5.5094      5.5149
   154.5000    184.6530    118.2549    -29.0927      5.4034      5.4156
   154.0000    186.7272    121.8653    -33.9639      5.3508      5.3554
   153.5000    187.2386    123.1379    -39.0613      5.3365      5.3408
   153.0000    186.6838    122.2571    -42.8077      5.3299      5.3567
   152.5000    185.8218    119.2342    -43.7687      5.3199      5.3815
   152.0000    185.0085    116.5072    -38.9073      5.3246      5.4052
   151.5000    184.0501    116.2582    -34.1966      5.3660      5.4333
   151.0000    182.7740    117.6962    -37.8932      5.4422      5.4712
   150.5000    181.1585    118.0510    -46.3075      5.5228      5.5200
   150.0000    179.4602    117.3299    -49.4768      5.5779      5.5723
   149.5000    178.4438    117.3802    -46.2359      5.6000      5.6040
   149.0000    178.8821    118.8983    -43.6812      5.5875      5.5903
   148.5000    180.8135    119.4871    -45.4395      5.5404      5.5306
   148.0000    183.7992    118.7211    -45.7930      5.4755      5.4407
   147.5000    186.9332    117.3804    -42.4261      5.4142      5.3495
   147.0000    189.1646    116.2349    -43.0517      5.3579      5.2864
   146.5000    190.3001    114.1940    -49.0864      5.2937      5.2549
   146.0000    191.0821    111.6722    -51.9885      5.2148      5.2334
   145.5000    191.7882    111.0394    -52.5414      5.1391      5.2141
   145.0000    192.0430    111.9154    -55.9730      5.1042      5.2072
   144.5000    191.3190    111.8310    -59.1691      5.1387      5.2269
   144.0000    189.2227    110.9519    -60.3467      5.2370      5.2848
   143.5000    185.9883    112.6091    -62.2017      5.3624      5.3767
   143.0000    182.6661    116.4411    -65.0620      5.4768      5.4745
   142.5000    180.0984    118.4737    -64.8772      5.5583      5.5525
   142.0000    178.4731    115.3782    -57.2052      5.6070      5.6031
   141.5000    177.5755    113.2865    -46.2105      5.6369      5.6314
   141.0000    177.0336    117.3623    -41.6859      5.6572      5.6486
   140.5000    176.3318    122.8079    -41.9759      5.6645      5.6711
   140.0000    175.0734    123.9730    -39.4136      5.6641      5.7119
   139.5000    173.4641    122.6020    -36.6811      5.6701      5.7649
   139.0000    172.2176    120.9596    -40.0770      5.6834      5.8066
   138.5000    171.7690    119.8270    -44.7496      5.6957      5.8218
   138.0000    172.0822    120.6932    -44.0459      5.7114      5.8112
   137.5000    172.8315    122.5210    -39.2175      5.7424      5.7860
   137.0000    173.4419    123.3114    -34.6242      5.7776      5.7656
   136.5000    173.8078    121.8547    -31.6965      5.7831      5.7535
   136.0000    174.6774    119.6189    -28.8353      5.7364      5.7248
   135.5000    176.3036    118.6787    -25.0277      5.6515      5.6720
   135.0000    177.6699    118.4970    -25.3653      5.5720      5.6284
   134.5000    177.5041    116.6502    -32.9613      5.5441      5.6337
   134.0000    175.3395    114.8609    -42.2608      5.5804      5.7032
   133.5000    171.7321    114.7172    -47.0892      5.6499      5.8230
   133.0000    167.8950    115.1966    -49.0492      5.7225      5.9561
   132.5000    164.4937    117.5069    -50.1688      5.8122      6.0793
   132.0000    161.3443    121.9137    -50.1771      5.9541      6.1979
   131.5000    158.5316    123.0862    -50.0426      6.1402      6.3079
   131.0000    156.4479    118.6337    -52.1385      6.3064      6.3919
   130.5000    155.0421    113.2211    -56.0508      6.3952      6.4499
   130.0000    153.9791    111.3831    -55.3319      6.4146      6.4944
   129.5000    152.9760    112.3334    -47.9103      6.4080      6.5370
   129.0000    151.8150    113.0545    -41.7932      6.3985      6.5870
   128.5000    150.8082    113.6179    -40.7404      6.3824      6.6309
   128.0000    150.9586    113.2015    -33.8224      6.3477      6.6243
   127.5000    153.0717    109.3987    -22.0475      6.2989      6.5329
   127.0000    157.0016    104.7206    -21.4952      6.2676      6.3694
   126.5000    161.9986    106.3616    -33.4817      6.2714      6.1729
   126.0000    167.5242    113.0558    -44.1277      6.2432      5.9693
   125.5000    173.7360    119.6334    -48.3736      6.0649      5.7559
   125.0000    181.1689    123.4384    -48.8189      5.7261      5.5197
   124.5000    189.4305    123.6572    -46.3731      5.3524      5.2790
   124.0000    197.1257    121.5897    -41.8695      5.0502      5.0729
   123.5000    202.9578    121.0427    -36.3045      4.8370      4.9271
   123.0000    206.2602    121.9695    -32.0561      4.7143      4.8482
   122.5000    206.6020    121.0429    -33.3600      4.6888      4.8402
   122.0000    203.7976    118.4208    -38.0820      4.7618      4.9068
   121.5000    198.3708    116.8594    -40.8593      4.9044      5.0411
   121.0000    191.8265    118.0526    -41.0438      5.0639      5.2130
   120.5000    186.0297    119.7354    -38.9256      5.2060      5.3755
   120.0000    182.1236    120.4593    -33.3310      5.3288      5.4908
   119.5000    180.0285    119.8468    -28.3433      5.4389      5.5547
   119.0000    178.9599    117.3803    -32.3273      5.5429      5.5878
   118.5000    178.0945    114.1460    -44.7685      5.6288      5.6150
   118.0000    177.2726    113.1184    -53.4769      5.6500      5.6410
   117.5000    176.9125    115.0684    -50.5821      5.5796      5.6525
   117.0000    177.4429    116.5137    -42.1455      5.4642      5.6356
   116.5000    178.5776    114.6489    -40.2719      5.3763      5.5998
   116.0000    179.3683    111.5045    -45.6347      5.3454      5.5751
   115.5000    179.3653    111.8790    -47.4333      5.3525      5.5752
   115.0000    179.1843    114.1447    -40.9691      5.3771      5.5808
   114.5000    179.1634    114.1376    -33.4496      5.4232      5.5815
   114.0000    178.7603    113.8648    -32.0226      5.4918      5.5941
   113.5000    178.0133    116.2242    -32.8955      5.5522      5.6176
   113.0000    177.8618    118.9106    -28.9079      5.5681      5.6223
   112.5000    178.9980    119.1649    -23.6268      5.5369      5.5867
   112.0000    181.1723    117.4166    -26.3978      5.4847      5.5196
   111.5000    183.8755    114.1930    -33.5891      5.4276      5.4385
   111.0000    186.9388    111.7461    -38.4224      5.3639      5.3493
   110.5000    190.3264    111.3023    -44.4778      5.2958      5.2541
   110.0000    193.4490    110.8882    -52.1102      5.2307      5.1693
   109.5000    195.6329    112.4805    -55.0787      5.1693      5.1116
