~Version Information
 VERS.                2.00:   CWLS log ASCII Standard -VERSION 2.00
 WRAP.                  NO:   One line per frame
~Well Information Block
#MNEM.UNIT              Data                Description
#--------- -------------------------------  -------------------------------
 STRT.F                         1005.0000:   Starting Depth
 STOP.F                           -2.7500:   Ending Depth
 STEP.F                           -0.5000:   Level Spacing
 NULL.                          -999.2500:   Absent Value
 COMP.     FLUOR DANIEL (NPSOR), INC.    :   Company
 WELL.     23 X 35                       :   Well
 FLD .     NPR #3                        :   Field
 LOC .                                   :   Location
 CNTY.     NATRONA                       :   County
 STAT.     WYOMING                       :   State
 SRVC.                                   :   Service Company
 LIC .                                   :   License Number
 DATE.     09-SEPT-1994                  :   Log Date
 API .       4902522634                  :   API Number
~Curve Information Block
#MNEM.UNIT       API Codes    Curve Description
#---------    -------------   -------------------------------
 DEPT.F        0   0  0  0:   Depth
 CILD.MMHO     0   0  0  0:   Conductivity of Deep Induction
 GR  .API      0   0  0  0:   Gamma ray counts
 TEN .LBF      0   0  0  0:   Differential Tension
 RILM.OHMM     0   0  0  0:   Resistivity from CILM
 RILD.OHMM     0   0  0  0:   Resistivity from CILD
#  Curve Data
~A
  1005.0000      0.0000      0.0000   -250.0000      0.2000      0.2000
  1004.5000      0.0000      0.0000   -250.0000      0.2000      0.2000
  1004.0000      0.0000      0.0000   -250.0000      0.2000      0.2000
  1003.5000      0.0000      0.0000   -250.0000      0.2000      0.2000
  1003.0000      0.0000      0.0000   -250.0000      0.2000      0.2000
  1002.5000      0.0000      0.0000   -250.0000      0.2000      0.2000
  1002.0000      0.0000      0.0000   -250.0000      0.2000      0.2000
  1001.5000      0.0000      0.0000   -250.0000      0.2000      0.2000
  1001.0000      0.0000      0.0000   -250.0000      0.2000      0.2000
  1000.5000      0.0000      0.0000   -250.0000      0.2000      0.2000
  1000.0000      0.0000      0.0000   -250.0000      0.2000      0.2000
   999.5000      0.0000      0.0000   -250.0000      0.2000      0.2000
   999.0000      0.0000      0.0000   -250.0000      0.2000      0.2000
   998.5000      0.0000      0.0000   -250.0000      0.2000      0.2000
   998.0000      0.0000      0.0000   -250.0000      0.2000      0.2000
   997.5000      0.0000      0.0000   -250.0000      0.2000      0.2000
   997.0000      0.0000      0.0000   -250.0000      0.2000      0.2000
   996.5000      0.0000      0.0000   -250.0000      0.2000      0.2000
   996.0000      0.0000      0.0000   -250.0000      0.2000      0.2000
   995.5000      0.0000      0.0000   -250.0000      0.2000      0.2000
   995.0000      0.0000      0.0000   -207.8077      0.2000      0.2000
   994.5000      0.0000      0.0000   -201.9838      0.2000      0.2000
   994.0000      0.0000      0.0000   -194.9688      0.2000      0.2000
   993.5000      0.0000      0.0000   -191.3017      0.2000      0.2000
   993.0000      0.0000      0.0000   -186.8829      0.2000      0.2000
   992.5000      0.0000      0.0000   -179.3677      0.2000      0.2000
   992.0000      0.0000      0.0000   -169.5674      0.2000      0.2000
   991.5000      0.0000      0.0000   -159.2353      0.2000      0.2000
   991.0000      0.0000      0.0000   -151.1458      0.2000      0.2000
   990.5000      0.0000      0.0000   -145.9687      0.2000      0.2000
   990.0000      0.0000      0.0000   -138.7997      0.2000      0.2000
   989.5000      0.0000      0.0000   -127.5122      0.2000      0.2000
   989.0000      0.0000      0.0000   -119.0567      8.8322      0.2000
   988.5000      0.0000      0.0000   -119.1604      8.8293      0.2000
   988.0000      0.0000      0.0000   -121.4174      8.8285      0.2000
   987.5000      0.0000      0.0000   -116.2074      8.8267      0.2000
   987.0000      0.0000      0.0000   -107.9032      8.8242      0.2000
   986.5000      0.0000      0.0000   -100.9495      8.8271      0.2000
   986.0000      0.0000      0.0000    -91.8879      8.8350      0.2000
   985.5000      0.0000      0.0000    -81.9974      8.8388      0.2000
   985.0000      0.0000      0.0000    -74.5368      8.8354      0.2000
   984.5000      0.0000      0.0000    -69.1197      8.8341      0.2000
   984.0000      0.0000      0.0000    -63.7148      8.8383      0.2000
   983.5000      0.0000      0.0000    -56.7425      8.8402      0.2000
   983.0000      0.0000      0.0000    -46.2127      8.8387      0.2000
   982.5000      0.0000      0.0000    -35.5368      8.8377      0.2000
   982.0000      0.0000      0.0000    -29.2773      8.8380      0.2000
   981.5000      0.0000      0.0000    -28.7374      8.8385      0.2000
   981.0000      0.0000      0.0000    -30.3963      8.8372      0.2000
   980.5000      0.0000      0.0000    -31.2592      8.8298      0.2000
   980.0000      0.0000      0.0000    -29.3376      8.8233      0.2000
   979.5000      0.0000      0.0000    -27.3057      8.8261      0.2000
   979.0000    108.8237      0.0000    -25.0820      8.8305      9.1892
   978.5000    108.9112      0.0000    -12.9842      8.8269      9.1818
   978.0000    108.9316      0.0000     39.7427      8.8214      9.1801
   977.5000    108.8277      0.0000    144.8344      8.8205      9.1888
   977.0000    108.7369      0.0000    264.6484      8.8217      9.1965
   976.5000    108.6798      0.0000    354.2234      8.8239      9.2013
   976.0000    108.6005      0.0000    406.3091      8.8272      9.2081
   975.5000    108.6161      0.0000    433.9961      8.8272      9.2067
   975.0000    108.8281      0.0000    445.4609      8.8240      9.1888
   974.5000    108.9998      0.0000    449.0530      8.8236      9.1743
   974.0000    108.9824      0.0000    449.7209      8.8268      9.1758
   973.5000    108.8762      0.0000    447.0889      8.8280      9.1847
   973.0000    108.8098      0.0000    441.0913      8.8267      9.1903
   972.5000    108.8315      0.0000    430.7510      8.8255      9.1885
   972.0000    108.8819      0.0000    417.8677      8.8302      9.1843
   971.5000    108.8545     82.2952    406.5864      8.8527      9.1866
   971.0000    108.7686     80.6719    396.8521      8.8943      9.1938
   970.5000    108.8099     79.3248    381.6924      8.9395      9.1903
   970.0000    109.0054     78.8582    363.6335      8.9787      9.1739
   969.5000    109.1561     80.5388    352.8433      9.0212      9.1612
   969.0000    109.1169     82.2204    348.1343      9.0656      9.1645
   968.5000    109.0338     81.4472    338.6960      9.0956      9.1715
   968.0000    109.0981     79.5097    322.7358      9.1008      9.1661
   967.5000    109.2638     80.8331    309.0579      9.0795      9.1522
   967.0000    109.5038     84.9238    298.8594      9.0306      9.1321
   966.5000    109.8399     86.1081    285.6816      8.9687      9.1042
   966.0000    110.1424     83.0725    268.1960      8.9146      9.0792
   965.5000    110.3138     81.7102    253.2400      8.8528      9.0650
   965.0000    110.3693     83.3417    248.6988      8.7631      9.0605
   964.5000    110.2905     83.4092    256.8704      8.6845      9.0670
   964.0000    110.0426     81.5913    268.9033      8.6756      9.0874
   963.5000    109.6339     81.4811    270.3130      8.7257      9.1213
   963.0000    109.0251     83.4539    258.8137      8.7701      9.1722
   962.5000    108.2335     84.0395    245.4319      8.7854      9.2393
   962.0000    107.4227     83.1984    237.2466      8.7901      9.3090
   961.5000    106.7431     82.9252    235.0750      8.7898      9.3683
   961.0000    106.3250     83.0011    239.1984      8.7946      9.4051
   960.5000    106.0459     82.8191    246.7852      8.8306      9.4299
   960.0000    105.5857     83.1231    252.1627      8.8964      9.4710
   959.5000    104.9103     84.1823    251.8189      8.9718      9.5320
   959.0000    104.3968     84.0925    247.6889      9.0363      9.5788
   958.5000    104.1582     81.9879    240.8438      9.0584      9.6008
   958.0000    104.0408     78.7097    229.3072      9.0059      9.6116
   957.5000    103.9759     76.6396    214.8340      8.8910      9.6176
   957.0000    103.9287     77.9865    207.9413      8.7644      9.6220
   956.5000    103.9597     81.9348    212.2132      8.6704      9.6191
   956.0000    104.3042     83.1712    215.7277      8.6198      9.5873
   955.5000    105.0005     80.6945    210.1544      8.5990      9.5238
   955.0000    105.8393     79.8481    200.9568      8.5924      9.4483
   954.5000    106.5939     82.6424    197.1202      8.6020      9.3814
   954.0000    107.1496     83.2870    199.4151      8.6248      9.3327
   953.5000    107.6110     80.9801    202.4540      8.6141      9.2927
   953.0000    108.2047     79.4245    203.4096      8.5346      9.2417
   952.5000    108.9120     79.8411    204.7531      8.4292      9.1817
   952.0000    109.4288     80.2604    207.0520      8.3582      9.1384
   951.5000    109.5607     81.4726    208.8100      8.3272      9.1274
   951.0000    109.4314     82.9186    209.8253      8.3138      9.1381
   950.5000    109.2303     83.0707    209.2077      8.2968      9.1550
   950.0000    109.0176     81.3720    207.8217      8.2489      9.1728
   949.5000    108.7641     78.7514    208.1170      8.1712      9.1942
