~Version Information
 VERS.                2.00:   CWLS log ASCII Standard -VERSION 2.00
 WRAP.                  NO:   One line per frame
~Well Information Block
#MNEM.UNIT              Data                Description
#--------- -------------------------------  -------------------------------
 STRT.F                         1005.0000:   Starting Depth
 STOP.F                           -2.7500:   Ending Depth
 STEP.F                           -0.5000:   Level Spacing
 NULL.                          -999.2500:   Absent Value
 COMP.     FLUOR DANIEL (NPSOR), INC.    :   Company
 WELL.     23 X 35                       :   Well
 FLD .     NPR #3                        :   Field
 LOC .                                   :   Location
 CNTY.     NATRONA                       :   County
 STAT.     WYOMING                       :   State
 SRVC.                                   :   Service Company
 LIC .                                   :   License Number
 DATE.     09-SEPT-1994                  :   Log Date
 API .       4902522634                  :   API Number
~Curve Information Block
#MNEM.UNIT       API Codes    Curve Description
#---------    -------------   -------------------------------
 DEPT.F        0   0  0  0:   Depth
 CILD.MMHO     0   0  0  0:   Conductivity of Deep Induction
 GR  .API      0   0  0  0:   Gamma ray counts
 TEN .LBF      0   0  0  0:   Differential Tension
 RILM.OHMM     0   0  0  0:   Resistivity from CILM
 RILD.OHMM     0   0  0  0:   Resistivity from CILD
#  Curve Data
~A
# ...
   333.0000    208.5291    122.0081    -32.9769      4.7559      4.7955
   332.5000    196.0347    119.2286    -31.6227      5.0230      5.1011
   332.0000    187.8134    116.0783    -32.2654      5.2156      5.3244
   331.5000    182.5238    115.3185    -35.1756      5.3740      5.4787
   331.0000    177.9775    114.4618    -37.4180      5.5292      5.6187
   330.5000    172.8148    114.3857    -36.5814      5.6928      5.7865
   330.0000    167.3878    116.6823    -35.2092      5.8505      5.9742
   329.5000    162.4596    118.2198    -35.5898      5.9893      6.1554
   329.0000    158.3565    118.0338    -37.0319      6.1319      6.3149
   328.5000    154.6649    117.0731    -38.7451      6.3039      6.4656
   328.0000    150.9717    114.5497    -36.9822      6.4812      6.6238
   327.5000    148.2508    111.8310    -30.5967      6.6124      6.7453
   327.0000    147.8266    112.4878    -26.1989      6.6668      6.7647
   326.5000    149.6808    117.5202    -29.3922      6.6410      6.6809
   326.0000    152.9633    124.5342    -36.9333      6.5461      6.5375
   325.5000    156.5380    127.6017    -45.6359      6.4188      6.3882
   325.0000    159.3981    124.3493    -50.6163      6.2951      6.2736
   324.5000    161.9171    119.2211    -45.4990      6.1789      6.1760
   324.0000    165.2432    117.2235    -36.0763      6.0465      6.0517
   323.5000    169.8360    117.8876    -33.5189      5.8913      5.8880
   323.0000    175.6794    119.2131    -34.4961      5.7445      5.6922
   322.5000    183.2552    121.1420    -32.9952      5.6219      5.4569
   322.0000    193.7074    123.2459    -31.0261      5.4660      5.1624
   321.5000    208.1333    125.1159    -31.0356      5.2044      4.8046
   321.0000    225.3634    127.0001    -33.8093      4.8611      4.4373
   320.5000    241.6461    130.7524    -37.5339      4.5298      4.1383
   320.0000    254.7180    135.4421    -38.5279      4.2489      3.9259
   319.5000    265.1960    137.8210    -39.3255      3.9760      3.7708
   319.0000    274.1633    134.3609    -40.2951      3.7064      3.6475
   318.5000    281.8894    125.5268    -39.3078      3.5144      3.5475
   318.0000    286.2217    116.9192    -39.7016      3.4654      3.4938
   317.5000    284.3838    113.2018    -41.8079      3.5481      3.5164
   317.0000    276.7500    114.0650    -41.1713      3.6948      3.6134
   316.5000    266.5908    115.8649    -37.5284      3.8449      3.7511
   316.0000    256.4250    116.9935    -33.8675      3.9787      3.8998
   315.5000    247.2460    118.3754    -31.4885      4.0989      4.0446
   315.0000    239.0847    121.4384    -31.5675      4.2174      4.1826
   314.5000    230.7263    123.0957    -33.6534      4.3461      4.3341
   314.0000    221.9781    120.7281    -36.4896      4.4833      4.5049
   313.5000    213.5596    117.4704    -38.2037      4.6287      4.6825
   313.0000    205.9111    116.6952    -37.3619      4.8005      4.8565
   312.5000    198.4968    118.0756    -35.4886      5.0167      5.0379
   312.0000    190.9181    120.2931    -35.8662      5.2563      5.2378
   311.5000    183.5795    122.2928    -36.4341      5.4824      5.4472
   311.0000    177.5197    123.3539    -35.2583      5.6506      5.6332
   310.5000    173.6200    122.9361    -33.1096      5.7499      5.7597
   310.0000    171.8044    122.4746    -30.1736      5.8026      5.8206
   309.5000    170.9529    122.9299    -22.2979      5.8401      5.8496
   309.0000    170.0820    124.8356    -16.1775      5.8851      5.8795
   308.5000    169.0051    125.4589    -21.3036      5.9448      5.9170
   308.0000    167.5919    122.3659    -33.7144      6.0067      5.9669
   307.5000    166.0111    119.7049    -41.8542      6.0495      6.0237
   307.0000    165.1255    123.6308    -40.8383      6.0654      6.0560
   306.5000    165.7830    129.8845    -36.7979      6.0595      6.0320
   306.0000    168.1512    130.8574    -37.1780      6.0321      5.9470
   305.5000    171.8304    126.8319    -36.6842      5.9797      5.8197
   305.0000    175.9331    121.6223    -27.0803      5.9005      5.6840
   304.5000    179.9384    120.1411    -16.7601      5.7904      5.5575
   304.0000    183.9041    122.5533    -15.5074      5.6465      5.4376
   303.5000    187.9788    124.6316    -20.4554      5.4781      5.3197
   303.0000    192.1729    125.5117    -24.0160      5.3142      5.2036
   302.5000    196.1552    128.2643    -25.4876      5.1904      5.0980
   302.0000    199.1980    129.7621    -27.1990      5.1211      5.0201
   301.5000    201.0701    125.6981    -29.9342      5.0935      4.9734
   301.0000    202.2003    120.0310    -32.2910      5.0856      4.9456
   300.5000    202.9551    118.4952    -35.2525      5.0801      4.9272
   300.0000    203.6478    120.2871    -38.3306      5.0628      4.9104
   299.5000    204.4741    121.8622    -36.3905      5.0250      4.8906
   299.0000    205.4387    124.0402    -29.8064      4.9739      4.8676
   298.5000    206.3228    126.2506    -25.3107      4.9326      4.8468
   298.0000    206.5335    126.3075    -25.8500      4.9178      4.8418
   297.5000    205.2541    125.8957    -27.1975      4.9297      4.8720
   297.0000    202.2423    127.2757    -28.9219      4.9629      4.9446
   296.5000    197.8991    127.9756    -33.8766      5.0181      5.0531
   296.0000    192.8032    127.6052    -41.0304      5.1009      5.1866
   295.5000    187.4664    127.6450    -45.3501      5.2185      5.3343
   295.0000    182.4155    127.2396    -44.2049      5.3754      5.4820
   294.5000    177.8973    127.4643    -38.2147      5.5683      5.6212
   294.0000    174.0239    128.1843    -33.5055      5.7590      5.7463
   293.5000    171.1733    126.0108    -32.2544      5.8865      5.8420
   293.0000    169.8697    122.4345    -32.9153      5.9250      5.8869
   292.5000    170.0887    122.6936    -33.8242      5.9019      5.8793
   292.0000    171.0589    126.0337    -34.5406      5.8563      5.8459
   291.5000    172.1024    129.3088    -28.9713      5.8070      5.8105
   291.0000    173.0601    129.9662    -23.7867      5.7532      5.7783
   290.5000    173.7834    127.9332    -28.2817      5.6984      5.7543
   290.0000    174.1016    126.3870    -37.4540      5.6620      5.7438
   289.5000    174.2107    126.2738    -42.2882      5.6623      5.7402
   289.0000    174.2397    125.0898    -45.0207      5.6963      5.7392
   288.5000    173.8534    123.3478    -50.5708      5.7442      5.7520
   288.0000    173.0186    124.1629    -53.9643      5.7811      5.7797
   287.5000    171.9320    126.4016    -46.2587      5.7985      5.8163
   287.0000    170.5860    126.3134    -28.4897      5.8090      5.8621
   286.5000    168.9493    123.3033    -17.2340      5.8273      5.9189
   286.0000    167.3358    119.7630    -21.3259      5.8541      5.9760
   285.5000    165.9735    116.8487    -33.5714      5.8945      6.0251
   285.0000    164.5591    114.8026    -43.9026      5.9698      6.0768
   284.5000    162.3208    115.0599    -47.7770      6.0941      6.1606
   284.0000    158.9167    116.0744    -49.0083      6.2498      6.2926
   283.5000    154.9321    116.8378    -48.1244      6.4002      6.4544
   283.0000    151.1958    119.8068    -43.1880      6.5231      6.6139
   282.5000    148.5172    123.9194    -38.2955      6.6185      6.7332
   282.0000    147.6206    123.1512    -38.4956      6.6886      6.7741
   281.5000    148.5942    118.7682    -37.4238      6.7305      6.7297
   281.0000    150.5754    115.7197    -31.4635      6.7457      6.6412
   280.5000    152.7342    115.0546    -28.5352      6.7356      6.5473
   280.0000    154.7386    116.6410    -32.5926      6.6807      6.4625
   279.5000    156.2293    120.0162    -35.4706      6.5548      6.4008
   279.0000    156.7960    122.0783    -34.9829      6.3813      6.3777
   278.5000    156.5300    122.9323    -33.0965      6.2387      6.3886
   278.0000    155.2765    124.3104    -32.3751      6.1969      6.4401
   277.5000    152.4450    124.1771    -32.4877      6.2803      6.5597
