~Version Information
 VERS.                2.00:   CWLS log ASCII Standard -VERSION 2.00
 WRAP.                  NO:   One line per frame
~Well Information Block
#MNEM.UNIT              Data                Description
#--------- -------------------------------  -------------------------------
 STRT.F                         1005.0000:   Starting Depth
 STOP.F                           -2.7500:   Ending Depth
 STEP.F                           -0.5000:   Level Spacing
 NULL.                          -999.2500:   Absent Value
 COMP.     FLUOR DANIEL (NPSOR), INC.    :   Company
 WELL.     23 X 35                       :   Well
 FLD .     NPR #3                        :   Field
 LOC .                                   :   Location
 CNTY.     NATRONA                       :   County
 STAT.     WYOMING                       :   State
 SRVC.                                   :   Service Company
 LIC .                                   :   License Number
 DATE.     09-SEPT-1994                  :   Log Date
 API .       4902522634                  :   API Number
~Curve Information Block
#MNEM.UNIT       API Codes    Curve Description
#---------    -------------   -------------------------------
 DEPT.F        0   0  0  0:   Depth
 CILD.MMHO     0   0  0  0:   Conductivity of Deep Induction
 GR  .API      0   0  0  0:   Gamma ray counts
 TEN .LBF      0   0  0  0:   Differential Tension
 RILM.OHMM     0   0  0  0:   Resistivity from CILM
 RILD.OHMM     0   0  0  0:   Resistivity from CILD
#  Curve Data
~A
# ...
   725.0000    165.4373    118.9791     -3.2672      6.0970      6.0446
   724.5000    168.2036    116.9673     -3.5841      6.0292      5.9452
   724.0000    171.7985    115.8299     -5.4168      5.9201      5.8208
   723.5000    177.4772    114.4308     -7.7229      5.7650      5.6345
   723.0000    186.2692    114.1710     -8.8618      5.5788      5.3686
   722.5000    198.6213    117.1596     -8.4421      5.3461      5.0347
   722.0000    213.2069    121.2065     -9.3232      5.0611      4.6903
   721.5000    226.4223    122.1364    -12.0899      4.7644      4.4165
   721.0000    235.1519    119.7314    -13.6835      4.5159      4.2526
   720.5000    239.4137    118.2218    -12.0838      4.3112      4.1769
   720.0000    241.0799    118.9026     -9.2439      4.1203      4.1480
   719.5000    241.2544    118.4207     -7.9349      3.9742      4.1450
   719.0000    239.2147    119.3704     -9.4907      3.9631      4.1803
   718.5000    233.0007    124.0407     -9.2415      4.1438      4.2918
   718.0000    221.9665    126.9459     -4.6961      4.4800      4.5052
   717.5000    208.4985    126.1471     -0.0339      4.8628      4.7962
   717.0000    195.8552    127.9414      1.3261      5.1911      5.1058
   716.5000    185.7423    130.5928      3.0854      5.4380      5.3838
   716.0000    178.6115    128.8433      7.7766      5.6069      5.5987
   715.5000    174.1243    125.2882      8.7267      5.7044      5.7430
   715.0000    171.2728    122.4806      2.4266      5.7611      5.8386
   714.5000    169.1789    119.4029     -3.6066      5.8236      5.9109
   714.0000    167.5735    118.2493     -3.7610      5.9063      5.9675
   713.5000    166.3352    120.6322     -2.0902      5.9787      6.0120
   713.0000    165.3723    123.2183     -1.2417      6.0137      6.0470
   712.5000    164.8591    124.3893      0.0000      6.0238      6.0658
   712.0000    164.9105    126.3198     -0.8439      6.0307      6.0639
   711.5000    165.5141    127.5694     -1.8324      6.0296      6.0418
   711.0000    166.8360    124.8595      1.0803      6.0035      5.9939
   710.5000    169.1703    120.0270      4.0257      5.9467      5.9112
   710.0000    172.9607    118.3463      1.2862      5.8664      5.7817
   709.5000    178.7168    119.8661     -4.8016      5.7633      5.5954
   709.0000    186.0482    121.0633     -8.1502      5.6337      5.3750
   708.5000    193.0110    120.9063     -8.4671      5.4952      5.1811
   708.0000    197.6131    120.4514     -8.1490      5.3745      5.0604
   707.5000    199.4778    121.7037     -7.4441      5.2563      5.0131
   707.0000    199.5878    124.7315     -4.1819      5.1018      5.0103
   706.5000    199.0223    126.3145     -0.1888      4.9393      5.0246
   706.0000    197.8781    123.8374     -0.2117      4.8739      5.0536
   705.5000    194.8568    119.0862     -2.5949      4.9828      5.1320
   705.0000    188.7792    115.1589     -4.7043      5.2393      5.2972
   704.5000    180.3630    112.6590     -7.3142      5.5662      5.5444
   704.0000    171.7338    111.4782    -10.3889      5.8790      5.8230
   703.5000    164.6554    112.3613    -10.7043      6.1224      6.0733
   703.0000    159.8087    114.4800     -9.1412      6.2827      6.2575
   702.5000    156.9789    117.2912     -9.3318      6.3834      6.3703
   702.0000    155.2169    120.7030    -11.9401      6.4511      6.4426
   701.5000    153.8908    124.2220    -12.9393      6.4946      6.4981
   701.0000    152.7503    126.8071    -10.3392      6.5235      6.5466
   700.5000    151.6280    127.8150     -8.9685      6.5535      6.5951
   700.0000    150.4377    124.6608    -12.2159      6.5888      6.6473
   699.5000    149.3545    117.5672    -13.9089      6.6221      6.6955
   699.0000    148.4688    113.1557     -9.7667      6.6532      6.7354
   698.5000    147.7751    115.1049     -4.0245      6.6915      6.7670
   698.0000    147.2088    118.2835     -4.2319      6.7466      6.7931
   697.5000    146.5914    118.1986     -7.9193      6.8142      6.8217
   697.0000    145.9075    117.3266     -9.1851      6.8744      6.8537
   696.5000    145.4052    117.6978     -8.9716      6.9038      6.8773
   696.0000    145.2114    117.6892     -8.5034      6.9023      6.8865
   695.5000    145.3888    117.3929     -5.8777      6.8921      6.8781
   695.0000    145.8522    117.1947     -2.7023      6.8923      6.8563
   694.5000    146.2634    116.5910     -1.7571      6.9018      6.8370
   694.0000    146.4275    116.9265     -4.2194      6.9088      6.8293
   693.5000    146.5609    119.5719    -11.0437      6.8985      6.8231
   693.0000    146.8542    122.6360    -15.1524      6.8592      6.8095
   692.5000    147.2154    123.8155    -11.3768      6.8031      6.7928
   692.0000    147.3229    124.4262     -6.3440      6.7641      6.7878
   691.5000    146.9132    126.2065     -4.4969      6.7655      6.8067
   691.0000    145.9067    128.1557     -2.2369      6.8039      6.8537
   690.5000    144.2704    128.8272     -0.8570      6.8716      6.9314
   690.0000    142.1944    127.7189     -2.6379      6.9639      7.0326
   689.5000    140.2915    126.7760     -6.4913      7.0644      7.1280
   689.0000    139.0505    126.3371     -9.8750      7.1519      7.1916
   688.5000    138.5595    124.2136    -10.8733      7.2224      7.2171
   688.0000    138.6852    119.8412     -7.8797      7.2803      7.2106
   687.5000    139.1103    116.4169     -3.6106      7.3106      7.1885
   687.0000    139.8250    117.5426     -4.0406      7.2812      7.1518
   686.5000    141.2569    120.3260     -8.6672      7.1837      7.0793
   686.0000    143.4698    119.7773    -11.5915      7.0501      6.9701
   685.5000    145.8281    117.7837    -11.1298      6.9187      6.8574
   685.0000    147.8364    119.0081    -10.0784      6.8048      6.7642
   684.5000    149.5798    120.7571     -7.7302      6.7124      6.6854
   684.0000    151.1453    119.8369     -5.5937      6.6427      6.6162
   683.5000    152.4969    117.0170     -7.3514      6.5977      6.5575
   683.0000    153.5911    112.4310    -10.8827      6.5783      6.5108
   682.5000    154.3693    109.0446    -11.2838      6.5744      6.4780
   682.0000    154.9211    110.0184    -10.0629      6.5695      6.4549
   681.5000    155.7775    112.5958    -12.6813      6.5482      6.4194
   681.0000    157.5946    112.7318    -15.0981      6.4952      6.3454
   680.5000    160.3856    112.1399    -12.6651      6.4059      6.2350
   680.0000    163.2591    113.0354    -10.2681      6.3090      6.1252
   679.5000    164.9294    116.0517    -11.6110      6.2372      6.0632
   679.0000    164.9777    118.0680    -13.1845      6.1891      6.0614
   678.5000    163.8433    117.6085    -16.7042      6.1359      6.1034
   678.0000    162.1185    118.3060    -21.5065      6.0801      6.1683
   677.5000    159.9347    121.8437    -19.4715      6.0823      6.2526
   677.0000    156.6351    122.2409    -11.6239      6.2080      6.3843
   676.5000    151.4580    117.0390     -8.6129      6.4587      6.6025
   676.0000    144.9052    112.5104    -13.3877      6.7854      6.9011
   675.5000    138.4468    110.7285    -16.5356      7.1272      7.2230
   675.0000    133.0632    108.4886    -13.7534      7.4281      7.5152
   674.5000    129.0495    106.2533    -11.3329      7.6676      7.7490
   674.0000    126.4522    106.6549    -12.4449      7.8755      7.9081
   673.5000    125.0688    108.0836    -12.1835      8.0510      7.9956
   673.0000    124.6010    108.9924    -10.0022      8.1244      8.0256
   672.5000    125.1024    109.5983     -5.8496      8.0581      7.9935
   672.0000    126.5386    108.3385     -2.2042      7.9178      7.9027
   671.5000    128.2537    106.5699     -2.9838      7.7944      7.7970
   671.0000    129.6426    107.5189     -6.8643      7.7052      7.7135
   670.5000    130.7627    111.0311     -9.8658      7.6225      7.6474
   670.0000    131.7336    114.0448    -13.3868      7.5476      7.5911
   669.5000    132.3341    114.9491    -14.6214      7.5091      7.5566
