~Version Information
 VERS.                2.00:   CWLS log ASCII Standard -VERSION 2.00
 WRAP.                  NO:   One line per frame
~Well Information Block
#MNEM.UNIT              Data                Description
#--------- -------------------------------  -------------------------------
 STRT.F                         1005.0000:   Starting Depth
 STOP.F                           -2.7500:   Ending Depth
 STEP.F                           -0.5000:   Level Spacing
 NULL.                          -999.2500:   Absent Value
 COMP.     FLUOR DANIEL (NPSOR), INC.    :   Company
 WELL.     23 X 35                       :   Well
 FLD .     NPR #3                        :   Field
 LOC .                                   :   Location
 CNTY.     NATRONA                       :   County
 STAT.     WYOMING                       :   State
 SRVC.                                   :   Service Company
 LIC .                                   :   License Number
 DATE.     09-SEPT-1994                  :   Log Date
 API .       4902522634                  :   API Number
~Curve Information Block
#MNEM.UNIT       API Codes    Curve Description
#---------    -------------   -------------------------------
 DEPT.F        0   0  0  0:   Depth
 CILD.MMHO     0   0  0  0:   Conductivity of Deep Induction
 GR  .API      0   0  0  0:   Gamma ray counts
 TEN .LBF      0   0  0  0:   Differential Tension
 RILM.OHMM     0   0  0  0:   Resistivity from CILM
 RILD.OHMM     0   0  0  0:   Resistivity from CILD
#  Curve Data
~A
# ...
   557.0000    108.7832    111.6745    -23.3218      9.5771      9.1926
   556.5000    109.1551    119.6105    -24.2695      9.6572      9.1613
   556.0000    110.2467    123.6185    -27.8621      9.4201      9.0706
   555.5000    112.6171    126.3742    -29.3556      9.0143      8.8796
   555.0000    115.6980    129.5744    -28.9280      8.6651      8.6432
   554.5000    118.6306    131.3397    -31.0792      8.4401      8.4295
   554.0000    121.0417    132.3343    -32.3953      8.3001      8.2616
   553.5000    122.9697    135.2498    -30.5299      8.1987      8.1321
   553.0000    124.6820    137.6579    -30.2853      8.1072      8.0204
   552.5000    126.3837    139.2670    -32.7765      8.0055      7.9124
   552.0000    128.2200    141.0582    -32.4736      7.8868      7.7991
   551.5000    130.2192    138.8200    -29.0500      7.7588      7.6794
   551.0000    132.1795    132.9381    -25.1494      7.6299      7.5655
   550.5000    133.8141    131.3355    -20.8269      7.5068      7.4731
   550.0000    135.0161    136.0809    -18.0734      7.4076      7.4065
   549.5000    135.7109    139.3710    -19.6258      7.3523      7.3686
   549.0000    135.9196    137.6441    -24.0630      7.3395      7.3573
   548.5000    135.9000    134.2654    -26.9474      7.3486      7.3584
   548.0000    135.9980    133.1796    -28.8615      7.3641      7.3531
   547.5000    136.4568    134.1727    -31.6276      7.3775      7.3283
   547.0000    137.2805    134.3385    -33.2249      7.3682      7.2844
   546.5000    138.3510    132.8614    -32.7787      7.3217      7.2280
   546.0000    139.6225    131.3282    -33.0025      7.2504      7.1622
   545.5000    141.1765    130.5606    -33.1550      7.1672      7.0833
   545.0000    142.9233    128.5856    -29.5728      7.0657      6.9968
   544.5000    144.6945    126.2502    -23.5170      6.9465      6.9111
   544.0000    146.3879    126.8806    -19.4495      6.8416      6.8312
   543.5000    147.7586    129.2453    -19.9970      6.7814      6.7678
   543.0000    148.4864    129.5042    -23.3712      6.7661      6.7346
   542.5000    148.7572    128.4195    -26.3615      6.7683      6.7224
   542.0000    149.1270    128.5689    -28.0164      6.7548      6.7057
   541.5000    149.8488    129.6674    -29.1976      6.7165      6.6734
   541.0000    150.7484    131.4088    -30.1081      6.6814      6.6336
   540.5000    151.5823    132.9224    -32.0686      6.6694      6.5971
   540.0000    152.2384    132.5909    -33.9691      6.6596      6.5686
   539.5000    152.8557    129.9358    -32.9186      6.6219      6.5421
   539.0000    153.5816    127.4278    -29.0610      6.5587      6.5112
   538.5000    154.4421    127.9219    -24.7026      6.4973      6.4749
   538.0000    155.4110    130.0254    -22.1000      6.4591      6.4346
   537.5000    156.3990    129.9806    -22.9028      6.4406      6.3939
   537.0000    157.1544    129.2337    -24.7337      6.4271      6.3632
   536.5000    157.5229    129.4413    -25.2836      6.4133      6.3483
   536.0000    157.6714    129.7083    -28.3168      6.4006      6.3423
   535.5000    157.8911    130.6306    -32.9888      6.3829      6.3335
   535.0000    158.3053    130.5759    -32.8644      6.3545      6.3169
   534.5000    158.7632    126.6910    -28.6340      6.3281      6.2987
   534.0000    159.0084    122.6216    -26.1254      6.3233      6.2890
   533.5000    158.8955    122.5290    -23.4002      6.3429      6.2934
   533.0000    158.4532    124.8166    -20.0440      6.3686      6.3110
   532.5000    157.6862    127.6664    -20.9599      6.3847      6.3417
   532.0000    156.6411    130.0818    -27.3094      6.3956      6.3840
   531.5000    155.4299    130.4671    -32.3364      6.4149      6.4338
   531.0000    154.1353    129.0764    -30.9200      6.4500      6.4878
   530.5000    152.7355    128.2518    -25.6334      6.5063      6.5473
   530.0000    151.1848    129.1736    -23.0272      6.5879      6.6144
   529.5000    149.4062    131.1097    -24.3000      6.6888      6.6932
   529.0000    147.6301    130.8992    -25.8555      6.7907      6.7737
   528.5000    146.1134    127.9448    -26.7979      6.8755      6.8440
   528.0000    144.9846    126.2535    -27.5519      6.9298      6.8973
   527.5000    144.4236    126.9945    -27.7337      6.9466      6.9241
   527.0000    144.7582    127.9819    -28.7710      6.9306      6.9081
   526.5000    145.8743    129.1735    -31.0139      6.8984      6.8552
   526.0000    147.0622    130.5653    -35.0277      6.8670      6.7998
   525.5000    147.4947    129.4994    -37.1902      6.8464      6.7799
   525.0000    146.7545    127.0509    -34.3964      6.8417      6.8141
   524.5000    145.1320    125.0367    -31.6105      6.8541      6.8903
   524.0000    143.7620    122.3316    -31.3354      6.8743      6.9559
   523.5000    143.8427    118.1317    -28.4666      6.8881      6.9520
   523.0000    145.4343    114.3928    -25.0597      6.9051      6.8760
   522.5000    147.7590    113.2301    -27.7681      6.9587      6.7678
   522.0000    150.3102    115.3241    -33.4768      7.0349      6.6529
   521.5000    152.9585    119.5986    -37.1764      7.0301      6.5377
   521.0000    155.9276    124.5148    -38.8088      6.8601      6.4132
   520.5000    159.3804    127.9265    -38.5212      6.5891      6.2743
   520.0000    162.5215    128.0597    -35.8582      6.3466      6.1530
   519.5000    163.9040    125.1451    -34.3643      6.1990      6.1011
   519.0000    163.4830    120.3179    -33.0623      6.1393      6.1168
   518.5000    162.6423    112.3989    -28.1180      6.1309      6.1485
   518.0000    161.9132    103.0917    -24.0563      6.1632      6.1761
   517.5000    160.3982     97.5672    -25.5736      6.2903      6.2345
   517.0000    157.4101    100.0015    -28.8664      6.5671      6.3528
   516.5000    153.0130    109.7898    -31.2299      6.9157      6.5354
   516.0000    148.2717    121.4030    -33.2663      7.1251      6.7444
   515.5000    145.1992    125.8208    -34.4986      7.0953      6.8871
   515.0000    144.5826    122.3410    -33.5503      6.9725      6.9165
   514.5000    144.9556    120.1256    -28.6663      6.9154      6.8987
   514.0000    145.0555    123.3448    -23.5176      6.9396      6.8939
   513.5000    145.1170    125.9532    -23.5100      6.9803      6.8910
   513.0000    145.6181    125.0735    -26.0388      6.9818      6.8673
   512.5000    146.8160    124.4804    -26.5826      6.9250      6.8112
   512.0000    148.9206    125.6562    -25.7749      6.8208      6.7150
   511.5000    151.7761    126.2837    -26.4102      6.6870      6.5887
   511.0000    154.9365    125.0357    -28.9469      6.5323      6.4543
   510.5000    158.1089    124.1672    -31.3549      6.3694      6.3248
   510.0000    161.1653    125.9266    -28.9655      6.2201      6.2048
   509.5000    163.9004    127.3253    -24.2173      6.1004      6.1013
   509.0000    166.2374    126.5049    -23.6180      6.0172      6.0155
   508.5000    168.0544    126.2753    -28.9375      5.9739      5.9505
   508.0000    168.9506    127.1187    -31.6520      5.9711      5.9189
   507.5000    168.5618    126.2652    -27.7397      6.0006      5.9325
   507.0000    166.8157    124.5868    -23.5115      6.0512      5.9946
   506.5000    163.7169    125.2351    -22.2247      6.1208      6.1081
   506.0000    159.4874    128.6727    -21.6443      6.2165      6.2701
   505.5000    155.4031    130.0218    -22.4861      6.3349      6.4349
   505.0000    152.7097    124.4663    -24.8148      6.4581      6.5484
   504.5000    151.4546    116.4139    -25.2772      6.5908      6.6026
   504.0000    150.7168    113.0067    -23.3581      6.7664      6.6350
   503.5000    149.9316    115.3982    -21.5705      6.9769      6.6697
   503.0000    149.1989    119.5286    -21.5943      7.1181      6.7025
   502.5000    149.2541    124.0053    -21.9341      7.0760      6.7000
   502.0000    150.8873    127.8666    -21.2280      6.8707      6.6275
   501.5000    154.0456    129.6436    -20.6512      6.6268      6.4916
