~Version Information
 VERS.                2.00:   CWLS log ASCII Standard -VERSION 2.00
 WRAP.                  NO:   One line per frame
~Well Information Block
#MNEM.UNIT              Data                Description
#--------- -------------------------------  -------------------------------
 STRT.F                         1005.0000:   Starting Depth
 STOP.F                           -2.7500:   Ending Depth
 STEP.F                           -0.5000:   Level Spacing
 NULL.                          -999.2500:   Absent Value
 COMP.     FLUOR DANIEL (NPSOR), INC.    :   Company
 WELL.     23 X 35                       :   Well
 FLD .     NPR #3                        :   Field
 LOC .                                   :   Location
 CNTY.     NATRONA                       :   County
 STAT.     WYOMING                       :   State
 SRVC.                                   :   Service Company
 LIC .                                   :   License Number
 DATE.     09-SEPT-1994                  :   Log Date
 API .       4902522634                  :   API Number
~Curve Information Block
#MNEM.UNIT       API Codes    Curve Description
#---------    -------------   -------------------------------
 DEPT.F        0   0  0  0:   Depth
 CILD.MMHO     0   0  0  0:   Conductivity of Deep Induction
 GR  .API      0   0  0  0:   Gamma ray counts
 TEN .LBF      0   0  0  0:   Differential Tension
 RILM.OHMM     0   0  0  0:   Resistivity from CILM
 RILD.OHMM     0   0  0  0:   Resistivity from CILD
#  Curve Data
~A
# ...
   837.0000     53.1959     67.4269     77.2650     18.4144     18.7984
   836.5000     53.4568     67.2790     76.9609     18.4998     18.7067
   836.0000     53.5760     65.1264     76.1264     18.5737     18.6651
   835.5000     53.7610     64.5024     72.6110     18.6129     18.6008
   835.0000     54.0015     65.9497     67.6508     18.6279     18.5180
   834.5000     54.2784     67.7844     65.7970     18.5540     18.4235
   834.0000     54.9089     69.4674     67.6499     18.2950     18.2120
   833.5000     56.2514     71.7810     67.8997     17.8366     17.7773
   833.0000     58.1958     72.2812     63.7581     17.2609     17.1833
   832.5000     60.2443     69.9948     57.6297     16.6853     16.5991
   832.0000     61.9108     68.2517     53.0377     16.1924     16.1523
   831.5000     62.8358     68.8409     51.7533     15.8005     15.9145
   831.0000     63.1611     70.9046     53.5400     15.4896     15.8325
   830.5000     63.4879     72.4551     56.4268     15.2412     15.7510
   830.0000     64.3721     70.7236     57.2952     15.0364     15.5347
   829.5000     66.3826     65.9817     56.2039     14.8547     15.0642
   829.0000     70.0237     63.3177     54.5081     14.6135     14.2809
   828.5000     75.2749     66.2047     54.6276     14.1484     13.2846
   828.0000     81.5968     75.5683     57.0512     13.3649     12.2554
   827.5000     88.3246     91.3313     59.4777     12.3545     11.3219
   827.0000     95.1953    107.3021     60.2887     11.2325     10.5047
   826.5000    102.7391    116.3960     60.0594     10.0751      9.7334
   826.0000    111.2716    119.5360     59.3271      9.0005      8.9870
   825.5000    119.6429    119.6041     56.8313      8.2015      8.3582
   825.0000    126.3755    117.6437     52.7894      7.7251      7.9129
   824.5000    130.3839    116.8515     49.7107      7.5140      7.6697
   824.0000    131.7547    119.5181     50.2634      7.4868      7.5899
   823.5000    131.3803    122.0700     53.9194      7.5845      7.6115
   823.0000    129.9198    122.4524     57.2665      7.7436      7.6971
   822.5000    128.6190    123.7540     57.1021      7.8623      7.7749
   822.0000    130.3868    125.7403     54.3303      7.8429      7.6695
   821.5000    138.1794    124.8246     49.3255      7.6418      7.2370
   821.0000    153.3397    122.3703     43.8349      7.2256      6.5215
   820.5000    174.7455    123.0722     42.4252      6.6086      5.7226
   820.0000    196.3655    125.3771     46.3152      5.9525      5.0925
   819.5000    210.5358    129.4455     49.9230      5.4275      4.7498
   819.0000    215.4707    138.9945     50.4046      5.0219      4.6410
   818.5000    215.7306    148.2235     49.3783      4.6086      4.6354
   818.0000    215.9630    146.4026     50.2350      4.2332      4.6304
   817.5000    216.2438    134.4566     51.4102      4.0874      4.6244
   817.0000    211.8818    124.5604     48.0494      4.3278      4.7196
   816.5000    198.8980    122.0897     43.1590      4.9834      5.0277
   816.0000    180.1969    123.1489     42.5079      5.8548      5.5495
   815.5000    163.0236    123.6471     44.9085      6.6136      6.1341
   815.0000    152.1102    125.8884     46.4146      7.0089      6.5742
   814.5000    147.7687    129.0333     44.5306      7.0482      6.7673
   814.0000    148.2567    129.8083     40.5086      6.8859      6.7451
   813.5000    150.9482    130.3147     39.3053      6.6717      6.6248
   813.0000    153.7072    132.6960     40.8047      6.4893      6.5059
   812.5000    155.6582    134.7857     39.7607      6.3732      6.4243
   812.0000    156.5937    134.9151     36.0507      6.3312      6.3860
   811.5000    156.4610    134.6349     33.7126      6.3507      6.3914
   811.0000    155.4534    134.5479     36.7308      6.3979      6.4328
   810.5000    154.3268    133.7087     42.4499      6.4335      6.4798
   810.0000    154.1395    131.8288     43.7562      6.4365      6.4876
   809.5000    155.2608    129.3436     39.6210      6.4141      6.4408
   809.0000    157.0349    126.1815     35.9442      6.3822      6.3680
   808.5000    158.7624    123.3632     33.0434      6.3419      6.2987
   808.0000    160.3112    123.5139     29.2196      6.2898      6.2379
   807.5000    161.7798    126.9276     29.6097      6.2391      6.1812
   807.0000    163.1057    130.6033     36.4164      6.2066      6.1310
   806.5000    164.1267    131.5756     42.6829      6.1879      6.0929
   806.0000    165.3011    131.2036     43.6208      6.1583      6.0496
   805.5000    167.8560    132.7492     43.0187      6.0896      5.9575
   805.0000    172.8481    135.8680     43.5513      5.9667      5.7854
   804.5000    180.6351    138.1412     45.1723      5.7852      5.5360
   804.0000    190.7995    139.5627     48.4633      5.5492      5.2411
   803.5000    200.9613    140.7840     51.6960      5.2942      4.9761
   803.0000    207.5775    144.1718     51.2705      5.0760      4.8175
   802.5000    209.7888    148.4713     47.7608      4.8991      4.7667
   802.0000    210.2952    148.5010     43.8136      4.7190      4.7552
   801.5000    211.5374    142.4469     43.7123      4.5372      4.7273
   801.0000    213.1661    136.4543     47.6703      4.4484      4.6912
   800.5000    212.7361    134.9977     49.8452      4.5446      4.7007
   800.0000    208.3898    135.3578     44.4730      4.8107      4.7987
   799.5000    201.3180    133.7550     37.5885      5.1169      4.9673
   799.0000    194.6003    133.2989     36.5924      5.3324      5.1387
   798.5000    190.4986    136.8776     40.4418      5.4236      5.2494
   798.0000    190.3578    139.9576     43.0062      5.4040      5.2533
   797.5000    195.0546    139.3699     42.0692      5.2992      5.1268
   797.0000    204.9353    137.4356     39.7134      5.1270      4.8796
   796.5000    220.0625    136.2267     38.0125      4.8857      4.5442
   796.0000    238.6582    134.6974     38.0176      4.5925      4.1901
   795.5000    256.3691    131.7006     38.1509      4.3014      3.9006
   795.0000    268.4407    129.7208     37.4345      4.0467      3.7252
   794.5000    273.4028    131.4174     37.4238      3.8155      3.6576
   794.0000    274.4968    136.1102     38.2778      3.5977      3.6430
   793.5000    274.9829    140.2596     37.8905      3.4487      3.6366
   793.0000    273.9216    142.0534     38.5581      3.4559      3.6507
   792.5000    267.3464    142.2595     41.9604      3.6584      3.7405
   792.0000    255.0993    140.4764     43.0788      4.0057      3.9200
   791.5000    243.8252    137.4188     36.8897      4.3580      4.1013
   791.0000    240.3367    136.6683     30.1038      4.5497      4.1608
   790.5000    247.4123    138.9252     28.4955      4.4913      4.0418
   790.0000    261.9597    141.4168     27.5156      4.2541      3.8174
   789.5000    273.8364    145.1532     24.7004      4.0056      3.6518
   789.0000    277.0273    147.9001     25.6572      3.8250      3.6098
   788.5000    274.1982    144.9156     30.2542      3.6588      3.6470
   788.0000    270.0508    139.4649     32.4398      3.4749      3.7030
   787.5000    266.1338    138.3949     30.7696      3.3830      3.7575
   787.0000    259.2327    140.1186     25.6697      3.5299      3.8575
   786.5000    244.3438    140.1501     19.9690      3.9660      4.0926
   786.0000    222.9805    138.5391     17.0791      4.5869      4.4847
   785.5000    202.0270    135.9599     16.8238      5.1618      4.9498
   785.0000    187.2304    133.4001     18.2933      5.5266      5.3410
   784.5000    179.2342    132.8034     21.1954      5.6871      5.5793
   784.0000    176.5436    135.1168     22.4190      5.7201      5.6643
   783.5000    176.3566    136.0200     21.6080      5.7090      5.6703
   783.0000    176.0739    134.2803     21.9411      5.6882      5.6794
   782.5000    175.0614    133.4440     23.1528      5.6700      5.7123
   782.0000    173.5543    133.9324     22.1168      5.6714      5.7619
   781.5000    171.6913    134.6707     19.2964      5.6976      5.8244
