~Version Information
 VERS.                2.00:   CWLS log ASCII Standard -VERSION 2.00
 WRAP.                  NO:   One line per frame
~Well Information Block
#MNEM.UNIT              Data                Description
#--------- -------------------------------  -------------------------------
 STRT.F                         1005.0000:   Starting Depth
 STOP.F                           -2.7500:   Ending Depth
 STEP.F                           -0.5000:   Level Spacing
 NULL.                          -999.2500:   Absent Value
 COMP.     FLUOR DANIEL (NPSOR), INC.    :   Company
 WELL.     23 X 35                       :   Well
 FLD .     NPR #3                        :   Field
 LOC .                                   :   Location
 CNTY.     NATRONA                       :   County
 STAT.     WYOMING                       :   State
 SRVC.                                   :   Service Company
 LIC .                                   :   License Number
 DATE.     09-SEPT-1994                  :   Log Date
 API .       4902522634                  :   API Number
~Curve Information Block
#MNEM.UNIT       API Codes    Curve Description
#---------    -------------   -------------------------------
 DEPT.F        0   0  0  0:   Depth
 CILD.MMHO     0   0  0  0:   Conductivity of Deep Induction
 GR  .API      0   0  0  0:   Gamma ray counts
 TEN .LBF      0   0  0  0:   Differential Tension
 RILM.OHMM     0   0  0  0:   Resistivity from CILM
 RILD.OHMM     0   0  0  0:   Resistivity from CILD
#  Curve Data
~A
# ...
    53.0000    -91.7100     70.6805    -31.3442  10000.0000  10000.0000
    52.5000    -21.2455     72.9987    -30.6247  10000.0000  10000.0000
    52.0000     76.1989     73.2206    -30.6223  10000.0000     13.1236
    51.5000    120.5051     71.7764    -32.2126  10000.0000      8.2984
    51.0000    115.5374     70.7576    -34.4235  10000.0000      8.6552
    50.5000    105.3518     69.7315    -39.1690  10000.0000      9.4920
    50.0000    104.1290     68.2336    -42.8656  10000.0000      9.6035
    49.5000    120.3313     68.2092    -39.6271  10000.0000      8.3104
    49.0000    144.7205     69.1574    -31.1033  10000.0000      6.9099
    48.5000    156.5379     68.5819    -27.7861  10000.0000      6.3882
    48.0000    154.6336     67.4418    -31.9994  10000.0000      6.4669
    47.5000    153.9539     68.1514    -35.3397  10000.0000      6.4955
    47.0000    160.0812     70.7437    -32.9617  10000.0000      6.2468
    46.5000    166.1014     73.5219    -29.6841  10000.0000      6.0204
    46.0000    162.1053     77.0238    -26.1885  10000.0000      6.1688
    45.5000    149.1549     80.5988    -24.6446  10000.0000      6.7044
    45.0000    139.9542     81.2631    -30.5598  10000.0000      7.1452
    44.5000    141.2663     77.0110    -40.1151  10000.0000      7.0788
    44.0000    148.6558     71.9578    -42.1068  10000.0000      6.7269
    43.5000    156.3474     70.2727    -35.6151  10000.0000      6.3960
    43.0000    159.9208     71.7764    -29.2382  10000.0000      6.2531
    42.5000    159.5368     71.8533    -28.4418  10000.0000      6.2681
    42.0000    159.3071     70.2317    -30.6013  10000.0000      6.2772
    41.5000    161.3609     70.1714    -31.5428  10000.0000      6.1973
    41.0000    163.1853     71.8432    -33.1889  10000.0000      6.1280
    40.5000    161.9582     72.9095    -35.4810  10000.0000      6.1744
    40.0000    158.7838     73.6515    -36.4072  10000.0000      6.2979
    39.5000    158.1912     73.7270    -36.6177  10000.0000      6.3215
    39.0000    160.6289     70.9884    -33.9794  10000.0000      6.2255
    38.5000    162.1073     65.8408    -29.0256  10000.0000      6.1688
    38.0000    160.8101     61.9009    -28.6008  10000.0000      6.2185
    37.5000    159.0277     60.5654    -32.8970  10000.0000      6.2882
    37.0000    157.6802     60.6960    -32.4331  10000.0000      6.3419
    36.5000    155.4011     63.4912    -29.6362  10000.0000      6.4350
    36.0000    152.2829     68.2542    -32.7887  10000.0000      6.5667
    35.5000    149.5311     70.2135    -41.0454  10000.0000      6.6876
    35.0000    146.1989     68.4020    -44.7929  10000.0000      6.8400
    34.5000    141.5181     67.9967    -40.8672   1873.3101      7.0662
    34.0000    138.0687     68.7010    -37.6785    178.2945      7.2428
    33.5000    137.5236     67.4629    -41.2085    176.1445      7.2715
    33.0000    124.5114     65.4664    -45.9931    175.0678      8.0314
    32.5000     82.3685     66.4147    -42.8854    173.9882     12.1406
    32.0000     31.4986     68.6039    -33.8150    172.9794     31.7475
    31.5000      4.0829     68.9790    -26.2755    172.4427    244.9229
    31.0000     -0.6023     66.8372    -22.6148    172.7575  10000.0000
    30.5000     -0.5660     64.3201    -20.0074    173.3383  10000.0000
    30.0000     -0.5331     63.1592    -21.0615    173.3997  10000.0000
    29.5000     -0.5129     63.0975    -23.6921    173.2016  10000.0000
    29.0000     -0.5107     62.3327    -20.7443    173.4132  10000.0000
    28.5000     -0.5165     61.9407    -14.2947    173.8745  10000.0000
    28.0000     -0.5255     64.3333    -13.5856    174.1436  10000.0000
    27.5000     -0.5366     68.1474    -16.8543    174.3863  10000.0000
    27.0000     -0.5321     70.1374   -250.0000    174.5960  10000.0000
    26.5000     -0.5037     69.6389   -250.0000    174.2443  10000.0000
    26.0000     -0.4918     69.7476   -250.0000    173.4080  10000.0000
    25.5000     -0.5301     70.8335   -250.0000    172.9726  10000.0000
    25.0000     -0.5777     70.2740   -250.0000    173.0501  10000.0000
    24.5000      0.0000     69.4372   -250.0000    172.3884      0.2000
    24.0000      0.0000     71.7173   -250.0000    170.5604      0.2000
    23.5000      0.0000     74.2075   -250.0000    168.7466      0.2000
    23.0000      0.0000     73.3477   -250.0000    168.2468      0.2000
    22.5000      0.0000     71.8191   -250.0000    169.1558      0.2000
    22.0000      0.0000     71.5949   -250.0000    170.7419      0.2000
    21.5000      0.0000     71.3170   -250.0000    171.8543      0.2000
    21.0000      0.0000     70.9909   -250.0000      0.2000      0.2000
    20.5000      0.0000     70.2909   -250.0000      0.2000      0.2000
    20.0000      0.0000     68.8704   -250.0000      0.2000      0.2000
    19.5000      0.0000     68.3384   -250.0000      0.2000      0.2000
    19.0000      0.0000     65.8351   -250.0000      0.2000      0.2000
    18.5000      0.0000     56.5923   -250.0000      0.2000      0.2000
    18.0000      0.0000     48.4837   -250.0000      0.2000      0.2000
    17.5000      0.0000     49.6927   -250.0000      0.2000      0.2000
    17.0000      0.0000     55.2963   -250.0000      0.2000      0.2000
    16.5000      0.0000     56.6072   -250.0000      0.2000      0.2000
    16.0000      0.0000     56.2527   -250.0000      0.2000      0.2000
    15.5000      0.0000     59.6918   -250.0000      0.2000      0.2000
    15.0000      0.0000     66.4387   -250.0000      0.2000      0.2000
    14.5000      0.0000     70.4380   -250.0000      0.2000      0.2000
    14.0000      0.0000     70.3584   -250.0000      0.2000      0.2000
    13.5000      0.0000     70.2041   -250.0000      0.2000      0.2000
    13.0000      0.0000     71.1181   -250.0000      0.2000      0.2000
    12.5000      0.0000     71.4252   -250.0000      0.2000      0.2000
    12.0000      0.0000     70.3491   -250.0000      0.2000      0.2000
    11.5000      0.0000     66.1792   -250.0000      0.2000      0.2000
    11.0000      0.0000     56.2301   -250.0000      0.2000      0.2000
    10.5000      0.0000     43.2660   -250.0000      0.2000      0.2000
    10.0000      0.0000     31.7303   -250.0000      0.2000      0.2000
     9.5000      0.0000     22.5549   -250.0000      0.2000      0.2000
     9.0000      0.0000     16.3094   -250.0000      0.2000      0.2000
     8.5000      0.0000     13.6388   -250.0000      0.2000      0.2000
     8.0000      0.0000     12.4714   -250.0000      0.2000      0.2000
     7.5000      0.0000     11.0007   -250.0000      0.2000      0.2000
     7.0000      0.0000      9.8445   -250.0000      0.2000      0.2000
     6.5000      0.0000      9.4262   -250.0000      0.2000      0.2000
     6.0000      0.0000      9.8044   -250.0000      0.2000      0.2000
     5.5000      0.0000     10.4680   -250.0000      0.2000      0.2000
     5.0000      0.0000     10.2443   -250.0000      0.2000      0.2000
     4.5000      0.0000      8.4386   -250.0000      0.2000      0.2000
     4.0000      0.0000      6.6499   -250.0000      0.2000      0.2000
     3.5000      0.0000      6.6499   -250.0000      0.2000      0.2000
     3.0000      0.0000      6.6499   -250.0000      0.2000      0.2000
     2.5000      0.0000      6.6499   -250.0000      0.2000      0.2000
     2.0000      0.0000      6.6499   -250.0000      0.2000      0.2000
     1.5000      0.0000      6.6499   -250.0000      0.2000      0.2000
     1.0000      0.0000      6.6499   -250.0000      0.2000      0.2000
     0.5000      0.0000      6.6499   -250.0000      0.2000      0.2000
     0.0000      0.0000      6.6499   -250.0000      0.2000      0.2000
    -0.5000      0.0000      6.6499   -250.0000      0.2000      0.2000
    -1.0000      0.0000      6.6499   -250.0000      0.2000      0.2000
    -1.5000      0.0000      6.6499   -250.0000      0.2000      0.2000
    -2.0000      0.0000      6.6499   -250.0000      0.2000      0.2000
    -2.5000      0.0000      6.6499   -250.0000      0.2000      0.2000
