~Version Information
 VERS.                2.00:   CWLS log ASCII Standard -VERSION 2.00
 WRAP.                  NO:   One line per frame
~Well Information Block
#MNEM.UNIT              Data                Description
#--------- -------------------------------  -------------------------------
 STRT.F                         1005.0000:   Starting Depth
 STOP.F                           -2.7500:   Ending Depth
 STEP.F                           -0.5000:   Level Spacing
 NULL.                          -999.2500:   Absent Value
 COMP.     FLUOR DANIEL (NPSOR), INC.    :   Company
 WELL.     23 X 35                       :   Well
 FLD .     NPR #3                        :   Field
 LOC .                                   :   Location
 CNTY.     NATRONA                       :   County
 STAT.     WYOMING                       :   State
 SRVC.                                   :   Service Company
 LIC .                                   :   License Number
 DATE.     09-SEPT-1994                  :   Log Date
 API .       4902522634                  :   API Number
~Curve Information Block
#MNEM.UNIT       API Codes    Curve Description
#---------    -------------   -------------------------------
 DEPT.F        0   0  0  0:   Depth
 CILD.MMHO     0   0  0  0:   Conductivity of Deep Induction
 GR  .API      0   0  0  0:   Gamma ray counts
 TEN .LBF      0   0  0  0:   Differential Tension
 RILM.OHMM     0   0  0  0:   Resistivity from CILM
 RILD.OHMM     0   0  0  0:   Resistivity from CILD
#  Curve Data
~A
# ...
   445.0000    131.9106    128.0031    -32.2046      7.2195      7.5809
   444.5000    123.1074    122.5323    -35.3681      7.5989      8.1230
   444.0000    114.4923    115.4379    -38.1805      8.1194      8.7342
   443.5000    105.7189    111.6037    -39.9221      8.8990      9.4590
   443.0000     96.9709    111.9184    -39.6085      9.9616     10.3124
   442.5000     88.9181    111.4342    -36.3441     11.0791     11.2463
   442.0000     82.2897    108.6861    -30.9017     11.9660     12.1522
   441.5000     77.9353    106.0581    -27.3002     12.4847     12.8312
   441.0000     75.9040    104.3056    -27.4662     12.7199     13.1745
   440.5000     75.4795    105.4175    -28.5819     12.8026     13.2486
   440.0000     75.8138    107.4757    -30.8855     12.8122     13.1902
   439.5000     76.3391    104.7769    -35.6438     12.7705     13.0995
   439.0000     76.8490     99.3127    -38.7807     12.6866     13.0125
   438.5000     77.3186     96.5788    -34.4955     12.5973     12.9335
   438.0000     77.6238     96.6428    -26.2077     12.5312     12.8826
   437.5000     77.6845     97.3284    -21.7810     12.4859     12.8726
   437.0000     77.5370     97.4299    -23.7028     12.4663     12.8971
   436.5000     77.2810     96.5763    -26.7299     12.4991     12.9398
   436.0000     76.8924     96.0468    -27.9066     12.5942     13.0052
   435.5000     76.3326     96.4460    -29.4093     12.7367     13.1006
   435.0000     75.5371     96.9372    -30.7675     12.9178     13.2385
   434.5000     74.4390     99.0699    -27.7675     13.1235     13.4338
   434.0000     73.0509    101.6118    -21.1761     13.3191     13.6891
   433.5000     71.4680    102.0909    -18.4022     13.4992     13.9923
   433.0000     69.7451    103.3568    -22.9677     13.7128     14.3379
   432.5000     68.1528    106.1548    -30.5988     13.9865     14.6729
   432.0000     67.2834    106.4102    -36.4103     14.2243     14.8625
   431.5000     67.5261    101.7943    -38.3550     14.2940     14.8091
   431.0000     68.7082     95.9721    -36.7821     14.2442     14.5543
   430.5000     70.2466     93.4221    -34.7779     14.2053     14.2356
   430.0000     71.7019     95.5036    -34.0664     14.0893     13.9466
   429.5000     73.1909     99.2817    -32.5566     13.6906     13.6629
   429.0000     75.2248    101.7712    -30.4277     13.0529     13.2935
   428.5000     77.8502    103.2098    -30.5522     12.4208     12.8452
   428.0000     80.4793    104.2221    -28.6011     11.9631     12.4255
   427.5000     82.5187    103.0752    -24.5638     11.7053     12.1185
   427.0000     83.9487     99.0944    -25.9549     11.5950     11.9120
   426.5000     85.0243     95.5009    -31.5986     11.5545     11.7613
   426.0000     85.8890     94.4678    -33.2816     11.5108     11.6429
   425.5000     86.6242     96.6367    -31.6654     11.4286     11.5441
   425.0000     87.3821     99.6855    -31.0170     11.3094     11.4440
   424.5000     88.2303    101.1608    -32.4688     11.1723     11.3340
   424.0000     88.9835    101.2332    -34.2792     11.0404     11.2380
   423.5000     89.4661    100.1054    -34.1374     10.9451     11.1774
   423.0000     89.7089     98.8033    -31.7322     10.9013     11.1472
   422.5000     89.7176    100.1203    -29.1202     10.8697     11.1461
   422.0000     89.3548    101.7334    -28.1829     10.8366     11.1913
   421.5000     88.7481     99.8180    -29.3675     10.8500     11.2678
   421.0000     88.4302     97.5462    -32.1009     10.9167     11.3084
   420.5000     88.7245     96.4456    -33.5085     10.9757     11.2708
   420.0000     89.4415     94.6404    -31.6682     11.0104     11.1805
   419.5000     90.2325     94.7124    -27.6135     11.0455     11.0825
   419.0000     90.8969     96.5459    -26.3392     11.0499     11.0015
   418.5000     91.3801     96.4432    -29.7832     10.9788     10.9433
   418.0000     91.8925     96.2926    -33.2041     10.8340     10.8823
   417.5000     92.6202     98.7778    -32.8357     10.6697     10.7968
   417.0000     93.4385    100.5170    -30.7333     10.5493     10.7022
   416.5000     93.9980     99.6524    -31.1164     10.4933     10.6385
   416.0000     94.1190     99.0880    -34.0435     10.4809     10.6249
   415.5000     93.7970     99.4157    -35.2528     10.4887     10.6613
   415.0000     93.3307    100.2074    -34.4973     10.5050     10.7146
   414.5000     93.1440    101.0052    -34.7057     10.5114     10.7361
   414.0000     93.5686    101.7973    -34.5489     10.4863     10.6873
   413.5000     94.6784    100.7712    -32.0235     10.4150     10.5621
   413.0000     96.3201     97.6614    -27.5058     10.2922     10.3820
   412.5000     98.2966     94.8087    -22.0512     10.1296     10.1733
   412.0000    100.5379     95.5078    -20.6933      9.9567      9.9465
   411.5000    102.8677     97.5701    -25.9460      9.7974      9.7212
   411.0000    104.9875     98.3929    -32.3126      9.6353      9.5249
   410.5000    107.5157     97.7380    -33.8745      9.4262      9.3010
   410.0000    111.8148     96.0161    -30.6299      9.1463      8.9434
   409.5000    119.1689     93.3444    -27.9410      8.7908      8.3914
   409.0000    130.2518     91.7832    -28.8609      8.3379      7.6774
   408.5000    143.8697     94.1499    -31.6910      7.7934      6.9507
   408.0000    156.4245    101.6769    -34.0889      7.2493      6.3929
   407.5000    164.2571    112.1270    -35.3245      6.7910      6.0880
   407.0000    166.5660    121.2036    -34.5388      6.3841      6.0036
   406.5000    165.3946    123.5230    -35.4559      5.9682      6.0461
   406.0000    162.6190    118.0334    -38.8009      5.6424      6.1493
   405.5000    157.7459    110.4442    -39.0318      5.6145      6.3393
   405.0000    148.6886    103.5412    -32.6082      6.0224      6.7255
   404.5000    135.0095     94.8177    -23.3770      6.8565      7.4069
   404.0000    120.0980     84.3193    -19.5435      7.9411      8.3265
   403.5000    108.2135     77.9146    -24.3558      9.0339      9.2410
   403.0000    100.9204     79.0058    -30.4137      9.9676      9.9088
   402.5000     97.7836     84.5965    -29.1534     10.5688     10.2267
   402.0000     98.3814     90.5102    -25.5120     10.6467     10.1645
   401.5000    103.9154     95.9049    -26.0662     10.1578      9.6232
   401.0000    116.6940    101.9206    -27.9627      9.2735      8.5694
   400.5000    139.1066    107.0856    -28.7447      8.1577      7.1887
   400.0000    172.4093    107.1723    -30.9337      6.9193      5.8001
   399.5000    214.2809    103.2075    -33.2962      5.7562      4.6668
   399.0000    259.8687    103.7063    -34.6709      4.7895      3.8481
   398.5000    307.5876    112.6403    -34.8380      3.9842      3.2511
   398.0000    352.2581    123.5856    -33.8638      3.3272      2.8388
   397.5000    388.9990    129.5643    -33.2551      2.8430      2.5707
   397.0000    411.4749    130.6116    -33.3368      2.5525      2.4303
   396.5000    415.8118    130.3652    -33.9297      2.4247      2.4049
   396.0000    402.7788    127.5365    -35.0472      2.4227      2.4828
   395.5000    377.4202    119.7328    -35.0195      2.5287      2.6496
   395.0000    344.1733    110.3189    -33.9965      2.7725      2.9055
   394.5000    303.6121    107.8550    -32.7994      3.2385      3.2937
   394.0000    257.2429    112.4381    -32.9305      3.9888      3.8874
   393.5000    214.3571    115.0170    -33.8849      4.9719      4.6651
   393.0000    179.5368    111.6661    -33.9849      5.9182      5.5699
   392.5000    155.2913    108.4427    -31.6502      6.6086      6.4395
   392.0000    141.0962    108.9608    -29.1306      7.0073      7.0874
   391.5000    133.8648    111.8136    -29.4316      7.2279      7.4702
   391.0000    130.0495    113.9672    -31.5519      7.3681      7.6894
   390.5000    127.4118    113.1817    -32.8799      7.4734      7.8486
   390.0000    125.7106    110.4789    -31.9140      7.5620      7.9548
   389.5000    125.1361    110.0703    -29.7372      7.6245      7.9913
