~Version Information
 VERS.                2.00:   CWLS log ASCII Standard -VERSION 2.00
 WRAP.                  NO:   One line per frame
~Well Information Block
#MNEM.UNIT              Data                Description
#--------- -------------------------------  -------------------------------
 STRT.F                         1005.0000:   Starting Depth
 STOP.F                           -2.7500:   Ending Depth
 STEP.F                           -0.5000:   Level Spacing
 NULL.                          -999.2500:   Absent Value
 COMP.     FLUOR DANIEL (NPSOR), INC.    :   Company
 WELL.     23 X 35                       :   Well
 FLD .     NPR #3                        :   Field
 LOC .                                   :   Location
 CNTY.     NATRONA                       :   County
 STAT.     WYOMING                       :   State
 SRVC.                                   :   Service Company
 LIC .                                   :   License Number
 DATE.     09-SEPT-1994                  :   Log Date
 API .       4902522634                  :   API Number
~Curve Information Block
#MNEM.UNIT       API Codes    Curve Description
#---------    -------------   -------------------------------
 DEPT.F        0   0  0  0:   Depth
 CILD.MMHO     0   0  0  0:   Conductivity of Deep Induction
 GR  .API      0   0  0  0:   Gamma ray counts
 TEN .LBF      0   0  0  0:   Differential Tension
 RILM.OHMM     0   0  0  0:   Resistivity from CILM
 RILD.OHMM     0   0  0  0:   Resistivity from CILD
#  Curve Data
~A
# ...
   613.0000    139.4610    129.8597    -19.7125      7.2925      7.1705
   612.5000    140.8788    130.6462    -15.7917      7.2123      7.0983
   612.0000    142.2262    130.1251    -12.4888      7.1304      7.0311
   611.5000    143.3529    132.3897    -10.1531      7.0738      6.9758
   611.0000    144.0644    137.7051    -11.5205      7.0395      6.9413
   610.5000    144.4366    142.4498    -17.3646      7.0023      6.9235
   610.0000    144.7155    144.5154    -21.6038      6.9534      6.9101
   609.5000    144.9551    143.5910    -20.8669      6.9135      6.8987
   609.0000    144.9765    140.5557    -21.3241      6.9089      6.8977
   608.5000    144.6610    137.8630    -23.8293      6.9387      6.9127
   608.0000    144.1388    137.1823    -25.0994      6.9783      6.9378
   607.5000    143.4350    137.4937    -24.3756      7.0157      6.9718
   607.0000    142.4528    136.6910    -23.1230      7.0594      7.0199
   606.5000    141.2891    134.6519    -22.5532      7.1079      7.0777
   606.0000    140.1112    133.6883    -23.1757      7.1440      7.1372
   605.5000    139.1085    132.8465    -23.4304      7.1626      7.1886
   605.0000    138.5849    128.7411    -23.2346      7.1755      7.2158
   604.5000    138.5612    122.9547    -21.1819      7.1928      7.2170
   604.0000    138.4988    119.8444    -18.8911      7.2214      7.2203
   603.5000    137.9959    120.8675    -19.8098      7.2702      7.2466
   603.0000    137.1058    122.6063    -21.6315      7.3381      7.2936
   602.5000    136.0840    123.5042    -22.0381      7.3931      7.3484
   602.0000    135.1606    126.7642    -23.5426      7.4082      7.3986
   601.5000    134.5373    132.3010    -23.7482      7.4024      7.4329
   601.0000    134.2461    133.5061    -19.9604      7.4101      7.4490
   600.5000    134.0451    128.7774    -18.6105      7.4417      7.4602
   600.0000    133.6086    126.0845    -21.6227      7.4985      7.4845
   599.5000    132.8327    128.0395    -23.0357      7.5712      7.5283
   599.0000    131.9867    128.9821    -19.4727      7.6282      7.5765
   598.5000    131.6495    127.3838    -14.5262      7.6338      7.5959
   598.0000    132.1939    126.3704    -11.6211      7.5883      7.5646
   597.5000    133.2787    126.8168    -10.7622      7.5272      7.5031
   597.0000    134.1119    127.9243    -12.6868      7.4854      7.4565
   596.5000    134.1060    128.4504    -18.4357      7.4724      7.4568
   596.0000    133.2456    127.8025    -25.0225      7.4792      7.5049
   595.5000    131.8777    127.3206    -28.0868      7.4931      7.5828
   595.0000    130.3752    126.9508    -28.1542      7.5234      7.6702
   594.5000    129.0103    126.2482    -28.2226      7.5950      7.7513
   594.0000    127.9735    126.2967    -30.1328      7.7051      7.8141
   593.5000    127.2298    125.4168    -31.7941      7.8212      7.8598
   593.0000    126.8263    124.0191    -30.2038      7.9222      7.8848
   592.5000    126.9435    126.2558    -26.8742      7.9913      7.8775
   592.0000    127.5750    130.1628    -26.6048      7.9928      7.8385
   591.5000    128.6934    130.2697    -29.3236      7.8952      7.7704
   591.0000    130.4952    127.9231    -29.6985      7.7218      7.6631
   590.5000    132.7657    125.9713    -26.0851      7.5338      7.5321
   590.0000    134.9463    125.1352    -21.8188      7.3796      7.4104
   589.5000    136.7396    126.1212    -18.6291      7.2775      7.3132
   589.0000    137.9427    128.7237    -19.0701      7.2243      7.2494
   588.5000    138.2982    129.3941    -22.8771      7.2086      7.2308
   588.0000    137.9450    127.3683    -24.7013      7.2186      7.2493
   587.5000    137.3880    125.5208    -21.0715      7.2440      7.2787
   587.0000    136.9173    124.9448    -16.2132      7.2713      7.3037
   586.5000    136.5424    123.9010    -16.1452      7.2956      7.3237
   586.0000    136.1390    123.7820    -19.9299      7.3289      7.3454
   585.5000    135.6877    126.3970    -20.9563      7.3783      7.3699
   585.0000    135.1868    128.7142    -18.5470      7.4271      7.3972
   584.5000    134.8913    128.2052    -18.4711      7.4497      7.4134
   584.0000    135.2562    126.0397    -22.6911      7.4351      7.3934
   583.5000    136.6226    124.2250    -25.9622      7.3877      7.3194
   583.0000    138.9000    123.3397    -24.3067      7.3241      7.1994
   582.5000    141.5079    125.0123    -20.9800      7.2571      7.0667
   582.0000    143.8361    129.5394    -21.1746      7.1719      6.9524
   581.5000    145.9384    135.8692    -24.5806      7.0414      6.8522
   581.0000    148.0808    141.6709    -28.0881      6.8695      6.7531
   580.5000    150.0475    144.1953    -28.5660      6.7043      6.6646
   580.0000    151.2715    144.4390    -23.7031      6.6007      6.6106
   579.5000    151.0855    146.3766    -18.7987      6.5838      6.6188
   579.0000    149.1203    149.1434    -19.8826      6.6476      6.7060
   578.5000    145.8051    147.3503    -24.1862      6.7737      6.8585
   578.0000    141.9837    143.2630    -27.4116      6.9462      7.0431
   577.5000    138.2742    141.9005    -29.7710      7.1533      7.2320
   577.0000    134.8804    142.5375    -29.5576      7.3812      7.4140
   576.5000    131.6317    142.0517    -25.5694      7.6062      7.5970
   576.0000    128.5399    140.6088    -21.7956      7.7982      7.7797
   575.5000    125.9796    139.3632    -21.0972      7.9347      7.9378
   575.0000    124.2847    139.2958    -22.0466      8.0134      8.0460
   574.5000    123.2978    138.7977    -23.8766      8.0478      8.1104
   574.0000    122.5795    135.1527    -27.1776      8.0566      8.1580
   573.5000    121.9453    131.5551    -28.5983      8.0592      8.2004
   573.0000    121.4675    132.8693    -25.0963      8.0752      8.2327
   572.5000    121.0888    135.6217    -22.0863      8.1187      8.2584
   572.0000    120.6072    133.6722    -23.6573      8.1852      8.2914
   571.5000    120.0130    129.7773    -25.7496      8.2504      8.3324
   571.0000    119.4654    128.6089    -24.0871      8.2952      8.3706
   570.5000    118.8591    129.2463    -19.4325      8.3248      8.4133
   570.0000    118.0204    126.8821    -17.8562      8.3536      8.4731
   569.5000    117.3111    122.8935    -25.3821      8.3796      8.5243
   569.0000    117.1568    121.6228    -34.4885      8.3969      8.5356
   568.5000    117.1779    122.1779    -33.4917      8.4245      8.5340
   568.0000    116.7367    120.7494    -27.4439      8.5001      8.5663
   567.5000    115.7014    121.0807    -26.1781      8.6211      8.6429
   567.0000    114.2894    124.7011    -26.5429      8.7215      8.7497
   566.5000    113.0703    126.3781    -24.4070      8.7473      8.8441
   566.0000    112.6817    124.6664    -25.3034      8.7240      8.8746
   565.5000    113.0269    122.5575    -30.1621      8.7153      8.8475
   565.0000    113.3947    122.7256    -33.1623      8.7542      8.8188
   564.5000    113.3588    125.8760    -31.5440      8.8231      8.8215
   564.0000    113.1834    130.6884    -28.4382      8.8618      8.8352
   563.5000    113.3443    134.5188    -27.4198      8.8242      8.8227
   563.0000    113.9678    136.9014    -30.3179      8.7408      8.7744
   562.5000    114.7125    138.0216    -33.5723      8.6742      8.7174
   562.0000    115.2915    136.6227    -34.1021      8.6409      8.6737
   561.5000    115.5244    133.6431    -31.9805      8.6300      8.6562
   561.0000    115.0807    130.2558    -29.2196      8.6488      8.6896
   560.5000    113.7041    126.1181    -28.8774      8.7071      8.7948
   560.0000    111.5602    120.9021    -32.0357      8.8009      8.9638
   559.5000    109.1174    117.0719    -35.3434      8.9185      9.1644
   559.0000    107.2502    114.5274    -34.1240      9.0274      9.3240
   558.5000    106.7125    109.1243    -28.5056      9.0947      9.3710
   558.0000    107.3196    103.4410    -24.2280      9.1661      9.3180
   557.5000    108.2156    103.9805    -23.4350      9.3370      9.2408
