~Version Information
 VERS.                2.00:   CWLS log ASCII Standard -VERSION 2.00
 WRAP.                  NO:   One line per frame
~Well Information Block
#MNEM.UNIT              Data                Description
#--------- -------------------------------  -------------------------------
 STRT.F                          611.0000:   Starting Depth
 STOP.F                            3.2500:   Ending Depth
 STEP.F                           -0.5000:   Level Spacing
 NULL.                          -999.2500:   Absent Value
 COMP.     FLUOR DANIEL (NPOSR), INC.    :   Company
 WELL.     82-2 X 3                      :   Well
 FLD .                                   :   Field
 LOC .                                   :   Location
 PROV.                                   :   Province
 SRVC.                                   :   Service Company
 LIC .                                   :   License Number
 DATE.                                   :   Log Date
 UWI .                                   :   Unique Well ID
~Curve Information Block
#MNEM.UNIT       API Codes    Curve Description
#---------    -------------   -------------------------------
 DEPT.F        0   1  0  1:   Depth
 CILD.MMHO     0 110 46  1:   Conductivity of Deep Induction
 GR  .API      0 310  1  1:   Gamma ray counts
 TEN .LBF      0 635 99  1:   Differential Tension
 RILM.OHMM     0 120 44  1:   Resistivity from CILM
 RILD.OHMM     0 120 46  1:   Resistivity from CILD
#  Curve Data
~A   DEPT        CILD        GR          TEN         RILM        RILD
# ...
    51.0000      1.9372     64.1807    -25.5974   1346.3884    516.1960
    50.5000      1.9684     64.4033    -27.3246   1370.4739    508.0190
    50.0000      2.0349     64.2643    -28.5730   1386.7976    491.4253
    49.5000      2.0777     64.7285    -28.5593   1411.1157    481.2961
    49.0000      2.0824     64.2906    -30.1910   1449.8789    480.2122
    48.5000      2.0608     63.2209    -31.6501   1472.6362    485.2385
    48.0000      2.0271     62.9623    -29.5280   1465.9573    493.3245
    47.5000      1.9978     63.0014    -27.5305   1451.6487    500.5442
    47.0000      1.9841     62.3984    -28.1649   1449.1008    504.0095
    46.5000      1.9772     61.3950    -28.0078   1479.9290    505.7554
    46.0000      1.9893     60.0296    -26.1172   1520.9707    502.6836
    45.5000      2.0302     59.7472    -23.8879   1544.9595    492.5515
    45.0000      2.0682     60.9308    -23.0650   1576.1724    483.5222
    44.5000      2.0766     61.6140    -21.9585   1621.6902    481.5571
    44.0000      2.0771     61.8827    -20.5515   1656.5896    481.4395
    43.5000      2.0778     62.3431    -19.9787   1665.4207    481.2690
    43.0000      2.0808     62.7390    -20.4801   1652.1377    480.5930
    42.5000      2.0961     63.6391    -23.3212   1634.0972    477.0684
    42.0000      2.0912     65.1608    -28.0515   1643.5679    478.2034
    41.5000      2.0553     65.1074    -27.9731   1684.7129    486.5579
    41.0000      2.0248     63.3736    -23.7406   1737.2063    493.8762
    40.5000      2.0268     62.6456    -23.6091   1754.3762    493.3835
    40.0000      2.0598     62.9395    -23.5841   1729.3982    485.4785
    39.5000      2.0995     61.9425    -19.5554   1717.8220    476.3022
    39.0000      2.1036     59.5891    -19.7000   1754.1631    475.3667
    38.5000      2.0876     58.3427    -25.0829   1794.0994    479.0261
    38.0000      2.0787     60.2327    -28.1250   1787.6179    481.0625
    37.5000      2.0674     64.4938    -28.6566   1759.4285    483.7092
    37.0000      2.0621     68.5493    -29.9232   1762.8416    484.9468
    36.5000      2.0663     70.0924    -29.7067   1802.7180    483.9578
    36.0000      2.0323     68.7794    -26.3188   1815.5737    492.0532
    35.5000      1.9751     66.5877    -25.6005   1772.4983    506.3098
    35.0000      1.9734     65.7755    -26.7723   1740.1045    506.7373
    34.5000      2.0169     66.3658    -26.6866   1763.2510    495.7981
    34.0000      2.0367     66.9853    -26.9254   1810.3528    490.9846
    33.5000      2.0213     66.3285    -29.9626   1836.0376    494.7222
    33.0000      2.0025     64.1109    -32.3053   1815.8813    499.3787
    32.5000      2.0054     63.6957    -32.9937   1722.6868    498.6426
    32.0000      2.0308     65.6555    -32.2083   1611.6777    492.4182
    31.5000      2.0407     66.4531    -28.5770   1567.0183    490.0310
    31.0000      2.0205     65.5472    -27.0105   1586.3477    494.9387
    30.5000      2.0085     65.0044    -28.4672   1600.1118    497.8899
    30.0000      2.0164     64.9628    -30.3841   1593.1426    495.9258
    29.5000      2.0361     66.1335   -250.0000   1620.3711    491.1260
    29.0000      2.0504     68.0627   -250.0000   1678.5964    487.6997
    28.5000      2.0449     68.3645   -250.0000   1703.2522    489.0303
    28.0000      2.0449     67.1286   -250.0000   1663.2732    489.0300
    27.5000      2.0667     65.6332   -250.0000   1616.4285    483.8699
    27.0000      0.0000     65.0284   -250.0000   1643.8115      0.2000
    26.5000      0.0000     65.2574   -250.0000   1742.9275      0.2000
    26.0000      0.0000     64.2195   -250.0000   1822.5581      0.2000
    25.5000      0.0000     61.3106   -250.0000   1813.3401      0.2000
    25.0000      0.0000     59.0304   -250.0000   1778.8149      0.2000
    24.5000      0.0000     57.6609   -250.0000   1766.4841      0.2000
    24.0000      0.0000     56.2457   -250.0000   1759.8037      0.2000
    23.5000      0.0000     56.8895   -250.0000      0.2000      0.2000
    23.0000      0.0000     60.4095   -250.0000      0.2000      0.2000
    22.5000      0.0000     63.8882   -250.0000      0.2000      0.2000
    22.0000      0.0000     64.6968   -250.0000      0.2000      0.2000
    21.5000      0.0000     62.8142   -250.0000      0.2000      0.2000
    21.0000      0.0000     58.8898   -250.0000      0.2000      0.2000
    20.5000      0.0000     54.1906   -250.0000      0.2000      0.2000
    20.0000      0.0000     51.4484   -250.0000      0.2000      0.2000
    19.5000      0.0000     52.4646   -250.0000      0.2000      0.2000
    19.0000      0.0000     54.4287   -250.0000      0.2000      0.2000
    18.5000      0.0000     54.6074   -250.0000      0.2000      0.2000
    18.0000      0.0000     54.5443   -250.0000      0.2000      0.2000
    17.5000      0.0000     55.1112   -250.0000      0.2000      0.2000
    17.0000      0.0000     54.9444   -250.0000      0.2000      0.2000
    16.5000      0.0000     54.6892   -250.0000      0.2000      0.2000
    16.0000      0.0000     54.9817   -250.0000      0.2000      0.2000
    15.5000      0.0000     55.8311   -250.0000      0.2000      0.2000
    15.0000      0.0000     57.9491   -250.0000      0.2000      0.2000
    14.5000      0.0000     59.6593   -250.0000      0.2000      0.2000
    14.0000      0.0000     57.7866   -250.0000      0.2000      0.2000
    13.5000      0.0000     53.8733   -250.0000      0.2000      0.2000
    13.0000      0.0000     50.1217   -250.0000      0.2000      0.2000
    12.5000      0.0000     45.2088   -250.0000      0.2000      0.2000
    12.0000      0.0000     37.0679   -250.0000      0.2000      0.2000
    11.5000      0.0000     27.3666   -250.0000      0.2000      0.2000
    11.0000      0.0000     19.2662   -250.0000      0.2000      0.2000
    10.5000      0.0000     14.3944   -250.0000      0.2000      0.2000
    10.0000      0.0000     11.8545   -250.0000      0.2000      0.2000
     9.5000      0.0000     10.6925   -250.0000      0.2000      0.2000
     9.0000      0.0000     10.4945   -250.0000      0.2000      0.2000
     8.5000      0.0000     10.2700   -250.0000      0.2000      0.2000
     8.0000      0.0000      8.9833   -250.0000      0.2000      0.2000
     7.5000      0.0000      7.2629   -250.0000      0.2000      0.2000
     7.0000      0.0000      6.0423   -250.0000      0.2000      0.2000
     6.5000      0.0000      5.2733   -250.0000      0.2000      0.2000
     6.0000      0.0000      5.2733   -250.0000      0.2000      0.2000
     5.5000      0.0000      5.2733   -250.0000      0.2000      0.2000
     5.0000      0.0000      5.2733   -250.0000      0.2000      0.2000
     4.5000      0.0000      5.2733   -250.0000      0.2000      0.2000
     4.0000      0.0000      5.2733   -250.0000      0.2000      0.2000
     3.5000      0.0000      5.2733   -250.0000      0.2000      0.2000
