~Version Information
 VERS.                2.00:   CWLS log ASCII Standard -VERSION 2.00
 WRAP.                  NO:   One line per frame
~Well Information Block
#MNEM.UNIT              Data                Description
#--------- -------------------------------  -------------------------------
 STRT.F                          611.0000:   Starting Depth
 STOP.F                            3.2500:   Ending Depth
 STEP.F                           -0.5000:   Level Spacing
 NULL.                          -999.2500:   Absent Value
 COMP.     FLUOR DANIEL (NPOSR), INC.    :   Company
 WELL.     82-2 X 3                      :   Well
 FLD .                                   :   Field
 LOC .                                   :   Location
 PROV.                                   :   Province
 SRVC.                                   :   Service Company
 LIC .                                   :   License Number
 DATE.                                   :   Log Date
 UWI .                                   :   Unique Well ID
~Curve Information Block
#MNEM.UNIT       API Codes    Curve Description
#---------    -------------   -------------------------------
 DEPT.F        0   1  0  1:   Depth
 CILD.MMHO     0 110 46  1:   Conductivity of Deep Induction
 GR  .API      0 310  1  1:   Gamma ray counts
 TEN .LBF      0 635 99  1:   Differential Tension
 RILM.OHMM     0 120 44  1:   Resistivity from CILM
 RILD.OHMM     0 120 46  1:   Resistivity from CILD
#  Curve Data
~A   DEPT        CILD        GR          TEN         RILM        RILD
# ...
   331.0000    196.8072    114.0117    -17.2520      4.9112      5.0811
   330.5000    196.9897    116.3083    -19.7466      4.7617      5.0764
   330.0000    195.2308    117.9288    -20.6845      4.8619      5.1221
   329.5000    188.7406    119.7804    -16.0162      5.2174      5.2983
   329.0000    177.7584    120.8135    -10.9062      5.7052      5.6256
   328.5000    165.8890    120.6547     -9.4105      6.1737      6.0281
   328.0000    156.0540    121.7303    -14.4637      6.5355      6.4080
   327.5000    148.8948    124.5987    -23.9886      6.7696      6.7162
   327.0000    144.1732    126.0326    -26.3947      6.8987      6.9361
   326.5000    141.3938    127.1821    -17.4622      6.9794      7.0724
   326.0000    139.6458    128.5566     -6.9220      7.0651      7.1610
   325.5000    138.1283    126.9630     -5.2307      7.1734      7.2396
   325.0000    136.5183    123.9830    -11.1115      7.2840      7.3250
   324.5000    135.0437    123.4932    -16.7631      7.3671      7.4050
   324.0000    134.1520    124.5568    -19.1696      7.4035      7.4542
   323.5000    133.9294    125.0150    -21.6279      7.4010      7.4666
   323.0000    134.1944    124.9461    -24.3088      7.3955      7.4519
   322.5000    134.8474    124.0443    -26.4996      7.4063      7.4158
   322.0000    136.0070    123.9327    -27.5034      7.4076      7.3526
   321.5000    137.9841    123.2695    -24.0303      7.3561      7.2472
   321.0000    141.2686    121.3956    -20.1367      7.2378      7.0787
   320.5000    146.1563    121.6429    -19.5914      7.0690      6.8420
   320.0000    151.8577    124.2793    -20.6759      6.8891      6.5851
   319.5000    156.7392    125.3937    -19.7561      6.7252      6.3800
   319.0000    159.8435    125.0151    -17.3191      6.5701      6.2561
   318.5000    161.4486    124.5267    -13.6765      6.3875      6.1939
   318.0000    162.1716    122.7485    -11.4000      6.1738      6.1663
   317.5000    162.5219    120.9627    -13.9788      6.0128      6.1530
   317.0000    162.0390    120.8837    -21.5089      6.0176      6.1714
   316.5000    159.4418    120.5853    -27.0306      6.2119      6.2719
   316.0000    154.7331    120.1771    -19.8378      6.5285      6.4627
   315.5000    149.1110    122.3639     -5.5245      6.8792      6.7064
   315.0000    143.6081    124.3499     -1.2011      7.1960      6.9634
   314.5000    138.9686    122.7384     -8.0916      7.4247      7.1959
   314.0000    135.7857    121.4126    -14.5747      7.5593      7.3645
   313.5000    133.7648    123.3123    -21.0673      7.6413      7.4758
   313.0000    132.2325    123.8166    -28.7411      7.7129      7.5624
   312.5000    130.7540    120.8111    -28.9780      7.7843      7.6480
   312.0000    129.1831    118.9784    -22.0125      7.8457      7.7409
   311.5000    127.7252    119.2766    -19.0674      7.8922      7.8293
   311.0000    126.6575    117.6227    -20.7793      7.9312      7.8953
   310.5000    125.8514    116.3627    -20.6811      7.9731      7.9459
   310.0000    125.1256    120.0802    -16.6350      8.0209      7.9920
   309.5000    124.4540    125.3312    -16.8991      8.0800      8.0351
   309.0000    123.8864    126.9138    -22.9031      8.1546      8.0719
   308.5000    123.4928    124.5287    -27.7745      8.2261      8.0976
   308.0000    123.3046    121.9570    -25.6051      8.2614      8.1100
   307.5000    123.1499    122.1641    -19.6780      8.2560      8.1202
   307.0000    123.0192    123.2827    -18.5245      8.2374      8.1288
   306.5000    123.1447    121.3574    -24.2631      8.2248      8.1205
   306.0000    123.4773    118.9019    -28.9655      8.2101      8.0987
   305.5000    123.6497    119.9513    -21.4354      8.1944      8.0874
   305.0000    123.5722    123.1905     -8.0602      8.1889      8.0924
   304.5000    123.4581    126.4673     -4.7897      8.1808      8.0999
   304.0000    123.3961    129.7237    -14.4774      8.1530      8.1040
   303.5000    123.2756    132.3748    -21.9069      8.1297      8.1119
   303.0000    122.9090    133.3800    -19.1857      8.1445      8.1361
   302.5000    122.0834    131.9831    -16.1363      8.2063      8.1911
   302.0000    120.7595    128.5564    -20.7833      8.2949      8.2809
   301.5000    119.1752    125.6722    -30.6711      8.3870      8.3910
   301.0000    117.7869    123.5543    -35.4410      8.4721      8.4899
   300.5000    116.9559    121.4553    -26.1312      8.5507      8.5502
   300.0000    116.5362    120.7558    -12.4528      8.6294      8.5810
   299.5000    116.2074    121.8044     -9.7121      8.7033      8.6053
   299.0000    116.2057    120.6540    -14.8605      8.7299      8.6054
   298.5000    116.9426    117.1975    -16.0284      8.6775      8.5512
   298.0000    118.2676    116.2422    -15.8207      8.5708      8.4554
   297.5000    119.7605    119.5113    -17.0986      8.4490      8.3500
   297.0000    121.1441    124.6405    -19.0872      8.3337      8.2546
   296.5000    122.4034    128.2193    -22.4346      8.2319      8.1697
   296.0000    123.6492    127.3419    -26.3529      8.1472      8.0874
   295.5000    124.7936    124.2781    -25.2265      8.0891      8.0132
   295.0000    125.5996    124.2737    -19.2726      8.0725      7.9618
   294.5000    126.1417    126.7872    -12.9500      8.0854      7.9276
   294.0000    126.7260    127.7399     -5.7215      8.0856      7.8910
   293.5000    127.7229    125.5482     -0.3312      8.0330      7.8294
   293.0000    129.6638    121.0947     -1.6909      7.9220      7.7123
   292.5000    132.3815    117.2215     -5.5821      7.7925      7.5539
   292.0000    134.6612    116.4700     -7.4518      7.6996      7.4260
   291.5000    135.6079    118.3754    -12.3217      7.6416      7.3742
   291.0000    135.3689    121.3798    -19.1015      7.5842      7.3872
   290.5000    134.4056    123.1495    -19.4767      7.5151      7.4402
   290.0000    132.9996    123.7646    -15.0182      7.4786      7.5188
   289.5000    131.0743    125.5098    -13.0705      7.5522      7.6293
   289.0000    128.1175    127.3394    -14.0675      7.7843      7.8053
   288.5000    124.0450    126.0850    -16.3965      8.1427      8.0616
   288.0000    119.4216    122.2492    -18.1225      8.5433      8.3737
   287.5000    114.9420    117.4389    -19.4428      8.9201      8.7000
   287.0000    111.3703    112.0768    -21.4305      9.2315      8.9791
   286.5000    109.0725    108.4090    -21.9789      9.4526      9.1682
   286.0000    107.5489    107.7429    -21.9579      9.5846      9.2981
   285.5000    106.2556    108.1450    -22.9912      9.6579      9.4113
   285.0000    105.5869    107.9917    -21.1703      9.6803      9.4709
   284.5000    105.8526    107.7494    -15.5074      9.6488      9.4471
   284.0000    106.4086    109.3568    -12.4437      9.5966      9.3977
   283.5000    106.4976    112.5633    -12.3071      9.5645      9.3899
   283.0000    106.1524    115.0306    -15.0258      9.5558      9.4204
   282.5000    105.7458    113.8721    -18.2320      9.5579      9.4566
   282.0000    105.4666    110.3238    -18.0484      9.5632      9.4817
   281.5000    105.5110    109.6688    -18.3375      9.5809      9.4777
   281.0000    105.7728    113.0449    -22.8332      9.6314      9.4542
   280.5000    105.8796    116.8125    -26.5139      9.7055      9.4447
   280.0000    105.5094    118.7506    -25.4791      9.7546      9.4778
   279.5000    104.8165    119.7296    -20.9474      9.7608      9.5405
   279.0000    104.2676    119.1051    -17.0001      9.7564      9.5907
   278.5000    104.0872    117.9604    -18.4665      9.7753      9.6073
   278.0000    103.9355    118.2997    -23.6305      9.8038      9.6213
   277.5000    103.4878    117.6715    -26.0253      9.8279      9.6630
   277.0000    102.8819    115.9105    -25.0417      9.8748      9.7199
   276.5000    102.2159    115.7275    -28.3809      9.9768      9.7832
   276.0000    101.1739    116.9458    -31.5416     10.1170      9.8840
   275.5000     99.5198    116.5273    -22.8158     10.2606     10.0482
