~Version Information
 VERS.                2.00:   CWLS log ASCII Standard -VERSION 2.00
 WRAP.                  NO:   One line per frame
~Well Information Block
#MNEM.UNIT              Data                Description
#--------- -------------------------------  -------------------------------
 STRT.F                          611.0000:   Starting Depth
 STOP.F                            3.2500:   Ending Depth
 STEP.F                           -0.5000:   Level Spacing
 NULL.                          -999.2500:   Absent Value
 COMP.     FLUOR DANIEL (NPOSR), INC.    :   Company
 WELL.     82-2 X 3                      :   Well
 FLD .                                   :   Field
 LOC .                                   :   Location
 PROV.                                   :   Province
 SRVC.                                   :   Service Company
 LIC .                                   :   License Number
 DATE.                                   :   Log Date
 UWI .                                   :   Unique Well ID
~Curve Information Block
#MNEM.UNIT       API Codes    Curve Description
#---------    -------------   -------------------------------
 DEPT.F        0   1  0  1:   Depth
 CILD.MMHO     0 110 46  1:   Conductivity of Deep Induction
 GR  .API      0 310  1  1:   Gamma ray counts
 TEN .LBF      0 635 99  1:   Differential Tension
 RILM.OHMM     0 120 44  1:   Resistivity from CILM
 RILD.OHMM     0 120 46  1:   Resistivity from CILD
#  Curve Data
~A   DEPT        CILD        GR          TEN         RILM        RILD
# ...
   107.0000    146.4842    125.8332     -9.7356      6.9942      6.8267
   106.5000    146.1074    124.9646    -18.3976      6.9751      6.8443
   106.0000    145.6490    124.6923    -24.7077      6.9581      6.8658
   105.5000    144.9128    124.5354    -24.3332      6.9612      6.9007
   105.0000    143.7231    125.2602    -23.1153      6.9895      6.9578
   104.5000    142.0497    127.6763    -24.7919      7.0491      7.0398
   104.0000    139.8965    130.4527    -27.3551      7.1537      7.1481
   103.5000    137.1840    131.1102    -27.3231      7.3026      7.2895
   103.0000    134.1455    129.4049    -26.3508      7.4748      7.4546
   102.5000    131.2855    126.3360    -26.8284      7.6476      7.6170
   102.0000    129.0102    123.0604    -27.5784      7.8130      7.7513
   101.5000    127.5568    120.6092    -25.4898      7.9628      7.8396
   101.0000    126.9382    119.2718    -24.1124      8.0798      7.8778
   100.5000    126.8850    120.1211    -29.6664      8.1398      7.8812
   100.0000    127.2626    123.0719    -34.2701      8.1181      7.8578
    99.5000    128.1170    126.4777    -32.0189      8.0150      7.8054
    99.0000    130.0143    127.4044    -28.9823      7.8731      7.6915
    98.5000    135.6642    127.6196    -31.3519      7.7490      7.3711
    98.0000    144.5226    128.4347    -31.0136      7.6763      6.9193
    97.5000    150.7787    130.2363    -27.4765      7.6481      6.6322
    97.0000    151.2253    131.8915    -23.1867      7.6386      6.6127
    96.5000    147.2303    130.4979    -23.1946      7.6400      6.7921
    96.0000    138.7994    125.4424    -26.8022      7.6704      7.2046
    95.5000    131.4348    121.6060    -29.4481      7.8505      7.6083
    95.0000    132.2225    120.7054    -25.7209      8.6594      7.5630
    94.5000    134.7572    120.3799    -20.6101      9.5027      7.4208
    94.0000    129.8289    119.0029    -20.1245      8.7406      7.7024
    93.5000    120.6478    115.1936    -21.8093      7.8488      8.2886
    93.0000    116.5210    107.2129    -21.4461      8.4174      8.5821
    92.5000    119.1850     97.8821    -19.1967     10.3578      8.3903
    92.0000     99.6600     92.5976    -19.8259     12.7781     10.0341
    91.5000     28.5039     95.4302    -22.8896     13.4591     35.0829
    91.0000    -46.4729    106.0253    -25.1332     10.8939  10000.0000
    90.5000    -71.8702    117.2659    -24.8416      8.4546  10000.0000
    90.0000    -45.8906    121.8701    -25.6319      6.7278  10000.0000
    89.5000     32.3006    120.4869    -29.5389      4.3231     30.9592
    89.0000    164.7697    119.4323    -35.9189      3.0085      6.0691
    88.5000    222.0144    119.6290    -39.1446      3.2939      4.5042
    88.0000    173.9946    115.3891    -34.2265      8.1987      5.7473
    87.5000    162.8595    103.6207    -24.9694  10000.0000      6.1403
    87.0000    248.0580     88.0071    -21.0599  10000.0000      4.0313
    86.5000    339.4895     76.7629    -23.3886  10000.0000      2.9456
    86.0000    320.6912     73.4147    -26.9898  10000.0000      3.1183
    85.5000    187.2040     73.0018    -27.9609  10000.0000      5.3418
    85.0000     68.8141     71.8270    -29.1016  10000.0000     14.5319
    84.5000     43.6194     72.2283    -29.1873  10000.0000     22.9256
    84.0000     54.3368     74.4580    -22.6164  10000.0000     18.4037
    83.5000     44.8185     76.3312    -16.0043  10000.0000     22.3122
    83.0000     27.2961     78.5656    -20.3569  10000.0000     36.6353
    82.5000     12.0400     80.1846    -26.6646  10000.0000     83.0566
    82.0000      3.9746     79.1345    -25.6752  10000.0000    251.5951
    81.5000      1.6477     77.2920    -23.6768  10000.0000    606.8892
    81.0000      0.1291     77.2189    -25.3708  10000.0000   7747.5234
    80.5000     -2.4130     78.0581    -25.8680  10000.0000  10000.0000
    80.0000     -5.0342     78.4111    -24.9728  10000.0000  10000.0000
    79.5000     -6.2954     77.4129    -24.9591  10000.0000  10000.0000
    79.0000     -5.6935     75.3030    -29.0537  10000.0000  10000.0000
    78.5000     -4.7365     74.1674    -32.0110  10000.0000  10000.0000
    78.0000     -5.2414     75.2453    -29.8882  10000.0000  10000.0000
    77.5000     -6.9144     76.5920    -28.3473  10000.0000  10000.0000
    77.0000     -8.3522     75.7378    -30.8077  10000.0000  10000.0000
    76.5000     -9.2662     73.9382    -31.8325  10000.0000  10000.0000
    76.0000     -9.6127     73.0093    -28.0835  10000.0000  10000.0000
    75.5000     -9.6635     73.4221    -24.8416  10000.0000  10000.0000
    75.0000     -9.9031     74.7479    -27.1465  10000.0000  10000.0000
    74.5000    -10.1942     75.5977    -32.9717  10000.0000  10000.0000
    74.0000     -9.8911     75.6503    -36.8742  10000.0000  10000.0000
    73.5000     -8.9400     76.4943    -34.8990  10000.0000  10000.0000
    73.0000     -8.5733     77.4191    -27.5400  10000.0000  10000.0000
    72.5000     -9.7499     75.9636    -21.0941  10000.0000  10000.0000
    72.0000    -11.6055     73.3473    -19.6801  10000.0000  10000.0000
    71.5000    -12.3130     73.3197    -21.9292  10000.0000  10000.0000
    71.0000    -11.1144     76.6788    -29.1678  10000.0000  10000.0000
    70.5000     -8.6998     79.2117    -39.9934  10000.0000  10000.0000
    70.0000     -6.8636     78.8961    -41.9820  10000.0000  10000.0000
    69.5000     -6.5742     78.3617    -34.7685   1254.7715  10000.0000
    69.0000     -7.2587     79.0034    -29.8745   1183.3540  10000.0000
    68.5000     -7.5717     78.8015    -31.6136   1152.8152  10000.0000
    68.0000     -5.7284     77.9012    -29.5097   1126.1560  10000.0000
    67.5000     -1.7389     77.9505    -23.0882   1116.0742  10000.0000
    67.0000      1.6744     79.4146    -18.3543   1122.3989    597.2412
    66.5000      2.8692     80.2244    -16.5526   1129.0559    348.5256
    66.0000      3.0100     79.9613    -14.3692   1124.4602    332.2224
    65.5000      3.2056     79.8653    -15.3082   1114.1675    311.9575
    65.0000      3.4075     80.0299    -17.5823   1111.7715    293.4722
    64.5000      3.4198     78.2475    -17.5009   1126.0068    292.4150
    64.0000      3.1850     75.0430    -17.2157   1152.4199    313.9761
    63.5000      2.9154     74.4999    -23.3868   1175.7324    343.0063
    63.0000      2.8381     77.3450    -31.2293   1190.4126    352.3433
    62.5000      2.9191     79.9046    -29.6497   1203.6265    342.5681
    62.0000      2.9968     79.7076    -20.7501   1200.0129    333.6897
    61.5000      2.9204     77.2945    -16.1851   1174.6382    342.4238
    61.0000      2.5934     73.9974    -17.8486   1157.0803    385.5989
    60.5000      2.1790     70.4315    -19.2421   1163.3313    458.9229
    60.0000      1.9475     67.4629    -19.7631   1177.9849    513.4695
    59.5000      1.9101     65.8637    -20.9794   1181.9985    523.5393
    59.0000      1.9160     65.3786    -21.1023   1166.0259    521.9182
    58.5000      1.9435     65.6704    -20.4057   1141.9951    514.5298
    58.0000      1.9928     66.8034    -22.5035   1132.4492    501.8110
    57.5000      2.0133     66.2489    -24.8398   1147.6555    496.6877
    57.0000      1.9771     62.4138    -22.7606   1177.8557    505.7878
    56.5000      1.9321     59.3797    -19.1464   1204.2234    517.5664
    56.0000      1.9301     59.4462    -16.9144   1220.3030    518.1077
    55.5000      1.9690     59.6028    -15.5059   1233.8184    507.8669
    55.0000      2.0173     56.8908    -18.7499   1250.5686    495.7148
    54.5000      2.0332     52.3418    -23.4344   1271.2488    491.8262
    54.0000      2.0240     46.8558    -24.8188   1278.0574    494.0686
    53.5000      2.0006     45.9460    -21.5742   1258.0215    499.8438
    53.0000      1.9666     52.7239    -14.7324   1241.4990    508.4939
    52.5000      1.9485     59.8224    -10.6857   1262.5063    513.2170
    52.0000      1.9565     61.7016    -15.5696   1302.6289    511.1204
    51.5000      1.9508     62.4384    -22.5999   1327.5781    512.6182
