~Version Information
 VERS.                2.00:   CWLS log ASCII Standard -VERSION 2.00
 WRAP.                  NO:   One line per frame
~Well Information Block
#MNEM.UNIT              Data                Description
#--------- -------------------------------  -------------------------------
 STRT.F                          611.0000:   Starting Depth
 STOP.F                            3.2500:   Ending Depth
 STEP.F                           -0.5000:   Level Spacing
 NULL.                          -999.2500:   Absent Value
 COMP.     FLUOR DANIEL (NPOSR), INC.    :   Company
 WELL.     82-2 X 3                      :   Well
 FLD .                                   :   Field
 LOC .                                   :   Location
 PROV.                                   :   Province
 SRVC.                                   :   Service Company
 LIC .                                   :   License Number
 DATE.                                   :   Log Date
 UWI .                                   :   Unique Well ID
~Curve Information Block
#MNEM.UNIT       API Codes    Curve Description
#---------    -------------   -------------------------------
 DEPT.F        0   1  0  1:   Depth
 CILD.MMHO     0 110 46  1:   Conductivity of Deep Induction
 GR  .API      0 310  1  1:   Gamma ray counts
 TEN .LBF      0 635 99  1:   Differential Tension
 RILM.OHMM     0 120 44  1:   Resistivity from CILM
 RILD.OHMM     0 120 46  1:   Resistivity from CILD
#  Curve Data
~A   DEPT        CILD        GR          TEN         RILM        RILD
# ...
   443.0000     44.4120     72.4169     14.2670     25.1235     22.5164
   442.5000     47.9025     72.0755     19.6258     23.6765     20.8757
   442.0000     53.1745     67.1807     19.2318     21.0533     18.8060
   441.5000     59.6173     69.8551     10.4368     18.5019     16.7737
   441.0000     66.1188     86.2340      6.5258     16.6034     15.1243
   440.5000     72.3587    105.6699      8.0593     15.0433     13.8200
   440.0000     78.6762    117.5945      7.2773     13.4949     12.7103
   439.5000     85.3027    124.1295      9.4138     12.0260     11.7230
   439.0000     91.8055    128.9572     16.4758     10.8800     10.8926
   438.5000     97.2533    129.9450     17.9343     10.1573     10.2824
   438.0000    101.0190    126.9324      8.4900      9.8104      9.8991
   437.5000    102.8932    125.6000     -1.5323      9.7455      9.7188
   437.0000    102.8185    127.4643     -2.0200      9.8458      9.7259
   436.5000    101.9392    128.2040      4.5631      9.9699      9.8098
   436.0000    102.9450    124.9837      9.8850      9.9642      9.7139
   435.5000    108.4570    122.8258     13.8330      9.7258      9.2202
   435.0000    120.0206    125.4368     18.0755      9.2015      8.3319
   434.5000    137.2594    128.1644     20.0062      8.4034      7.2855
   434.0000    155.9954    127.4979     19.2952      7.5175      6.4104
   433.5000    169.7808    131.3102     18.4806      6.7840      5.8899
   433.0000    175.5923    143.3607     16.0616      6.2228      5.6950
   432.5000    176.5362    152.5990     13.1220      5.6871      5.6646
   432.0000    176.9430    149.5053     14.2298      5.1738      5.6515
   431.5000    177.6857    138.6693     16.2358      4.8998      5.6279
   431.0000    175.3741    129.8151     15.0380      5.0883      5.7021
   430.5000    165.8952    126.0683      9.9668      5.8114      6.0279
   430.0000    150.5267    126.3239      4.2444      6.9479      6.6433
   429.5000    135.4409    128.9353      3.7244      8.0826      7.3833
   429.0000    125.2608    130.7932      7.9001      8.7795      7.9833
   428.5000    120.5909    130.4830      7.9233      8.9469      8.2925
   428.0000    120.0898    130.9865      4.1080      8.7723      8.3271
   427.5000    121.8284    132.9357      6.7978      8.4802      8.2083
   427.0000    123.9486    134.1955     12.7161      8.2081      8.0679
   426.5000    125.5566    134.5956     14.7812      8.0259      7.9645
   426.0000    126.4855    133.4881     12.2235      7.9551      7.9060
   425.5000    126.7130    131.6275      9.4455      7.9808      7.8918
   425.0000    126.1400    131.8008      6.2812      8.0679      7.9277
   424.5000    124.9166    134.5226      6.1308      8.1726      8.0053
   424.0000    123.6112    137.4417     10.9166      8.2518      8.0899
   423.5000    122.8801    138.2225     11.7321      8.2882      8.1380
   423.0000    122.9847    134.7148      5.9423      8.2927      8.1311
   422.5000    123.8060    129.6436      2.9509      8.2823      8.0772
   422.0000    124.9016    128.5710      5.7791      8.2615      8.0063
   421.5000    125.7590    131.5730      5.7371      8.2314      7.9517
   421.0000    126.3577    134.2922      3.1476      8.1902      7.9140
   420.5000    126.9554    136.0305      3.1409      8.1386      7.8768
   420.0000    127.8793    138.0811      4.9090      8.0843      7.8199
   419.5000    129.3497    139.6374      9.2589      8.0246      7.7310
   419.0000    131.6345    137.6610     18.4656      7.9287      7.5968
   418.5000    135.6215    132.9156     22.8356      7.7516      7.3735
   418.0000    142.7535    130.7109     14.0593      7.4662      7.0051
   417.5000    153.4483    133.6612      1.2035      7.0892      6.5169
   417.0000    166.5818    138.8544     -2.3400      6.6642      6.0031
   416.5000    179.9845    143.3759      1.0690      6.2219      5.5560
   416.0000    190.4208    145.8718      3.4014      5.7958      5.2515
   415.5000    195.5451    146.9624      0.9388      5.4334      5.1139
   415.0000    196.4607    148.3372      0.5804      5.1487      5.0901
   414.5000    196.0161    148.8746      3.7027      4.9323      5.1016
   414.0000    195.0765    145.5474      4.8876      4.8275      5.1262
   413.5000    192.2713    140.0444      0.5148      4.9424      5.2010
   413.0000    185.6532    136.9732     -3.4450      5.3286      5.3864
   412.5000    174.9977    135.9219     -1.7117      5.9120      5.7144
   412.0000    163.2780    134.7027      3.1067      6.4852      6.1245
   411.5000    154.1711    136.0159      3.2272      6.8675      6.4863
   411.0000    148.9482    139.5571     -0.1391      7.0237      6.7137
   410.5000    147.7743    139.2757      0.3907      7.0003      6.7671
   410.0000    150.7993    136.4376      2.1362      6.8683      6.6313
   409.5000    157.8362    136.6868      0.7457      6.6690      6.3357
   409.0000    168.9548    139.3518      1.3981      6.3994      5.9187
   408.5000    182.7218    142.1339      5.9368      6.0651      5.4728
   408.0000    194.8055    144.7255      5.9152      5.7274      5.1333
   407.5000    201.6911    147.0145     -0.0790      5.4442      4.9581
   407.0000    204.1228    148.2744     -6.1583      5.1849      4.8990
   406.5000    204.8851    147.2554     -6.1067      4.8869      4.8808
   406.0000    205.7675    145.7820     -2.0395      4.6176      4.8599
   405.5000    206.4280    146.8361      1.3420      4.5553      4.8443
   405.0000    203.9884    147.1096      3.1113      4.7955      4.9022
   404.5000    196.7371    144.4736      3.6951      5.2705      5.0829
   404.0000    187.4590    143.0057      1.6061      5.7758      5.3345
   403.5000    180.4854    145.1174     -1.3649      6.0976      5.5406
   403.0000    177.0156    147.7832     -1.1200      6.1642      5.6492
   402.5000    175.3181    151.2375     -2.5178      6.0845      5.7039
   402.0000    173.6594    155.5203     -2.1286      5.9893      5.7584
   401.5000    171.7042    157.4944      5.7389      5.8926      5.8240
   401.0000    169.6984    153.6649     12.3305      5.7861      5.8928
   400.5000    167.4787    146.4110      7.9501      5.7705      5.9709
   400.0000    163.9332    141.9312      3.6304      5.9759      6.1000
   399.5000    157.9120    141.8721      6.4471      6.3958      6.3326
   399.0000    150.3474    141.7724      6.8506      6.8669      6.6513
   398.5000    143.6731    139.5140      3.0787      7.2265      6.9602
   398.0000    139.3699    139.4650     -1.3694      7.4358      7.1751
   397.5000    137.3020    140.8495     -7.4905      7.5215      7.2832
   397.0000    136.8459    140.7700    -14.9240      7.5367      7.3075
   396.5000    137.0894    139.8928    -18.5730      7.5333      7.2945
   396.0000    137.1721    138.9099    -13.5969      7.5237      7.2901
   395.5000    136.9045    137.8589     -0.3294      7.5137      7.3044
   395.0000    136.3693    138.4669      7.5741      7.5219      7.3330
   394.5000    135.5318    140.6868      3.0049      7.5551      7.3783
   394.0000    134.4557    141.6241     -2.0874      7.5976      7.4374
   393.5000    133.4196    141.6223     -0.6240      7.6362      7.4952
   393.0000    132.5974    141.7196     -1.9453      7.6644      7.5416
   392.5000    132.0073    142.2028     -6.3885      7.6840      7.5753
   392.0000    131.8158    141.2626     -9.5523      7.6989      7.5863
   391.5000    132.0767    139.7036    -11.6007      7.7045      7.5714
   391.0000    132.6299    140.6890    -10.6832      7.6829      7.5398
   390.5000    133.4741    145.2116     -5.9359      7.6275      7.4921
   390.0000    134.6611    150.0458     -4.1141      7.5601      7.4260
   389.5000    135.8995    150.6072     -5.4970      7.5104      7.3584
   389.0000    136.9761    146.9149     -5.5321      7.4830      7.3005
   388.5000    138.2475    142.2677     -7.2291      7.4397      7.2334
   388.0000    140.7591    138.8669     -8.5992      7.3274      7.1043
   387.5000    145.9295    136.9450     -3.3446      7.1366      6.8526
