~Version Information
 VERS.                2.00:   CWLS log ASCII Standard -VERSION 2.00
 WRAP.                  NO:   One line per frame
~Well Information Block
#MNEM.UNIT              Data                Description
#--------- -------------------------------  -------------------------------
 STRT.F                          611.0000:   Starting Depth
 STOP.F                            3.2500:   Ending Depth
 STEP.F                           -0.5000:   Level Spacing
 NULL.                          -999.2500:   Absent Value
 COMP.     FLUOR DANIEL (NPOSR), INC.    :   Company
 WELL.     82-2 X 3                      :   Well
 FLD .                                   :   Field
 LOC .                                   :   Location
 PROV.                                   :   Province
 SRVC.                                   :   Service Company
 LIC .                                   :   License Number
 DATE.                                   :   Log Date
 UWI .                                   :   Unique Well ID
~Curve Information Block
#MNEM.UNIT       API Codes    Curve Description
#---------    -------------   -------------------------------
 DEPT.F        0   1  0  1:   Depth
 CILD.MMHO     0 110 46  1:   Conductivity of Deep Induction
 GR  .API      0 310  1  1:   Gamma ray counts
 TEN .LBF      0 635 99  1:   Differential Tension
 RILM.OHMM     0 120 44  1:   Resistivity from CILM
 RILD.OHMM     0 120 46  1:   Resistivity from CILD
#  Curve Data
~A   DEPT        CILD        GR          TEN         RILM        RILD
# ...
   387.0000    154.8185    136.5345     -1.1474      6.8862      6.4592
   386.5000    167.7879    136.0870    -12.4190      6.5625      5.9599
   386.0000    183.2838    135.3795    -22.7701      6.1582      5.4560
   385.5000    197.2809    138.4240    -17.8971      5.7441      5.0689
   385.0000    206.6469    145.2185     -8.8923      5.3811      4.8392
   384.5000    211.9418    150.4851     -4.6116      5.0344      4.7183
   384.0000    215.4879    150.5690     -4.3362      4.6591      4.6406
   383.5000    218.3096    147.0822     -6.7969      4.3652      4.5807
   383.0000    218.8946    142.5244     -9.7582      4.3074      4.5684
   382.5000    213.8199    139.2447     -7.0467      4.5507      4.6768
   382.0000    201.9517    137.6990     -1.2484      5.0307      4.9517
   381.5000    186.6953    136.8273     -2.6630      5.5693      5.3563
   381.0000    172.4869    135.2172    -11.1026      6.0473      5.7975
   380.5000    161.5612    134.0882    -14.1618      6.4114      6.1896
   380.0000    154.1815    135.3479     -8.9636      6.6616      6.4859
   379.5000    149.1261    138.1685     -7.6329      6.8432      6.7057
   379.0000    145.0932    139.1294    -12.9168      7.0067      6.8921
   378.5000    141.5018    137.9348    -15.5947      7.1642      7.0670
   378.0000    138.1194    137.7289    -13.3941      7.3112      7.2401
   377.5000    134.9923    140.1663    -10.4908      7.4499      7.4078
   377.0000    132.7591    141.4983     -8.0743      7.5690      7.5324
   376.5000    131.9368    140.4948     -7.1221      7.6465      7.5794
   376.0000    132.7908    140.2546     -9.8881      7.6655      7.5306
   375.5000    135.5320    141.1120    -11.9969      7.6091      7.3783
   375.0000    140.0190    140.4537     -8.8331      7.4718      7.1419
   374.5000    145.7806    139.5177     -3.5078      7.2543      6.8596
   374.0000    152.2750    141.3493     -1.4481      6.9815      6.5671
   373.5000    158.8405    145.4073     -3.7729      6.7062      6.2956
   373.0000    165.5667    146.6256     -5.7099      6.4326      6.0399
   372.5000    173.5031    141.0850     -4.4490      6.1161      5.7636
   372.0000    183.1304    132.0347     -5.5229      5.7733      5.4606
   371.5000    193.8549    126.6112    -10.9394      5.4822      5.1585
   371.0000    205.2401    127.5958    -13.9980      5.2518      4.8723
   370.5000    216.2916    132.6042     -7.7568      5.0254      4.6234
   370.0000    224.3549    138.3680      2.8197      4.7937      4.4572
   369.5000    227.0573    146.1862      5.3091      4.6310      4.4042
   369.0000    224.5406    153.6684     -7.4149      4.5538      4.4535
   368.5000    219.0013    155.2310    -21.5528      4.5045      4.5662
   368.0000    212.8769    149.6965    -22.2467      4.4810      4.6976
   367.5000    206.8226    144.4220    -15.3412      4.5937      4.8351
   367.0000    198.7092    142.9195    -13.6814      4.9442      5.0325
   366.5000    186.9757    141.0387    -13.0403      5.4724      5.3483
   366.0000    173.7316    135.7462     -8.9740      5.9902      5.7560
   365.5000    162.6521    131.6442    -10.3145      6.3098      6.1481
   365.0000    155.5880    132.0571    -17.8660      6.4210      6.4272
   364.5000    152.2849    134.2066    -20.6766      6.4348      6.5666
   364.0000    151.3465    134.3369    -14.7388      6.4319      6.6074
   363.5000    151.4246    131.1207     -7.0437      6.4143      6.6039
   363.0000    152.9543    129.4787      0.5011      6.3637      6.5379
   362.5000    157.6644    132.7827      8.9621      6.2895      6.3426
   362.0000    167.1361    134.8706     14.5506      6.1687      5.9831
   361.5000    182.2203    130.6711      8.4497      5.9257      5.4879
   361.0000    202.0511    124.3139     -3.9864      5.5404      4.9492
   360.5000    224.3456    121.2572    -12.3272      5.0837      4.4574
   360.0000    249.7353    121.1679    -15.1826      4.5751      4.0042
   359.5000    284.1221    121.2914    -12.6914      4.0046      3.5196
   359.0000    325.7922    120.2715     -7.3792      3.4338      3.0694
   358.5000    369.5293    118.6447     -8.2036      2.9881      2.7061
   358.0000    406.9673    116.8230    -12.9524      2.7128      2.4572
   357.5000    429.9495    113.6397     -7.5176      2.5515      2.3259
   357.0000    436.9529    111.5933      1.4536      2.4252      2.2886
   356.5000    433.1768    113.9924      0.9684      2.3240      2.3085
   356.0000    421.8630    120.2671     -4.2160      2.2906      2.3704
   355.5000    402.1736    125.1617    -10.3852      2.3649      2.4865
   355.0000    373.2195    126.1236    -21.5181      2.5717      2.6794
   354.5000    335.8494    126.2192    -31.4357      2.9207      2.9775
   354.0000    293.4338    127.5584    -28.3382      3.4226      3.4079
   353.5000    251.9504    128.4948    -16.3306      4.0390      3.9690
   353.0000    218.5781    127.4225    -10.0702      4.6976      4.5750
   352.5000    192.2867    126.7521    -12.1149      5.3177      5.2006
   352.0000    172.5311    127.8352    -15.3708      5.8574      5.7961
   351.5000    157.9555    128.8186    -15.8280      6.3101      6.3309
   351.0000    147.3028    128.2741    -15.1521      6.6806      6.7887
   350.5000    139.5744    127.5694    -13.6112      6.9966      7.1646
   350.0000    133.9500    127.4005    -14.0629      7.2860      7.4655
   349.5000    129.5684    127.4687    -17.3405      7.5391      7.7179
   349.0000    126.2433    128.9044    -20.0763      7.7356      7.9212
   348.5000    124.0490    129.9777    -16.3639      7.8806      8.0613
   348.0000    123.0688    128.9705    -10.1653      7.9869      8.1255
   347.5000    123.3218    127.7251    -12.1164      8.0597      8.1089
   347.0000    124.1474    128.0493    -20.2529      8.1253      8.0549
   346.5000    124.5194    126.7096    -23.9111      8.2119      8.0309
   346.0000    124.2775    124.5315    -23.2081      8.3151      8.0465
   345.5000    123.9023    125.3226    -20.1334      8.3977      8.0709
   345.0000    123.5358    128.1128    -13.5328      8.4371      8.0948
   344.5000    123.2588    128.0916    -10.2886      8.4360      8.1130
   344.0000    123.2229    125.0384    -15.6666      8.4115      8.1154
   343.5000    123.2958    122.8230    -21.6028      8.3977      8.1106
   343.0000    123.4296    123.6290    -19.4761      8.4085      8.1018
   342.5000    123.7171    125.7634    -14.1602      8.4174      8.0830
   342.0000    124.1620    127.2297    -11.9145      8.3877      8.0540
   341.5000    124.7265    127.0658    -13.2126      8.3236      8.0175
   341.0000    125.2576    127.3353    -13.2422      8.2584      7.9835
   340.5000    125.5287    128.4438    -11.7864      8.2081      7.9663
   340.0000    125.6634    126.5339    -10.0382      8.1588      7.9578
   339.5000    126.1692    120.3275    -11.6861      8.0940      7.9259
   339.0000    127.3197    116.6380    -17.4124      8.0179      7.8542
   338.5000    128.9783    118.2201    -20.2029      7.9417      7.7532
   338.0000    130.8580    120.7162    -14.4735      7.8588      7.6419
   337.5000    132.8487    122.3466     -5.5977      7.7491      7.5274
   337.0000    134.8882    123.8119     -2.9182      7.6138      7.4135
   336.5000    136.8983    123.8032     -9.3586      7.4709      7.3047
   336.0000    139.0212    122.3369    -15.9308      7.3288      7.1931
   335.5000    141.6303    123.0545    -13.6905      7.1861      7.0606
   335.0000    145.2025    125.3661     -9.7359      7.0449      6.8869
   334.5000    150.4171    126.3563    -10.2934      6.8902      6.6482
   334.0000    158.2300    125.3884    -10.4472      6.6701      6.3199
   333.5000    169.0687    124.3470     -6.2748      6.3499      5.9148
   333.0000    180.9442    121.2641     -2.8142      5.9837      5.5266
   332.5000    190.2143    115.6362     -5.4427      5.6672      5.2572
   332.0000    194.9619    111.2217    -12.9909      5.4180      5.1292
   331.5000    196.4140    111.2186    -16.9363      5.1707      5.0913
