~Version Information
 VERS.                2.00:   CWLS log ASCII Standard -VERSION 2.00
 WRAP.                  NO:   One line per frame
~Well Information Block
#MNEM.UNIT              Data                Description
#--------- -------------------------------  -------------------------------
 STRT.F                          611.0000:   Starting Depth
 STOP.F                            3.2500:   Ending Depth
 STEP.F                           -0.5000:   Level Spacing
 NULL.                          -999.2500:   Absent Value
 COMP.     FLUOR DANIEL (NPOSR), INC.    :   Company
 WELL.     82-2 X 3                      :   Well
 FLD .                                   :   Field
 LOC .                                   :   Location
 PROV.                                   :   Province
 SRVC.                                   :   Service Company
 LIC .                                   :   License Number
 DATE.                                   :   Log Date
 UWI .                                   :   Unique Well ID
~Curve Information Block
#MNEM.UNIT       API Codes    Curve Description
#---------    -------------   -------------------------------
 DEPT.F        0   1  0  1:   Depth
 CILD.MMHO     0 110 46  1:   Conductivity of Deep Induction
 GR  .API      0 310  1  1:   Gamma ray counts
 TEN .LBF      0 635 99  1:   Differential Tension
 RILM.OHMM     0 120 44  1:   Resistivity from CILM
 RILD.OHMM     0 120 46  1:   Resistivity from CILD
#  Curve Data
~A   DEPT        CILD        GR          TEN         RILM        RILD
# ...
   219.0000    118.3308    134.8114    -19.3373      8.5757      8.4509
   218.5000    118.0444    134.5201    -20.2773      8.6077      8.4714
   218.0000    117.7760    133.4985    -22.2177      8.6049      8.4907
   217.5000    117.6123    130.0734    -25.5721      8.5978      8.5025
   217.0000    117.6607    127.6582    -21.6181      8.6074      8.4990
   216.5000    117.6410    129.7950    -14.3365      8.6303      8.5004
   216.0000    117.3917    131.6942    -13.5801      8.6625      8.5185
   215.5000    117.1479    129.4533    -19.5249      8.7107      8.5362
   215.0000    117.1285    126.1211    -25.1811      8.7578      8.5376
   214.5000    117.1312    126.0694    -24.3317      8.7743      8.5374
   214.0000    116.9465    130.3612    -18.2518      8.7530      8.5509
   213.5000    116.5658    136.5517    -15.7694      8.7052      8.5788
   213.0000    116.1078    137.5488    -22.7420      8.6853      8.6127
   212.5000    115.6303    133.6461    -32.3885      8.7431      8.6483
   212.0000    115.1008    132.2975    -35.4334      8.8444      8.6880
   211.5000    114.5532    133.2316    -30.0843      8.9136      8.7296
   211.0000    114.1593    131.5292    -21.9841      8.9559      8.7597
   210.5000    114.0327    127.7417    -16.1244      9.0232      8.7694
   210.0000    113.9934    125.4444    -15.1298      9.0756      8.7724
   209.5000    113.5052    125.0597    -18.0148      9.0494      8.8102
   209.0000    112.1675    125.8709    -22.4291      9.0280      8.9152
   208.5000    110.2430    127.3460    -22.1213      9.1178      9.0709
   208.0000    108.3893    128.8421    -17.9035      9.2472      9.2260
   207.5000    107.1403    126.9842    -16.6469      9.3119      9.3336
   207.0000    106.6792    121.1798    -19.9174      9.3756      9.3739
   206.5000    106.8649    117.1507    -23.2001      9.5184      9.3576
   206.0000    107.1396    119.9061    -25.5468      9.7015      9.3336
   205.5000    107.0871    125.4024    -27.1788      9.8113      9.3382
   205.0000    107.3158    126.8055    -27.2630      9.7483      9.3183
   204.5000    108.6635    123.6865    -24.7938      9.5349      9.2027
   204.0000    110.7014    122.5881    -23.4896      9.2945      9.0333
   203.5000    112.5334    126.9965    -26.5246      9.0980      8.8862
   203.0000    114.0941    131.5567    -29.9733      8.9332      8.7647
   202.5000    115.4065    130.8881    -25.8427      8.8038      8.6650
   202.0000    116.1075    128.1461    -19.1153      8.7240      8.6127
   201.5000    116.1121    127.9514    -18.8932      8.6994      8.6124
   201.0000    115.6641    129.5632    -22.6682      8.7167      8.6457
   200.5000    114.9045    131.7061    -22.8979      8.7557      8.7029
   200.0000    113.9468    134.9823    -17.9895      8.7902      8.7760
   199.5000    113.0291    136.9407    -14.0602      8.8227      8.8473
   199.0000    112.4461    133.9619    -16.5280      8.8770      8.8932
   198.5000    112.2257    129.1703    -22.8732      8.9433      8.9106
   198.0000    112.0840    125.8897    -24.3179      8.9988      8.9219
   197.5000    111.8045    123.6145    -17.9651      9.0588      8.9442
   197.0000    111.7154    123.6166    -15.1039      9.1086      8.9513
   196.5000    112.3174    128.1105    -21.5318      9.0929      8.9033
   196.0000    113.8842    132.0645    -28.6605      8.9977      8.7808
   195.5000    116.3110    132.6473    -27.2020      8.8588      8.5976
   195.0000    119.3373    134.6110    -21.8255      8.6992      8.3796
   194.5000    122.5069    138.0937    -17.9675      8.5173      8.1628
   194.0000    125.3480    139.5843    -19.2977      8.3004      7.9778
   193.5000    127.6701    139.1874    -24.0480      8.0713      7.8327
   193.0000    129.3547    138.8983    -25.7844      7.8844      7.7307
   192.5000    129.9780    138.3570    -25.1662      7.7825      7.6936
   192.0000    129.1886    137.1632    -29.0210      7.7803      7.7406
   191.5000    127.1143    136.6459    -35.7070      7.8729      7.8669
   191.0000    124.1583    137.7056    -36.9492      8.0403      8.0542
   190.5000    120.8521    139.0754    -33.0519      8.2601      8.2746
   190.0000    117.6742    139.5876    -28.9174      8.5291      8.4980
   189.5000    114.8386    140.7708    -26.3910      8.8301      8.7079
   189.0000    112.1033    141.4336    -24.8194      9.1083      8.9203
   188.5000    109.1403    140.0580    -23.0830      9.3338      9.1625
   188.0000    105.9286    139.6880    -21.6428      9.5306      9.4403
   187.5000    102.7632    142.2440    -22.2772      9.7198      9.7311
   187.0000    100.1685    141.4515    -27.2450      9.8859      9.9832
   186.5000     98.6717    132.7805    -30.8270     10.0270     10.1346
   186.0000     98.1875    124.0246    -29.0781     10.1659     10.1846
   185.5000     98.1463    123.3115    -24.5479     10.3769     10.1889
   185.0000     97.9140    127.1050    -23.0562     10.6639     10.2130
   184.5000     97.4676    129.6297    -25.1762     10.8778     10.2598
   184.0000     97.5596    131.7960    -28.0176     10.8295     10.2501
   183.5000     98.7506    132.7181    -30.7525     10.5433     10.1265
   183.0000    100.5872    131.5786    -30.6226     10.2120      9.9416
   182.5000    102.2831    129.2862    -26.1233      9.9689      9.7768
   182.0000    103.5380    125.5790    -20.8297      9.8364      9.6583
   181.5000    104.3586    122.1342    -20.4762      9.7893      9.5823
   181.0000    104.4835    121.8762    -24.2887      9.8081      9.5709
   180.5000    103.9587    123.3309    -26.3718      9.8790      9.6192
   180.0000    103.1535    122.8370    -27.6052      9.9728      9.6943
   179.5000    102.3794    122.9579    -30.4527     10.0462      9.7676
   179.0000    101.5490    127.3729    -30.7513     10.0976      9.8475
   178.5000    100.5287    133.2183    -27.5705     10.1755      9.9474
   178.0000     99.6178    133.4771    -27.0666     10.2995     10.0384
   177.5000     99.0948    128.1956    -29.8818     10.4222     10.0913
   177.0000     98.5865    124.4337    -30.4668     10.4907     10.1434
   176.5000     97.8738    124.8447    -26.5847     10.5271     10.2172
   176.0000     97.3794    125.6995    -21.0480     10.5703     10.2691
   175.5000     97.0871    124.5237    -20.0672     10.6196     10.3000
   175.0000     96.5654    125.6932    -21.1551     10.6426     10.3557
   174.5000     95.9244    129.3782    -21.1069     10.6335     10.4249
   174.0000     95.3856    130.7331    -21.3799     10.6313     10.4838
   173.5000     94.6043    127.2711    -23.4441     10.6825     10.5703
   173.0000     93.4129    122.7443    -24.5528     10.8080     10.7052
   172.5000     92.2392    120.6351    -27.2719     10.9924     10.8414
   172.0000     91.4522    120.9079    -29.9916     11.1742     10.9347
   171.5000     91.0884    120.4555    -25.9518     11.3034     10.9783
   171.0000     91.0556    120.5024    -15.3845     11.4009     10.9823
   170.5000     91.2827    125.8887     -9.8881     11.5046     10.9550
   170.0000     91.7283    132.1415    -15.1436     11.5534     10.9018
   169.5000     92.5469    131.8912    -23.9181     11.4203     10.8053
   169.0000     94.0479    127.5435    -27.1328     11.0890     10.6329
   168.5000     96.2080    126.2673    -24.7873     10.7105     10.3941
   168.0000     98.5148    127.8190    -22.0552     10.4084     10.1508
   167.5000    100.5333    129.3384    -20.2291     10.2008      9.9469
   167.0000    102.1299    131.7650    -19.6865     10.0490      9.7915
   166.5000    103.4344    135.6064    -20.0910      9.9035      9.6680
   166.0000    104.9522    136.7489    -21.3933      9.7691      9.5281
   165.5000    106.9402    132.9021    -23.0845      9.6517      9.3510
   165.0000    109.0361    129.2109    -28.6355      9.5255      9.1713
   164.5000    110.7843    129.8290    -33.4176      9.3748      9.0266
   164.0000    112.1132    132.0095    -33.4451      9.2146      8.9196
   163.5000    113.4042    133.5858    -28.4623      9.0501      8.8180
