~Version Information
 VERS.                2.00:   CWLS log ASCII Standard -VERSION 2.00
 WRAP.                  NO:   One line per frame
~Well Information Block
#MNEM.UNIT              Data                Description
#--------- -------------------------------  -------------------------------
 STRT.F                          611.0000:   Starting Depth
 STOP.F                            3.2500:   Ending Depth
 STEP.F                           -0.5000:   Level Spacing
 NULL.                          -999.2500:   Absent Value
 COMP.     FLUOR DANIEL (NPOSR), INC.    :   Company
 WELL.     82-2 X 3                      :   Well
 FLD .                                   :   Field
 LOC .                                   :   Location
 PROV.                                   :   Province
 SRVC.                                   :   Service Company
 LIC .                                   :   License Number
 DATE.                                   :   Log Date
 UWI .                                   :   Unique Well ID
~Curve Information Block
#MNEM.UNIT       API Codes    Curve Description
#---------    -------------   -------------------------------
 DEPT.F        0   1  0  1:   Depth
 CILD.MMHO     0 110 46  1:   Conductivity of Deep Induction
 GR  .API      0 310  1  1:   Gamma ray counts
 TEN .LBF      0 635 99  1:   Differential Tension
 RILM.OHMM     0 120 44  1:   Resistivity from CILM
 RILD.OHMM     0 120 46  1:   Resistivity from CILD
#  Curve Data
~A   DEPT        CILD        GR          TEN         RILM        RILD
# ...
   275.0000     97.3116    116.0324    -10.3593     10.4165     10.2763
   274.5000     94.7372    120.0139    -13.7741     10.6075     10.5555
   274.0000     92.2725    126.0970    -28.1125     10.8476     10.8375
   273.5000     90.3194    127.2992    -34.0905     11.1144     11.0718
   273.0000     88.8623    121.9835    -27.4982     11.3708     11.2534
   272.5000     87.8809    115.3920    -19.4007     11.6078     11.3790
   272.0000     87.3392    110.6624    -16.6268     11.7996     11.4496
   271.5000     87.0588    110.3877    -13.7354     11.9150     11.4865
   271.0000     87.0399    113.1885    -10.5164     11.9165     11.4890
   270.5000     87.5586    116.0881    -14.1993     11.7570     11.4209
   270.0000     88.7159    117.4021    -20.6900     11.4672     11.2719
   269.5000     89.9954    117.7537    -19.7481     11.2178     11.1117
   269.0000     90.7964    116.4463    -13.5999     11.1391     11.0136
   268.5000     90.9519    114.8114    -12.6328     11.1920     10.9948
   268.0000     90.5455    113.3593    -17.9361     11.2531     11.0442
   267.5000     89.8152    111.6517    -25.2686     11.2454     11.1340
   267.0000     89.2022    110.9386    -29.6838     11.2369     11.2105
   266.5000     88.8726    112.8092    -27.2612     11.3169     11.2521
   266.0000     88.4234    114.5084    -21.4735     11.4770     11.3092
   265.5000     87.5572    114.2411    -15.3671     11.6477     11.4211
   265.0000     86.4563    113.9438     -7.8986     11.8143     11.5665
   264.5000     85.4587    114.3455     -5.5062     11.9852     11.7016
   264.0000     84.5446    114.3865    -16.6722     12.1241     11.8281
   263.5000     83.3673    114.1931    -31.5044     12.2269     11.9951
   263.0000     81.9589    113.8664    -36.7083     12.3429     12.2012
   262.5000     80.8386    112.3586    -32.9549     12.4808     12.3703
   262.0000     80.4166    109.7062    -26.9348     12.5895     12.4352
   261.5000     80.5973    107.0037    -25.6621     12.6525     12.4074
   261.0000     81.1062    106.1363    -28.8606     12.7063     12.3295
   260.5000     81.7566    108.5148    -29.5868     12.7648     12.2314
   260.0000     82.5614    114.1209    -26.9419     12.7550     12.1122
   259.5000     83.7337    119.7184    -25.0750     12.5788     11.9426
   259.0000     85.5735    120.4645    -22.7994     12.2342     11.6859
   258.5000     87.8905    118.7388    -17.9974     11.8272     11.3778
   258.0000     90.1732    119.7166    -13.7320     11.4538     11.0898
   257.5000     92.1415    121.5669    -13.3526     11.1316     10.8529
   257.0000     93.9535    120.4765    -16.6112     10.8417     10.6436
   256.5000     95.8030    119.7979    -20.4808     10.5743     10.4381
   256.0000     97.7132    122.1501    -24.8770     10.3335     10.2340
   255.5000     99.6583    124.5048    -26.8693     10.1379     10.0343
   255.0000    101.7903    124.1260    -25.8497      9.9954      9.8241
   254.5000    104.1637    122.7458    -27.1423      9.8502      9.6003
   254.0000    106.7302    123.4823    -29.0238      9.6544      9.3694
   253.5000    109.2855    127.5053    -26.3572      9.4309      9.1503
   253.0000    111.5989    132.6398    -21.9939      9.2096      8.9607
   252.5000    113.5736    134.2519    -21.3793      8.9986      8.8049
   252.0000    115.2805    130.7635    -23.1031      8.8065      8.6745
   251.5000    116.8217    127.9731    -22.6554      8.6445      8.5601
   251.0000    118.2999    129.0877    -16.8607      8.5310      8.4531
   250.5000    119.5006    131.1161    -12.5346      8.4798      8.3682
   250.0000    120.2341    131.7417    -14.3527      8.4632      8.3171
   249.5000    120.5603    130.3405    -13.2651      8.4471      8.2946
   249.0000    120.6440    128.0032     -7.6625      8.4337      8.2888
   248.5000    120.5379    127.9648     -7.8059      8.4307      8.2961
   248.0000    120.1014    129.4996    -16.1360      8.4473      8.3263
   247.5000    119.1588    131.1392    -24.0605      8.5011      8.3922
   247.0000    117.9573    132.9237    -26.5283      8.5811      8.4776
   246.5000    116.9316    134.3218    -22.6731      8.6494      8.5520
   246.0000    116.1409    133.2156    -18.6077      8.7104      8.6102
   245.5000    115.5700    130.1433    -19.5154      8.7997      8.6528
   245.0000    115.3319    128.6515    -20.7226      8.8929      8.6706
   244.5000    115.2268    130.3045    -17.1532      8.9333      8.6785
   244.0000    115.0104    131.2805    -13.7494      8.9194      8.6949
   243.5000    114.9687    128.8644    -14.6653      8.8662      8.6980
   243.0000    115.5445    127.3971    -17.4887      8.7633      8.6547
   242.5000    116.5647    128.5940    -19.0963      8.6445      8.5789
   242.0000    117.7227    130.7151    -15.7270      8.5646      8.4945
   241.5000    119.0021    132.0463     -8.6178      8.5235      8.4032
   241.0000    120.3471    131.7774     -4.2984      8.4688      8.3093
   240.5000    121.6405    131.0062     -3.5414      8.3770      8.2209
   240.0000    123.2001    133.2637     -7.5134      8.2743      8.1169
   239.5000    125.0933    137.3214    -16.3700      8.1891      7.9940
   239.0000    126.7076    138.9778    -21.2030      8.1153      7.8922
   238.5000    127.6917    138.5278    -15.5724      8.0440      7.8314
   238.0000    128.4120    137.0588     -5.6995      7.9713      7.7874
   237.5000    129.1762    134.8365     -1.3289      7.9021      7.7414
   237.0000    129.7247    134.5290     -6.9839      7.8555      7.7086
   236.5000    129.7257    138.0558    -18.5473      7.8484      7.7086
   236.0000    129.0551    141.1668    -24.9283      7.8828      7.7486
   235.5000    127.7621    139.0857    -24.7776      7.9499      7.8270
   235.0000    126.1747    135.1807    -22.4144      8.0403      7.9255
   234.5000    124.6946    134.9445    -18.1396      8.1528      8.0196
   234.0000    123.2725    135.6674    -10.1010      8.2836      8.1121
   233.5000    121.7410    132.9547     -2.3927      8.4143      8.2142
   233.0000    120.1962    131.2162     -2.4818      8.5378      8.3197
   232.5000    118.7874    133.1129    -11.5845      8.6463      8.4184
   232.0000    117.4990    133.5728    -21.8725      8.7148      8.5107
   231.5000    116.4954    131.1468    -23.4130      8.7389      8.5840
   231.0000    115.7979    130.6684    -16.7787      8.7544      8.6357
   230.5000    115.2486    133.2675    -12.8326      8.7923      8.6769
   230.0000    114.7217    136.1461    -17.1825      8.8598      8.7167
   229.5000    114.1949    137.0824    -22.1979      8.9270      8.7570
   229.0000    113.6333    136.9398    -25.6362      8.9665      8.8002
   228.5000    113.0607    138.0959    -30.5335      8.9873      8.8448
   228.0000    112.7294    140.2623    -30.9249      9.0037      8.8708
   227.5000    113.0734    140.2858    -23.1547      8.9898      8.8438
   227.0000    114.1732    137.4909    -18.4501      8.9519      8.7586
   226.5000    115.4651    135.2692    -23.5103      8.9151      8.6606
   226.0000    116.6149    134.2290    -32.7302      8.8592      8.5752
   225.5000    117.8320    132.0074    -38.7719      8.7479      8.4867
   225.0000    119.1712    129.5553    -34.1457      8.5951      8.3913
   224.5000    120.4312    130.2527    -21.9329      8.4408      8.3035
   224.0000    121.4747    133.3361    -15.1073      8.3267      8.2322
   223.5000    122.1744    135.9059    -18.6550      8.2643      8.1850
   223.0000    122.5187    137.7464    -20.3368      8.2429      8.1620
   222.5000    122.4840    140.2430    -17.0278      8.2465      8.1643
   222.0000    122.0097    142.9626    -16.6390      8.2662      8.1961
   221.5000    121.2799    143.6187    -20.9321      8.2997      8.2454
   221.0000    120.6294    142.8075    -21.1020      8.3488      8.2899
   220.5000    120.0524    141.7231    -14.5171      8.3991      8.3297
   220.0000    119.3854    139.8235     -9.4687      8.4489      8.3762
   219.5000    118.7415    136.6826    -13.9428      8.5127      8.4217
