~Version Information
 VERS.                2.00:   CWLS log ASCII Standard -VERSION 2.00
 WRAP.                  NO:   One line per frame
~Well Information Block
#MNEM.UNIT              Data                Description
#--------- -------------------------------  -------------------------------
 STRT.F                          611.0000:   Starting Depth
 STOP.F                            3.2500:   Ending Depth
 STEP.F                           -0.5000:   Level Spacing
 NULL.                          -999.2500:   Absent Value
 COMP.     FLUOR DANIEL (NPOSR), INC.    :   Company
 WELL.     82-2 X 3                      :   Well
 FLD .                                   :   Field
 LOC .                                   :   Location
 PROV.                                   :   Province
 SRVC.                                   :   Service Company
 LIC .                                   :   License Number
 DATE.                                   :   Log Date
 UWI .                                   :   Unique Well ID
~Curve Information Block
#MNEM.UNIT       API Codes    Curve Description
#---------    -------------   -------------------------------
 DEPT.F        0   1  0  1:   Depth
 CILD.MMHO     0 110 46  1:   Conductivity of Deep Induction
 GR  .API      0 310  1  1:   Gamma ray counts
 TEN .LBF      0 635 99  1:   Differential Tension
 RILM.OHMM     0 120 44  1:   Resistivity from CILM
 RILD.OHMM     0 120 46  1:   Resistivity from CILD
#  Curve Data
~A   DEPT        CILD        GR          TEN         RILM        RILD
# ...
   499.0000     78.7253     93.5483     78.5222     12.9215     12.7024
   498.5000     78.8404     93.7849     74.9034     12.8511     12.6838
   498.0000     78.6256     95.5273     70.3629     12.7861     12.7185
   497.5000     78.2182     95.3042     70.0518     12.7476     12.7847
   497.0000     77.8117     90.7535     69.7434     12.7597     12.8515
   496.5000     77.4430     86.4873     64.4974     12.8318     12.9127
   496.0000     77.0168     87.1293     63.3351     12.9165     12.9842
   495.5000     76.4381     90.8643     71.1867     13.0072     13.0825
   495.0000     75.7070     93.8223     76.1957     13.1549     13.2088
   494.5000     74.8458     94.5177     76.9088     13.3618     13.3608
   494.0000     73.9444     93.7437     77.0354     13.5393     13.5237
   493.5000     73.0455     93.3836     72.0016     13.6383     13.6901
   493.0000     72.1735     93.4214     62.5552     13.6955     13.8555
   492.5000     71.3708     92.6066     59.3725     13.7742     14.0113
   492.0000     70.5304     92.3635     62.6464     13.9064     14.1783
   491.5000     69.5435     92.9747     65.1764     14.0653     14.3795
   491.0000     68.5192     91.7724     67.5715     14.2421     14.5944
   490.5000     67.5418     89.0159     69.5385     14.4690     14.8057
   490.0000     66.4661     88.2996     67.1412     14.7475     15.0453
   489.5000     65.3120     90.3734     59.9987     15.0473     15.3111
   489.0000     64.2422     93.1763     54.3635     15.3692     15.5661
   488.5000     63.3499     94.3540     53.1310     15.7019     15.7854
   488.0000     62.6642     93.3139     52.9343     15.9990     15.9581
   487.5000     62.1880     92.0809     50.3030     16.2415     16.0803
   487.0000     61.9169     92.6136     49.9517     16.4124     16.1507
   486.5000     61.8636     94.1024     50.8093     16.4942     16.1646
   486.0000     61.9955     95.2346     50.2673     16.4937     16.1302
   485.5000     62.1854     94.9204     47.8774     16.4066     16.0809
   485.0000     62.4521     92.8673     46.2023     16.2092     16.0123
   484.5000     62.9135     90.3023     44.9323     15.9541     15.8948
   484.0000     63.5198     88.9784     48.5664     15.7272     15.7431
   483.5000     64.1261     90.5230     52.7625     15.5826     15.5943
   483.0000     64.4765     94.4442     49.6927     15.5551     15.5095
   482.5000     64.2919     96.7113     46.4161     15.6479     15.5541
   482.0000     63.5812     96.0561     49.0434     15.7689     15.7279
   481.5000     62.6140     94.8542     48.0942     15.8762     15.9709
   481.0000     61.6583     93.6948     42.1232     16.0203     16.2184
   480.5000     60.9436     92.1917     43.7138     16.2228     16.4086
   480.0000     60.4373     90.7276     49.5665     16.4234     16.5461
   479.5000     59.8828     89.2546     47.7005     16.6089     16.6993
   479.0000     59.2142     87.8548     42.0381     16.8080     16.8878
   478.5000     58.5289     88.3424     42.8616     17.0415     17.0856
   478.0000     57.8766     89.7116     47.7325     17.2830     17.2781
   477.5000     57.3213     89.3992     50.6327     17.4543     17.4455
   477.0000     56.8238     89.6136     49.7449     17.5274     17.5983
   476.5000     56.3815     93.2890     48.7451     17.5619     17.7363
   476.0000     56.0977     96.8859     51.6725     17.6271     17.8260
   475.5000     56.0742     96.3909     53.3655     17.7038     17.8335
   475.0000     56.2659     93.9357     50.3570     17.7100     17.7728
   474.5000     56.5117     93.5395     46.9807     17.6554     17.6954
   474.0000     56.5761     95.4025     42.1867     17.6306     17.6753
   473.5000     56.4787     97.0460     33.7669     17.6462     17.7058
   473.0000     56.4221     95.2762     28.6093     17.6192     17.7236
   472.5000     56.4786     89.6021     29.2065     17.5280     17.7058
   472.0000     56.6373     84.6344     33.9895     17.4471     17.6562
   471.5000     56.9616     84.2032     38.1704     17.4205     17.5557
   471.0000     57.3980     86.4681     34.4842     17.3934     17.4222
   470.5000     57.6858     87.4617     28.2442     17.3113     17.3353
   470.0000     57.7383     86.7395     33.0190     17.1924     17.3195
   469.5000     57.7807     86.1460     40.9435     17.0965     17.3068
   469.0000     57.9115     86.9585     39.6796     17.0505     17.2677
   468.5000     57.9661     88.9142     33.3996     17.0300     17.2514
   468.0000     57.8881     91.2502     32.5572     17.0282     17.2747
   467.5000     57.6924     93.6523     36.1666     17.0793     17.3333
   467.0000     57.3497     94.8065     37.7563     17.2150     17.4369
   466.5000     56.9718     93.6242     35.5499     17.4311     17.5525
   466.0000     56.6706     90.2058     32.2934     17.6699     17.6458
   465.5000     56.3032     86.2374     29.7826     17.8799     17.7610
   465.0000     55.6642     84.9520     28.6587     18.0995     17.9649
   464.5000     54.5679     87.6922     27.0077     18.4007     18.3258
   464.0000     52.9070     89.4855     24.1822     18.7498     18.9011
   463.5000     50.8811     87.2597     23.6088     19.0839     19.6537
   463.0000     48.8721     82.3672     25.0942     19.4791     20.4616
   462.5000     46.8877     77.6625     21.6541     20.1612     21.3276
   462.0000     44.7979     75.4880     16.8323     21.3038     22.3225
   461.5000     42.7364     76.1375     16.0018     22.8611     23.3993
   461.0000     40.9151     76.1523     19.3824     24.4566     24.4408
   460.5000     39.4504     75.2783     24.8602     25.6557     25.3483
   460.0000     38.3636     77.7111     29.0223     26.5594     26.0664
   459.5000     37.4607     82.8024     25.8649     27.4541     26.6946
   459.0000     36.5406     85.1351     21.9155     27.8629     27.3668
   458.5000     35.6628     83.5389     25.3614     27.4107     28.0404
   458.0000     35.1157     80.1511     29.9824     26.8684     28.4773
   457.5000     34.9749     75.6596     29.2821     27.0868     28.5920
   457.0000     34.9526     70.5499     31.2326     28.0850     28.6102
   456.5000     34.6548     67.1814     36.9852     29.4557     28.8561
   456.0000     34.1045     68.0221     37.4180     30.6767     29.3217
   455.5000     33.8022     73.0054     30.3200     31.2415     29.5839
   455.0000     34.0737     79.0337     21.2841     30.7626     29.3482
   454.5000     34.7123     81.1521     16.0942     29.4797     28.8082
   454.0000     35.4599     78.7054     18.8353     28.1029     28.2009
   453.5000     36.1760     76.1400     24.5876     27.1710     27.6427
   453.0000     36.7899     76.2668     23.2947     26.6789     27.1814
   452.5000     37.2624     77.4051     18.7752     26.4352     26.8367
   452.0000     37.6298     77.6440     20.5146     26.4174     26.5747
   451.5000     37.8859     76.6107     22.9207     26.5529     26.3950
   451.0000     37.9677     73.7099     22.8942     26.6416     26.3382
   450.5000     37.7238     71.5904     25.6819     26.7464     26.5085
   450.0000     37.1885     72.9058     29.0067     27.1359     26.8900
   449.5000     36.5609     75.0986     23.5091     27.7252     27.3516
   449.0000     35.9806     74.3054     15.7166     28.1639     27.7928
   448.5000     35.6327     70.8295     16.6838     28.3884     28.0641
   448.0000     35.6470     65.3078     23.3883     28.7471     28.0528
   447.5000     35.8055     60.9371     26.2977     29.5113     27.9287
   447.0000     35.8642     61.6078     24.9533     30.3263     27.8829
   446.5000     35.8128     65.0215     24.8862     30.5134     27.9230
   446.0000     35.7022     67.2937     25.1210     29.8477     28.0095
   445.5000     35.8564     68.5290     23.2544     28.7508     27.8891
   445.0000     36.7211     68.7358     15.4723     27.6245     27.2323
   444.5000     38.2844     66.5513      9.4834     26.5262     26.1203
   444.0000     40.1294     64.8774     10.5820     25.6709     24.9194
   443.5000     42.1115     67.4975     12.6868     25.3736     23.7465
