~Version Information
 VERS.                2.00:   CWLS log ASCII Standard -VERSION 2.00
 WRAP.                  NO:   One line per frame
~Well Information Block
#MNEM.UNIT              Data                Description
#--------- -------------------------------  -------------------------------
 STRT.F                          611.0000:   Starting Depth
 STOP.F                            3.2500:   Ending Depth
 STEP.F                           -0.5000:   Level Spacing
 NULL.                          -999.2500:   Absent Value
 COMP.     FLUOR DANIEL (NPOSR), INC.    :   Company
 WELL.     82-2 X 3                      :   Well
 FLD .                                   :   Field
 LOC .                                   :   Location
 PROV.                                   :   Province
 SRVC.                                   :   Service Company
 LIC .                                   :   License Number
 DATE.                                   :   Log Date
 UWI .                                   :   Unique Well ID
~Curve Information Block
#MNEM.UNIT       API Codes    Curve Description
#---------    -------------   -------------------------------
 DEPT.F        0   1  0  1:   Depth
 CILD.MMHO     0 110 46  1:   Conductivity of Deep Induction
 GR  .API      0 310  1  1:   Gamma ray counts
 TEN .LBF      0 635 99  1:   Differential Tension
 RILM.OHMM     0 120 44  1:   Resistivity from CILM
 RILD.OHMM     0 120 46  1:   Resistivity from CILD
#  Curve Data
~A   DEPT        CILD        GR          TEN         RILM        RILD
   611.0000      0.0000      0.0000   -250.0000      0.2000      0.2000
   610.5000      0.0000      0.0000   -250.0000      0.2000      0.2000
   610.0000      0.0000      0.0000   -250.0000      0.2000      0.2000
   609.5000      0.0000      0.0000   -250.0000      0.2000      0.2000
   609.0000      0.0000      0.0000   -250.0000      0.2000      0.2000
   608.5000      0.0000      0.0000   -250.0000      0.2000      0.2000
   608.0000      0.0000      0.0000   -250.0000      0.2000      0.2000
   607.5000      0.0000      0.0000   -250.0000      0.2000      0.2000
   607.0000      0.0000      0.0000   -250.0000      0.2000      0.2000
   606.5000      0.0000      0.0000   -250.0000      0.2000      0.2000
   606.0000      0.0000      0.0000   -250.0000      0.2000      0.2000
   605.5000      0.0000      0.0000   -250.0000      0.2000      0.2000
   605.0000      0.0000      0.0000   -250.0000      0.2000      0.2000
   604.5000      0.0000      0.0000   -250.0000      0.2000      0.2000
   604.0000      0.0000      0.0000   -250.0000      0.2000      0.2000
   603.5000      0.0000      0.0000   -250.0000      0.2000      0.2000
   603.0000      0.0000      0.0000   -250.0000      0.2000      0.2000
   602.5000      0.0000      0.0000   -250.0000      0.2000      0.2000
   602.0000      0.0000      0.0000   -250.0000      0.2000      0.2000
   601.5000      0.0000      0.0000   -250.0000      0.2000      0.2000
   601.0000      0.0000      0.0000   -240.9802      0.2000      0.2000
   600.5000      0.0000      0.0000   -229.3514      0.2000      0.2000
   600.0000      0.0000      0.0000   -218.6334      0.2000      0.2000
   599.5000      0.0000      0.0000   -216.8250      0.2000      0.2000
   599.0000      0.0000      0.0000   -221.1570      0.2000      0.2000
   598.5000      0.0000      0.0000   -222.7189      0.2000      0.2000
   598.0000      0.0000      0.0000   -218.0420      0.2000      0.2000
   597.5000      0.0000      0.0000   -210.7043      0.2000      0.2000
   597.0000      0.0000      0.0000   -203.6537      0.2000      0.2000
   596.5000      0.0000      0.0000   -198.8057      0.2000      0.2000
   596.0000      0.0000      0.0000   -197.3514      0.2000      0.2000
   595.5000      0.0000      0.0000   -197.7989      0.2000      0.2000
   595.0000      0.0000      0.0000   -193.1937     10.5551      0.2000
   594.5000      0.0000      0.0000   -186.5990     10.5537      0.2000
   594.0000      0.0000      0.0000   -184.7168     10.5591      0.2000
   593.5000      0.0000      0.0000   -184.4545     10.5620      0.2000
   593.0000      0.0000      0.0000   -179.7166     10.5543      0.2000
   592.5000      0.0000      0.0000   -173.8750     10.5462      0.2000
   592.0000      0.0000      0.0000   -172.4161     10.5467      0.2000
   591.5000      0.0000      0.0000   -172.1230     10.5538      0.2000
   591.0000      0.0000      0.0000   -169.4668     10.5643      0.2000
   590.5000      0.0000      0.0000   -167.9766     10.5760      0.2000
   590.0000      0.0000      0.0000   -166.7535     10.5792      0.2000
   589.5000      0.0000      0.0000   -158.0894     10.5722      0.2000
   589.0000      0.0000      0.0000   -134.1225     10.5636      0.2000
   588.5000      0.0000      0.0000    -72.1188     10.5556      0.2000
   588.0000      0.0000      0.0000     39.4542     10.5485      0.2000
   587.5000      0.0000      0.0000    154.2958     10.5469      0.2000
   587.0000      0.0000      0.0000    218.0692     10.5470      0.2000
   586.5000      0.0000      0.0000    236.6839     10.5457      0.2000
   586.0000      0.0000      0.0000    241.9110     10.5504      0.2000
   585.5000      0.0000      0.0000    245.4512     10.5576      0.2000
   585.0000     93.1971      0.0000    245.5146     10.5568     10.7299
   584.5000     93.2465      0.0000    243.2884     10.5518     10.7243
   584.0000     93.4169      0.0000    240.7670     10.5513     10.7047
   583.5000     93.5653      0.0000    237.2481     10.5544     10.6877
   583.0000     93.5481      0.0000    231.8652     10.5607     10.6897
   582.5000     93.4636      0.0000    232.9547     10.5691     10.6994
   582.0000     93.4850      0.0000    240.9814     10.5697     10.6969
   581.5000     93.6275      0.0000    242.9343     10.5497     10.6806
   581.0000     93.7195      0.0000    237.3592     10.5210     10.6701
   580.5000     93.6705      0.0000    235.0396     10.5082     10.6757
   580.0000     93.6484      0.0000    236.5128     10.5474     10.6782
   579.5000     93.8620      0.0000    236.4073     10.6705     10.6539
   579.0000     94.2300      0.0000    239.5583     10.8337     10.6123
   578.5000     94.5809      0.0000    246.6656     10.9199     10.5730
   578.0000     94.8296      0.0000    246.8371     10.9012     10.5452
   577.5000     94.9165     93.6389    240.2061     10.9159     10.5356
   577.0000     94.7206     95.2441    234.7639     11.0635     10.5574
   576.5000     94.1198     95.5085    229.5817     11.2675     10.6248
   576.0000     93.2041     94.1841    224.7252     11.4140     10.7291
   575.5000     92.2740     91.0473    223.3268     11.5001     10.8373
   575.0000     91.4871     89.6912    224.5318     11.5716     10.9305
   574.5000     90.8449     92.2001    225.5188     11.6469     11.0078
   574.0000     90.2316     94.9504    225.4020     11.7306     11.0826
   573.5000     89.4581     94.1654    225.1409     11.8145     11.1784
   573.0000     88.4029     93.1130    226.5909     11.8983     11.3118
   572.5000     87.1268     93.9113    226.1834     12.0008     11.4775
   572.0000     85.9021     93.9919    223.6031     12.1356     11.6412
   571.5000     84.9790     92.8012    224.0508     12.2875     11.7676
   571.0000     84.3669     92.5945    221.8658     12.4451     11.8530
   570.5000     83.9463     93.3129    215.6322     12.6222     11.9124
   570.0000     83.7195     93.1781    214.9331     12.7870     11.9446
   569.5000     83.7563     92.0703    222.4874     12.8394     11.9394
   569.0000     84.0961     89.6400    229.9254     12.7258     11.8912
   568.5000     84.7421     87.8735    229.8965     12.5077     11.8005
   568.0000     85.6500     89.4712    221.9777     12.2701     11.6754
   567.5000     86.6467     92.3469    211.7767     12.0592     11.5411
   567.0000     87.4687     92.2734    207.8068     11.9020     11.4327
   566.5000     87.8769     89.7390    210.2981     11.8149     11.3796
   566.0000     87.9016     88.6298    213.4597     11.7808     11.3764
   565.5000     87.7696     89.6106    212.4999     11.7746     11.3935
   565.0000     87.6482     90.2503    206.7042     11.7951     11.4092
   564.5000     87.4531     90.9818    199.3275     11.8482     11.4347
   564.0000     87.0372     93.5597    194.0672     11.9223     11.4893
   563.5000     86.4484     95.1298    194.5814     12.0001     11.5676
   563.0000     85.8885     92.5585    199.6804     12.0610     11.6430
   562.5000     85.4552     88.6585    206.4746     12.1031     11.7020
   562.0000     84.9880     86.3642    212.5432     12.1512     11.7664
   561.5000     84.3778     85.4827    214.2289     12.2284     11.8515
   561.0000     83.5851     85.2649    209.9784     12.3328     11.9639
   560.5000     82.5572     86.5662    202.0134     12.4564     12.1128
   560.0000     81.3155     89.3104    197.4329     12.6011     12.2978
   559.5000     79.9343     91.9279    198.3918     12.7722     12.5103
   559.0000     78.5063     93.2676    199.4172     12.9793     12.7378
   558.5000     77.0075     94.4003    195.0054     13.2301     12.9857
   558.0000     75.3962     96.0955    189.1418     13.5239     13.2633
   557.5000     73.8195     97.2602    184.5487     13.8458     13.5466
   557.0000     72.4908     97.2681    181.2932     14.1877     13.7948
   556.5000     71.3095     95.7938    180.0524     14.5462     14.0234
   556.0000     70.1695     94.3403    185.0139     14.8674     14.2512
   555.5000     69.3206     93.3878    193.8848     15.0870     14.4257
