~Version Information
 VERS.                2.00:   CWLS log ASCII Standard -VERSION 2.00
 WRAP.                  NO:   One line per frame
~Well Information Block
#MNEM.UNIT              Data                Description
#--------- -------------------------------  -------------------------------
 STRT.F                          611.0000:   Starting Depth
 STOP.F                            3.2500:   Ending Depth
 STEP.F                           -0.5000:   Level Spacing
 NULL.                          -999.2500:   Absent Value
 COMP.     FLUOR DANIEL (NPOSR), INC.    :   Company
 WELL.     82-2 X 3                      :   Well
 FLD .                                   :   Field
 LOC .                                   :   Location
 PROV.                                   :   Province
 SRVC.                                   :   Service Company
 LIC .                                   :   License Number
 DATE.                                   :   Log Date
 UWI .                                   :   Unique Well ID
~Curve Information Block
#MNEM.UNIT       API Codes    Curve Description
#---------    -------------   -------------------------------
 DEPT.F        0   1  0  1:   Depth
 CILD.MMHO     0 110 46  1:   Conductivity of Deep Induction
 GR  .API      0 310  1  1:   Gamma ray counts
 TEN .LBF      0 635 99  1:   Differential Tension
 RILM.OHMM     0 120 44  1:   Resistivity from CILM
 RILD.OHMM     0 120 46  1:   Resistivity from CILD
#  Curve Data
~A   DEPT        CILD        GR          TEN         RILM        RILD
# ...
   163.0000    114.6978    136.3949    -21.0843      8.9121      8.7186
   162.5000    115.5194    139.5987    -14.3228      8.8338      8.6566
   162.0000    115.6758    137.5551    -14.6992      8.8136      8.6449
   161.5000    115.5346    131.5416    -18.5992      8.8257      8.6554
   161.0000    115.5074    127.6234    -20.7559      8.8342      8.6575
   160.5000    115.7274    128.2571    -22.2738      8.8272      8.6410
   160.0000    116.2437    129.9471    -23.0720      8.8179      8.6026
   159.5000    117.0483    128.6636    -22.6261      8.7902      8.5435
   159.0000    118.0817    125.4091    -19.9019      8.7159      8.4687
   158.5000    119.1876    124.2275    -15.6413      8.6059      8.3901
   158.0000    120.5137    125.3881    -12.7322      8.4776      8.2978
   157.5000    122.2577    128.8341    -12.0515      8.3444      8.1794
   157.0000    124.1266    132.6622    -13.8269      8.2167      8.0563
   156.5000    125.6556    133.7038    -17.4548      8.1153      7.9583
   156.0000    126.6778    130.9774    -20.3093      8.0625      7.8940
   155.5000    127.2133    127.8108    -21.7465      8.0487      7.8608
   155.0000    127.6057    126.5292    -24.7852      8.0251      7.8366
   154.5000    128.3220    126.8840    -27.1115      7.9620      7.7929
   154.0000    129.3637    125.3933    -25.5968      7.8860      7.7301
   153.5000    130.3619    123.2783    -23.0809      7.8427      7.6710
   153.0000    130.9391    123.2485    -24.0319      7.8396      7.6371
   152.5000    130.9858    124.9697    -28.5831      7.8294      7.6344
   152.0000    130.8791    125.9893    -30.0230      7.7857      7.6406
   151.5000    131.1112    125.4208    -28.7844      7.7397      7.6271
   151.0000    131.7709    125.5785    -25.7731      7.7202      7.5889
   150.5000    132.5005    127.7635    -22.4581      7.7168      7.5471
   150.0000    132.8517    130.5468    -23.7839      7.7168      7.5272
   149.5000    132.8819    131.8892    -27.0434      7.7114      7.5255
   149.0000    133.0988    130.9021    -25.8637      7.6896      7.5132
   148.5000    133.6665    127.2794    -22.8945      7.6583      7.4813
   148.0000    134.2935    125.8349    -22.4666      7.6290      7.4464
   147.5000    134.7040    128.3255    -22.7359      7.6025      7.4237
   147.0000    134.8242    130.4644    -21.9801      7.5874      7.4171
   146.5000    134.7326    130.0257    -20.2227      7.5918      7.4221
   146.0000    134.5276    127.9676    -18.0722      7.6071      7.4334
   145.5000    134.0283    125.6544    -16.6268      7.6294      7.4611
   145.0000    133.0258    124.8105    -15.2076      7.6679      7.5173
   144.5000    131.7179    125.2914    -16.0619      7.7215      7.5920
   144.0000    130.3102    124.6273    -20.5058      7.7749      7.6740
   143.5000    128.8051    124.8201    -25.9131      7.8336      7.7637
   143.0000    127.2890    127.1528    -27.3103      7.9239      7.8561
   142.5000    125.8244    127.4623    -26.8132      8.0557      7.9476
   142.0000    124.3728    126.1766    -25.8939      8.2069      8.0403
   141.5000    123.0645    127.5262    -24.0599      8.3474      8.1258
   141.0000    122.1546    130.1785    -18.2073      8.4430      8.1863
   140.5000    121.8610    130.1388    -11.3698      8.4720      8.2061
   140.0000    122.1804    127.1477    -10.7628      8.4444      8.1846
   139.5000    122.9492    122.9426    -15.3842      8.3934      8.1334
   139.0000    123.7944    120.2931    -17.7919      8.3451      8.0779
   138.5000    124.3386    120.4394    -19.1589      8.2944      8.0426
   138.0000    124.5301    122.2952    -25.1183      8.2367      8.0302
   137.5000    124.8022    123.2956    -30.2005      8.1769      8.0127
   137.0000    125.5148    122.8139    -28.6114      8.1129      7.9672
   136.5000    126.6585    122.7647    -25.2101      8.0545      7.8952
   136.0000    128.0251    124.9721    -25.5102      8.0291      7.8110
   135.5000    129.4794    126.6267    -27.1599      8.0283      7.7232
   135.0000    131.0446    124.8701    -25.9604      7.9899      7.6310
   134.5000    132.9594    120.7422    -24.1859      7.8741      7.5211
   134.0000    135.3604    118.7650    -26.1916      7.7074      7.3877
   133.5000    138.0043    120.9372    -29.1934      7.5454      7.2461
   133.0000    140.3691    124.0467    -30.1874      7.4086      7.1241
   132.5000    141.9224    124.0171    -32.4270      7.2890      7.0461
   132.0000    142.4908    122.8012    -37.2271      7.1893      7.0180
   131.5000    142.4046    123.4437    -40.0038      7.1330      7.0222
   131.0000    141.7782    123.5230    -40.1780      7.1348      7.0533
   130.5000    140.1237    121.3853    -37.9234      7.1965      7.1365
   130.0000    137.1317    119.5992    -32.9760      7.3134      7.2923
   129.5000    133.4619    119.2711    -25.4666      7.4737      7.4928
   129.0000    130.1080    118.5536    -21.0923      7.6602      7.6859
   128.5000    127.2218    117.6608    -23.0522      7.8647      7.8603
   128.0000    124.3631    118.0189    -26.6106      8.1070      8.0410
   127.5000    121.5006    119.3931    -24.9014      8.3981      8.2304
   127.0000    118.8229    120.7160    -20.7647      8.6760      8.4159
   126.5000    116.5048    122.0460    -19.6929      8.8550      8.5833
   126.0000    115.2932    123.2579    -18.7398      8.9092      8.6735
   125.5000    116.0984    123.3074    -14.3963      8.8852      8.6134
   125.0000    118.6966    121.8586    -11.7242      8.8205      8.4248
   124.5000    121.9229    120.8757    -14.1239      8.6996      8.2019
   124.0000    125.0516    122.0873    -19.9482      8.5395      7.9967
   123.5000    128.0022    123.8852    -24.0669      8.3770      7.8124
   123.0000    130.9029    123.5621    -24.4162      8.1641      7.6393
   122.5000    133.9958    123.5816    -23.5896      7.8528      7.4629
   122.0000    137.1523    125.9940    -26.5951      7.5326      7.2912
   121.5000    139.8455    128.8085    -31.7221      7.3156      7.1507
   121.0000    141.5329    131.8312    -35.6533      7.2275      7.0655
   120.5000    141.7770    134.4470    -33.1639      7.2351      7.0533
   120.0000    140.5523    133.7666    -22.6810      7.2975      7.1148
   119.5000    138.5497    130.9457    -11.9990      7.3851      7.2176
   119.0000    136.3187    127.6650    -10.3075      7.4878      7.3357
   118.5000    134.0621    123.5662    -17.4085      7.6046      7.4592
   118.0000    132.0214    120.5848    -23.1535      7.7290      7.5745
   117.5000    130.3340    119.9560    -23.5960      7.8516      7.6726
   117.0000    129.1273    120.1042    -23.6805      7.9612      7.7443
   116.5000    128.4291    121.5880    -26.4075      8.0386      7.7864
   116.0000    128.1090    123.8793    -27.4710      8.0628      7.8059
   115.5000    128.2521    124.4362    -29.0955      8.0265      7.7971
   115.0000    129.2570    125.0685    -34.2247      7.9334      7.7365
   114.5000    131.1304    127.4335    -36.2855      7.8011      7.6260
   114.0000    133.5282    127.5674    -29.3605      7.6653      7.4891
   113.5000    136.2333    123.2821    -18.6977      7.5465      7.3403
   113.0000    139.0161    119.2938    -13.5737      7.4396      7.1934
   112.5000    141.4627    119.4475    -15.6514      7.3347      7.0690
   112.0000    143.3501    123.0912    -21.0932      7.2209      6.9759
   111.5000    144.9889    126.2286    -24.8172      7.0875      6.8971
   111.0000    146.6388    127.9473    -25.9784      6.9500      6.8195
   110.5000    148.0869    128.9612    -25.7377      6.8451      6.7528
   110.0000    149.0291    128.2080    -24.5973      6.7919      6.7101
   109.5000    149.3180    126.2377    -23.1904      6.7867      6.6971
   109.0000    148.9730    125.5201    -24.3930      6.8223      6.7126
   108.5000    148.2752    125.5918    -26.2727      6.8866      6.7442
   108.0000    147.5533    125.9829    -20.4353      6.9525      6.7772
   107.5000    146.9399    126.4130    -10.8479      6.9910      6.8055
