~Version Information
 VERS.                2.00:   CWLS log ASCII Standard -VERSION 2.00
 WRAP.                  NO:   One line per frame
~Well Information Block
#MNEM.UNIT              Data                Description
#--------- -------------------------------  -------------------------------
 STRT.F                          611.0000:   Starting Depth
 STOP.F                            3.2500:   Ending Depth
 STEP.F                           -0.5000:   Level Spacing
 NULL.                          -999.2500:   Absent Value
 COMP.     FLUOR DANIEL (NPOSR), INC.    :   Company
 WELL.     82-2 X 3                      :   Well
 FLD .                                   :   Field
 LOC .                                   :   Location
 PROV.                                   :   Province
 SRVC.                                   :   Service Company
 LIC .                                   :   License Number
 DATE.                                   :   Log Date
 UWI .                                   :   Unique Well ID
~Curve Information Block
#MNEM.UNIT       API Codes    Curve Description
#---------    -------------   -------------------------------
 DEPT.F        0   1  0  1:   Depth
 CILD.MMHO     0 110 46  1:   Conductivity of Deep Induction
 GR  .API      0 310  1  1:   Gamma ray counts
 TEN .LBF      0 635 99  1:   Differential Tension
 RILM.OHMM     0 120 44  1:   Resistivity from CILM
 RILD.OHMM     0 120 46  1:   Resistivity from CILD
#  Curve Data
~A   DEPT        CILD        GR          TEN         RILM        RILD
# ...
   555.0000     68.9471     91.5537    197.0492     15.1923     14.5039
   554.5000     68.9992     90.0929    191.1142     15.1892     14.4929
   554.0000     69.3196     91.3085    182.4189     15.0964     14.4259
   553.5000     69.6212     92.9231    179.1122     14.9961     14.3634
   553.0000     69.6519     91.7212    179.2558     14.9279     14.3571
   552.5000     69.4646     89.7510    176.6072     14.8440     14.3958
   552.0000     69.1418     89.8403    171.1714     14.7259     14.4630
   551.5000     68.6557     90.9382    169.4592     14.6476     14.5654
   551.0000     68.1502     89.7474    172.0385     14.7148     14.6735
   550.5000     67.8439     88.4070    171.2968     14.9482     14.7397
   550.0000     67.6510     89.6597    170.0783     15.2341     14.7818
   549.5000     67.3998     89.8686    171.8842     15.4491     14.8368
   549.0000     67.0784     86.7448    175.9307     15.5586     14.9079
   548.5000     66.8369     84.7212    178.4183     15.5408     14.9618
   548.0000     66.8611     85.4989    178.4393     15.3993     14.9564
   547.5000     67.0549     87.0220    174.9897     15.2223     14.9131
   547.0000     67.0676     88.3086    169.5971     15.0979     14.9103
   546.5000     66.8085     89.6421    167.3781     15.0602     14.9681
   546.0000     66.4184     90.4913    168.7693     15.1081     15.0561
   545.5000     65.8831     88.9029    170.4517     15.2432     15.1784
   545.0000     65.0303     85.0201    166.3610     15.4788     15.3774
   544.5000     63.8215     81.5542    158.8306     15.8031     15.6687
   544.0000     62.6527     81.9713    152.3051     16.1370     15.9610
   543.5000     61.9652     84.2587    151.3819     16.3841     16.1381
   543.0000     61.6678     85.0254    154.9552     16.5242     16.2159
   542.5000     61.4753     83.6690    159.2280     16.6120     16.2667
   542.0000     61.3956     82.5749    160.3617     16.6752     16.2878
   541.5000     61.4924     83.3853    157.3077     16.6598     16.2622
   541.0000     61.7821     86.0276    152.3917     16.4910     16.1859
   540.5000     62.3364     89.1670    148.9086     16.1824     16.0420
   540.0000     63.0934     90.4516    146.7206     15.8431     15.8495
   539.5000     63.7648     89.0954    145.2614     15.5845     15.6826
   539.0000     64.1442     85.6750    143.2539     15.4485     15.5899
   538.5000     64.2346     83.6499    139.9205     15.4110     15.5679
   538.0000     64.0377     84.6362    138.8320     15.4499     15.6158
   537.5000     63.5355     85.6465    140.9783     15.5795     15.7392
   537.0000     62.8801     85.6947    140.7022     15.8075     15.9033
   536.5000     62.2452     85.9789    134.5193     16.0719     16.0655
   536.0000     61.6027     85.2380    126.0187     16.3032     16.2331
   535.5000     60.8952     84.2006    120.9014     16.5089     16.4217
   535.0000     59.9896     84.6205    119.9473     16.7507     16.6696
   534.5000     58.5667     85.6436    122.8561     17.0553     17.0745
   534.0000     56.4133     85.6611    129.8973     17.4065     17.7263
   533.5000     53.6529     83.4841    134.1197     17.8440     18.6383
   533.0000     50.4329     78.9729    131.8302     18.4969     19.8283
   532.5000     46.8530     75.0296    128.9781     19.5225     21.3433
   532.0000     43.1299     72.2912    126.5100     21.0694     23.1857
   531.5000     39.5036     69.6564    123.3636     23.2991     25.3141
   531.0000     36.1816     68.7328    123.6449     26.2877     27.6383
   530.5000     33.2716     69.1081    124.7773     29.7188     30.0557
   530.0000     31.3291     68.6904    122.3382     32.6591     31.9192
   529.5000     30.7946     68.1793    120.4637     34.0840     32.4733
   529.0000     31.7599     68.8464    119.6918     33.7105     31.4862
   528.5000     34.4208     71.5738    118.5294     31.6237     29.0522
   528.0000     38.9609     76.1217    118.4739     28.1216     25.6668
   527.5000     45.3332     80.7212    117.5677     24.1540     22.0589
   527.0000     52.5910     84.8373    112.2921     20.7307     19.0146
   526.5000     59.9669     90.4193    109.7798     18.1046     16.6759
   526.0000     67.0563     96.1810    112.4828     15.9824     14.9128
   525.5000     73.7667     98.9404    114.0938     14.1550     13.5562
   525.0000     80.1476     99.7219    113.3804     12.6958     12.4770
   524.5000     85.8555     99.8229    112.4151     11.6927     11.6475
   524.0000     90.2690     99.8386    111.0572     11.0895     11.0780
   523.5000     93.1337    101.9951    116.5145     10.7724     10.7373
   523.0000     94.7677    105.7934    125.6151     10.6418     10.5521
   522.5000     95.5007    106.3644    123.7873     10.6144     10.4711
   522.0000     95.5409    104.2481    112.0054     10.6268     10.4667
   521.5000     95.1387    102.5900    104.5668     10.6464     10.5110
   521.0000     94.6023    100.5710    102.9808     10.6673     10.5706
   520.5000     94.0952     98.8603    100.9120     10.6984     10.6275
   520.0000     93.5712    100.6236     98.3121     10.7463     10.6870
   519.5000     92.8503    104.1352     96.5087     10.8095     10.7700
   519.0000     91.8188    105.4307     95.4455     10.8933     10.8910
   518.5000     90.6185    103.4765     94.8629     11.0041     11.0353
   518.0000     89.4680     99.8047     96.1424     11.1211     11.1772
   517.5000     88.4118     97.4329     95.6986     11.2218     11.3107
   517.0000     87.3538     96.6092     90.9220     11.3192     11.4477
   516.5000     86.3003     96.2077     87.8290     11.4502     11.5874
   516.0000     85.3364     96.2511     89.0588     11.6148     11.7183
   515.5000     84.5523     97.2505     90.1189     11.7604     11.8270
   515.0000     84.0424     97.2353     90.7103     11.8431     11.8988
   514.5000     83.9320     96.2448     97.3173     11.8736     11.9144
   514.0000     84.1301     96.3569    102.7374     11.8711     11.8864
   513.5000     84.3993     97.8332     96.8396     11.8405     11.8484
   513.0000     84.7412     98.4518     81.5686     11.7825     11.8006
   512.5000     85.2553     98.9694     73.3619     11.6973     11.7295
   512.0000     85.8135    101.5675     77.0467     11.5951     11.6532
   511.5000     86.3031    104.1790     81.7510     11.4953     11.5871
   511.0000     86.7690    103.4525     82.0523     11.4308     11.5249
   510.5000     87.0525    101.2384     83.3501     11.4106     11.4873
   510.0000     86.9594    100.6448     85.9154     11.4122     11.4996
   509.5000     86.5766    100.5787     83.0747     11.4520     11.5505
   509.0000     86.0322     97.8890     78.4924     11.5490     11.6236
   508.5000     85.3967     94.8254     76.4254     11.6535     11.7101
   508.0000     84.8234     95.6033     79.8645     11.7328     11.7892
   507.5000     84.3368     96.7134     87.9043     11.8399     11.8572
   507.0000     83.8619     94.2693     92.9551     11.9993     11.9244
   506.5000     83.3614     91.2927     89.7490     12.1500     11.9960
   506.0000     82.8188     91.0973     86.1036     12.2173     12.0746
   505.5000     82.2901     92.1603     82.7563     12.2096     12.1521
   505.0000     81.8309     93.0396     77.6243     12.1987     12.2203
   504.5000     81.3653     93.5555     75.9115     12.2112     12.2903
   504.0000     80.8953     94.2940     79.8563     12.2431     12.3617
   503.5000     80.3612     95.4192     82.0602     12.3211     12.4438
   503.0000     79.5555     95.5655     78.4225     12.4729     12.5698
   502.5000     78.5964     93.6094     72.7837     12.6586     12.7232
   502.0000     77.8948     91.7668     71.1025     12.7923     12.8378
   501.5000     77.6264     92.8413     72.3307     12.8276     12.8822
   501.0000     77.6598     96.6127     73.6115     12.8204     12.8767
   500.5000     77.8070     99.0417     75.6497     12.8533     12.8523
   500.0000     78.0338     97.9201     78.0769     12.9245     12.8150
   499.5000     78.3761     95.2795     78.6375     12.9589     12.7590
