~VERSION INFORMATION
 VERS.                2.0:   CWLS LOG ASCII STANDARD - VERSION 2.0
 WRAP.                 NO:   ONE LINE PER DEPTH STEP
~WELL INFORMATION
#MNEM.UNIT      DATA TYPE    INFORMATION
#----------   ------------   ------------------------------
 STRT.F           16.0000:   START DEPTH
 STOP.F         1254.0000:   STOP DEPTH
 STEP.F            0.5000:   STEP LENGTH
 NULL.          -999.2500:   NO VALUE
 COMP. FENIX & SCISSON INC:   COMPANY
 WELL. NAVAL PET RESERVE 3   75-S-14 #75-14:   WELL
 FLD .             TEAPOT:   FIELD
 LOC .      S14 T38N R78W:   LOCATION
 CNTY.            NATRONA:   COUNTY
 STAT.            WYOMING:   STATE
 CTRY. UNITED STATES OF AMERICA:   COUNTRY
 SRVC.              Welex:   SERVICE COMPANY
 DATE.        17-FEB-1977:   LOGDATE
 API .       490251027400:   API NUMBER
~CURVE INFORMATION
#MNEM.UNIT       API CODE    CURVE DESCRIPTION
#----------   ------------   ------------------------------
 DEPT.F                  :   
 SGRD.OHMM   07 220 05 00:   SHALLOW RESISTIVITY
 ILM .OHMM   07 120 44 00:   INDUCTION LOG MEDIUM
 SPR .MV     07 010 01 00:   SPONTANEOUS POTENTIAL
 ILD .OHMM   07 120 46 00:   INDUCTION LOG DEEP
 CALD.IN     45 280 60 00:   CALIPER
 GRD .GAPI   45 310 01 00:   GAMMA RAY FROM DENSITY LOG
 DPHI.DEC    45 890 12 00:   DENSITY POROSITY SANDSTONE
 RHOB.G/C3   45 350 01 00:   BULK DENSITY
 CORR.G/C3   45 356 01 00:   DENSITY CORRECTION
~PARAMETER INFORMATION
#MNEM.UNIT          VALUE    DESCRIPTION
#----------   ------------   ------------------------------
 PD  .                 GL:   PERMANENT DATUM
 EPD .F              5336:   ELEVATION PERMANENT DATUM
 LMF .                 GL:   LOG MEASURED FROM
 DMF .                 GL:   DRILLING MEASURED FROM
 EKB .F              5341:   KELLING BUSHING
 EGL .F              5336:   GROUND LEVEL
 DATE.          2-17-1977:   RUN DATE
 RUN .                  1:   RUN NUMBER
 DD  .F              1260:   DEPTH DRILLER
 DL  .F              1258:   DEPTH LOGGER
 BLI .F              1256:   BOTTOM LOG INTERVAL
 TLI .F                30:   TOP LOG INTERVAL
 CS  .IN            8.625:   CASING SIZE
 CBD .F                42:   CASING BOTTOM DRILLER
 CBL .F                42:   CASING BOTTOM LOGGER
 BS  .IN            7.875:   BIT SIZE
 BSD .F              1260:   BIT SIZE AT DEPTH
 DFT .          KCL WATER:   DRILLING FLUID TYPE
 DFD .                9.5:   DRILLING FLUID DENSITY
 DFV .                 34:   DRILLING FLUID VISCOSITY
 MSS .          FLOW LINE:   MUD SAMPLE SOURCE
 RMS .OHMM            .30:   RESISTIVITY MUD SAMPLE
 MST .F                43:   MUD SAMPLE TEMPERATURE
 RMF .OHMM            .28:   RESISTIVITY MUD FILTRATE SAMPLE
 MFST.F                43:   MUD FILTRATE SAMPLE TEMPERATURE
 RMC .OHMM            .40:   RESISTIVITY MUD CAKE
 MCST.F                43:   MUD CAKE SAMPLE TEMPERATURE
 MFSS.           MEASURED:   MUD FILTRATE SAMPLE SOURCE
 MCSS.           MEASURED:   MUD CAKE SAMPLE SOURCE
 RMB .OHMM            .13:   RESISTIVITY MUD AT BHT
 BHT .F               101:   BOTTOM HOLE TEMPERATURE
 TCS .HRS               5:   TIME CURCULATED STOPPED
 MRT .F               101:   MAXIMUM RECORDED TEMPERATURE
 LUN .               8611:   LOGGING UNIT NUMBER
 LUL .           GILLETTE:   LOGGING UNIT LOCATION
 ENGI.             LAWSON:   RECORDING ENGINEER
 WITN.         STUEBINGER:   WITNESSED BY
 CLNT.            A2DTECH:   CLIENT CODE
 ORIG.       2", 5" PRINT:   ORIGIN OF DATA
 UWI .       490251027400:   UNIQUE WELL ID
 DICO. A2D Technologies, Inc.:   DIGITIZING COMPANY
~OTHER INFORMATION
~A   DEPT     SGRD        ILM        SPR        ILD       CALD         GRD      DPHI       RHOB       CORR   
# ...
  600.0000     5.8235     4.4083   -48.8145     3.3818     8.1215   109.3380     0.1347     2.4305     0.0773
  600.5000     5.4302     4.2215   -48.9881     3.2547     8.1215   109.2451     0.1393     2.4162     0.0793
  601.0000     5.1218     4.0712   -49.1624     3.1068     8.1215   109.4693     0.1444     2.4019     0.0795
  601.5000     5.1580     3.9188   -49.3364     2.9213     8.1215   110.4690     0.1518     2.3876     0.0786
  602.0000     5.1715     3.7287   -49.3076     2.7469     8.1215   112.4193     0.1591     2.3733     0.0738
  602.5000     4.6323     3.5478   -48.8339     2.5937     8.1215   114.3696     0.1623     2.3663     0.0678
  603.0000     4.2019     3.3727   -48.3707     2.5699     8.1215   115.7033     0.1602     2.3674     0.0666
  603.5000     3.8115     3.2600   -47.9075     2.6189     8.1215   116.5304     0.1579     2.3890     0.0652
  604.0000     3.5139     3.5014   -47.4455     2.6909     8.1179   115.3819     0.1474     2.4097     0.0641
  604.5000     5.5152     3.7582   -46.9792     2.8511     8.1097   111.7164     0.1333     2.4384     0.0642
  605.0000     6.7159     4.0312   -46.8092     3.0353     8.1015   109.4631     0.1193     2.4665     0.0730
  605.5000     7.2023     4.3023   -46.7629     3.2312     8.0933   110.1614     0.1143     2.4754     0.0774
  606.0000     7.2023     4.3984   -46.6997     3.4397     8.0852   110.1459     0.1166     2.4769     0.0791
  606.5000     6.8501     4.5427   -46.6348     3.6617     8.0770   107.4743     0.1189     2.4694     0.0802
  607.0000     6.5892     4.6917   -46.6022     3.8984     8.0688   107.4149     0.1211     2.4621     0.0802
  607.5000     6.3867     4.8457   -46.8084     4.1468     8.0606   108.1624     0.1234     2.4548     0.0796
  608.0000     6.3318     5.0046   -47.0662     4.1919     8.0525   108.9310     0.1257     2.4475     0.0761
  608.5000     6.7592     5.2193   -47.3248     4.2238     8.0441   109.6919     0.1279     2.4402     0.0754
  609.0000     7.0062     5.0695   -47.5828     4.0193     8.0507   110.4515     0.1312     2.4329     0.0780
  609.5000     6.8257     4.8596   -47.8408     3.7902     8.0630   111.2112     0.1390     2.4253     0.0766
  610.0000     6.6336     4.6584   -48.0988     3.5741     8.0755   111.9690     0.1467     2.4109     0.0748
  610.5000     6.4494     4.4636   -48.3570     3.3703     8.0881   112.7289     0.1545     2.3961     0.0730
  611.0000     6.0862     4.0711   -48.6152     3.1782     8.1011   113.4838     0.1623     2.3812     0.0713
  611.5000     5.7752     3.7176   -48.8745     2.9970     8.1085   115.5924     0.1700     2.3664     0.0693
  612.0000     4.6687     3.3949   -48.9994     2.8260     8.1159   118.8717     0.1778     2.3515     0.0669
  612.5000     3.8336     3.1002   -48.6769     2.6644     8.1233   122.1522     0.1851     2.3367     0.0647
  613.0000     3.1479     3.0328   -48.3200     2.5140     8.1307   123.0846     0.1897     2.3260     0.0552
  613.5000     2.5699     3.2456   -47.9634     2.4319     8.1382   123.5050     0.1892     2.3424     0.0512
  614.0000     4.3571     3.4547   -47.6084     2.4636     8.1456   118.6263     0.1635     2.3879     0.0483
  614.5000     6.0743     3.6772   -47.2526     2.5984     8.1531   112.3451     0.1442     2.4099     0.0519
  615.0000     6.2164     3.8303   -46.8460     2.7404     8.1605   109.3023     0.1383     2.4181     0.0546
  615.5000     5.2676     3.9522   -46.6507     2.8902     8.1613   111.9213     0.1350     2.4260     0.0556
  616.0000     5.3974     4.0779   -46.5915     3.0483     8.1567   113.8379     0.1317     2.4339     0.0566
  616.5000     5.6197     4.2077   -46.5385     3.2149     8.1516   115.7821     0.1283     2.4419     0.0576
  617.0000     5.8509     4.3416   -46.4808     3.3907     8.1465   117.9686     0.1250     2.4499     0.0604
  617.5000     6.0922     4.4798   -46.4187     3.5761     8.1414   121.2401     0.1237     2.4571     0.0645
  618.0000     6.3433     4.6223   -46.4545     3.8525     8.1363   124.4415     0.1273     2.4458     0.0659
  618.5000     6.6043     4.7694   -46.7673     3.9241     8.1312   125.4472     0.1309     2.4318     0.0643
  619.0000     6.8785     4.8489   -47.0775     3.9241     8.1260   122.7297     0.1343     2.4179     0.0619
  619.5000     6.8785     4.8229   -47.3811     3.9241     8.1220   120.4949     0.1436     2.4039     0.0585
  620.0000     6.6195     4.7053   -47.6860     3.8881     8.1595   119.9831     0.1525     2.3899     0.0515
  620.5000     6.4420     4.5907   -47.9909     3.7830     8.1509   120.8406     0.1548     2.3913     0.0513
  621.0000     6.2692     4.4789   -48.2958     3.6649     8.1319   121.7487     0.1550     2.3929     0.0528
  621.5000     6.1030     4.3697   -48.6010     3.5505     8.1129   122.4683     0.1567     2.3854     0.0544
  622.0000     5.2903     4.2629   -48.9074     3.4397     8.0939   120.9637     0.1597     2.3781     0.0560
  622.5000     5.1241     4.2131   -49.1954     3.3323     8.0749   119.2989     0.1627     2.3708     0.0561
  623.0000     5.6171     4.1506   -49.2032     3.2283     8.0559   118.6200     0.1657     2.3635     0.0561
  623.5000     5.9282     4.0242   -49.2020     3.1275     8.0398   119.1918     0.1687     2.3562     0.0561
  624.0000     4.9682     3.7301   -49.2464     3.0299     8.0979   119.9056     0.1717     2.3543     0.0561
  624.5000     4.2099     3.4628   -49.2965     2.9353     8.1570   120.3354     0.1747     2.3599     0.0561
  625.0000     3.5755     3.3559   -49.3465     2.8437     8.1618   118.6415     0.1708     2.3661     0.0573
  625.5000     3.3559     3.6144   -49.3964     2.7549     8.1618   115.5226     0.1665     2.3724     0.0606
  626.0000     4.5761     3.6793   -49.4463     2.6689     8.1496   112.0555     0.1643     2.3649     0.0638
  626.5000     5.3162     3.4987   -49.4963     2.5856     8.1357   113.4812     0.1747     2.3512     0.0628
  627.0000     5.0749     3.3617   -49.5462     2.5049     8.1217   115.7965     0.1828     2.3372     0.0613
  627.5000     4.8938     3.2300   -49.5961     2.4267     8.1078   118.0992     0.1908     2.3233     0.0602
  628.0000     4.3266     3.1035   -49.6461     2.3657     8.0938   121.3133     0.1961     2.3151     0.0608
  628.5000     3.8112     3.0328   -49.6961     2.2966     8.0825   123.2020     0.1935     2.3221     0.0613
  629.0000     3.6456     3.0233   -49.7472     2.2218     8.0935   121.6477     0.1929     2.3306     0.0618
  629.5000     3.8022     2.9836   -49.7969     2.1495     8.1043   120.1629     0.1940     2.3339     0.0606
  630.0000     3.8881     2.7778   -49.6258     2.0792     8.1150   118.6671     0.2004     2.3121     0.0565
  630.5000     3.3315     2.5864   -49.4314     2.0046     8.1257   117.1733     0.2036     2.3042     0.0524
  631.0000     2.9657     2.4771   -49.2375     2.0046     8.1363   115.6824     0.1944     2.3243     0.0483
  631.5000     2.5937     2.5958   -49.0440     2.0322     8.1470   113.3538     0.1823     2.3467     0.0443
  632.0000     3.3726     2.8341   -48.8506     2.1545     8.1578   110.4480     0.1702     2.3690     0.0402
  632.5000     5.6202     3.0958   -48.6571     2.2838     8.1614   109.2861     0.1611     2.3772     0.0386
  633.0000     6.3450     3.3790   -48.4634     2.4212     8.1618   111.8324     0.1595     2.3831     0.0396
  633.5000     6.0165     3.5854   -48.2702     2.5667     8.1412   113.8496     0.1566     2.3889     0.0430
  634.0000     5.6210     3.7119   -48.0746     2.7211     8.1142   116.1417     0.1517     2.3948     0.0482
  634.5000     5.2676     3.8450   -48.0448     2.8846     8.0871   119.6327     0.1469     2.4007     0.0534
  635.0000     5.3643     3.9819   -48.1061     3.0581     8.0602   123.2040     0.1423     2.4065     0.0595
  635.5000     5.4650     4.1105   -48.1697     3.2971     8.0327   124.6780     0.1424     2.4061     0.0635
  636.0000     5.4650     4.1103   -48.2330     3.2936     8.0231   125.9520     0.1503     2.3935     0.0627
