~VERSION INFORMATION
 VERS.                2.0:   CWLS LOG ASCII STANDARD - VERSION 2.0
 WRAP.                 NO:   ONE LINE PER DEPTH STEP
~WELL INFORMATION
#MNEM.UNIT      DATA TYPE    INFORMATION
#----------   ------------   ------------------------------
 STRT.F            0.0000:   START DEPTH
 STOP.F         3315.0000:   STOP DEPTH
 STEP.F            0.5000:   STEP LENGTH
 NULL.          -999.2500:   NO VALUE
 COMP. LAWRENCE/ALLISON INC     84-AX-:   COMPANY
 WELL.          SHX3 #1-3:   WELL
 FLD .            WILDCAT:   FIELD
 LOC .       S3 T38N R78W:   LOCATION
 CNTY.            NATRONA:   COUNTY
 STAT.            WYOMING:   STATE
 CTRY. UNITED STATES OF AMERICA:   COUNTRY
 SRVC.      Dresser Atlas:   SERVICE COMPANY
 DATE.        20-JAN-1986:   LOGDATE
 API .       490251104200:   API NUMBER
~CURVE INFORMATION
#MNEM.UNIT       API CODE    CURVE DESCRIPTION
#----------   ------------   ------------------------------
 DEPT.F                  :   
 SPR .MV     07 010 01 00:   SPONTANEOUS POTENTIAL
 RILD.OHMM   07 120 46 00:   INDUCTION LOG DEEP RESISTIVITY
 RILM.OHMM   07 120 44 00:   INDUCTION LOG MEDIUM RESISTIVITY
 RFOC.OHMM   07 220 04 00:   RESISTIVITY FOCUSED LOG
 AC  .US/F   60 520 00 00:   ACCOUSTIC
 CALD.IN     45 280 60 00:   CALIPER FROM DENSITY
 CORR.G/C3   45 356 01 00:   DENSITY CORRECTION
 DEN .G/C3   45 350 01 00:   COMPENSATED BULK DENSTIY
 PORD.DEC    45 890 12 00:   POROSITY DENSITY SANDSTONE
 CNC .DEC    42 890 03 00:   NEUTRON POROSITY SANDSTONE
 GRR .GAPI   07 310 01 00:   GAMMA RAY
~PARAMETER INFORMATION
#MNEM.UNIT          VALUE    DESCRIPTION
#----------   ------------   ------------------------------
 PD  .                 GL:   PERMANENT DATUM
 EPD .F              5136:   ELEVATION PERMANENT DATUM
 LMF .                 KB:   LOG MEASURED FROM
 DAPD.F                11:   FEET ABOVE PERMANENT DATUM
 DMF .                 KB:   DRILLING MEASURED FROM
 EKB .F              5147:   KELLING BUSHING
 EGL .F              5136:   GROUND LEVEL
 DATE.        26-JAN-1986:   RUN DATE
 RUN .                  1:   RUN NUMBER
 DD  .F              3320:   DEPTH DRILLER
 DL  .F              3317:   DEPTH LOGGER
 BLI .F              3315:   BOTTOM LOG INTERVAL
 CS  .IN            8.625:   CASING SIZE
 CBD .F               550:   CASING BOTTOM DRILLER
 CBL .F               592:   CASING BOTTOM LOGGER
 BS  .IN            7.875:   BIT SIZE
 BSD .F              3320:   BIT SIZE AT DEPTH
 DFT .        POLYMER KCL:   DRILLING FLUID TYPE
 DFD .                9.1:   DRILLING FLUID DENSITY
 DFV .                 38:   DRILLING FLUID VISCOSITY
 DFPH.                 10:   DRILLING FLUID PH
 DFL .                8.5:   DRILLING FLUID LOSS
 MSS .           FLOWLINE:   MUD SAMPLE SOURCE
 RMS .OHMM           .435:   RESISTIVITY MUD SAMPLE
 MST .F                72:   MUD SAMPLE TEMPERATURE
 RMF .OHMM           .352:   RESISTIVITY MUD FILTRATE SAMPLE
 MFST.F                72:   MUD FILTRATE SAMPLE TEMPERATURE
 RMC .OHMM            .54:   RESISTIVITY MUD CAKE
 MCST.F                72:   MUD CAKE SAMPLE TEMPERATURE
 MFSS.               MEAS:   MUD FILTRATE SAMPLE SOURCE
 MCSS.               MEAS:   MUD CAKE SAMPLE SOURCE
 RMB .OHMM            .29:   RESISTIVITY MUD AT BHT
 BHT .F               108:   BOTTOM HOLE TEMPERATURE
 TCS .HRS               3:   TIME CURCULATED STOPPED
 MRT .F               108:   MAXIMUM RECORDED TEMPERATURE
 LUN .               6274:   LOGGING UNIT NUMBER
 LUL .               GLTE:   LOGGING UNIT LOCATION
 ENGI.             RAUTIO:   RECORDING ENGINEER
 WITN.             STRONG:   WITNESSED BY
 CLNT.            A2DTECH:   CLIENT CODE
 ORIG.       2", 5" PRINT:   ORIGIN OF DATA
 UWI .       490251104200:   UNIQUE WELL ID
 DICO. A2D Technologies, Inc.:   DIGITIZING COMPANY
~OTHER INFORMATION
~A    DEPT     SPR       RILD       RILM       RFOC         AC       CALD       CORR        DEN       PORD        CNC        GRR   
# ...
 3080.5000   -39.9395     6.0148     6.2177     6.8228    83.1500     8.2680    -0.0272     2.4367     0.1272     0.2170    36.7034
 3081.0000   -39.9294     5.9307     6.2597     6.8916    82.2537     8.2704    -0.0171     2.4480     0.1199     0.2198    39.5157
 3081.5000   -39.7882     5.8088     6.2151     6.7961    80.9659     8.2797     0.0163     2.4547     0.1166     0.2305    40.6399
 3082.0000   -39.6369     5.7241     6.0813     7.0354    78.8574     8.2890     0.0434     2.4494     0.1178     0.2385    39.7340
 3082.5000   -39.6369     5.6041     5.8648     8.0817    78.0502     8.2921     0.0674     2.4418     0.1259     0.2354    41.2484
 3083.0000   -39.4856     5.4181     5.6358     8.7218    77.8403     8.2902     0.0840     2.4433     0.1249     0.2254    44.2756
 3083.5000   -39.4856     5.2694     5.5186     8.3079    78.3741     8.2888     0.0418     2.4538     0.1176     0.2242    47.9080
 3084.0000   -39.3343     5.1605     5.4414     6.1651    79.8086     8.2873     0.0163     2.4620     0.1131     0.2224    50.6326
 3084.5000   -39.1831     5.0188     5.3653     5.0766    82.8972     8.2858     0.0193     2.4643     0.1120     0.2199    51.8440
 3085.0000   -39.0318     4.8811     5.2902     5.1830    83.6550     8.2843     0.0343     2.4650     0.1111     0.2169    50.3330
 3085.5000   -39.0318     4.7471     5.2162     5.7111    83.3602     8.2983     0.0433     2.4687     0.1093     0.2115    50.1829
 3086.0000   -39.0318     4.6813     5.1791     6.0365    82.0123     8.2964     0.0418     2.4732     0.1072     0.2103    50.3360
 3086.5000   -39.0318     4.6810     5.1422     6.0782    81.2663     8.2949     0.0448     2.4784     0.1039     0.2192    49.2785
 3087.0000   -39.1831     4.6483     5.1056     6.0357    81.2723     8.2934     0.0478     2.4837     0.1011     0.2227    48.3720
 3087.5000   -39.3343     4.5839     4.9993     5.8702    81.1278     8.2919     0.0462     2.4866     0.0993     0.2242    50.1893
 3088.0000   -39.7882     4.3662     4.8278     5.7091    80.2195     8.2904     0.0372     2.4873     0.0987     0.2268    52.3088
 3088.5000   -40.8472     4.1016     4.5032     6.0345    79.6281     8.2889     0.0281     2.4842     0.0999     0.2546    53.8231
 3089.0000   -41.6036     3.9340     4.2003     6.3342    79.4163     8.2874     0.0204     2.4796     0.1017     0.2636    54.2785
 3089.5000   -42.0575     3.8260     4.0003     6.0264    80.3260     8.2859     0.0144     2.4737     0.1044     0.2591    55.6416
 3090.0000   -42.2088     3.7469     3.9171     4.9937    82.6627     8.2844     0.0086     2.4714     0.1075     0.2434    58.8201
 3090.5000   -42.3601     3.6950     3.9163     4.5958    84.0973     8.2829     0.0055     2.4706     0.1081     0.2331    61.9986
 3091.0000   -42.5113     3.6692     3.9427     4.4410    84.7047     8.2814     0.0055     2.4736     0.1041     0.2283    63.0591
 3091.5000   -42.5113     3.6672     3.9970     4.3843    84.6354     8.2796     0.0070     2.4788     0.1008     0.2295    63.5144
 3092.0000   -42.5113     3.6942     4.0521     4.4145    83.2128     8.2781     0.0100     2.4825     0.1005     0.2298    61.7005
 3092.5000   -42.6626     3.7460     4.1083     4.6660    81.2638     8.2766     0.0130     2.4833     0.1005     0.2271    57.4660
 3093.0000   -42.6626     3.8258     4.1934     5.1059    80.5931     8.2906     0.0160     2.4817     0.1008     0.2241    54.4418
 3093.5000   -42.8139     3.9344     4.2542     5.4344    80.1479     8.2887     0.0160     2.4771     0.1017     0.2216    54.1324
 3094.0000   -42.8139     3.9903     4.3397     5.2125    79.8531     8.2872     0.0100     2.4741     0.1059     0.2195    54.8986
 3094.5000   -42.8139     4.0137     4.3388     5.0696    79.7072     8.2857     0.0054     2.4733     0.1065     0.2183    55.3546
 3095.0000   -42.8139     3.9856     4.3377     5.1046    79.6379     8.2842     0.0039     2.4740     0.1053     0.2222    55.3555
 3095.5000   -42.8139     3.9578     4.2474     5.2115    79.4947     8.2979     0.0114     2.4762     0.1041     0.2352    55.0544
 3096.0000   -42.8139     3.9030     4.1880     5.2840    79.3504     8.2964     0.0131     2.4755     0.1041     0.2433    55.0560
 3096.5000   -42.6626     3.8757     4.1009     5.2835    79.3564     8.2949     0.0084     2.4709     0.1077     0.2387    56.0215
 3097.0000   -42.6424     3.9025     4.0717     5.2104    79.3624     8.2934     0.0069     2.4671     0.1095     0.2238    58.0262
 3097.5000   -42.4863     3.9567     4.0992     5.0325    79.7595     8.2919     0.0130     2.4689     0.1089     0.2089    60.7135
 3098.0000   -42.2088     4.0397     4.1846     4.7605    80.9054     8.2904     0.0205     2.4930     0.0980     0.1938    61.5676
 3098.5000   -42.0575     4.1531     4.4226     4.3197    81.6492     8.2889     0.0201     2.5258     0.0798     0.1920    59.1485
 3099.0000   -41.9062     4.2697     4.7067     4.1147    81.0417     8.2874     0.0158     2.5611     0.0617     0.1920    55.3679
 3099.5000   -41.7549     4.4202     5.0091     4.3795    79.0176     8.2859     0.0203     2.5648     0.0497     0.1938    51.2847
 3100.0000   -41.4523     4.5156     5.2210     5.4674    77.1014     8.2844     0.0272     2.5300     0.0509     0.2143    49.2107
 3100.5000   -41.2152     4.5315     5.1479     7.2509    74.4352     8.2835     0.0383     2.5008     0.0715     0.2304    46.9019
 3101.0000   -40.9618     4.5748     4.9712     8.6975    73.5443     8.2826     0.0187     2.4755     0.0982     0.2361    48.5690
 3101.5000   -40.7084     4.5741     4.8007     8.1131    73.7185     8.2817     0.0111     2.4682     0.1092     0.2323    53.5644
 3102.0000   -40.5505     4.5385     4.6683     5.9781    76.0679     8.2808     0.0201     2.4712     0.1079     0.2237    56.7444
 3102.5000   -41.0062     4.3782     4.4769     5.1668    78.4774     8.2951     0.0276     2.4742     0.1062     0.2240    57.3526
 3103.0000   -41.4616     4.1442     4.2934     4.9552    80.1188     8.2940     0.0336     2.4681     0.1071     0.2246    55.9940
 3103.5000   -41.7656     3.9739     4.1461     4.9542    80.2624     8.2931     0.0350     2.4651     0.1108     0.2255    55.2405
 3104.0000   -41.9184     3.8427     4.0599     5.0226    80.2677     8.2922     0.0335     2.4666     0.1128     0.2284    55.8529
 3104.5000   -42.0712     3.7630     4.0031     5.0915    80.2729     8.2913     0.0289     2.4710     0.1102     0.2303    56.9275
 3105.0000   -42.2240     3.7106     3.9746     4.9511    80.6642     8.2904     0.0198     2.4725     0.1076     0.2287    57.6854
 3105.5000   -42.0742     3.6844     3.9462     4.7814    81.0574     8.2895     0.0046     2.4695     0.1076     0.2282    57.3271
 3106.0000   -42.0757     3.6839     3.9454     4.6496    81.5789     8.3038    -0.0073     2.4687     0.1106     0.2282    56.4658
 3106.5000   -42.0772     3.6834     3.9446     4.5529    81.8727     8.2877    -0.0042     2.4701     0.1100     0.2291    56.6208
 3107.0000   -41.9274     3.6829     3.9438     4.5488    81.3991     8.2868     0.0065     2.4739     0.1076     0.2321    56.0187
 3107.5000   -41.9289     3.6824     3.9707     4.6467    81.0561     8.2859     0.0201     2.4768     0.1049     0.2357    54.6601
 3108.0000   -41.6278     3.6819     3.9973     4.8096    80.9862     8.2850     0.0346     2.4791     0.1028     0.2399    53.9067
 3108.5000   -41.4780     3.6559     3.9965     4.9097    80.9927     8.2690     0.0391     2.4745     0.1043     0.2444    53.9097
 3109.0000   -41.4796     3.6554     3.9956     4.9773    80.9980     8.2530     0.0345     2.4722     0.1064     0.2481    55.1230
 3109.5000   -41.4814     3.6296     3.9672     5.0109    81.0032     8.2497     0.0390     2.4722     0.1067     0.2538    56.4875
 3110.0000   -41.6342     3.6040     3.9117     4.9752    81.4596     8.2207     0.0419     2.4736     0.1067     0.2550    57.5495
 3110.5000   -41.9382     3.5539     3.8569     4.7046    81.9912     8.2198     0.0449     2.4751     0.1064     0.2465    57.7030
