~VERSION INFORMATION
 VERS.                2.0:   CWLS LOG ASCII STANDARD - VERSION 2.0
 WRAP.                 NO:   ONE LINE PER DEPTH STEP
~WELL INFORMATION
#MNEM.UNIT      DATA TYPE    INFORMATION
#----------   ------------   ------------------------------
 STRT.F           17.0000:   START DEPTH
 STOP.F         1345.0000:   STOP DEPTH
 STEP.F            0.5000:   STEP LENGTH
 NULL.          -999.2500:   NO VALUE
 COMP. DEPARTMENT OF ENERGY:   COMPANY
 WELL. RES 3 TEAPOT DOME ##86S-11:   WELL
 FLD .             TEAPOT:   FIELD
 LOC .      S11 T38N R78W:   LOCATION
 CNTY.            NATRONA:   COUNTY
 STAT.            WYOMING:   STATE
 CTRY. UNITED STATES OF AMERICA:   COUNTRY
 SRVC.       Schlumberger:   SERVICE COMPANY
 DATE.        13-AUG-1959:   LOGDATE
 API .       490250633200:   API NUMBER
~CURVE INFORMATION
#MNEM.UNIT       API CODE    CURVE DESCRIPTION
#----------   ------------   ------------------------------
 DEPT.F                  :   
 SPR .MV     05 010 01 00:   SPONTANEOUS POTENTIAL FROM RES.
 CILD.MMHO   05 110 46 00:   CONDUCTIVITY INDUCTION LOG DEEP
 ILD .OHMM   05 120 46 00:   INDUCTION LOG DEEP
 ASN .OHMM   05 041 16 00:   AMPLIFIED SHORT NORMAL 16"
~PARAMETER INFORMATION
#MNEM.UNIT          VALUE    DESCRIPTION
#----------   ------------   ------------------------------
 PD  .                 GL:   PERMANENT DATUM
 EPD .F              5295:   ELEVATION PERMANENT DATUM
 LMF .                 KB:   LOG MEASURED FROM
 DAPD.F                 4:   FEET ABOVE PERMANENT DATUM
 DMF .                 KB:   DRILLING MEASURED FROM
 EKB .F              5299:   KELLING BUSHING
 EGL .F              5295:   GROUND LEVEL
 DATE.            8-13-59:   RUN DATE
 RUN .                  1:   RUN NUMBER
 DD  .F              1350:   DEPTH DRILLER
 DL  .F              1350:   DEPTH LOGGER
 BLI .F              1345:   BOTTOM LOG INTERVAL
 TLI .F                17:   TOP LOG INTERVAL
 CBD .F                17:   CASING BOTTOM DRILLER
 CBL .F                17:   CASING BOTTOM LOGGER
 BS  .IN             6.75:   BIT SIZE
 BSD .F              1350:   BIT SIZE AT DEPTH
 DFT .                GEL:   DRILLING FLUID TYPE
 DFD .                9.8:   DRILLING FLUID DENSITY
 DFV .                 65:   DRILLING FLUID VISCOSITY
 DFPH.                9.5:   DRILLING FLUID PH
 DFL .                5.4:   DRILLING FLUID LOSS
 RMS .OHMM           2.84:   RESISTIVITY MUD SAMPLE
 MST .F                69:   MUD SAMPLE TEMPERATURE
 RMF .OHMM            2.5:   RESISTIVITY MUD FILTRATE SAMPLE
 MFST.F                69:   MUD FILTRATE SAMPLE TEMPERATURE
 RMC .OHMM           2.46:   RESISTIVITY MUD CAKE
 MCST.F                69:   MUD CAKE SAMPLE TEMPERATURE
 MFSS.                  M:   MUD FILTRATE SAMPLE SOURCE
 MCSS.                  M:   MUD CAKE SAMPLE SOURCE
 TCS .HRS               1:   TIME CURCULATED STOPPED
 LUN .               2523:   LOGGING UNIT NUMBER
 LUL .               CSPR:   LOGGING UNIT LOCATION
 ENGI.             KNOBEL:   RECORDING ENGINEER
 WITN.             MARTIN:   WITNESSED BY
 CLNT.            A2DTECH:   CLIENT CODE
 ORIG.         2"5" PRINT:   ORIGIN OF DATA
 UWI .       490250633200:   UNIQUE WELL ID
 DICO. A2D Technologies, Inc.:   DIGITIZING COMPANY
~OTHER INFORMATION
~A   DEPT      SPR        CILD         ILD      ASN   
# ...
 1112.0000   -23.4829   149.3181     7.1591     8.2171
 1112.5000   -23.6074   148.6828     7.1901     8.2431
 1113.0000   -23.6917   148.0318     7.2208     8.2744
 1113.5000   -23.5958   147.3758     7.2572     8.3041
 1114.0000   -23.5159   146.7209     7.2755     8.3329
 1114.5000   -23.5464   146.4218     7.2400     8.3627
 1115.0000   -23.3882   147.0897     7.2082     8.3310
 1115.5000   -23.3870   147.7573     7.1735     8.2575
 1116.0000   -23.5173   148.4233     7.1420     8.1875
 1116.5000   -23.6225   149.0880     7.1062     8.1609
 1117.0000   -23.6990   149.8811     7.1003     8.1948
 1117.5000   -23.5445   150.0711     7.1464     8.2330
 1118.0000   -23.3273   150.3010     7.1869     8.2687
 1118.5000   -23.1779   150.5309     7.2274     8.2664
 1119.0000   -23.1709   150.7609     7.2733     8.2497
 1119.5000   -23.1718   150.9908     7.2677     8.2344
 1120.0000   -23.1710   151.2207     7.1447     8.1514
 1120.5000   -23.1729   151.4506     7.0057     8.0404
 1121.0000   -23.1582   151.6889     6.8733     7.9672
 1121.5000   -22.9961   157.9734     6.7314     7.8241
 1122.0000   -22.8099   164.4947     6.6060     7.5550
 1122.5000   -22.6253   167.3674     6.4468     7.2493
 1123.0000   -22.4444   168.9978     6.3749     6.9570
 1123.5000   -22.2519   172.6733     6.2730     6.8312
 1124.0000   -22.1271   178.1756     6.0802     6.6611
 1124.5000   -22.3483   183.6779     5.9282     6.5749
 1125.0000   -22.5031   189.1802     5.7561     6.8890
 1125.5000   -22.6077   194.1722     5.5973     7.0253
 1126.0000   -22.7388   195.0761     5.4302     6.9279
 1126.5000   -22.8498   201.0613     5.3665     6.4949
 1127.0000   -22.9907   206.5793     5.2801     5.9745
 1127.5000   -22.8895   209.9302     5.1557     5.5550
 1128.0000   -22.6279   211.3463     5.0441     5.6448
 1128.5000   -22.3852   216.7697     4.9234     5.7607
 1129.0000   -22.1369   229.4786     4.8106     5.7126
 1129.5000   -22.2155   238.4634     4.7203     5.8876
 1130.0000   -22.4139   236.6556     4.9403     6.3950
 1130.5000   -22.3127   220.1413     5.3487     6.8851
 1131.0000   -22.1109   199.9662     5.7720     7.1906
 1131.5000   -21.9756   179.7912     6.3232     7.3979
 1132.0000   -21.8147   165.3739     6.7065     7.4310
 1132.5000   -21.6668   158.0162     6.6391     7.4270
 1133.0000   -21.5131   158.0162     6.5496     7.4051
 1133.5000   -21.3589   167.5423     6.4688     7.3847
 1134.0000   -21.2204   175.6608     6.1944     7.0998
 1134.5000   -21.2748   183.7793     5.8523     6.7063
 1135.0000   -21.3599   191.8978     5.4879     6.3300
 1135.5000   -21.4394   200.0163     5.2027     5.9985
 1136.0000   -21.5194   208.0430     5.1467     5.8926
 1136.5000   -21.6028   216.0919     5.0480     5.8201
 1137.0000   -21.6799   224.1128     4.9588     5.9963
 1137.5000   -21.8443   225.5472     5.0650     6.5276
 1138.0000   -22.1701   220.1400     5.2208     7.0384
 1138.5000   -22.4943   202.1561     5.6970     7.4554
 1139.0000   -22.8328   185.7335     6.2945     7.7371
 1139.5000   -23.1473   169.3013     6.8227     8.0391
 1140.0000   -23.5157   152.8270     7.2003     8.3537
 1140.5000   -23.3318   143.0440     7.5646     8.5769
 1141.0000   -22.9422   139.4724     7.8091     8.6918
 1141.5000   -22.6369   137.3626     7.7681     8.8272
 1142.0000   -22.3018   135.2528     7.7333     8.9632
 1142.5000   -22.0055   133.6109     7.7415     9.0100
 1143.0000   -21.6908   133.0631     7.7767     9.0287
 1143.5000   -21.3816   132.7070     7.8074     9.0570
 1144.0000   -21.0380   132.7070     7.8405     9.0790
 1144.5000   -21.1410   132.7070     7.8724     9.1076
 1145.0000   -21.4093   132.9453     7.9050     9.1326
 1145.5000   -21.6291   133.3528     7.9375     9.1447
 1146.0000   -21.8825   133.6109     7.9705     9.0845
 1146.5000   -22.0982   133.0609     8.0028     8.9771
 1147.0000   -22.3730   132.5890     8.0365     8.8734
 1147.5000   -22.3249   132.1170     8.0689     8.8781
 1148.0000   -21.9034   131.1278     8.1244     9.0043
 1148.5000   -21.4998   129.1103     8.2218     9.1455
 1149.0000   -21.4392   127.0928     8.3142     9.3779
 1149.5000   -21.6357   125.0753     8.4238     9.6401
 1150.0000   -21.7669   125.0302     8.2462     9.7107
 1150.5000   -21.9332   129.9952     8.1121     9.6299
 1151.0000   -21.7129   139.3090     7.6515     9.2981
 1151.5000   -21.3290   150.7850     7.0324     8.6583
 1152.0000   -21.0090   162.2590     6.4710     7.8384
 1152.5000   -20.6556   175.0964     6.0531     6.9378
 1153.0000   -20.3290   187.9339     5.7237     6.5051
 1153.5000   -19.9692   200.7714     5.3992     6.3791
 1154.0000   -20.1066   213.6089     5.0841     6.7486
 1154.5000   -20.5187   218.5775     5.1485     7.5483
 1155.0000   -20.8522   213.3711     5.6600     8.4420
 1155.5000   -21.2469   192.0181     6.1218    10.3303
 1156.0000   -21.2141   163.5675     7.2538    10.7388
 1156.5000   -20.8571   137.2265     8.4194    11.0256
 1157.0000   -20.5856   120.5384     9.0676    10.9830
 1157.5000   -20.3036   108.4290     9.5445    10.9657
 1158.0000   -20.4702   105.5587     9.8030    10.9827
 1158.5000   -20.7721   102.8782     9.7388    10.9808
 1159.0000   -21.0262   104.3968     9.6796    11.0084
 1159.5000   -21.3044   106.1508     9.6097    11.0784
 1160.0000   -21.5625   107.9049     9.5481    11.1431
 1160.5000   -21.8388   109.2055     9.4761    11.2074
 1161.0000   -21.9160   109.2055     9.4198    11.2743
 1161.5000   -21.9384   108.4874     9.3403    11.3532
 1162.0000   -22.1092   106.9087     9.4824    11.7399
 1162.5000   -22.3410   105.3300     9.7823    12.1405
 1163.0000   -22.5371   103.7514    10.1050    12.8689
 1163.5000   -23.2626    99.6147    10.3703    13.9450
 1164.0000   -24.5174    92.3120    11.0828    15.0662
 1164.5000   -25.4341    85.0094    12.1235    16.3888
 1165.0000   -27.1987    77.7067    13.0737    17.3256
 1165.5000   -29.5716    72.1456    14.0219    17.7756
 1166.0000   -32.4818    66.5595    14.8458    18.7445
 1166.5000   -36.5309    62.0490    15.7634    20.4847
 1167.0000   -38.1942    56.7819    16.4283    20.3953
 1167.5000   -37.5840    54.9886    16.8353    20.2148
 1168.0000   -37.2251    55.6914    16.7367    19.9310
 1168.5000   -38.2437    56.7983    16.3643    20.0465
 1169.0000   -38.7723    57.9073    16.0503    20.3172
 1169.5000   -39.2580    59.0237    15.6769    20.5637
 1170.0000   -39.6689    60.3582    15.4983    20.1118
 1170.5000   -40.3449    59.2638    15.8777    20.3179
 1171.0000   -40.4442    57.9326    16.3074    20.7973
 1171.5000   -39.7563    56.5795    16.8153    21.1634
 1172.0000   -38.9537    54.9715    17.0177    20.2418
 1172.5000   -38.3549    55.3653    16.6752    20.3035
 1173.0000   -36.7083    55.8754    16.2280    20.2986
 1173.5000   -34.0625    59.9168    15.6455    20.0265
 1174.0000   -34.8679    64.0105    15.0090    19.3238
 1174.5000   -37.2834    63.5338    14.9059    18.3078
 1175.0000   -39.9445    63.0590    15.0893    18.5531
 1175.5000   -40.8012    62.5842    15.2099    19.1993
 1176.0000   -38.8518    62.2027    14.9397    18.7318
 1176.5000   -35.5863    64.1681    14.5536    18.1461
 1177.0000   -34.2985    66.1414    14.1656    17.5589
 1177.5000   -33.4223    68.5300    13.9489    17.1375
 1178.0000   -33.4298    67.6820    14.1373    17.8879
 1178.5000   -34.3596    66.6081    14.3466    18.3979
 1179.0000   -36.0855    65.5342    14.5609    17.7400
 1179.5000   -38.3728    64.4603    14.7714    17.6917
 1180.0000   -39.4738    64.5829    14.6796    17.7310
 1180.5000   -39.1210    66.0864    14.3866    17.7993
 1181.0000   -38.7959    67.5899    14.1102    17.3152
 1181.5000   -38.3675    69.0934    13.8142    16.4309
 1182.0000   -37.5067    70.3378    13.6666    15.9168
 1182.5000   -36.5203    70.9086    13.5214    16.0684
 1183.0000   -35.0871    71.2672    13.3389    16.0242
 1183.5000   -34.1412    72.8140    13.1487    15.4217
 1184.0000   -33.6828    74.4031    12.9213    14.9064
 1184.5000   -33.1261    75.9866    12.6847    14.5941
