~VERSION INFORMATION
 VERS.                2.0:   CWLS LOG ASCII STANDARD - VERSION 2.0
 WRAP.                 NO:   ONE LINE PER DEPTH STEP
~WELL INFORMATION
#MNEM.UNIT      DATA TYPE    INFORMATION
#----------   ------------   ------------------------------
 STRT.F            8.0000:   START DEPTH
 STOP.F          551.0000:   STOP DEPTH
 STEP.F            0.5000:   STEP LENGTH
 NULL.          -999.2500:   NO VALUE
 COMP.   FLUOR DANIEL INC:   COMPANY
 WELL. NAVAL PETROLEUM RESERVE 3 S-10 #31-10:   WELL
 FLD .        TEAPOT DOME:   FIELD
 LOC .      S10 T38N R78W:   LOCATION
 CNTY.            NATRONA:   COUNTY
 STAT.            WYOMING:   STATE
 CTRY. UNITED STATES OF AMERICA:   COUNTRY
 SRVC.       Schlumberger:   SERVICE COMPANY
 DATE.        21-JUN-1970:   LOGDATE
 API .       490251039400:   API NUMBER
~CURVE INFORMATION
#MNEM.UNIT       API CODE    CURVE DESCRIPTION
#----------   ------------   ------------------------------
 DEPT.F                  :   
 SPR .MV     05 010 01 00:   SPONTANEOUS POTENTIAL FROM RES.
 ASN .OHMM   05 041 16 00:   AMPLIFIED SHORT NORMAL 16"
 ILD .OHMM   05 120 46 00:   INDUCTION LOG DEEP
 CILD.MMHO   05 110 46 00:   CONDUCTIVITY INDUCTION LOG DEEP
 CALD.IN     45 280 60 00:   CALIPER FROM DENSITY LOG
 CORR.G/C3   45 356 01 00:   DENSITY CORRECTION
 RHOB.G/C3   45 350 01 00:   BULK DENSITY
 DPHI.DEC    45 890 12 00:   DENSITY POROSITY SANDSTONE
~PARAMETER INFORMATION
#MNEM.UNIT          VALUE    DESCRIPTION
#----------   ------------   ------------------------------
 PD  .                 GL:   PERMANENT DATUM
 EPD .F              5256:   ELEVATION PERMANENT DATUM
 LMF .                 KB:   LOG MEASURED FROM
 DAPD.F                10:   FEET ABOVE PERMANENT DATUM
 DMF .                 KB:   DRILLING MEASURED FROM
 EKB .F              5266:   KELLING BUSHING
 EGL .F              5256:   GROUND LEVEL
 DATE.        27-JUN-1970:   RUN DATE
 RUN .                  1:   RUN NUMBER
 DD  .F               553:   DEPTH DRILLER
 DL  .F               552:   DEPTH LOGGER
 BLI .F               551:   BOTTOM LOG INTERVAL
 TLI .F                44:   TOP LOG INTERVAL
 CS  .IN             9.75:   CASING SIZE
 BS  .IN                9:   BIT SIZE
 BSD .F               553:   BIT SIZE AT DEPTH
 DFT .        FRESHGELMUD:   DRILLING FLUID TYPE
 DFD .                9.2:   DRILLING FLUID DENSITY
 BHT .F               100:   BOTTOM HOLE TEMPERATURE
 TCS .HRS               1:   TIME CURCULATED STOPPED
 MRT .F               100:   MAXIMUM RECORDED TEMPERATURE
 ENGI.             TUSNES:   RECORDING ENGINEER
 WITN.                HAZ:   WITNESSED BY
 CLNT.            A2DTECH:   CLIENT CODE
 ORIG.           5" PRINT:   ORIGIN OF DATA
 UWI .       490251039400:   UNIQUE WELL ID
 DICO. A2D Technologies, Inc.:   DIGITIZING COMPANY
~OTHER INFORMATION
~A    DEPT     SPR        ASN        ILD       CILD         CALD     CORR       RHOB       DPHI   
# ...
  170.0000   -32.2981     9.0402     7.9785   117.8736     8.7178     0.0392     2.5070     0.0803
  170.5000   -32.4534     9.0248     7.9019   117.8736     8.7184     0.0175     2.4718     0.1044
  171.0000   -32.6087     9.0248     7.9028   118.6441     8.7340     0.0160     2.4921     0.1128
  171.5000   -32.6087     9.0264     7.9036   118.6441     8.7346     0.0296     2.5154     0.0938
  172.0000   -32.7640     9.0402     7.8272   118.6441     8.7351     0.0162     2.4997     0.1040
  172.5000   -32.7640     9.0402     7.8280   119.4145     8.7357     0.0005     2.4570     0.1172
  173.0000   -32.9193     9.0402     7.8287   119.4145     8.7363    -0.0055     2.4345     0.1295
  173.5000   -33.0745     9.0248     7.7523   120.9553     8.7369    -0.0084     2.4196     0.1361
  174.0000   -33.2298     9.0093     7.6759   121.7257     8.7377     0.0059     2.4485     0.1157
  174.5000   -33.2298     8.9783     7.6767   122.4961     8.7382     0.0090     2.4504     0.1247
  175.0000   -33.0745     8.9319     7.6774   124.0370     8.7388     0.0113     2.4351     0.1268
  175.5000   -33.0652     8.9164     7.6784   124.8074     8.7394     0.0128     2.4280     0.1240
  176.0000   -32.9193     8.9164     7.6791   124.8074     8.7400     0.0136     2.4469     0.1184
  176.5000   -32.9193     8.9319     7.6799   124.0370     8.7256     0.0069     2.4672     0.1129
  177.0000   -32.7640     8.9628     7.7578   124.0370     8.7262     0.0183     2.4747     0.1093
  177.5000   -32.4534     9.0248     7.8358   122.4961     8.7268     0.0236     2.4808     0.1083
  178.0000   -32.2981     9.0867     7.8365   122.4961     8.7274     0.0191     2.4763     0.1080
  178.5000   -32.1429     9.1641     7.9144   120.9553     8.7280     0.0042     2.4651     0.1080
  179.0000   -31.9648     9.2415     8.0695   120.1849     8.7135     0.0148     2.4719     0.1068
  179.5000   -31.6770     9.3347     8.1474   118.6441     8.7141     0.0247     2.4892     0.1039
  180.0000   -31.5217     9.4293     8.3025   117.1032     8.7147     0.0291     2.5125     0.0989
  180.5000   -31.5217     9.5220     8.3804   115.5624     8.7153     0.0307     2.5238     0.0923
  181.0000   -31.5217     9.5820     8.4584   114.0216     8.7159     0.0248     2.5201     0.0911
  181.5000   -31.5217     9.6130     8.4591   113.2512     8.7317     0.0218     2.5059     0.0832
  182.0000   -31.6770     9.6440     8.4599   113.2512     8.7322     0.0354     2.5067     0.0703
  182.5000   -31.6770     9.6594     8.4606   113.2512     8.7328     0.0497     2.5294     0.0678
  183.0000   -31.9876     9.6440     8.4614   112.4807     8.7334     0.0505     2.5398     0.0841
  183.5000   -32.2981     9.4582     8.3850   112.4807     8.7340     0.0356     2.5289     0.1024
  184.0000   -32.6087     9.3498     8.3086   113.2512     8.7346     0.0108     2.5011     0.1081
  184.5000   -32.7640     9.2724     8.2322   113.2512     8.7352     0.0049     2.4687     0.1114
  185.0000   -32.9193     9.2105     8.1558   114.7920     8.7358     0.0012     2.4628     0.1132
  185.5000   -32.9193     9.1176     8.0024   115.5624     8.7364    -0.0025     2.4613     0.1135
  186.0000   -32.7640     9.0402     7.9260   117.1137     8.7370    -0.0024     2.4764     0.1113
  186.5000   -32.6087     8.9628     7.9268   118.6441     8.7376    -0.0001     2.4855     0.1073
  187.0000   -32.4534     8.8700     7.8502   119.4604     8.7381     0.0014     2.4885     0.1036
  187.5000   -32.4534     8.7771     7.8512   121.7896     8.7387     0.0053     2.4938     0.1011
  188.0000   -32.4534     8.6997     7.7746   124.0370     8.7543     0.0181     2.4661     0.1134
  188.5000   -32.2981     8.6373     7.6984   125.5778     8.7549     0.0166     2.4392     0.1227
  189.0000   -32.1429     8.5746     7.6991   127.8891     8.7557     0.0137     2.4437     0.1236
  189.5000   -31.9876     8.5449     7.6225   128.6595     8.7562     0.0138     2.4595     0.1184
  190.0000   -31.8323     8.5449     7.6235   129.4299     8.7568     0.0162     2.4536     0.1157
  190.5000   -31.6770     8.6068     7.5471   129.4299     8.7574     0.0199     2.4379     0.1232
  191.0000   -31.5217     8.6687     7.5478   127.8891     8.7580     0.0150     2.4567     0.1193
  191.5000   -31.3665     8.7461     7.5486   126.3482     8.7586     0.0057     2.4520     0.1141
  192.0000   -31.3665     8.8390     7.6265   124.8074     8.7592     0.0261     2.4582     0.1188
  192.5000   -31.3665     8.9319     7.6389   123.2666     8.7598     0.0359     2.5012     0.1021
  193.0000   -31.3665     9.0248     7.7054   121.7257     8.7604     0.0232     2.5102     0.0957
  193.5000   -31.5217     9.0867     7.8605   119.4145     8.7610     0.0150     2.5109     0.0964
  194.0000   -31.5217     9.1486     7.9384   118.6441     8.7616     0.0060     2.4885     0.1013
  194.5000   -31.6770     9.2105     8.1706   117.1032     8.7622     0.0084     2.4765     0.1071
  195.0000   -31.9979     9.2415     8.2486   116.3328     8.7628     0.0144     2.4714     0.1098
  195.5000   -32.3178     9.2879     8.3265   115.5624     8.7634     0.0130     2.4669     0.1125
  196.0000   -32.6087     9.3344     8.4816   114.7920     8.7639     0.0078     2.4625     0.1158
  196.5000   -32.6087     9.3653     8.5595   114.7920     8.7647     0.0349     2.4588     0.1106
  197.0000   -32.6087     9.4118     8.5603   114.0216     8.7653     0.0402     2.4903     0.0950
  197.5000   -32.6087     9.4582     8.5610   114.0216     8.7507     0.0380     2.5159     0.0944
  198.0000   -32.6087     9.4582     8.5618   114.0216     8.7514     0.0343     2.4904     0.1037
  198.5000   -32.6087     9.4093     8.4854   114.0216     8.7520     0.0306     2.4695     0.1151
  199.0000   -32.6087     9.3344     8.4861   114.0216     8.7526     0.0126     2.4493     0.1208
  199.5000   -32.6087     9.2724     8.4869   114.7920     8.7532    -0.0023     2.4696     0.1030
  200.0000   -32.4534     9.2271     8.4105   114.7920     8.7507    -0.0030     2.4321     0.1081
  200.5000   -31.9993     9.1802     8.3175   117.8407     8.7322     0.0181     2.4652     0.1249
  201.0000   -31.6770     9.1963     8.2577   118.5883     8.7099     0.0339     2.4884     0.1060
  201.5000   -31.5217     9.2124     8.2585   119.3220     8.7256     0.0354     2.4967     0.1005
  202.0000   -31.3665     9.2285     8.2592   119.2903     8.7262     0.0257     2.4487     0.1204
  202.5000   -31.2112     9.2291     8.2600   119.2599     8.7418     0.0100     2.4533     0.1221
  203.0000   -30.9006     9.2452     8.2610   119.2295     8.7574     0.0243     2.4766     0.1101
  203.5000   -30.5901     9.2768     8.3389   118.3978     8.7580     0.0245     2.4863     0.1061
  204.0000   -30.4348     9.3084     8.3396   116.8567     8.7586     0.0237     2.4871     0.1046
  204.5000   -30.5901     9.4328     8.5719   115.9425     8.7743     0.0252     2.4699     0.1061
  205.0000   -30.9006     9.5728     8.7270   114.4777     8.7748     0.0124     2.4437     0.1178
  205.5000   -31.2112     9.7446     8.8821   112.9065     8.7755    -0.0002     2.4572     0.1238
  206.0000   -31.3665     9.9128     9.1143   111.3353     8.7761     0.0266     2.4977     0.1054
  206.5000   -31.6770     9.9652     9.2694   109.7640     8.7767     0.0331     2.4925     0.0994
  207.0000   -31.8323    10.0176     9.5016   108.1928     8.7621     0.0354     2.4783     0.1073
  207.5000   -31.8323    10.0700     9.6567   106.6215     8.7628     0.0428     2.5233     0.0948
  208.0000   -31.9876    10.1225     9.8118   104.2799     8.7634     0.0496     2.5324     0.0861
  208.5000   -32.2981    10.1749    10.0441   101.9382     8.7640     0.0399     2.4664     0.0948
  209.0000   -32.2981    10.2273    10.1220    99.5965     8.7495     0.0250     2.5062     0.1116
  209.5000   -32.2981    10.2798    10.3542    98.0253     8.7502     0.0551     2.5219     0.0939
  210.0000   -32.2981    10.3065    10.4321    95.6836     8.7508     0.0222     2.4852     0.1007
