~VERSION INFORMATION
 VERS.                2.0:   CWLS LOG ASCII STANDARD - VERSION 2.0
 WRAP.                 NO:   ONE LINE PER DEPTH STEP
~WELL INFORMATION
#MNEM.UNIT      DATA TYPE    INFORMATION
#----------   ------------   ------------------------------
 STRT.F           34.0000:   START DEPTH
 STOP.F          604.0000:   STOP DEPTH
 STEP.F            0.5000:   STEP LENGTH
 NULL.          -999.2500:   NO VALUE
 COMP. FENIX & SCISSON INC:   COMPANY
 WELL.       NPR #17 SX-2:   WELL
 FLD .             TEAPOT:   FIELD
 LOC .       S2 T38N R78W:   LOCATION
 CNTY.            NATRONA:   COUNTY
 STAT.            WYOMING:   STATE
 CTRY. UNITED STATES OF AMERICA:   COUNTRY
 SRVC.       Schlumberger:   SERVICE COMPANY
 DATE.        18-MAR-1977:   LOGDATE
 API .       490251032700:   API NUMBER
~CURVE INFORMATION
#MNEM.UNIT       API CODE    CURVE DESCRIPTION
#----------   ------------   ------------------------------
 DEPT.F                  :   
 SPR .MV     07 010 01 00:   SPONTANEOUS POTENTIAL
 ILD .OHMM   07 120 46 00:   INDUCTION LOG DEEP
 ILM .OHMM   07 120 44 00:   INDUCTION LOG MEDIUM
 LL8 .OHMM   07 220 08 00:   LATEROLOG-8 RES.
 CALD.IN     45 280 60 00:   CALIPER FROM DENSITY LOG
 GRD .GAPI   45 310 01 00:   GAMMA RAY FROM DENSITY LOG
 CORR.G/C3   45 356 01 00:   DENSITY CORRECTION
 DPHI.DEC    45 890 12 00:   DENSITY POROSITY SANDSTONE
 RHOB.G/C3   45 350 01 00:   BULK DENSITY
~PARAMETER INFORMATION
#MNEM.UNIT          VALUE    DESCRIPTION
#----------   ------------   ------------------------------
 PD  .                 GL:   PERMANENT DATUM
 EPD .F              5122:   ELEVATION PERMANENT DATUM
 LMF .                 KB:   LOG MEASURED FROM
 DAPD.F                 4:   FEET ABOVE PERMANENT DATUM
 DMF .                 KB:   DRILLING MEASURED FROM
 EKB .F              5126:   KELLING BUSHING
 EGL .F              5122:   GROUND LEVEL
 DATE.        18-MAR-1977:   RUN DATE
 RUN .                  1:   RUN NUMBER
 DD  .F               600:   DEPTH DRILLER
 DL  .F               605:   DEPTH LOGGER
 BLI .F               604:   BOTTOM LOG INTERVAL
 TLI .F                44:   TOP LOG INTERVAL
 CS  .IN            8.625:   CASING SIZE
 CBD .F                40:   CASING BOTTOM DRILLER
 CBL .F                44:   CASING BOTTOM LOGGER
 BS  .IN            7.875:   BIT SIZE
 BSD .F               600:   BIT SIZE AT DEPTH
 DFT .            KCL MUD:   DRILLING FLUID TYPE
 DFD .                8.9:   DRILLING FLUID DENSITY
 DFV .                 39:   DRILLING FLUID VISCOSITY
 DFPH.                8.5:   DRILLING FLUID PH
 DFL .                6.1:   DRILLING FLUID LOSS
 MSS .                PIT:   MUD SAMPLE SOURCE
 RMS .OHMM           0.26:   RESISTIVITY MUD SAMPLE
 MST .F                52:   MUD SAMPLE TEMPERATURE
 RMF .OHMM           0.24:   RESISTIVITY MUD FILTRATE SAMPLE
 MFST.F                52:   MUD FILTRATE SAMPLE TEMPERATURE
 MFSS.               MEAS:   MUD FILTRATE SAMPLE SOURCE
 TCS .HRS            0230:   TIME CURCULATED STOPPED
 LUN .               7711:   LOGGING UNIT NUMBER
 LUL .               CSPR:   LOGGING UNIT LOCATION
 ENGI.             SAYLER:   RECORDING ENGINEER
 WITN.         STUEBINGER:   WITNESSED BY
 CLNT.            A2DTECH:   CLIENT CODE
 ORIG.           5" PRINT:   ORIGIN OF DATA
 UWI .       490251032700:   UNIQUE WELL ID
 DICO. A2D Technologies, Inc.:   DIGITIZING COMPANY
~OTHER INFORMATION
~A   DEPT      SPR        ILD        ILM        LL8       CALD        GRD       CORR       DPHI       RHOB   
# ...
  143.5000   -42.0522     8.4699     8.3846     9.1320     8.1991   112.5145     0.0124     0.1100     2.4676
  144.0000   -41.8897     8.5942     8.4483     9.1370     8.1852   112.9709     0.0132     0.1138     2.4602
  144.5000   -41.6995     8.7811     8.5718     8.9538     8.1861   113.7236     0.0139     0.1099     2.4737
  145.0000   -41.4131     8.8484     8.6971     8.8353     8.1870   116.4022     0.0080     0.1143     2.4625
  145.5000   -41.1017     8.9161     8.8243     8.9017     8.1730   116.8556     0.0027     0.1159     2.4558
  146.0000   -40.7903     8.9844     8.8913     9.1572     8.1146   114.7964     0.0140     0.1088     2.4738
  146.5000   -40.4788     9.0533     8.8968     9.4855     8.0709   113.8617     0.0178     0.1010     2.4873
  147.0000   -40.1674     9.1226     8.9024     9.6903     8.0271   114.2963     0.0231     0.0972     2.4948
  147.5000   -39.7069     9.1289     8.9700     9.8311     8.0876   116.4297     0.0269     0.0945     2.4986
  148.0000   -39.5445     9.1989     8.9756     9.7009     8.1923   118.5610     0.0314     0.0891     2.5017
  148.5000   -39.3821     9.2052     8.9812     9.4408     8.1932   118.0889     0.0232     0.0935     2.4883
  149.0000   -39.3688     9.2116     8.9868     9.3807     8.1941   116.1906     0.0187     0.0978     2.4936
  149.5000   -39.2064     9.2821     8.9924     9.3859     8.1950   115.7658     0.0210     0.0921     2.4996
  150.0000   -39.1855     9.3323     9.0109     9.5223     8.1942   116.0741     0.0233     0.0876     2.5026
  150.5000   -39.0565     9.2548     9.0972     9.3405     8.1854   120.3457     0.0184     0.0894     2.4975
  151.0000   -39.2161     9.2324     9.2007     9.3995     8.1832   122.9256     0.0084     0.0941     2.4936
  151.5000   -39.2012     9.3023     9.3358     9.8712     8.1995   122.3507     0.0069     0.1022     2.4774
  152.0000   -38.9383     9.5026     9.5390    10.3665     8.2007   122.6646     0.0025     0.1021     2.4747
  152.5000   -38.6505     9.7072     9.7466    10.2980     8.2018   124.0156     0.0123     0.0988     2.4892
  153.0000   -38.6634     9.9852     9.9587    10.3033     8.2030   125.0703     0.0101     0.0928     2.4928
  153.5000   -38.6737    10.3428    10.1049    10.3793     8.2027   125.0879     0.0079     0.0934     2.4905
  154.0000   -38.6840    10.4974    10.4693    10.4559     8.2023   121.8463    -0.0018     0.1050     2.4779
  154.5000   -38.8433    10.6443    10.6971    10.6801     8.2020   116.0862     0.0035     0.1005     2.4909
  155.0000   -39.0026    10.7237    10.7791    10.9091     8.2017   114.4742     0.0065     0.0933     2.4910
  155.5000   -39.1619    10.9557    10.9374    11.0661     8.2013   113.7511     0.0088     0.0954     2.4888
  156.0000   -39.1722    11.1141    10.9449    11.1477     8.2010   113.0202     0.0141     0.0990     2.4822
  156.5000   -39.3315    11.2749    11.0288    11.1374     8.2007   112.6012     0.0121     0.0995     2.4868
  157.0000   -39.6399    11.4380    11.1908    11.3915     8.2003   112.7674     0.0165     0.0926     2.5056
  157.5000   -39.7992    11.6034    11.5140    11.6357     8.2000   111.2691     0.0181     0.0833     2.5094
  158.0000   -39.8095    11.6090    11.6831    11.9680     8.2000   110.4319     0.0189     0.0871     2.5028
  158.5000   -39.8198    11.6146    11.6100    12.2247     8.1863   113.4483     0.0174     0.0900     2.4947
  159.0000   -39.8301    11.6202    11.3784    12.2297     8.1876   117.1383     0.0160     0.0943     2.4888
  159.5000   -39.3932    11.4641    11.3075    11.7337     8.1739   117.6004     0.0137     0.1039     2.4800
  160.0000   -39.2545    11.3903    11.3944    11.4939     8.1602   117.6180     0.0116     0.1110     2.4704
  160.5000   -39.2674    11.3183    11.4022    11.3374     8.1614   117.4831     0.0139     0.1137     2.4630
  161.0000   -39.2776    11.3237    11.3305    11.0290     8.1626   115.5793     0.0154     0.1089     2.4713
  161.5000   -39.2879    11.3291    11.3403    10.8920     8.1638   114.5599     0.0171     0.1029     2.4804
  162.0000   -39.2982    11.3346    11.1915    10.8223     8.1670   114.7257     0.0185     0.1011     2.4820
  162.5000   -39.3085    11.2615    11.0447    10.7508     8.1810   116.2248     0.0126     0.1064     2.4739
  163.0000   -39.3188    11.1890    10.9740    10.7563     8.1973   116.6869     0.0096     0.1061     2.4702
  163.5000   -39.3291    11.1157    10.9074    10.7608     8.1984   116.8527     0.0089     0.1025     2.4778
  164.0000   -39.4884    10.8931    10.8375    10.7652     8.1996   116.7222     0.0097     0.1040     2.4719
  164.5000   -39.6477    10.8985    10.8468    10.8446     8.2008   115.7028     0.0226     0.1027     2.4750
  165.0000   -39.3574    10.9038    10.8543    11.0772     8.2168   115.2760     0.0271     0.0967     2.4901
  165.5000   -38.9231    10.9101    10.7101    11.0040     8.2029   115.1411     0.0249     0.0949     2.4932
  166.0000   -39.0824    10.8386    10.6451    11.0863     8.2043   115.3113     0.0265     0.0907     2.4978
  166.5000   -39.2418    10.8451    10.5769    11.0131     8.2055   115.7734     0.0303     0.0847     2.5053
  167.0000   -39.1028    10.8503    10.5128    11.0188     8.2215   115.7910     0.0326     0.0817     2.5114
  167.5000   -38.8152    10.8555    10.4454    10.8703     8.2227   116.1050     0.0176     0.0906     2.4936
  168.0000   -38.5216    10.7110    10.2388    10.7261     8.2239   116.5670     0.0139     0.0942     2.4907
  168.5000   -38.5524    10.7161    10.0329    10.8804     8.2251   119.8439     0.0185     0.0966     2.4893
  169.0000   -38.6975    10.6458     9.9030    10.8086     8.2262   121.4912     0.0110     0.0989     2.4879
  169.5000   -38.7099    10.6522     9.9789    10.5915     8.2274   119.7311     0.0058     0.1019     2.4791
  170.0000   -38.7202    10.6573    10.0554    10.5958     8.2285   119.8969     0.0074     0.1004     2.4762
  170.5000   -38.8795    10.6625     9.9926    10.6002     8.2297   120.5071     0.0089     0.1048     2.4748
  171.0000   -38.8898    10.5205     9.9995    10.6046     8.2309   120.0803     0.0090     0.1084     2.4712
  171.5000   -38.9001    10.3084     9.9372    10.6828     8.2320   118.3202     0.0135     0.1033     2.4795
  172.0000   -39.0569    10.2421     9.9440    10.9119     8.2332   115.5230     0.0091     0.1027     2.4796
  172.5000   -39.0697    10.2472     9.6782    10.9164     8.2344   115.0962     0.0144     0.0994     2.4806
  173.0000   -39.2290    10.3235     9.6178    10.7690     8.2356   115.7344     0.0152     0.0970     2.4895
  173.5000   -39.8354    10.3285     9.4917    10.4760     8.2368   117.5590     0.0107     0.0994     2.4872
  174.0000   -39.9948    10.2620     9.5717    10.1975     8.2380   119.2978     0.0139     0.0996     2.4800
  174.5000   -39.8560    10.1173     9.6380    10.2822     8.2542   118.6420     0.0209     0.0974     2.4893
  175.0000   -39.4192     9.9792     9.5776    10.4932     8.2403   116.9622     0.0196     0.0966     2.4885
  175.5000   -39.1314     9.7228     9.5859    10.4985     8.2121   117.1324     0.0177     0.1001     2.4803
  176.0000   -39.1417     9.6591     9.5261    10.4302     8.1836   117.5945     0.0238     0.0977     2.4894
  176.5000   -39.1520     9.5305     9.4012    10.0789     8.1847   119.2418     0.0268     0.0956     2.4902
  177.0000   -39.1624     9.2109     9.2763     9.6721     8.2008   121.7780     0.0179     0.0986     2.4836
  177.5000   -39.1729     8.4789     8.6013     9.2817     8.2019   125.6460     0.0156     0.1072     2.4733
  178.0000   -39.1833     8.3650     8.1988     8.8455     8.2031   128.3303     0.0135     0.1129     2.4637
  178.5000   -39.3448     8.3701     8.0898     8.5466     8.2043   129.2368     0.0105     0.1158     2.4578
  179.0000   -39.6531     8.3741     8.1533     8.4910     8.2055   130.5878     0.0121     0.1149     2.4609
  179.5000   -39.8124     8.3781     8.1589     8.4954     8.2066   130.7536     0.0144     0.1146     2.4632
