~VERSION INFORMATION
 VERS.                2.0:   CWLS LOG ASCII STANDARD - VERSION 2.0
 WRAP.                 NO:   ONE LINE PER DEPTH STEP
~WELL INFORMATION
#MNEM.UNIT      DATA TYPE    INFORMATION
#----------   ------------   ------------------------------
 STRT.F           34.0000:   START DEPTH
 STOP.F          514.0000:   STOP DEPTH
 STEP.F            0.5000:   STEP LENGTH
 NULL.          -999.2500:   NO VALUE
 COMP. FENIX & SCISSON INC:   COMPANY
 WELL. NPR 3 #41 SX 10-10:   WELL
 FLD .             TEAPOT:   FIELD
 LOC .      S10 T38N R78W:   LOCATION
 CNTY.            NATRONA:   COUNTY
 STAT.            WYOMING:   STATE
 CTRY. UNITED STATES OF AMERICA:   COUNTRY
 SRVC.           BIRDWELL:   SERVICE COMPANY
 DATE.        25-JUN-1978:   LOGDATE
 API .       490251065200:   API NUMBER
~CURVE INFORMATION
#MNEM.UNIT       API CODE    CURVE DESCRIPTION
#----------   ------------   ------------------------------
 DEPT.F                  :   
 SPR .MV     07 010 01 00:   SPONTANEOUS POTENTIAL
 ILD .OHMM   07 120 46 00:   INDUCTION LOG DEEP
 SN  .OHMM   07 040 16 00:   SHORT NORMAL 16"
 CALD.IN     45 280 60 00:   CALIPER FROM DENSITY LOG
 GRD .GAPI   45 310 01 00:   GAMMA RAY FROM DENSITY LOG
 CORR.G/C3   45 356 01 00:   DENSITY CORRECTION
 DPHI.DEC    45 890 12 00:   DENSITY POROSITY SANDSTONE
 DEN .G/C3   45 350 01 00:   COMPENSATED BULK DENSTIY
 GRN .GAPI   35 310 01 00:   GAMMA RAY
 NEUT.NAPI   35 330 01 00:   NEUTRON
~PARAMETER INFORMATION
#MNEM.UNIT          VALUE    DESCRIPTION
#----------   ------------   ------------------------------
 PD  .                 GL:   PERMANENT DATUM
 EPD .F              5235:   ELEVATION PERMANENT DATUM
 LMF .                 KB:   LOG MEASURED FROM
 DAPD.F                 4:   FEET ABOVE PERMANENT DATUM
 DMF .                 KB:   DRILLING MEASURED FROM
 EKB .F              5239:   KELLING BUSHING
 EGL .F              5235:   GROUND LEVEL
 DATE.        25-JUN-1978:   RUN DATE
 RUN .                  1:   RUN NUMBER
 DD  .F               510:   DEPTH DRILLER
 DL  .F               514:   DEPTH LOGGER
 BLI .F               514:   BOTTOM LOG INTERVAL
 TLI .F                30:   TOP LOG INTERVAL
 CS  .IN            8.625:   CASING SIZE
 CBD .F                40:   CASING BOTTOM DRILLER
 CBL .F                40:   CASING BOTTOM LOGGER
 BS  .IN            7.875:   BIT SIZE
 BSD .F               510:   BIT SIZE AT DEPTH
 DFT .                KCL:   DRILLING FLUID TYPE
 DFD .                8.6:   DRILLING FLUID DENSITY
 DFV .                 31:   DRILLING FLUID VISCOSITY
 DFPH.                9.5:   DRILLING FLUID PH
 DFL .                 17:   DRILLING FLUID LOSS
 MSS .           FLOWLINE:   MUD SAMPLE SOURCE
 RMS .OHMM             .5:   RESISTIVITY MUD SAMPLE
 MST .F                74:   MUD SAMPLE TEMPERATURE
 RMF .OHMM            .54:   RESISTIVITY MUD FILTRATE SAMPLE
 MFST.F                72:   MUD FILTRATE SAMPLE TEMPERATURE
 RMC .OHMM            1.0:   RESISTIVITY MUD CAKE
 MCST.F                66:   MUD CAKE SAMPLE TEMPERATURE
 MFSS.               MEAS:   MUD FILTRATE SAMPLE SOURCE
 MCSS.               MEAS:   MUD CAKE SAMPLE SOURCE
 BHT .F                74:   BOTTOM HOLE TEMPERATURE
 TCS .HRS            0100:   TIME CURCULATED STOPPED
 MRT .F                74:   MAXIMUM RECORDED TEMPERATURE
 LUN .               2958:   LOGGING UNIT NUMBER
 LUL .               CASP:   LOGGING UNIT LOCATION
 ENGI.           REYNOLDS:   RECORDING ENGINEER
 CLNT.            A2DTECH:   CLIENT CODE
 ORIG.           5" PRINT:   ORIGIN OF DATA
 UWI .       490251065200:   UNIQUE WELL ID
 DICO. A2D Technologies, Inc.:   DIGITIZING COMPANY
~OTHER INFORMATION
~A   DEPT      SPR        ILD         SN       CALD        GRD       CORR       DPHI        DEN        GRN       NEUT   
# ...
  101.0000   -67.0845     7.7168     8.2709     7.9302   103.6561     0.0330     0.1309     2.4681    48.1045  1517.9392
  101.5000   -67.0947     7.7137     8.1545     7.9130   101.6983     0.0300     0.1279     2.4765    49.3769  1542.1946
  102.0000   -67.1038     7.6574     8.0397     7.8695   105.1710     0.0315     0.1258     2.4808    49.8268  1530.0248
  102.5000   -67.1128     7.6542     8.0369     7.8240   105.3240     0.0405     0.1418     2.4838    50.5756  1521.9030
  103.0000   -67.1218     7.5977     8.0894     7.7483   104.8744     0.0465     0.1370     2.4658    53.0434  1520.5278
  103.5000   -67.1308     7.5946     8.0866     7.7029   106.9897     0.0479     0.1358     2.4613    54.3154  1529.9406
  104.0000   -67.1399     7.5920     8.1965     7.8689   112.4224     0.0464     0.1349     2.4696    53.2705  1543.4144
  104.5000   -67.1489     7.6419     8.2514     8.0356   114.2353     0.0464     0.1240     2.4727    55.6639  1533.9368
  105.0000   -67.1579     7.6380     8.3059     8.1556   113.5746     0.0509     0.1255     2.4869    56.2291  1529.8694
  105.5000   -67.1669     7.6349     8.4188     8.2008   110.4711     0.0555     0.1306     2.4831    56.7945  1537.9393
  106.0000   -67.1759     7.6848     8.5325     8.2006   110.6248     0.0599     0.1243     2.4801    57.3872  1527.1124
  106.5000   -67.1850     7.6817     8.5888     8.1702   109.4211     0.0614     0.1258     2.4869    54.1749  1545.9771
  107.0000   -67.1940     7.6786     8.6455     8.0794   104.2958     0.0613     0.1249     2.4891    54.5500  1537.8488
  107.5000   -67.2030     7.6754     8.6426     7.9736   105.0529     0.0628     0.1161     2.4884    51.4876  1509.4869
  108.0000   -67.2120     7.6722     8.6997     7.8961   107.0186     0.0568     0.1089     2.4954    53.2080  1483.8239
  108.5000   -67.1877     7.6685     8.6960     7.8222   106.9231     0.0478     0.1074     2.5094    52.6863  1508.0859
  109.0000   -67.1006     7.6654     8.7542     7.7616   102.6491     0.0353     0.1122     2.5064    51.4168  1521.5532
  109.5000   -67.0134     7.6094     8.8120     7.6859    99.9370     0.0297     0.1279     2.4944    53.1376  1491.8357
  110.0000   -66.9263     7.6063     8.8083     7.6707    99.0343     0.0312     0.1442     2.4838    56.2033  1510.7003
  110.5000   -66.8391     7.6032     8.8053     7.6705    99.1887     0.0312     0.1397     2.4576    54.9977  1509.3251
  111.0000   -66.7520     7.5477     8.8023     7.6704    99.0407     0.0327     0.1391     2.4553    54.5623  1516.0459
  111.5000   -66.6729     7.4927     8.7993     7.6702    98.8929     0.0342     0.1403     2.4592    53.7416  1520.0745
  112.0000   -66.5313     7.4380     8.7357     7.6701   104.0247     0.0340     0.1539     2.4606    52.3227  1521.3912
  112.5000   -66.5423     7.4349     8.7327     7.6548   105.0827     0.0327     0.1651     2.4365    54.1182  1534.8522
  113.0000   -66.5511     7.3806     8.6639     7.6547   102.5222     0.0341     0.1533     2.4207    54.4186  1536.1821
  113.5000   -66.4073     7.3261     8.5468     7.6697   101.6195     0.0341     0.1391     2.4245    54.9507  1525.3550
  114.0000   -66.2677     7.2726     8.4265     7.7299   100.5673     0.0356     0.1376     2.4591    57.3366  1515.8839
  114.5000   -66.1263     7.2696     8.3079     7.8070   100.7210     0.0356     0.1394     2.4666    56.0675  1534.7485
  115.0000   -66.1353     7.2166     8.1909     7.8656   102.0915     0.0356     0.1382     2.4656    54.7980  1537.4213
  115.5000   -66.1461     7.2638     8.0756     7.8805   105.2525     0.0356     0.1355     2.4591    55.0988  1525.2450
  116.0000   -66.1549     7.3620     8.0172     7.8955   108.4228     0.0371     0.1376     2.4651    56.5203  1537.3629
  116.5000   -66.0111     7.4109     7.9592     7.9104   109.6316     0.0385     0.1427     2.4636    56.8206  1542.7408
  117.0000   -66.0221     7.5104     8.0119     7.9103   108.4286     0.0385     0.1373     2.4591    59.9912  1535.9619
  117.5000   -65.8783     7.5595     8.0091     7.8945   105.1133     0.0355     0.1306     2.4590    59.5145  1518.3948
  118.0000   -65.7390     7.6616     8.0064     7.8646   105.2670     0.0340     0.1255     2.4734    59.8896  1529.1633
  118.5000   -65.7478     7.7117     8.1152     7.8343   105.4208     0.0259     0.1237     2.4861    57.4247  1539.9257
  119.0000   -65.7566     7.8152     8.2255     7.9248   103.9161     0.0174     0.1240     2.4876    57.1268  1549.3450
  119.5000   -65.6150     7.8671     8.2798     8.0757   103.0133     0.0219     0.1201     2.4891    57.9507  1560.1202
  120.0000   -65.6241     7.9185     8.3917     8.2115   105.8827     0.0324     0.1174     2.4914    58.1016  1568.1837
  120.5000   -65.4822     7.9703     8.4478     8.2264   105.5839     0.0369     0.1427     2.4763    58.3498  1585.7056
  121.0000   -65.4932     7.9662     8.5036     8.1810   104.8320     0.0369     0.1475     2.4613    59.1512  1588.3718
  121.5000   -65.5020     7.9630     8.5597     8.1355   106.7964     0.0462     0.1385     2.4523    58.9284  1592.3939
  122.0000   -65.5108     7.9598     8.6163     8.0900   108.3077     0.0639     0.1367     2.4703    56.3140  1593.7173
  122.5000   -65.5196     7.9565     8.6725     8.0899   105.2947     0.0624     0.1331     2.4673    52.5786  1588.2876
  123.0000   -65.6787     7.9533     8.7297     8.0444   105.9009     0.0459     0.1207     2.4763    52.5053  1557.2273
  123.5000   -65.6875     7.9500     8.7873     7.9838   107.2613     0.0338     0.1005     2.5079    51.7147  1530.2148
  124.0000   -65.6963     7.9467     8.8454     7.9837   106.0575     0.0338     0.1318     2.5184    48.4723  1509.9490
  124.5000   -65.7053     7.9428     8.9038     7.9835   103.1947     0.0338     0.1285     2.4914    48.9225  1478.8821
  125.0000   -65.8647     7.9396     8.9000     7.9834   102.8959     0.0338     0.1300     2.4703    49.9703  1454.5684
  125.5000   -65.8753     7.9364     8.8970     7.9379   102.7480     0.0353     0.1361     2.4733    51.1675  1403.2682
  126.0000   -66.0345     7.9332     8.9557     7.8320   102.1483     0.0353     0.1318     2.4748    52.8880  1346.5704
  126.5000   -66.0433     7.9299     8.9527     7.8017   100.0396     0.0337     0.1346     2.4756    53.7900  1353.2913
  127.0000   -65.9017     7.9267     8.9497     7.8015    98.0817     0.0337     0.1309     2.4733    51.0075  1438.2728
  127.5000   -65.7579     7.9235     8.9467     7.8014    98.3863     0.0337     0.1297     2.4741    49.6789  1498.9667
  128.0000   -65.7689     7.9203     8.8820     7.8012    99.4450     0.0335     0.1318     2.4771    50.8762  1498.9343
  128.5000   -65.6271     7.9721     8.8790     7.8010    99.6228     0.0322     0.1415     2.4756    51.4755  1515.1002
  129.0000   -65.4857     8.0285     8.9376     7.8009   102.1665     0.0337     0.1382     2.4613    50.2060  1521.8274
  129.5000   -65.3441     8.0862     8.9964     7.8159   103.0744     0.0367     0.1358     2.4673    51.7773  1523.1455
  130.0000   -65.3551     8.1850     9.0560     7.8308   102.9265     0.0366     0.1334     2.4718    53.1988  1528.5157
  130.5000   -65.3639     8.2957     9.1158     7.8307   103.5327     0.0366     0.1328     2.4711    53.6413  1541.9830
  131.0000   -65.3727     8.4079     9.1755     7.8607   104.8931     0.0366     0.1376     2.4703    54.8463  1555.4440
  131.5000   -65.3815     8.5225     9.1604     7.9059   104.8960     0.0336     0.1358     2.4658    55.6699  1570.2606
  132.0000   -65.3903     8.6369     9.2363     7.9360   104.5972     0.0306     0.1285     2.4703    56.3439  1585.0839
  132.5000   -65.3991     8.7546     9.5521     7.9358   105.0534     0.0276     0.1240     2.4823    59.4097  1552.6675
  133.0000   -65.2553     8.8110     9.7540     7.9356   105.6596     0.0275     0.1186     2.4823    59.3364  1562.0869
  133.5000   -65.2663     8.8074     9.8233     7.9355   107.0200     0.0245     0.1165     2.4938    53.9569  1554.6387
  134.0000   -65.1247     8.9264     9.8932     7.9656   106.1179     0.0245     0.1225     2.5041    52.0151  1528.2955
