~VERSION INFORMATION
 VERS.                2.0:   CWLS LOG ASCII STANDARD - VERSION 2.0
 WRAP.                 NO:   ONE LINE PER DEPTH STEP
~WELL INFORMATION
#MNEM.UNIT      DATA TYPE    INFORMATION
#----------   ------------   ------------------------------
 STRT.F           46.0000:   START DEPTH
 STOP.F          490.0000:   STOP DEPTH
 STEP.F            0.5000:   STEP LENGTH
 NULL.          -999.2500:   NO VALUE
 COMP.    FENIX & SCISSON:   COMPANY
 WELL.        NPR #55-S-3:   WELL
 FLD .              NPR 3:   FIELD
 LOC .       S3 T38N R78W:   LOCATION
 CNTY.            NATRONA:   COUNTY
 STAT.            WYOMING:   STATE
 CTRY. UNITED STATES OF AMERICA:   COUNTRY
 SRVC.      Dresser Atlas:   SERVICE COMPANY
 DATE.        12-MAR-1977:   LOGDATE
 API .       490251028700:   API NUMBER
~CURVE INFORMATION
#MNEM.UNIT       API CODE    CURVE DESCRIPTION
#----------   ------------   ------------------------------
 DEPT.F                  :   
 SPR .MV     07 010 01 00:   SPONTANEOUS POTENTIAL
 ILM .OHMM   07 120 44 00:   INDUCTION LOG MEDIUM
 ILD .OHMM   07 120 46 00:   INDUCTION LOG DEEP
 SFL .OHMM   07 220 01 00:   SHALLOW FOCUSED LOG RESISTIVITY
 CALD.IN     45 280 60 00:   CALIPER FROM DENSITY LOG
 GRD .GAPI   45 310 01 00:   GAMMA RAY FROM DENSITY LOG
 CORR.G/C3   45 356 01 00:   DENSITY CORRECTION
 DPHI.DEC    45 890 12 00:   DENSITY POROSITY SANDSTONE
 RHOB.G/C3   45 350 01 00:   BULK DENSITY
~PARAMETER INFORMATION
#MNEM.UNIT          VALUE    DESCRIPTION
#----------   ------------   ------------------------------
 PD  .                 GL:   PERMANENT DATUM
 EPD .F              5169:   ELEVATION PERMANENT DATUM
 LMF .                 GL:   LOG MEASURED FROM
 DMF .                 GL:   DRILLING MEASURED FROM
 EGL .F              5169:   GROUND LEVEL
 DATE.        12-MAR-1977:   RUN DATE
 RUN .                  1:   RUN NUMBER
 DD  .F               498:   DEPTH DRILLER
 DL  .F               492:   DEPTH LOGGER
 BLI .F               490:   BOTTOM LOG INTERVAL
 TLI .F               046:   TOP LOG INTERVAL
 CS  .IN            8.625:   CASING SIZE
 CBD .F                40:   CASING BOTTOM DRILLER
 CBL .F               046:   CASING BOTTOM LOGGER
 BS  .IN            7.875:   BIT SIZE
 BSD .F               498:   BIT SIZE AT DEPTH
 DFT .           CHEM GEL:   DRILLING FLUID TYPE
 DFD .                8.7:   DRILLING FLUID DENSITY
 DFV .                 35:   DRILLING FLUID VISCOSITY
 DFPH.                8.0:   DRILLING FLUID PH
 DFL .                7.2:   DRILLING FLUID LOSS
 MSS .           FLOWLINE:   MUD SAMPLE SOURCE
 RMS .OHMM            .35:   RESISTIVITY MUD SAMPLE
 MST .F                60:   MUD SAMPLE TEMPERATURE
 RMF .OHMM             .3:   RESISTIVITY MUD FILTRATE SAMPLE
 MFST.F                60:   MUD FILTRATE SAMPLE TEMPERATURE
 RMC .OHMM            .73:   RESISTIVITY MUD CAKE
 MCST.F                60:   MUD CAKE SAMPLE TEMPERATURE
 MFSS.               MEAS:   MUD FILTRATE SAMPLE SOURCE
 MCSS.               MEAS:   MUD CAKE SAMPLE SOURCE
 RMB .OHMM            .33:   RESISTIVITY MUD AT BHT
 BHT .F                63:   BOTTOM HOLE TEMPERATURE
 TCS .HRS            1400:   TIME CURCULATED STOPPED
 MRT .F                63:   MAXIMUM RECORDED TEMPERATURE
 LUN .               6134:   LOGGING UNIT NUMBER
 LUL .              GLTTE:   LOGGING UNIT LOCATION
 ENGI.              NOYER:   RECORDING ENGINEER
 WITN.         STUEBINGER:   WITNESSED BY
 CLNT.            A2DTECH:   CLIENT CODE
 ORIG.           5" PRINT:   ORIGIN OF DATA
 UWI .       490251028700:   UNIQUE WELL ID
 DICO. A2D Technologies, Inc.:   DIGITIZING COMPANY
~OTHER INFORMATION
~A   DEPT      SPR        ILM        ILD        SFL       CALD        GRD       CORR         DPHI       RHOB 
# ...
  411.0000   -50.4822    12.2504    11.3445    15.0952     7.8748    85.5833     0.0219     0.1222     2.4483
  411.5000   -50.4837    12.2488    11.2663    15.1988     7.8910    86.7873     0.0280     0.1120     2.4559
  412.0000   -50.4851    12.2471    11.1887    15.3032     7.8774    86.9777     0.0340     0.1026     2.4845
  412.5000   -50.6363    12.2455    11.1887    15.3019     7.8787    87.2578     0.0326     0.1026     2.4793
  413.0000   -50.9371    12.1472    11.1887    15.3009     7.8801    88.4819     0.0267     0.1098     2.4681
  413.5000   -51.0883    11.9907    11.1116    15.0899     7.8814    87.8182     0.0208     0.1107     2.4727
  414.0000   -51.2398    11.9065    11.0350    14.9850     7.8827    86.3988     0.0163     0.1170     2.4600
  414.5000   -51.0912    11.7416    11.0350    14.6766     7.8841    88.9470     0.0149     0.1230     2.4397
  415.0000   -51.0930    11.6592    11.0350    14.4742     7.8857    88.0645     0.0165     0.1209     2.4495
  415.5000   -50.9444    11.5773    10.9589    14.2746     7.8870    85.5427     0.0226     0.1148     2.4676
  416.0000   -50.6464    11.6561    10.8834    14.1754     7.8883    84.0612     0.0286     0.0992     2.4989
  416.5000   -50.9476    11.7349    10.8084    14.4713     7.8896    86.9075     0.0271     0.0953     2.5069
  417.0000   -51.2485    11.8151    10.8084    14.6714     7.8909    88.1115     0.0226     0.1037     2.4859
  417.5000   -51.5497    11.8954    10.8084    14.6705     7.8923    88.7193     0.0169     0.1070     2.4754
  418.0000   -51.7008    11.8935    10.7340    14.8736     7.8936    88.7310     0.0245     0.0998     2.4950
  418.5000   -51.7023    11.8919    10.7340    14.7702     7.8949    87.1034     0.0305     0.0772     2.5282
  419.0000   -52.1528    11.6464    10.7340    14.4549     7.8962    85.6939     0.0351     0.0628     2.5486
  419.5000   -52.3040    11.4766    10.7340    13.7821     7.8975    86.3817     0.0412     0.0592     2.5531
  420.0000   -52.4551    10.9409    10.7340    13.3132     7.8989    85.7973     0.0352     0.0652     2.5457
  420.5000   -52.9057    10.6412    10.6600    13.2206     7.9002    85.2129     0.0278     0.0883     2.5036
  421.0000   -53.5063    10.6398    10.5865    13.2197     7.9015    87.2320     0.0234     0.0991     2.4894
  421.5000   -53.5077    10.6384    10.5136    13.4028     7.9028    88.8161     0.0280     0.1000     2.4902
  422.0000   -53.5092    10.6370    10.5049    13.6826     7.9042    89.4239     0.0325     0.0951     2.4993
  422.5000   -53.2112    10.6356    10.4411    13.8833     7.9055    89.4356     0.0251     0.0876     2.5069
  423.0000   -52.7636    10.5609    10.3692    13.8709     7.9071    89.0003     0.0252     0.0903     2.5084
  423.5000   -52.4656    10.4865    10.3692    13.6796     7.9084    88.7139     0.0298     0.0858     2.5130
  424.0000   -52.4830    10.4851    10.2977    13.5845     7.9097    87.6824     0.0404     0.0771     2.5252
  424.5000   -52.9180    10.4115    10.2268    13.4901     7.9110    85.9058     0.0419     0.0644     2.5470
  425.0000   -53.3685    10.4101    10.1563    13.3963     7.9124    87.7059     0.0337     0.0716     2.5232
  425.5000   -53.5197    10.4087    10.1460    13.4883     7.9137    90.1021     0.0241     0.0938     2.4989
  426.0000   -53.5211    10.4073    10.0168    13.6751     7.9150    92.3493     0.0197     0.1046     2.4869
  426.5000   -53.5225    10.4059    10.0168    13.6739     7.9163    95.3417     0.0182     0.0947     2.5201
  427.0000   -53.6737    10.3326    10.0168    13.4854     7.9176    98.4831     0.0183     0.0941     2.5164
  427.5000   -53.9746    10.3312     9.9478    13.3916     7.9190    94.4709     0.0184     0.1022     2.4984
  428.0000   -53.9763    10.2587     9.8792    13.2985     7.9203    93.4197     0.0244     0.0965     2.5015
  428.5000   -53.9778    10.2573     9.8112    13.1151     7.9216    93.0041     0.0305     0.0880     2.5159
  429.0000   -54.1289    10.1152     9.7436    13.1143     7.9262    93.6149     0.0336     0.0784     2.5197
  429.5000   -54.1304    10.0442     9.3476    13.0120     7.9407    95.1169     0.0367     0.0760     2.5235
  430.0000   -54.2815     9.8277     8.8445    12.8433     7.9552    98.5564     0.0397     0.0766     2.5252
  430.5000   -54.4327     9.5671     8.9059    12.6662     7.9698    97.9720     0.0368     0.0892     2.4995
  431.0000   -54.7355     9.3696     9.1557    12.6653     7.9843    97.2356     0.0309     0.0841     2.5086
  431.5000   -55.3797     9.1761     9.2892    12.4907     7.9891    97.9954     0.0220     0.0855     2.5139
  432.0000   -56.3835     9.0490     9.1557    12.4899     7.9905    99.1994     0.0190     0.0948     2.5050
  432.5000   -57.1334     8.9855     9.0926    12.4890     7.9918    98.6150     0.0238     0.0984     2.4945
  433.0000   -57.4343     8.8602     8.9677    12.5748     7.9932    97.4345     0.0255     0.0816     2.5141
  433.5000   -57.5854     8.7382     8.9059    12.2310     7.9947    97.8933     0.0313     0.0804     2.5149
  434.0000   -57.7366     8.4986     8.8445    12.0623     7.9961    98.9482     0.0313     0.0855     2.5173
  434.5000   -57.7380     8.2658     8.6033    12.0615     7.9974    97.9167     0.0359     0.0734     2.5248
  435.0000   -57.8892     7.9841     8.3686    12.0607     7.9987    98.9717     0.0375     0.0656     2.5416
  435.5000   -57.8910     7.6061     7.9601    12.0599     8.0000   101.8351     0.0316     0.0769     2.5392
  436.0000   -58.0421     7.2962     7.2877    12.0591     8.0013   103.5459     0.0256     0.0938     2.5077
  436.5000   -58.4927     6.5212     6.5244    11.8506     8.0027   107.5046     0.0242     0.0983     2.4965
  437.0000   -59.3923     5.6878     5.8009    10.6472     7.9888   109.9008     0.0213     0.1058     2.4883
  437.5000   -59.9926     5.1985     5.1220     9.8673     8.0053   114.2344     0.0199     0.1176     2.4613
  438.0000   -59.0958     4.8507     4.7468     8.4169     7.9917   115.4355     0.0139     0.1344     2.4282
  438.5000   -58.3488     4.8837     4.6817     5.9578     7.9930   108.8928     0.0140     0.1537     2.3982
  439.0000   -57.7514     5.2324     4.7538     5.0471     8.0092   101.4529     0.0186     0.1613     2.3832
  439.5000   -57.1540     5.7234     5.0516     5.2604     8.0106    97.4408     0.0307     0.1618     2.4103
  440.0000   -56.7064     6.2720     5.2293     7.9378     8.0119    95.5151     0.0397     0.0835     2.5170
  440.5000   -56.4088     6.9911     5.5651    15.2431     8.0132    97.0172     0.0304     0.0717     2.5316
  441.0000   -56.1105     7.5944     6.0049    12.8238     8.0148    98.2212     0.0204     0.0730     2.5265
  441.5000   -55.8129     8.4227     6.8955    11.8845     8.0310    98.9780     0.0115     0.0810     2.5151
  442.0000   -55.5010     8.7780     7.8637    11.4802     8.0621   102.4175     0.0071     0.0921     2.5014
  442.5000   -55.2170     8.9607     8.3763    11.1665     8.0634   106.4531     0.0071     0.0900     2.5053
  443.0000   -54.7693     9.0216     8.6033    10.9367     8.0796   105.3820     0.0072     0.0854     2.5121
  443.5000   -54.6211     9.0829     8.6630    10.7858     8.0810   103.0488     0.0088     0.0760     2.5197
  444.0000   -54.4728     9.1447     8.7231    10.7849     8.0823   106.6402     0.0178     0.0675     2.5416
  444.5000   -55.2231     9.2069     8.7836    10.8592     8.0836   101.7339     0.0254     0.0554     2.5598
  445.0000   -55.9731     9.3337     8.8445    10.9336     8.0849   101.4446     0.0225     0.0550     2.5613
  445.5000   -55.9636     9.5937     8.9067    11.0850     8.0862   103.0986     0.0151     0.0644     2.5393
  446.0000   -55.5272     9.8612     9.1027    11.4738     8.0876   101.3220     0.0106     0.0719     2.5272
  446.5000   -55.2289     9.9971     9.3476    11.9587     8.0889    98.0550     0.0107     0.0737     2.5303
  447.0000   -54.7813    10.2136     9.6097    12.4639     8.0902   100.0012     0.0138     0.0691     2.5378
