~VERSION INFORMATION
 VERS.                2.0:   CWLS LOG ASCII STANDARD - VERSION 2.0
 WRAP.                 NO:   ONE LINE PER DEPTH STEP
~WELL INFORMATION
#MNEM.UNIT      DATA TYPE    INFORMATION
#----------   ------------   ------------------------------
 STRT.F           34.0000:   START DEPTH
 STOP.F          662.0000:   STOP DEPTH
 STEP.F            0.5000:   STEP LENGTH
 NULL.          -999.2500:   NO VALUE
 COMP. FENIX & SCISSON INC:   COMPANY
 WELL.     55 S 34 #34-34:   WELL
 FLD .          N.P.R. #3:   FIELD
 LOC .      S34 T39N R78W:   LOCATION
 CNTY.            NATRONA:   COUNTY
 STAT.            WYOMING:   STATE
 CTRY. UNITED STATES OF AMERICA:   COUNTRY
 SRVC.       Schlumberger:   SERVICE COMPANY
 DATE.        15-MAR-1977:   LOGDATE
 API .       490251030500:   API NUMBER
~CURVE INFORMATION
#MNEM.UNIT       API CODE    CURVE DESCRIPTION
#----------   ------------   ------------------------------
 DEPT.F                  :   
 GRD .GAPI   45 310 01 00:   GAMMA RAY FROM DENSITY LOG
 CORR.G/C3   45 356 01 00:   DENSITY CORRECTION
 RHOB.G/C3   45 350 01 00:   BULK DENSITY
 DPOR.DEC    45 890 12 00:   DENSITY POROSITY SANDSTONE
 SPR .MV     07 010 01 00:   SPONTANEOUS POTENTIAL
 LL8 .OHMM   07 220 08 00:   LATEROLOG-8 RES.
 ILD .OHMM   07 120 46 00:   INDUCTION LOG DEEP
 ILM .OHMM   07 120 44 00:   INDUCTION LOG MEDIUM
 CALD.IN     45 280 60 00:   CALIPER
~PARAMETER INFORMATION
#MNEM.UNIT          VALUE    DESCRIPTION
#----------   ------------   ------------------------------
 PD  .                 GL:   PERMANENT DATUM
 EPD .F              5087:   ELEVATION PERMANENT DATUM
 LMF .                 GL:   LOG MEASURED FROM
 DMF .                 GL:   DRILLING MEASURED FROM
 EKB .F              5091:   KELLING BUSHING
 EGL .F              5087:   GROUND LEVEL
 DATE.            3-15-77:   RUN DATE
 RUN .                  1:   RUN NUMBER
 DD  .F               670:   DEPTH DRILLER
 DL  .F               663:   DEPTH LOGGER
 BLI .F               657:   BOTTOM LOG INTERVAL
 TLI .F                40:   TOP LOG INTERVAL
 CS  .IN            8.625:   CASING SIZE
 CBD .F                40:   CASING BOTTOM DRILLER
 CBL .F                40:   CASING BOTTOM LOGGER
 BS  .IN            7.875:   BIT SIZE
 BSD .F               670:   BIT SIZE AT DEPTH
 DFT .                KCL:   DRILLING FLUID TYPE
 DFD .                8.6:   DRILLING FLUID DENSITY
 DFV .                 31:   DRILLING FLUID VISCOSITY
 DFPH.                  8:   DRILLING FLUID PH
 DFL .                8.8:   DRILLING FLUID LOSS
 MSS .                PIT:   MUD SAMPLE SOURCE
 RMS .OHMM           .246:   RESISTIVITY MUD SAMPLE
 MST .F                76:   MUD SAMPLE TEMPERATURE
 RMF .OHMM           .243:   RESISTIVITY MUD FILTRATE SAMPLE
 MFST.F                76:   MUD FILTRATE SAMPLE TEMPERATURE
 MFSS.                  M:   MUD FILTRATE SAMPLE SOURCE
 RMB .OHMM           .267:   RESISTIVITY MUD AT BHT
 BHT .F                70:   BOTTOM HOLE TEMPERATURE
 TCS .HRS            1800:   TIME CURCULATED STOPPED
 TLAB.HRS            2200:   TIME LOGGER AT BOTTOM
 MRT .F                70:   MAXIMUM RECORDED TEMPERATURE
 LUN .               5642:   LOGGING UNIT NUMBER
 LUL .               CSPR:   LOGGING UNIT LOCATION
 ENGI.             MARTIN:   RECORDING ENGINEER
 WITN.              BURKE:   WITNESSED BY
 CLNT.            A2DTECH:   CLIENT CODE
 ORIG. 2", 2.5", 5" PRINT:   ORIGIN OF DATA
 UWI .       490251030500:   UNIQUE WELL ID
 DICO. A2D Technologies, Inc.:   DIGITIZING COMPANY
~OTHER INFORMATION
~A   DEPT       GRD      CORR       RHOB       DPOR        SPR        LL8        ILD        ILM       CALD   
# ...
  618.0000   100.4581     0.0327     2.4998     0.0905   -48.5037    13.2250    11.3722    11.8897     8.0480
  618.5000    98.3604     0.0063     2.4891     0.0942   -48.7639    13.1441    11.2785    11.7917     8.0462
  619.0000    97.4777     0.0184     2.4786     0.0941   -49.0240    12.9274    11.1855    11.6945     8.0445
  619.5000    98.7054     0.0219     2.4771     0.0954   -49.2845    12.7143    11.0932    11.5980     8.0428
  620.0000    98.9382     0.0172     2.4896     0.0885   -49.5450    12.5047    11.0017    11.5024     8.0410
  620.5000    97.4378     0.0300     2.4931     0.0858   -49.8055    12.2980    10.9110    11.4075     8.0393
  621.0000    96.0701     0.0134     2.4804     0.0956   -50.0660    12.1451    10.8211    11.3135     8.0375
  621.5000    97.3774     0.0005     2.4680     0.1066   -50.3265    11.8635    10.6868    11.1369     8.0358
  622.0000   100.2359    -0.0053     2.4589     0.1070   -50.5870    11.5499    10.3916    10.8414     8.0341
  622.5000   105.1637     0.0073     2.4674     0.1012   -50.8471    11.2380    10.1045    10.5537     8.0323
  623.0000   109.5600     0.0151     2.4780     0.0990   -51.1075    10.9937     9.8253    10.2737     8.0306
  623.5000   109.5391     0.0115     2.4866     0.0965   -51.3734    10.6875     9.5539    10.0010     8.0289
  624.0000   108.8659     0.0235     2.4830     0.0926   -51.8106    10.3923     9.1107     9.6958     8.0271
  624.5000   107.3946     0.0323     2.4733     0.1004   -52.2349    10.1054     8.6110     9.3829     8.0254
  625.0000   106.9117     0.0124     2.4784     0.1046   -52.4995     9.8263     8.1396     9.0840     8.0237
  625.5000   108.7610     0.0214     2.4834     0.0961   -52.8417     9.7361     7.6910     8.7928     8.0219
  626.0000   111.7903     0.0335     2.4869     0.0910   -53.5254     9.5175     7.2607     7.7119     8.0202
  626.5000   114.7984     0.0234     2.4763     0.1150   -54.1952     9.2976     6.7961     6.7883     8.0184
  627.0000   121.3867     0.0452     2.4634     0.1170   -54.8655     8.3784     6.4227     5.9744     8.0179
  627.5000   128.1821     0.0465     2.4442     0.1291   -55.5372     6.2148     5.9893     5.2191     8.0179
  628.0000   129.5710     0.0237     2.4143     0.1455   -56.2158     4.3700     5.7571     4.7004     8.0179
  628.5000   118.1353     0.0029     2.4139     0.1267   -56.0981     3.6311     5.8104     5.1115     8.0179
  629.0000   108.4007     0.0137     2.4668     0.1072   -55.8537     7.8253     5.7571     5.7176     8.0179
  629.5000   106.4763     0.0213     2.5219     0.0878   -55.4208    13.3197     5.7571     6.3956     8.0179
  630.0000   106.7008     0.0145     2.5125     0.0746   -54.6327    12.4085     6.1293     7.1539     8.0179
  630.5000   104.9580     0.0055     2.4940     0.0931   -53.8549    11.5051     6.8093     7.9524     8.0179
  631.0000   104.2274     0.0041     2.4802     0.0994   -53.3380    10.9723     7.5661     8.5791     8.0179
  631.5000   105.7993     0.0049     2.4787     0.0998   -53.5463    10.9736     8.4080     9.2222     8.0179
  632.0000   107.3860     0.0057     2.4830     0.0858   -53.6389    11.1008     9.3391     9.9079     8.0179
  632.5000   108.9455     0.0055     2.4883     0.0893   -53.2355    11.2687     9.7520    10.1941     8.0179
  633.0000   110.1793     0.0045     2.4859     0.0974   -52.8405    11.4391     9.8243    10.2919     8.0179
  633.5000   109.9132     0.0046     2.4848     0.0978   -52.4460    11.5997     9.8972    10.3709     8.0179
  634.0000   107.8101     0.0188     2.4973     0.0878   -52.0518    11.7182     9.9705    10.4505     8.0179
  634.5000   106.5415     0.0245     2.5046     0.0814   -51.6570    11.8488    10.0445    10.5323     8.0179
  635.0000   108.8232     0.0169     2.5030     0.0901   -51.2617    12.0353    10.1018    10.6315     8.0179
  635.5000   109.5475     0.0373     2.5007     0.0750   -50.9069    12.7775    10.3425    10.8776     8.0179
  636.0000   109.8056     0.0088     2.5004     0.0804   -50.7786    13.5675    10.5797    11.1271     8.0179
  636.5000   109.0507     0.0059     2.4992     0.0886   -50.6437    13.5675    10.8224    11.3823     8.0179
  637.0000   107.3129     0.0084     2.4917     0.0946   -50.5077    13.4877    11.0706    11.6434     8.0179
  637.5000   104.9957     0.0124     2.5055     0.0876   -50.3709    13.4430    11.3245    11.9104     8.0179
  638.0000   104.2101     0.0259     2.5264     0.0722   -50.2383    13.8968    11.5843    12.1836     8.0175
  638.5000   104.3625     0.0394     2.5437     0.0573   -50.1082    14.2916    11.9222    12.4911     8.0171
  639.0000   104.5266     0.0457     2.5375     0.0610   -49.9775    14.7411    11.9840    12.5617     8.0166
  639.5000   104.4946     0.0325     2.5236     0.0695   -49.8125    14.3993    12.0591    12.6434     8.0161
  640.0000   101.3208     0.0223     2.5099     0.0777   -49.5927    14.2075    12.1364    12.7244     8.0157
  640.5000    99.1862     0.0035     2.5018     0.0850   -49.3736    14.6657    12.2143    12.8062     8.0152
  641.0000    99.7288     0.0050     2.5022     0.0877   -49.1524    15.1126    12.2928    12.8884     8.0147
  641.5000   100.5766     0.0101     2.5024     0.0902   -48.8641    15.5793    12.3717    12.9712     8.0143
  642.0000   101.4095     0.0176     2.4973     0.0904   -48.5649    14.9671    12.4512    13.0546     8.0138
  642.5000   100.7422     0.0271     2.4903     0.0902   -47.8796    14.3711    12.5312    13.1384     8.0133
  643.0000    99.7797     0.0184     2.4883     0.1102   -47.4297    14.0740    12.6030    13.1997     8.0129
  643.5000   100.7393     0.0100     2.4863     0.0991   -47.2836    14.6588    12.6215    13.2209     8.0124
  644.0000   101.4030     0.0137     2.4843     0.0920   -47.1390    15.3283    12.6417    13.2421     8.0119
  644.5000  -999.2500     0.0199     2.4843     0.0955   -46.9947    15.7236    12.6620    13.2633     8.0115
  645.0000  -999.2500     0.0217     2.4866     0.0970   -46.8497    15.4686    12.6822    13.2845     8.0110
  645.5000  -999.2500     0.0232     2.4889     0.0922   -46.7055    15.0858    12.7025    13.3058     8.0106
  646.0000  -999.2500     0.0175     2.4879     0.0930   -46.5590    14.7125    12.7198    13.3193     8.0101
  646.5000  -999.2500     0.0030     2.4855     0.0951   -46.6449    14.3443    12.6245    13.2025     8.0096
  647.0000  -999.2500     0.0053     2.4892     0.0970   -46.8881    13.9380    12.5261    13.1021     8.0092
  647.5000  -999.2500     0.0083     2.4964     0.0890   -47.1298    13.9479    12.4285    13.0025     8.0087
  648.0000  -999.2500     0.0100     2.4908     0.0894   -47.2587    14.6497    12.3318    12.9036     8.0082
  648.5000  -999.2500     0.0023     2.4783     0.0994   -47.1122    15.0154    12.2359    12.8055     8.0078
  649.0000  -999.2500    -0.0057     2.4668     0.1054   -46.9706    14.7960    12.1407    12.7081     8.0073
  649.5000  -999.2500    -0.0023     2.4671     0.1015   -46.8272    14.5744    12.0462    12.6115     8.0069
  650.0000  -999.2500     0.0081     2.4916     0.0937   -46.7010    14.3561    11.9525    12.5156     8.0064
  650.5000  -999.2500     0.0169     2.4971     0.0898   -46.8504    14.2075    11.8033    12.3571     8.0059
  651.0000  -999.2500     0.0125     2.4865     0.0943   -47.0202    14.2075    11.6327    12.1747     8.0055
  651.5000  -999.2500     0.0073     2.4697     0.0994   -47.1894    14.2075    11.4647    11.9947     8.0050
  652.0000  -999.2500     0.0114     2.4772     0.0962   -47.3583    13.6957    11.2990    11.8175     8.0045
  652.5000  -999.2500     0.0198     2.4915     0.0900   -47.5272    13.0037    11.1358    11.6429     8.0041
  653.0000  -999.2500     0.0269     2.4982     0.0854   -47.6963    12.5988    10.9749    11.4709     8.0036
  653.5000  -999.2500     0.0148     2.4763     0.0898   -47.8703    12.6035    10.8163    11.3014     8.0031
  654.0000  -999.2500     0.0014     2.4850     0.0954   -47.8137    12.3711    10.6600    11.1343     8.0027
