~VERSION INFORMATION
 VERS.                2.0:   CWLS LOG ASCII STANDARD - VERSION 2.0
 WRAP.                 NO:   ONE LINE PER DEPTH STEP
~WELL INFORMATION
#MNEM.UNIT      DATA TYPE    INFORMATION
#----------   ------------   ------------------------------
 STRT.F           80.0000:   START DEPTH
 STOP.F          964.0000:   STOP DEPTH
 STEP.F            0.5000:   STEP LENGTH
 NULL.          -999.2500:   NO VALUE
 COMP. U S NAVY-INTEX OIL:   COMPANY
 WELL. N.P.R. #3` #57-S-2:   WELL
 FLD .        TEAPOT DOME:   FIELD
 LOC .       S2 T38N R78W:   LOCATION
 CNTY.            NATRONA:   COUNTY
 STAT.            WYOMING:   STATE
 CTRY. UNITED STATES OF AMERICA:   COUNTRY
 SRVC.       Schlumberger:   SERVICE COMPANY
 DATE.        04-AUG-1961:   LOGDATE
 API .       490250640500:   API NUMBER
~CURVE INFORMATION
#MNEM.UNIT       API CODE    CURVE DESCRIPTION
#----------   ------------   ------------------------------
 DEPT.F                  :   
 GR  .GAPI   30 310 01 00:   GAMMA RAY
 ASN .OHMM   05 041 16 00:   AMPLIFIED SHORT NORMAL 16"
 CILD.MMHO   05 110 46 00:   CONDUCTIVITY INDUCTION LOG DEEP
 ILD .OHMM   05 120 46 00:   INDUCTION LOG DEEP
 SPR .MV     05 010 01 00:   SPONTANEOUS POTENTIAL FROM RES.
~PARAMETER INFORMATION
#MNEM.UNIT          VALUE    DESCRIPTION
#----------   ------------   ------------------------------
 LMF .                 KB:   LOG MEASURED FROM
 DMF .                 KB:   DRILLING MEASURED FROM
 EKB .F              5205:   KELLING BUSHING
 EGL .F              5200:   GROUND LEVEL
 DATE.        04-AUG-1961:   RUN DATE
 RUN .                  1:   RUN NUMBER
 DD  .F               965:   DEPTH DRILLER
 DL  .F               965:   DEPTH LOGGER
 BLI .F               954:   BOTTOM LOG INTERVAL
 TLI .F               150:   TOP LOG INTERVAL
 BS  .IN             6.75:   BIT SIZE
 BSD .F               965:   BIT SIZE AT DEPTH
 DFT .       OIL EMULSION:   DRILLING FLUID TYPE
 DFD .                9.4:   DRILLING FLUID DENSITY
 DFV .                 65:   DRILLING FLUID VISCOSITY
 MSS .           FLOWLINE:   MUD SAMPLE SOURCE
 RMS .OHMM            1.0:   RESISTIVITY MUD SAMPLE
 MST .F                80:   MUD SAMPLE TEMPERATURE
 TCS .HRS               1:   TIME CURCULATED STOPPED
 LUN .               2544:   LOGGING UNIT NUMBER
 LUL .                 NC:   LOGGING UNIT LOCATION
 ENGI.            EARNEST:   RECORDING ENGINEER
 WITN.          JORGENSEN:   WITNESSED BY
 CLNT.            A2DTECH:   CLIENT CODE
 ORIG.        2" 5" PRINT:   ORIGIN OF DATA
 UWI .       490250640500:   UNIQUE WELL ID
 DICO. A2D Technologies, Inc.:   DIGITIZING COMPANY
~OTHER INFORMATION
~A   DEPT       GR        ASN       CILD        ILD        SPR   
# ...
  690.0000  -999.2500     7.2504   174.5088     5.5090   -62.8954
  690.5000  -999.2500     6.9808   183.4745     5.5105   -62.8924
  691.0000  -999.2500     6.7412   189.4492     5.5120   -63.3372
  691.5000  -999.2500     6.4867   189.4119     5.5135   -63.5089
  692.0000  -999.2500     6.2019   189.3821     5.6647   -63.0327
  692.5000  -999.2500     6.2029   186.3538     5.8159   -62.8805
  693.0000  -999.2500     6.2643   183.3255     5.8962   -62.8775
  693.5000  -999.2500     6.4012   180.2973     6.0489   -63.0239
  694.0000  -999.2500     6.6301   174.2705     6.2695   -63.0208
  694.5000  -999.2500     6.9300   168.2437     6.4376   -63.0178
  695.0000  -999.2500     7.1075   163.7162     6.6567   -62.8656
  695.5000  -999.2500     7.2283   159.1886     6.8094   -62.4149
  696.0000  -999.2500     7.3315   157.6596     6.9491   -62.1134
  696.5000  -999.2500     7.4371   156.1305     7.0254   -61.6626
  697.0000  -999.2500     7.4945   156.1008     7.0272   -61.5104
  697.5000  -999.2500     7.4648   156.0710     7.1036   -61.8060
  698.0000  -999.2500     7.4351   156.0412     7.1799   -62.1075
  698.5000  -999.2500     7.4504   156.0114     7.1814   -61.8000
  699.0000  -999.2500     7.4507   155.9816     7.1080   -62.0955
  699.5000  -999.2500     7.4510   154.4526     7.1095   -62.3910
  700.0000    63.2987     7.4329   155.9220     7.0147   -62.6866
  700.5000    59.7154     7.3916   160.9090     6.7382   -62.5389
  701.0000    57.4939     7.3169   163.3883     6.7397   -62.5404
  701.5000    56.9182     7.2423   166.3865     6.5911   -62.5419
  702.0000    60.5983     7.1676   172.3539     6.4429   -62.5434
  702.5000    61.8275     7.0630   176.8615     6.3695   -62.3957
  703.0000    61.3847     6.9283   187.3464     6.0720   -62.2479
  703.5000    62.2792     6.7487   199.3643     5.6993   -61.9509
  704.0000    58.7168     6.4792   208.3550     5.2517   -61.8028
  704.5000    56.0451     6.0297   215.8025     4.9538   -61.3569
  705.0000    52.7791     5.7301   218.7408     4.8800   -60.7613
  705.5000    50.7019     5.5206   217.1714     4.8071   -60.4643
  706.0000    49.5154     5.5209   212.6535     4.9583   -60.6151
  706.5000    53.3824     5.5811   208.0705     5.2592   -61.0643
  707.0000    52.0480     5.6564   196.1216     5.6349   -61.3643
  707.5000    52.7939     5.8816   184.0334     6.0855   -61.6643
  708.0000    53.8370     6.4666   176.5918     6.3864   -61.9643
  708.5000    54.2857     6.7817   172.1589     6.3879   -62.1151
  709.0000    53.8429     7.0219   172.1439     6.3146   -62.2658
  709.5000    53.1022     7.2021   172.1289     6.3161   -62.2673
  710.0000    56.9691     7.2624   172.1139     6.3924   -62.1192
  710.5000    54.1489     7.3976   172.0990     6.4688   -61.9714
  711.0000    52.3942     7.4729   170.5847     6.6200   -61.9733
  711.5000    53.8576     7.4732   169.0705     6.7710   -61.8252
  712.0000    50.7402     7.4885   166.0570     6.9224   -61.8271
  712.5000    49.9995     7.5937   162.7943     6.9239   -61.6789
  713.0000    54.0151     7.7440   156.9011     7.0751   -61.3819
  713.5000    56.0975     7.8192   152.3832     7.0766   -61.0853
  714.0000    54.3174     7.8345   151.0049     7.2278   -60.7883
  714.5000    58.0358     7.8948   156.9869     7.3041   -60.6401
  715.0000    56.9987     7.9850   150.6742     7.3805   -60.3435
  715.5000    55.6643     8.1802   143.3080     7.5317   -60.7927
  716.0000    51.9526     8.2855   141.9490     7.5332   -61.2420
  716.5000    56.8589     8.3158   143.4337     7.6844   -61.5420
  717.0000    55.0788     8.3311   144.9180     7.8356   -61.6927
  717.5000    53.1501     8.3614   144.9025     7.7619   -61.9928
  718.0000    54.0446     8.4216   144.8876     7.7637   -62.2928
  718.5000    55.5334     8.4819   144.8726     7.8401   -62.5928
  719.0000    57.0223     8.5572   144.8576     7.8416   -62.7435
  719.5000    54.2020     8.6474   144.8426     7.8431   -62.7450
  720.0000    56.5824     8.6177   143.1289     7.6945   -62.5972
  720.5000    55.3967     8.5880   141.8141     7.6212   -62.4495
  721.0000    60.6121     8.4834   141.7991     7.5478   -62.3013
  721.5000    64.2785     8.3488   141.7841     7.5494   -62.0043
  722.0000    68.2357     8.1992   141.7691     7.4760   -61.8566
  722.5000    62.9872     8.0495   141.7541     7.4026   -61.5599
  723.0000    61.2071     7.8549   141.7391     7.3296   -61.2629
  723.5000    55.7123     7.7803   144.7232     7.2559   -60.9659
  724.0000    60.3215     7.6846   146.4471     7.1077   -61.1167
  724.5000    61.2152     7.5477   152.4337     7.0212   -61.2674
  725.0000    58.2472     7.3513   162.9185     6.8113   -61.1197
  725.5000    56.4663     7.1255   178.4108     6.5018   -61.1211
  726.0000    61.0762     6.8702   193.1437     6.1188   -60.8238
  726.5000    62.5643     6.4504   208.3948     5.5978   -60.8256
  727.0000    57.3674     6.0612   223.6574     5.0115   -61.1256
  727.5000    58.2619     5.6462   245.2020     4.3227   -61.7241
  728.0000    55.8867     5.2111   276.4221     3.5858   -62.0241
  728.5000    57.6735     4.8545   317.1940     3.0649   -61.7271
  729.0000    54.4075     4.3583   356.7695     2.7001   -61.2809
  729.5000    57.9765     3.7946   405.6840     2.4029   -61.1327
  730.0000    60.8019     3.5712   435.3793     2.2605   -60.6868
  730.5000    57.5359     3.3316   447.3621     2.2620   -60.3898
  731.0000    59.0248     3.0771   442.8456     2.2635   -60.2417
  731.5000    57.9876     2.9424   429.3374     2.2650   -60.2436
  732.0000    61.8546     2.8828   403.8351     2.3413   -60.2451
  732.5000    60.3717     2.9580   378.3329     2.5686   -60.2466
  733.0000    57.2543     3.3181   351.3314     2.8687   -60.2481
  733.5000    53.8397     3.6783   309.3374     3.2440   -60.2495
  734.0000    54.1398     4.2483   261.3464     3.7695   -60.2510
  734.5000    57.8575     4.5035   228.3479     4.3698   -60.4018
  735.0000    58.8313     5.0735   210.3419     4.8952   -60.5522
  735.5000    54.0001     5.7484   189.3375     5.4955   -60.5537
  736.0000    51.0313     6.0786   180.3270     6.0210   -60.8816
  736.5000    48.3596     6.1388   175.8143     6.3967   -61.5059
  737.0000    44.0535     6.1091   169.8023     6.4731   -62.0766
  737.5000    48.5141     6.0944   171.2865     6.4746   -62.0522
  738.0000    54.1910     6.1398   175.7693     6.4012   -61.8806
  738.5000    58.0616     6.2300   186.2491     6.1033   -61.6074
  739.0000    58.3298     6.2903   195.2296     5.8803   -61.4378
  739.5000    56.0723     6.2906   204.2101     5.5075   -61.1418
  740.0000    54.0761     6.2909   213.1907     5.1348   -60.8458
  740.5000    50.3449     6.1712   222.1712     4.7620   -60.5686
  741.0000    47.9782     5.8417   231.1517     4.4641   -60.2716
  741.5000    48.8356     5.3772   241.6315     4.3159   -60.1238
  742.0000    52.8505     5.1527   247.6135     4.2426   -59.9761
  742.5000    57.3111     5.0330   252.1000     4.2303   -59.9776
  743.0000    59.8400     4.8984   253.5843     4.3204   -60.1423
  743.5000    62.0718     4.9137   249.0678     4.4716   -60.5906
  744.0000    59.5488     5.1239   238.5581     4.6228   -60.7403
  744.5000    57.4708     5.2741   225.0499     4.9237   -60.8791
  745.0000    60.4462     5.4543   210.0424     5.1498   -60.8806
  745.5000    62.6780     5.6645   195.0349     5.4507   -60.8731
  746.0000    58.6691     5.9497   183.0259     5.7516   -60.8836
  746.5000    55.4031     6.3398   177.0139     6.2022   -60.7358
  747.0000    55.5546     6.6249   171.0019     6.5779   -60.7373
  747.5000    54.9632     6.8801   164.9899     6.8040   -60.8881
  748.0000    52.7366     7.3002   158.9780     7.0301   -60.8896
  748.5000    58.9810     7.4804   154.4652     7.1064   -60.7418
  749.0000    63.2923     7.6156   151.4518     7.1828   -60.5920
  749.5000    60.6214     7.6759   149.9375     7.1843   -60.1478
  750.0000    53.4918     7.7061   148.4270     7.1675   -60.0000
  750.5000    53.0520     7.6069   150.7634     7.0601   -59.9185
