~VERSION INFORMATION
 VERS.                2.0:   CWLS LOG ASCII STANDARD - VERSION 2.0
 WRAP.                 NO:   ONE LINE PER DEPTH STEP
~WELL INFORMATION
#MNEM.UNIT      DATA TYPE    INFORMATION
#----------   ------------   ------------------------------
 STRT.F           42.0000:   START DEPTH
 STOP.F          433.5000:   STOP DEPTH
 STEP.F            0.5000:   STEP LENGTH
 NULL.          -999.2500:   NO VALUE
 COMP. BROWN JOHN E&C INC:   COMPANY
 WELL.    SX 10 #74-51-10:   WELL
 FLD .             TEAPOT:   FIELD
 LOC .      S10 T38N R78W:   LOCATION
 CNTY.            NATRONA:   COUNTY
 STAT.            WYOMING:   STATE
 CTRY. UNITED STATES OF AMERICA:   COUNTRY
 SRVC.       Schlumberger:   SERVICE COMPANY
 DATE.        10-SEP-1990:   LOGDATE
 API .       490251132600:   API NUMBER
~CURVE INFORMATION
#MNEM.UNIT       API CODE    CURVE DESCRIPTION
#----------   ------------   ------------------------------
 DEPT.F                  :   
 ILM .OHMM   07 120 44 00:   INDUCTION LOG MEDIUM
 ILD .OHMM   07 120 46 00:   INDUCTION LOG DEEP
 GRR .GAPI   07 310 01 00:   GAMMA RAY FROM RES. LOG.
~PARAMETER INFORMATION
#MNEM.UNIT          VALUE    DESCRIPTION
#----------   ------------   ------------------------------
 PD  .                 GL:   PERMANENT DATUM
 EPD .F              5177:   ELEVATION PERMANENT DATUM
 LMF .                 KB:   LOG MEASURED FROM
 DAPD.F                10:   FEET ABOVE PERMANENT DATUM
 DMF .                 KB:   DRILLING MEASURED FROM
 EKB .F              5187:   KELLING BUSHING
 EGL .F              5177:   GROUND LEVEL
 DATE.        10-SEP-1996:   RUN DATE
 RUN .                  1:   RUN NUMBER
 DD  .F               496:   DEPTH DRILLER
 DL  .F               440:   DEPTH LOGGER
 BLI .F               490:   BOTTOM LOG INTERVAL
 TLI .F               520:   TOP LOG INTERVAL
 CS  .IN            8.625:   CASING SIZE
 CBD .F                42:   CASING BOTTOM DRILLER
 CBL .F                52:   CASING BOTTOM LOGGER
 BS  .IN            7.875:   BIT SIZE
 BSD .F               496:   BIT SIZE AT DEPTH
 DFT .                AIR:   DRILLING FLUID TYPE
 MFSS.               MEAS:   MUD FILTRATE SAMPLE SOURCE
 MCSS.               CALC:   MUD CAKE SAMPLE SOURCE
 BHT .F                69:   BOTTOM HOLE TEMPERATURE
 TLAB.HRS            0146:   TIME LOGGER AT BOTTOM
 MRT .F                69:   MAXIMUM RECORDED TEMPERATURE
 LUN .               8199:   LOGGING UNIT NUMBER
 LUL .             CASPER:   LOGGING UNIT LOCATION
 ENGI.              SPEIL:   RECORDING ENGINEER
 WITN.          G. STRONG:   WITNESSED BY
 CLNT.            A2DTECH:   CLIENT CODE
 ORIG.      2" & 5" PRINT:   ORIGIN OF DATA
 UWI .       490251132600:   UNIQUE WELL ID
 DICO. A2D Technologies, Inc.:   DIGITIZING COMPANY
~OTHER INFORMATION
~A   DEPT      ILM        ILD         GRR  
# ...
  315.0000    21.1977    26.7788    77.9693
  315.5000    22.0436    26.7023    78.1390
  316.0000    20.9528    26.3386    78.4908
  316.5000    20.2799    25.9799    79.7927
  317.0000    20.5460    25.7692    81.4014
  317.5000    19.9076    25.6570    83.2244
  318.0000    19.9076    25.5307    85.0650
  318.5000    19.9076    25.3429    85.7275
  319.0000    19.7673    25.1564    85.8913
  319.5000    19.6323    24.8063    86.0164
  320.0000    19.4981    24.3847    85.1898
  320.5000    19.3618    23.9703    83.1836
  321.0000    19.1362    23.5629    80.5278
  321.5000    18.9079    23.1624    78.0936
  322.0000    18.6824    22.8760    77.5106
  322.5000    18.4596    22.9346    78.6223
  323.0000    18.3147    23.0007    80.0230
  323.5000    18.4842    23.0671    81.4132
  324.0000    18.6114    23.1336    80.9808
  324.5000    18.7902    23.2003    78.0519
  325.0000    18.9995    23.2672    75.8377
  325.5000    19.1832    23.3343    77.2460
  326.0000    19.0236    23.4016    80.0095
  326.5000    18.8837    23.4691    82.1793
  327.0000    18.6910    23.5208    82.1111
  327.5000    18.4681    23.2923    81.7183
  328.0000    18.2478    23.0752    82.9981
  328.5000    18.1458    22.8601    85.3179
  329.0000    18.1458    22.6470    87.1695
  329.5000    18.1458    22.4359    85.5851
  330.0000    18.1458    22.2270    82.7781
  330.5000    18.1458    22.0196    79.9178
  331.0000    18.1458    21.7783    81.4553
  331.5000    18.1458    21.2975    83.7633
  332.0000    17.6772    20.8275    84.7754
  332.5000    17.2063    20.3675    83.6503
  333.0000    16.7480    19.9179    84.2927
  333.5000    16.3450    19.4781    85.4660
  334.0000    15.9576    19.0481    86.6464
  334.5000    15.4984    18.6276    87.8277
  335.0000    15.5023    18.2163    89.0741
  335.5000    15.5017    18.0263    87.3547
  336.0000    15.4475    17.8126    84.7368
  336.5000    15.4099    17.8417    82.6314
  337.0000    15.3582    17.8983    82.0965
  337.5000    15.5351    17.9571    82.2467
  338.0000    15.8451    18.1122    83.1573
  338.5000    16.1614    18.3135    85.2946
  339.0000    16.3874    18.0501    87.1720
  339.5000    16.3874    17.8026    86.1248
  340.0000    15.9470    17.5598    84.7727
  340.5000    15.4943    17.3243    85.7799
  341.0000    15.0545    17.0664    87.5044
  341.5000    14.6629    16.8162    88.9057
  342.0000    14.2610    16.4070    87.0612
  342.5000    14.1153    15.8540    84.9112
  343.0000    13.9599    15.3197    84.4072
  343.5000    13.8061    15.1386    84.0079
  344.0000    13.6540    15.0420    84.0042
  344.5000    13.4897    14.9372    84.6761
  345.0000    13.6590    14.9372    87.6320
  345.5000    13.8995    14.9372    90.4990
  346.0000    13.9991    14.9372    91.7051
  346.5000    13.7256    14.9369    90.6532
  347.0000    13.5332    14.9356    89.7630
  347.5000    13.3653    15.0618    90.2437
  348.0000    13.5908    15.3132    90.6993
  348.5000    13.7958    15.5687    90.6795
  349.0000    13.9997    15.8286    89.7882
  349.5000    14.1886    16.0947    88.0668
  350.0000    14.3937    16.3914    86.8200
  350.5000    14.3371    16.3859    86.8591
  351.0000    14.2758    16.1858    85.9693
  351.5000    14.1013    15.9191    84.8487
  352.0000    13.9023    15.6568    84.7755
  352.5000    13.6076    15.3995    86.1299
  353.0000    13.3064    15.1436    87.3308
  353.5000    13.0003    14.8430    87.6061
  354.0000    12.8021    14.5246    87.1252
  354.5000    12.5989    14.2143    86.4671
  355.0000    12.3989    13.9105    86.7296
  355.5000    12.2021    13.7681    87.1649
  356.0000    12.0085    13.6520    88.0096
  356.5000    11.8486    13.5377    88.8881
  357.0000    11.8486    13.4897    88.8037
  357.5000    11.8486    13.6743    87.2466
  358.0000    12.1266    13.9991    84.5627
  358.5000    12.6728    15.0180    81.9106
  359.0000    13.4711    16.0865    81.7741
  359.5000    14.7905    17.9829    83.6087
  360.0000    17.1558    20.2215    83.2275
  360.5000    19.7215    22.7389    80.2542
  361.0000    22.0586    25.9265    75.8120
  361.5000    24.6852    30.0176    71.1709
  362.0000    27.5676    34.7543    69.4892
  362.5000    30.7743    40.2384    71.0013
  363.0000    32.5378    43.5866    72.8489
  363.5000    33.9199    45.0428    74.7609
  364.0000    35.3606    45.4116    75.0427
  364.5000    36.3569    44.5024    73.5350
  365.0000    34.7225    43.5849    72.5437
  365.5000    33.5335    42.6837    71.7765
  366.0000    32.3930    41.8072    72.2633
  366.5000    31.5748    41.0111    73.6479
  367.0000    30.4880    39.8087    74.4692
  367.5000    30.5296    38.6718    74.9394
  368.0000    30.6069    37.5462    75.0886
  368.5000    30.6843    36.5297    73.5074
  369.0000    30.7718    35.7989    71.1775
  369.5000    30.3452    35.0826    69.4340
  370.0000    29.9282    34.0736    71.1358
  370.5000    29.9282    34.1808    76.8311
  371.0000    30.3996    34.3743    80.0656
  371.5000    30.8899    34.5690    81.8142
  372.0000    31.3474    34.8417    81.7152
  372.5000    32.5208    35.3228    80.6783
  373.0000    34.9128    36.0216    76.4413
  373.5000    38.7686    35.6641    73.7415
  374.0000    35.8103    35.0471    71.5791
  374.5000    31.6392    34.3399    71.8745
  375.0000    28.9396    34.0736    73.1687
  375.5000    27.7899    34.7305    74.5369
  376.0000    29.5753    35.3467    75.8989
  376.5000    32.5310    33.3100    77.2748
  377.0000    30.9188    31.6486    78.7439
  377.5000    28.8867    29.9393    79.9955
  378.0000    26.9931    28.5732    79.6600
  378.5000    25.2288    30.2093    78.0527
  379.0000    24.1838    30.7718    79.2527
  379.5000    25.0400    30.2684    80.6790
  380.0000    25.9371    29.9282    81.2553
  380.5000    26.7788    29.2669    80.1910
  381.0000    26.4300    28.6553    79.7704
  381.5000    25.8753    28.0565    81.0273
  382.0000    25.1407    27.4702    82.2685
  382.5000    24.4270    26.9081    81.4792
  383.0000    23.7336    26.3964    80.4198
  383.5000    23.0599    25.8945    81.1412
  384.0000    22.4053    25.2704    83.2385
  384.5000    21.8484    24.4095    82.4401
  385.0000    21.3303    23.5775    80.0632
  385.5000    20.8516    22.7695    78.5433
  386.0000    20.4687    22.4557    81.5546
  386.5000    20.4687    22.5247    86.4258
  387.0000    21.2597    22.6650    91.3007
  387.5000    22.0123    22.8635    91.3060
  388.0000    23.0144    23.3858    86.7106
  388.5000    24.0329    23.9174    78.1916
  389.0000    25.8245    24.4056    70.9611
  389.5000    25.4886    24.1815    67.6569
  390.0000    24.1299    23.9783    67.4248
  390.5000    21.7043    23.7789    70.0873
  391.0000    20.4687    23.3910    74.4340
  391.5000    20.1892    22.8210    79.0784
  392.0000    19.9076    21.8824    80.6878
  392.5000    19.0415    20.7274    81.9252
  393.0000    18.1492    19.5420    83.9161
  393.5000    17.4896    18.8310    85.8985
  394.0000    17.0062    18.3147    87.9260
  394.5000    16.7811    18.2368    87.1345
  395.0000    16.5268    18.1640    85.2604
  395.5000    16.2763    18.0915    82.6200
  396.0000    16.0296    18.0203    79.7703
  396.5000    15.9382    17.8952    78.5585
  397.0000    15.9382    17.7054    79.6528
  397.5000    15.9382    17.5831    80.6978
  398.0000    15.9053    17.4856    81.7086
  398.5000    15.6887    17.2066    81.8652
  399.0000    15.2108    16.9199    81.5733
  399.5000    14.6821    16.6381    81.2488
  400.0000    14.1236    16.3874    82.3308
  400.5000    14.1294    16.0952    84.0349
  401.0000    14.1294    15.7784    85.8315
  401.5000    14.1294    15.4674    88.3727
  402.0000    14.1310    15.2744    89.9978
  402.5000    14.0732    15.1447    88.0985
  403.0000    14.0078    15.0162    85.7672
  403.5000    13.9438    14.9372    85.7723
  404.0000    13.8700    14.9847    88.5550
  404.5000    14.0125    15.0192    90.4269
  405.0000    14.2610    15.0537    89.5339
  405.5000    14.1930    15.0761    89.0864
