~VERSION INFORMATION
 VERS.                2.0:   CWLS LOG ASCII STANDARD - VERSION 2.0
 WRAP.                 NO:   ONE LINE PER DEPTH STEP
~WELL INFORMATION
#MNEM.UNIT      DATA TYPE    INFORMATION
#----------   ------------   ------------------------------
 STRT.F           27.0000:   START DEPTH
 STOP.F          670.0000:   STOP DEPTH
 STEP.F            0.5000:   STEP LENGTH
 NULL.          -999.2500:   NO VALUE
 COMP. LAWRENCE/ALLISON INC:   COMPANY
 WELL. SX 11 WP 26 #26-11:   WELL
 FLD .           N.P.R #3:   FIELD
 LOC .      S11 T38N R78W:   LOCATION
 CNTY.            NATRONA:   COUNTY
 STAT.            WYOMING:   STATE
 CTRY. UNITED STATES OF AMERICA:   COUNTRY
 SRVC.            Unknown:   SERVICE COMPANY
 DATE.        11-SEP-1984:   LOGDATE
 API .       490251097700:   API NUMBER
~CURVE INFORMATION
#MNEM.UNIT       API CODE    CURVE DESCRIPTION
#----------   ------------   ------------------------------
 DEPT.F                  :   
 CNC .DEC    42 890 03 00:   NEUTRON POROSITY SANDSTONE
 AC  .US/F   60 520 00 00:   ACCOUSTIC SONIC
 SPR .MV     07 010 01 00:   SPONTANEOUS POTENTIAL
 RILD.OHMM   07 120 46 00:   INDUCTION LOG DEEP RESISTIVITY
 RILM.OHMM   07 120 44 00:   INDUCTION LOG MEDIUM RESISTIVITY
 RFOC.OHMM   07 220 04 00:   RESISTIVITY FOCUSED LOG
 GRD .GAPI   45 310 01 00:   GAMMA RAY FROM DENSITY LOG
 CALD.IN     45 280 60 00:   CALIPER FROM DENSITY LOG
 DEN .G/C3   45 350 01 00:   COMPENSATED BULK DENSTIY
 CORR.G/C3   45 356 01 00:   DENSITY CORRECTION
 PORD.DEC    45 890 12 00:   POROSITY DENSITY SANDSTONE
~PARAMETER INFORMATION
#MNEM.UNIT          VALUE    DESCRIPTION
#----------   ------------   ------------------------------
 PD  .                 GL:   PERMANENT DATUM
 EPD .F              5186:   ELEVATION PERMANENT DATUM
 LMF .                 GL:   LOG MEASURED FROM
 DMF .                 GL:   DRILLING MEASURED FROM
 EGL .F              5186:   GROUND LEVEL
 DATE.            9-11-84:   RUN DATE
 RUN .                  1:   RUN NUMBER
 DD  .F               672:   DEPTH DRILLER
 DL  .F               668:   DEPTH LOGGER
 BLI .F               668:   BOTTOM LOG INTERVAL
 TLI .F                45:   TOP LOG INTERVAL
 CS  .IN            8.625:   CASING SIZE
 CBD .F                42:   CASING BOTTOM DRILLER
 CBL .F                45:   CASING BOTTOM LOGGER
 BS  .IN            7.875:   BIT SIZE
 BSD .F               672:   BIT SIZE AT DEPTH
 DFT .          KCL WATER:   DRILLING FLUID TYPE
 MSS .               TANK:   MUD SAMPLE SOURCE
 RMS .OHMM            .36:   RESISTIVITY MUD SAMPLE
 MST .F                82:   MUD SAMPLE TEMPERATURE
 MFSS.                  C:   MUD FILTRATE SAMPLE SOURCE
 MCSS.                  C:   MUD CAKE SAMPLE SOURCE
 TCS .HRS               3:   TIME CURCULATED STOPPED
 MRT .F               100:   MAXIMUM RECORDED TEMPERATURE
 LUN .            HL 6307:   LOGGING UNIT NUMBER
 LUL .           GILLETTE:   LOGGING UNIT LOCATION
 ENGI.      FAHLSING/MACK:   RECORDING ENGINEER
 WITN.            JOHNSON:   WITNESSED BY
 CLNT.            A2DTECH:   CLIENT CODE
 ORIG.       2", 5" PRINT:   ORIGIN OF DATA
 UWI .       490251097700:   UNIQUE WELL ID
 DICO. A2D Technologies, Inc.:   DIGITIZING COMPANY
~OTHER INFORMATION
~A   DEPT      CNC          AC       SPR       RILD       RILM       RFOC        GRD       CALD        DEN       CORR       PORD   
# ...
  362.5000     0.3887   128.0890   -47.9750     2.3050     2.5430     3.9610    92.8290     8.0620     2.2090     0.0360     0.2590
  363.0000     0.3768   125.1410   -47.1360     2.4370     2.7230     4.4360    94.0890     8.0620     2.2580     0.0150     0.2370
  363.5000     0.3361   122.0660   -46.2980     2.6570     3.1080     4.5640    97.3570     8.0630     2.3000    -0.0030     0.2150
  364.0000     0.3138   118.9920   -45.4590     3.0800     3.5350     4.6450   100.9560     8.0630     2.3420     0.0130     0.1980
  364.5000     0.3203   115.9170   -44.6200     3.5040     3.9630     5.8720   104.5800     8.0640     2.3800     0.0330     0.1810
  365.0000     0.3385   112.6590   -43.7800     3.9270     4.3910     6.8860   108.2120     8.0640     2.3950     0.0340     0.1630
  365.5000     0.3574   111.3650   -42.9420     4.3510     4.7760     7.4310   111.7530     8.0650     2.4110     0.0140     0.1540
  366.0000     0.3338   111.7450   -42.1290     4.7320     4.9250     7.2410   112.2630     8.0660     2.4260    -0.0070     0.1500
  366.5000     0.3288   112.4600   -41.5140     4.8740     5.0600     7.0690   109.7180     8.0660     2.4310     0.0010     0.1470
  367.0000     0.3269   112.7920   -40.9510     5.0310     5.1960     6.8970   109.2620     8.0670     2.4330     0.0090     0.1470
  367.5000     0.3167   112.4020   -41.0380     5.2360     5.2850     6.7770   109.4080     8.0670     2.4330     0.0160     0.1480
  368.0000     0.3151   112.0030   -41.1600     5.1880     5.2850     6.9330   109.5210     8.0680     2.4400     0.0240     0.1450
  368.5000     0.3148   111.5930   -41.2810     4.9790     5.1730     7.2440   108.3920     8.0680     2.4460     0.0310     0.1400
  369.0000     0.3160   111.5360   -41.4030     4.7880     5.0130     7.5540   107.1950     8.0690     2.4490     0.0260     0.1360
  369.5000     0.3314   112.8890   -41.5240     4.5980     4.8530     7.7100   106.3670     8.0700     2.4450     0.0140     0.1450
  370.0000     0.3410   114.4410   -41.6460     4.4070     4.6930     6.7450   108.6780     8.0700     2.4330     0.0140     0.1560
  370.5000     0.3410   116.6720   -41.7680     4.1980     4.5340     6.0030   112.8580     8.0710     2.4170     0.0230     0.1650
  371.0000     0.3360   118.2550   -41.8890     4.1560     4.3740     5.4830   116.9910     8.0710     2.4010     0.0240     0.1740
  371.5000     0.3119   118.3370   -42.0100     4.1210     4.1980     5.7260   119.1770     8.0720     2.3840     0.0190     0.1760
  372.0000     0.3039   117.3760   -42.1290     4.2450     4.2120     6.0120   116.4930     8.0720     2.3850     0.0150     0.1720
  372.5000     0.2996   116.4560   -41.9210     4.5320     4.2370     5.9780   113.9440     8.0730     2.3940     0.0110     0.1680
  373.0000     0.2950   115.5360   -41.5810     4.8180     4.4020     5.8480   111.4270     8.0730     2.4030     0.0090     0.1620
  373.5000     0.2996   114.7180   -41.2410     5.1050     4.6370     6.0390   109.5290     8.0740     2.4130     0.0240     0.1550
  374.0000     0.3237   113.6640   -40.9000     5.3910     4.9560     6.4940   112.1980     8.0750     2.4300     0.0390     0.1440
  374.5000     0.3287   112.2300   -40.5580     5.6780     5.2750     6.9430   115.1330     8.0750     2.4460     0.0400     0.1340
  375.0000     0.3240   110.7950   -40.2150     5.9640     5.5950     6.7770   117.4390     8.0760     2.4590     0.0350     0.1310
  375.5000     0.3107   109.5460   -39.8760     6.2510     5.9140     7.1460   112.7880     8.0760     2.4660     0.0300     0.1250
  376.0000     0.3220   108.3750   -39.2700     6.5370     6.2330     7.6730   104.7260     8.0770     2.4760     0.0360     0.1200
  376.5000     0.3235   107.2030   -38.6270     6.9670     6.5520     8.1480   106.7170     8.0770     2.4870     0.0510     0.1170
  377.0000     0.3207   106.3160   -37.9800     6.9400     6.8720     8.1780   110.4530     8.0800     2.4830     0.0660     0.1230
  377.5000     0.3111   105.6210   -37.3300     6.9030     7.0960     8.2230   113.9850     8.0820     2.4710     0.0700     0.1270
  378.0000     0.3142   104.8900   -36.6780     6.9030     7.0960     8.1250   112.3910     8.0850     2.4670     0.0570     0.1200
  378.5000     0.3367   105.3880   -36.0270     6.8040     6.9850     7.9990   109.5440     8.0870     2.4790     0.0440     0.1130
  379.0000     0.3393   107.2330   -35.3760     6.7130     6.9000     7.6780   109.9030     8.0890     2.4910     0.0390     0.1110
  379.5000     0.3229   109.1620   -34.7250     6.6230     6.8150     7.3860   112.8050     8.0920     2.4940     0.0770     0.1300
  380.0000     0.3183   111.0900   -34.0740     6.5330     6.7300     7.0940   115.3760     8.0940     2.4560     0.1150     0.1480
  380.5000     0.3168   112.8700   -33.4240     6.4420     6.6530     6.7150   114.2330     8.0970     2.4190     0.1500     0.1670
  381.0000     0.3158   114.0000   -32.7680     6.3520     6.7390     6.8980   112.1090     8.0850     2.3820     0.1530     0.1810
  381.5000     0.3226   114.2270   -32.0920     6.2620     6.8170     7.1600   110.0310     8.0560     2.3700     0.1570     0.1860
  382.0000     0.3445   113.8500   -32.1680     6.1810     6.9030     7.4220   107.9590     7.9990     2.3860     0.1380     0.1750
  382.5000     0.3407   113.4280   -32.7150     6.2110     6.8150     7.7100   107.9070     7.9440     2.4070     0.1060     0.1610
  383.0000     0.3265   112.8420   -33.4050     6.2450     6.7170     7.7370   110.5220     7.8880     2.4260     0.0740     0.1470
  383.5000     0.3202   112.2570   -34.1000     6.2790     6.6190     7.7810   113.1070     7.8790     2.4440     0.0420     0.1370
  384.0000     0.3255   112.6870   -34.7960     6.2950     6.5210     7.7810   113.0830     7.8780     2.4540     0.0250     0.1350
  384.5000     0.3370   113.3140   -35.4910     6.1520     6.4230     7.4530   112.8420     7.8770     2.4480     0.0310     0.1400
  385.0000     0.3498   113.8270   -36.1870     5.9060     6.3250     7.0860   116.2160     7.8760     2.4410     0.0370     0.1450
  385.5000     0.3448   113.8870   -36.8830     5.6890     6.1300     6.9030   119.6600     7.8760     2.4360     0.0310     0.1450
  386.0000     0.3312   113.2190   -37.5780     5.4390     5.8920     7.1170   120.1780     7.8750     2.4380     0.0150     0.1430
  386.5000     0.3324   112.7170   -38.2750     5.2110     5.6520     7.2820   120.0120     7.8740     2.4440     0.0000     0.1410
  387.0000     0.3336   112.8180   -38.9780     4.9840     5.4110     7.4650   120.2650     7.8740     2.4400    -0.0080     0.1400
  387.5000     0.3345   114.3950   -39.2820     4.7570     5.1710     7.4990   122.2670     7.8730     2.4310    -0.0010     0.1500
  388.0000     0.3345   115.9730   -39.4750     4.6880     4.9550     6.5120   124.2570     7.8720     2.4020     0.0070     0.1690
  388.5000     0.3201   116.5440   -39.6860     4.7320     5.0940     5.4900   126.0820     7.8720     2.3670     0.0130     0.1950
  389.0000     0.3186   115.3350   -39.5800     4.8200     5.2800     4.7760   123.5970     7.8710     2.3530     0.0110     0.1860
  389.5000     0.3173   112.7990   -39.4800     4.7760     5.4660     5.4840   120.9200     7.8710     2.3910     0.0090     0.1640
  390.0000     0.3074   110.2630   -39.3790     4.9170     5.6530     6.7240   118.2300     7.8700     2.4280     0.0110     0.1420
  390.5000     0.2993   107.7260   -39.2780     5.2000     5.8390     7.8530   117.4640     7.8690     2.4640     0.0210     0.1210
  391.0000     0.2909   105.7900   -39.1760     5.4820     6.0250     8.1480   119.4580     7.8690     2.4910     0.0310     0.1130
  391.5000     0.2903   105.5820   -39.0740     5.7650     6.2120     8.1480   121.2910     7.8680     2.4970     0.0400     0.1110
  392.0000     0.2958   105.7490   -38.9670     6.0480     6.3980     8.0050   117.3630     7.8670     2.4950     0.0280     0.1120
  392.5000     0.3072   105.8860   -39.0510     6.3310     6.5840     7.8530   115.4430     7.8670     2.4870     0.0220     0.1170
