~VERSION INFORMATION
 VERS.                2.0:   CWLS LOG ASCII STANDARD - VERSION 2.0
 WRAP.                 NO:   ONE LINE PER DEPTH STEP
~WELL INFORMATION
#MNEM.UNIT      DATA TYPE    INFORMATION
#----------   ------------   ------------------------------
 STRT.F          664.0000:   START DEPTH
 STOP.F         1880.0000:   STOP DEPTH
 STEP.F            0.5000:   STEP LENGTH
 NULL.          -999.2500:   NO VALUE
 COMP. LAWRENCE/ALLISON INC:   COMPANY
 WELL.     NPR 3 TX #42-3:   WELL
 FLD .             TEAPOT:   FIELD
 LOC .       S3 T38N R78W:   LOCATION
 CNTY.            NATRONA:   COUNTY
 STAT.            WYOMING:   STATE
 CTRY. UNITED STATES OF AMERICA:   COUNTRY
 SRVC.            Unknown:   SERVICE COMPANY
 DATE.        23-JUN-1984:   LOGDATE
 API .       490251096800:   API NUMBER
~CURVE INFORMATION
#MNEM.UNIT       API CODE    CURVE DESCRIPTION
#----------   ------------   ------------------------------
 DEPT.F                  :   
 ROP .MIN/FT 91 810 01 00:   RAT OF DRILLING PENETRATION
 TGAS.UNITS  91 830 01 00:   TOTAL GAS FROM HOTWIRE
~PARAMETER INFORMATION
#MNEM.UNIT          VALUE    DESCRIPTION
#----------   ------------   ------------------------------
 EKB .F              5142:   KELLING BUSHING
 EGL .F              5132:   GROUND LEVEL
 DATE.            6-23-84:   RUN DATE
 BLI .F              1180:   BOTTOM LOG INTERVAL
 TLI .F               660:   TOP LOG INTERVAL
 CS  .IN            8.625:   CASING SIZE
 CBD .F               653:   CASING BOTTOM DRILLER
 LUN .               T-63:   LOGGING UNIT NUMBER
 ENGI.            JOHNSON:   RECORDING ENGINEER
 WITN.           SCHERGER:   WITNESSED BY
 CLNT.            A2DTECH:   CLIENT CODE
 ORIG.           5" PRINT:   ORIGIN OF DATA
 UWI .       490251096800:   UNIQUE WELL ID
 DICO. A2D Technologies, Inc.:   DIGITIZING COMPANY
~OTHER INFORMATION
~A   DEPT        ROP       TGAS 
# ...
 1028.5000     0.9643    28.8372
 1029.0000     0.9656    27.8052
 1029.5000     0.9672    28.8888
 1030.0000     0.9687    29.9660
 1030.5000     0.9703    29.9918
 1031.0000     0.9719    31.0690
 1031.5000     0.9734    32.1466
 1032.0000     0.9750    32.1729
 1032.5000     0.9766    32.2043
 1033.0000     0.9781    33.2815
 1033.5000     0.9797    33.3073
 1034.0000     0.9813    34.3845
 1034.5000     0.9828    36.5131
 1035.0000     0.9844    37.5903
 1035.5000     0.9859    36.5582
 1036.0000     0.9875    39.7447
 1036.5000     0.9891    37.6677
 1037.0000     0.9906    37.5693
 1037.5000     0.9922    37.7193
 1038.0000     0.9938    38.7967
 1038.5000     0.9953    39.8744
 1039.0000     0.9969    39.9007
 1039.5000     0.9984    40.9832
 1040.0000     1.0000    38.8933
 1040.5000     0.9982    40.0732
 1041.0000     0.9963    40.1760
 1041.5000     0.9945    40.2787
 1042.0000     0.9926    40.3816
 1042.5000     0.9908    40.4843
 1043.0000     0.9889    40.5871
 1043.5000     0.9871    40.6899
 1044.0000     0.9853    40.7944
 1044.5000     0.9834    40.8995
 1045.0000     0.9816    41.0239
 1045.5000     0.9797    41.1267
 1046.0000     0.9779    41.2295
 1046.5000     0.9760    41.3323
 1047.0000     0.9742    41.4351
 1047.5000     0.9724    41.5379
 1048.0000     0.9705    41.6407
 1048.5000     0.9687    41.7434
 1049.0000     0.9668    41.8462
 1049.5000     0.9650    42.0297
 1050.0000     0.9631    43.1075
 1050.5000     0.9613    43.2317
 1051.0000     0.9395    42.2574
 1051.5000     0.9408    70.7737
 1052.0000     0.9418   112.9325
 1052.5000     0.9636   140.3718
 1053.0000     1.0272   153.0657
 1053.5000     1.1323   100.6241
 1054.0000     1.2375    67.0820
 1054.5000     1.2802    58.7734
 1055.0000     1.2812    58.8785
 1055.5000     1.2823    58.9837
 1056.0000     1.2624    59.1076
 1056.5000     1.2220    59.2104
 1057.0000     1.0981    59.3132
 1057.5000     1.0366    59.4160
 1058.0000     1.0165    59.5188
 1058.5000     0.9550    59.6216
 1059.0000     0.9563    59.7243
 1059.5000     0.9781    59.8271
 1060.0000     0.9374    59.9299
 1060.5000     0.9185    59.8712
 1061.0000     0.8366    59.8125
 1061.5000     0.7545    59.7537
 1062.0000     0.7143    59.6950
 1062.5000     0.7371    59.6363
 1063.0000     0.7386    59.5775
 1063.5000     0.7401    59.5188
 1064.0000     0.7417    59.4601
 1064.5000     0.7432    59.4014
 1065.0000     0.7448    59.3426
 1065.5000     0.7464    59.2839
 1066.0000     0.7479    59.2252
 1066.5000     0.7495    59.1665
 1067.0000     0.7510    59.1077
 1067.5000     0.7526    59.0490
 1068.0000     0.7542    58.9903
 1068.5000     0.7347    58.9316
 1069.0000     0.6741    58.8719
 1069.5000     0.6548    58.8033
 1070.0000     0.5939    58.7346
 1070.5000     0.5325    58.6660
 1071.0000     0.4928    58.5974
 1071.5000     0.4734    58.5288
 1072.0000     0.4958    58.4602
 1072.5000     0.5182    58.3916
 1073.0000     0.5190    58.3229
 1073.5000     0.5192    58.2543
 1074.0000     0.5193    58.1857
 1074.5000     0.5195    58.1171
 1075.0000     0.5196    58.0485
 1075.5000     0.5198    57.9798
 1076.0000     0.5199    57.9112
 1076.5000     0.5201    57.8426
 1077.0000     0.5202    57.8271
 1077.5000     0.5203    57.8271
 1078.0000     0.5205    57.8271
 1078.5000     0.5206    55.7243
 1079.0000     0.5208    54.6729
 1079.5000     0.5209    52.5701
 1080.0000     0.5211    52.5312
 1080.5000     0.5024    52.4349
 1081.0000     0.6306    52.3385
 1081.5000     0.6956    52.2422
 1082.0000     0.6982    52.1458
 1082.5000     0.7008    52.0495
 1083.0000     0.7033    51.9531
 1083.5000     0.7059    51.8568
 1084.0000     0.7293    51.7604
 1084.5000     0.7109    51.6581
 1085.0000     0.6927   122.2308
 1085.5000     0.7162   199.1119
 1086.0000     0.8035   414.7780
 1086.5000     0.9752   448.6423
 1087.0000     1.1469   449.7372
 1087.5000     1.3312   448.8413
 1088.0000     1.3963   441.6103
 1088.5000     1.3989   348.1642
 1089.0000     1.3806   238.9472
 1089.5000     1.3832   139.1927
 1090.0000     1.3857    19.4294
 1090.5000     1.3883    19.5823
 1091.0000     1.3909    19.7138
 1091.5000     1.3934    19.8452
 1092.0000     1.4585    19.9766
 1092.5000     1.4819    20.1080
 1093.0000     1.4635    20.2395
 1093.5000     1.4870    20.3709
 1094.0000     1.5104    20.5023
 1094.5000     1.5552    20.6337
 1095.0000     1.5781    20.7652
 1095.5000     1.5807    20.8966
 1096.0000     1.5624    21.0280
 1096.5000     1.5656    21.1594
 1097.0000     1.4640    21.2909
 1097.5000     1.4040    21.4223
 1098.0000     1.2816    21.5537
 1098.5000     1.2842    21.6851
 1099.0000     1.2867    21.8166
 1099.5000     1.2893    21.9480
 1100.0000     1.2917    17.8823
 1100.5000     1.3131    17.9839
 1101.0000     1.3136    18.0854
 1101.5000     1.3141    18.1893
 1102.0000     1.3111    18.3138
 1102.5000     1.2943    18.4154
 1103.0000     1.2740    18.5169
 1103.5000     1.2536    18.6185
 1104.0000     1.2333    18.7200
 1104.5000     1.2122    18.8216
 1105.0000     1.1059    18.9252
 1105.5000     1.0448    19.0500
 1106.0000     1.0271    19.1516
 1106.5000     1.0694    19.2531
 1107.0000     1.1741    19.3547
 1107.5000     1.2787    19.4562
 1108.0000     1.3209    19.5578
 1108.5000     1.4256    19.6612
 1109.0000     1.4678    22.9405
 1109.5000     1.5308    24.0934
 1110.0000     1.5313    25.2463
 1110.5000     1.5318    25.3479
 1111.0000     1.5323    23.3213
 1111.5000     1.5329    21.3435
 1112.0000     1.5334    21.4486
 1112.5000     1.5339    21.5654
 1113.0000     1.5344    21.6669
 1113.5000     1.5349    21.7685
 1114.0000     1.5354    21.8700
 1114.5000     1.5360    21.9743
 1115.0000     1.5365    22.0985
 1115.5000     1.5370    22.2000
 1116.0000     1.5375    22.3015
 1116.5000     1.5380   178.0106
 1117.0000     1.5385   312.6916
 1117.5000     1.5365   264.4286
 1118.0000     1.5396    64.4496
 1118.5000     1.5610    43.8627
 1119.0000     1.6241    37.6559
 1119.5000     1.6662    35.6292
 1120.0000     1.7501    33.6533
 1120.5000     1.8513    32.6702
 1121.0000     1.9321    30.6634
 1121.5000     1.9921    29.6696
 1122.0000     2.0729    26.6113
 1122.5000     2.0913    26.6881
 1123.0000     2.0465    26.7649
 1123.5000     1.9815    27.8931
 1124.0000     1.9165    27.9698
 1124.5000     1.8098    26.9947
 1125.0000     1.7222    24.9692
 1125.5000     1.6167    25.0652
 1126.0000     1.5517    26.1933
 1126.5000     1.6124    26.2701
 1127.0000     1.6926    28.4497
 1127.5000     1.7734    29.5779
 1128.0000     1.8833    31.7575
 1128.5000     2.0391    31.8343
 1129.0000     1.8396    31.9110
 1129.5000     1.6376    28.7725
 1130.0000     1.4893    26.8075
 1130.5000     1.4451    26.9035
 1131.0000     1.4426    26.9803
 1131.5000     1.4401    27.0571
 1132.0000     1.4370    27.1339
 1132.5000     1.5178    27.2106
 1133.0000     1.6820    27.2874
 1133.5000     1.8462    27.3642
 1134.0000     1.9896    27.4416
 1134.5000     1.9870    27.5204
 1135.0000     1.9844    27.6137
 1135.5000     1.9818    27.6905
 1136.0000     1.9792    27.7672
 1136.5000     1.9766    27.8440
 1137.0000     1.9740    27.9208
 1137.5000     1.9714    27.9976
 1138.0000     1.9683    28.0743
 1138.5000     2.1117    28.1513
 1139.0000     2.2342    28.2301
 1139.5000     2.3358    24.1183
 1140.0000     2.3958    16.5668
 1140.5000     2.3904    20.1606
 1141.0000     2.2257    21.4323
 1141.5000     2.0367    21.6121
 1142.0000     2.0147    21.7917
 1142.5000     2.2003    21.9714
 1143.0000     2.3030    22.1511
 1143.5000     2.4681    24.4336
 1144.0000     2.5294    25.6647
 1144.5000     2.5484    24.7868
 1145.0000     2.5468    22.8699
 1145.5000     2.5453    23.0520
 1146.0000     2.5229    24.4977
 1146.5000     2.3752   170.6501
 1147.0000     2.2487   295.9017
 1147.5000     2.1013   188.8834
 1148.0000     2.0373   195.3715
 1148.5000     2.0570   335.3876
 1149.0000     2.0551   423.8850
 1149.5000     2.0535   448.2469
