~VERSION INFORMATION
 VERS.                2.0:   CWLS LOG ASCII STANDARD - VERSION 2.0
 WRAP.                 NO:   ONE LINE PER DEPTH STEP
~WELL INFORMATION
#MNEM.UNIT      DATA TYPE    INFORMATION
#----------   ------------   ------------------------------
 STRT.F           12.0000:   START DEPTH
 STOP.F          510.0000:   STOP DEPTH
 STEP.F            0.5000:   STEP LENGTH
 NULL.          -999.2500:   NO VALUE
 COMP. LAWRENCE-ALLISON &AS:   COMPANY
 WELL. NPR 3 #51-41SX10UP4:   WELL
 FLD .            NATRONA:   FIELD
 LOC .      S10 T38N R78W:   LOCATION
 CNTY.            NATRONA:   COUNTY
 STAT.            WYOMING:   STATE
 CTRY. UNITED STATES OF AMERICA:   COUNTRY
 SRVC.      Dresser Atlas:   SERVICE COMPANY
 DATE.        15-DEC-1984:   LOGDATE
 API .       490251100000:   API NUMBER
~CURVE INFORMATION
#MNEM.UNIT       API CODE    CURVE DESCRIPTION
#----------   ------------   ------------------------------
 DEPT.F                  :   
 RD  .OHMM   11 220 10 00:   RESISTIVITY DEEP
 RS  .OHMM   11 220 09 00:   RESISTIVITY SHALLOW
 SPR .MV     11 010 01 00:   SPONTANEOUS POTENTIAL FROM RES.
 DT  .US/F   60 520 00 00:   INTERVAL TRANSIT TIME
 CALD.IN     45 280 60 00:   CALIPER FROM DENSITY LOG
 CNC .DEC    42 890 00 00:   NEUTRON POROSITY
 CORR.G/C3   45 356 01 00:   DENSITY CORRECTION
 GRD .GAPI   45 310 01 00:   GAMMA RAY FROM DENSITY LOG
 PORD.DEC    45 890 00 00:   POROSITY DENSITY
 RHOB.G/C3   45 350 01 00:   BULK DENSITY
~PARAMETER INFORMATION
#MNEM.UNIT          VALUE    DESCRIPTION
#----------   ------------   ------------------------------
 PD  .                 GL:   PERMANENT DATUM
 EPD .F              5207:   ELEVATION PERMANENT DATUM
 LMF .                 GL:   LOG MEASURED FROM
 DMF .                 GL:   DRILLING MEASURED FROM
 EGL .F              5207:   GROUND LEVEL
 DATE.        15-DEC-1984:   RUN DATE
 RUN .                  1:   RUN NUMBER
 DD  .F               515:   DEPTH DRILLER
 DL  .F               511:   DEPTH LOGGER
 BLI .F               510:   BOTTOM LOG INTERVAL
 TLI .F                20:   TOP LOG INTERVAL
 CS  .IN            8.625:   CASING SIZE
 CBD .F                20:   CASING BOTTOM DRILLER
 CBL .F                20:   CASING BOTTOM LOGGER
 BS  .IN            7.875:   BIT SIZE
 BSD .F               515:   BIT SIZE AT DEPTH
 DFT .          KCL/WATER:   DRILLING FLUID TYPE
 MSS .           FLOWLINE:   MUD SAMPLE SOURCE
 RMS .OHMM           .129:   RESISTIVITY MUD SAMPLE
 MST .F                94:   MUD SAMPLE TEMPERATURE
 RMF .OHMM            .10:   RESISTIVITY MUD FILTRATE SAMPLE
 MFST.F                94:   MUD FILTRATE SAMPLE TEMPERATURE
 RMC .OHMM            .16:   RESISTIVITY MUD CAKE
 MCST.F                94:   MUD CAKE SAMPLE TEMPERATURE
 MFSS.               CALC:   MUD FILTRATE SAMPLE SOURCE
 MCSS.               CALC:   MUD CAKE SAMPLE SOURCE
 TCS .HRS               2:   TIME CURCULATED STOPPED
 MRT .F               100:   MAXIMUM RECORDED TEMPERATURE
 LUN .               6270:   LOGGING UNIT NUMBER
 LUL .                 FM:   LOGGING UNIT LOCATION
 ENGI.            LEBSOCK:   RECORDING ENGINEER
 WITN.          DAN LUERS:   WITNESSED BY
 CLNT.            A2DTECH:   CLIENT CODE
 ORIG.           5" PRINT:   ORIGIN OF DATA
 UWI .       490251100000:   UNIQUE WELL ID
 DICO. A2D Technologies, Inc.:   DIGITIZING COMPANY
~OTHER INFORMATION
~A   DEPT       RD         RS        SPR         DT       CALD          CNC     CORR         GRD      PORD       RHOB   
# ...
  179.5000    15.6076    10.0327   -68.8893   105.1729     7.9314     0.2662     0.0053   102.3306     0.1313     2.4572
  180.0000    15.6201    10.3237   -69.0245   104.7999     7.9319     0.2589     0.0099   104.1170     0.1373     2.4490
  180.5000    15.7577    10.4757   -69.1597   104.5023     7.9325     0.2571    -0.0049   102.9461     0.1442     2.4394
  181.0000    16.0864    10.6298   -69.1438   104.2048     7.9331     0.2589    -0.0093   102.9576     0.1445     2.4403
  181.5000    16.0992    10.7120   -69.2821   103.6819     7.9337     0.2649    -0.0016   103.4135     0.1429     2.4435
  182.0000    16.2237    10.9450   -69.4142   103.3089     7.9342     0.2745     0.0257   105.7660     0.1339     2.4518
  182.5000    16.5765    11.0296   -69.6972   103.1623     7.9200     0.2804     0.0228   107.1401     0.1324     2.4556
  183.0000    17.0543    11.2698   -69.8324   103.0157     7.8911     0.2786     0.0170   105.9693     0.1350     2.4509
  183.5000    17.1923    11.5966   -69.9676   102.9457     7.8768     0.2732     0.0048   105.3853     0.1407     2.4438
  184.0000    17.4425    11.6059   -70.2507   102.5727     7.8774     0.2745    -0.0128   106.8811     0.1431     2.4394
  184.5000    17.5774    11.6152   -70.2347   102.1231     7.9076     0.2803     0.0024   107.3341     0.1437     2.4396
  185.0000    17.5914    11.4651   -70.6706   101.9011     7.9082     0.2803     0.0056   101.8670     0.1434     2.4404
  185.5000    17.6055    11.0849   -71.2416   101.9820     7.9236     0.2746     0.0103    99.6562     0.1427     2.4413
  186.0000    17.4983    10.8663   -71.8205   102.7552     7.9253     0.2719     0.0029   102.4853     0.1415     2.4444
  186.5000    17.3918    10.7259   -72.2516   103.5012     7.9397     0.2742    -0.0150   104.8672     0.1406     2.4460
  187.0000    17.1670    10.7366   -72.5379   103.9584     7.9402     0.2916    -0.0028   106.6564     0.1394     2.4484
  187.5000    17.0659    10.7452   -73.1136   103.9627     7.9259     0.2934    -0.0104   109.0382     0.1387     2.4500
  188.0000    16.7294    10.7538   -73.1009   103.9671     7.9266     0.2904    -0.0220   109.0497     0.1369     2.4523
  188.5000    16.7428    10.7624   -73.6767   103.6695     7.9123     0.2903     0.0143   105.5056     0.1321     2.4584
  189.0000    16.6375    10.7710   -73.6639   103.0701     7.9129     0.2906     0.0190   104.9244     0.1285     2.4623
  189.5000    16.5391    10.6318   -74.2461   102.8480     7.9135     0.2897     0.0146   105.1422     0.1284     2.4632
  190.0000    16.4389    10.4851   -74.5260   102.9290     7.8992     0.2849     0.0103   107.3206     0.1293     2.4625
  190.5000    15.9878    10.1485   -74.3653   103.0842     7.8999     0.2813     0.0072   104.9617     0.1320     2.4596
  191.0000    15.4732     9.9464   -74.2041   103.6924     7.9005     0.2788     0.0136   103.1954     0.1356     2.4552
  191.5000    14.7579     9.4866   -73.7226   104.9043     7.8862     0.2779     0.0198   104.3920     0.1361     2.4546
  192.0000    14.1703     9.1702   -73.5842   106.1364     7.8882     0.2827     0.0139   105.2895     0.1304     2.4564
  192.5000    13.1445     8.6861   -73.5715   107.7065     7.9171     0.2950     0.0201   103.8222     0.1307     2.4586
  193.0000    12.4481     8.2259   -73.2629   109.2958     7.9325     0.2988     0.0233   102.9195     0.1346     2.4557
  193.5000    11.7806     7.7757   -73.0966   110.6586     7.9331     0.2993     0.0069   102.0675     0.1436     2.4491
  194.0000    10.8621     7.1779   -72.9383   112.1724     7.9337     0.3102    -0.0035   101.4864     0.1498     2.4357
  194.5000    10.0064     6.7508   -72.6297   113.6862     7.9194     0.3357     0.0027   101.5007     0.1555     2.4263
  195.0000     8.9670     6.0080   -72.3211   115.2931     7.9052     0.3645     0.0210   101.5122     0.1618     2.4065
  195.5000     7.8167     5.3101   -71.8646   120.0356     7.8910     0.3971     0.0271   100.3384     0.1801     2.3867
  196.0000     6.4478     4.3802   -71.7039   125.4739     7.8917     0.4025     0.0032    99.6089     0.1978     2.3567
  196.5000     5.1738     3.5147   -71.6908   129.4783     7.8922     0.4016     0.0154    99.7689     0.2259     2.3126
  197.0000     4.6364     3.0610   -71.6752   133.1052     7.8779     0.3971     0.0397    99.3386     0.2650     2.2565
  197.5000     4.3614     2.9628   -71.6624   133.5094     7.8636     0.3652     0.0383    98.4612     0.2722     2.2251
  198.0000     5.0459     3.0694   -71.2059   131.5069     7.8347     0.3376     0.0339    96.2505     0.2523     2.2312
  198.5000     5.5625     3.7528   -71.0452   126.1760     7.8353     0.3310     0.0281    96.2619     0.2229     2.2938
  199.0000     5.8024     4.0242   -71.0325   123.5388     7.8359     0.3300     0.0285    99.8289     0.2012     2.3386
  199.5000     6.1368     4.1402   -71.6114   122.1847     7.8514     0.3255     0.0466   102.9515     0.2000     2.3417
  200.0000     6.7653     4.2891   -72.1872   120.0004     7.8668     0.3007     0.0347   106.2222     0.1940     2.3486
  200.5000     7.7723     4.8133   -72.1745   116.9104     7.8821     0.2910     0.0137   104.5437     0.1778     2.3780
  201.0000    10.3938     6.1527   -72.1617   112.8392     7.8975     0.2795     0.0169   102.8406     0.1447     2.4240
  201.5000    12.0506     7.6801   -72.1490   109.4757     7.8981     0.2819     0.0231   104.0372     0.1267     2.4584
  202.0000    12.6294     7.9015   -72.1302   109.1498     7.8987     0.2837     0.0218   107.0177     0.1245     2.4705
  202.5000    12.2936     7.9078   -71.6765   109.6081     7.8993     0.2852     0.0174   109.9936     0.1248     2.4706
  203.0000    12.2171     7.8056   -71.5158   110.1408     7.9000     0.2867     0.0429   108.8213     0.1260     2.4692
  203.5000    11.9727     7.7046   -71.5031   110.4470     7.9005     0.3082     0.0551   107.6490     0.1278     2.4663
  204.0000    11.8183     7.5008   -71.1945   110.7532     7.9011     0.3109     0.0431   106.4059     0.1289     2.4649
  204.5000    11.6640     7.6127   -70.8858   110.7577     7.8867     0.2973     0.0357   105.1594     0.1289     2.4658
  205.0000    11.9989     7.9411   -70.2674   110.1592     7.8429     0.2919     0.0434   105.3205     0.1256     2.4682
  205.5000    12.6906     8.3988   -69.5423   109.8606     7.8436     0.2997     0.0465   106.5185     0.1241     2.4705
  206.0000    13.0546     8.6409   -69.0871   109.8661     7.8424     0.3191     0.0432   108.9018     0.1255     2.4713
  206.5000    12.0246     8.3543   -68.6319   110.4742     7.8428     0.3260     0.0197   111.2850     0.1408     2.4562
  207.0000    10.4807     7.4066   -68.4726   114.1443     7.8433     0.3314    -0.0043   111.0016     0.1620     2.4399
  207.5000     9.6538     6.5445   -68.7570   116.8685     7.8438     0.3383    -0.0042   110.7182     0.1767     2.4117
  208.0000     9.3971     5.9810   -69.0415   117.7814     7.8442     0.3431     0.0049   110.7343     0.1872     2.3813
  208.5000     9.2007     5.8662   -69.2012   117.7887     7.8446     0.3345     0.0096   110.1546     0.1778     2.3750
  209.0000     9.1533     5.9930   -69.6103   117.4481     7.8450     0.3250    -0.0039   106.0193     0.1706     2.3857
  209.5000     9.1609     6.1217   -69.5961   115.1635     7.8455     0.3153    -0.0037   104.2544     0.1648     2.3963
  210.0000     9.2305     6.3401   -69.5847   114.1878     7.8460     0.3093    -0.0006   106.0451     0.1564     2.4017
  210.5000     9.6941     6.5663   -69.5732   113.8932     7.8464     0.3126     0.0086   112.5765     0.1463     2.4271
  211.0000    10.2514     6.9507   -69.5618   113.9778     7.8469     0.3197     0.0207   113.1822     0.1443     2.4362
  211.5000    11.0708     7.5476   -69.5503   113.6077     7.8473     0.3204     0.0329   112.0097     0.1464     2.4363
  212.0000    12.1171     7.9804   -69.5361   112.0494     7.8477     0.2996     0.0210   112.0258     0.1439     2.4386
  212.5000    12.8137     8.4381   -69.5247   109.4731     7.8481     0.2836     0.0120   112.6312     0.1358     2.4476
