~VERSION INFORMATION
 VERS.                2.0:   CWLS LOG ASCII STANDARD - VERSION 2.0
 WRAP.                 NO:   ONE LINE PER DEPTH STEP
~WELL INFORMATION
#MNEM.UNIT      DATA TYPE    INFORMATION
#----------   ------------   ------------------------------
 STRT.F           32.0000:   START DEPTH
 STOP.F          551.0000:   STOP DEPTH
 STEP.F            0.5000:   STEP LENGTH
 NULL.          -999.2500:   NO VALUE
 COMP.    FENIX & SCISSON:   COMPANY
 WELL.   NPR ##3 84-SX-10:   WELL
 FLD .              NPR 3:   FIELD
 LOC .      S10 T38N R78W:   LOCATION
 CNTY.            NATRONA:   COUNTY
 STAT.            WYOMING:   STATE
 CTRY. UNITED STATES OF AMERICA:   COUNTRY
 SRVC.              Welex:   SERVICE COMPANY
 DATE.        25-JAN-1978:   LOGDATE
 API .       490251033700:   API NUMBER
~CURVE INFORMATION
#MNEM.UNIT       API CODE    CURVE DESCRIPTION
#----------   ------------   ------------------------------
 DEPT.F                  :   
 SPR .MV     07 010 01 00:   SPONTANEOUS POTENTIAL FROM RES.
 ILD .OHMM   07 120 46 00:   INDUCTION LOG DEEP
 ILM .OHMM   07 120 44 00:   INDUCTION LOG MEDIUM
 SGRD.OHMM   07 220 05 00:   SHALLOW GUARD RESISTIVITY
 CALD.IN     45 280 60 00:   CALIPER FROM DENSITY LOG
 GRD .GAPI   45 310 01 00:   GAMMA RAY FROM DENSITY LOG
 CORR.G/C3   45 356 01 00:   DENSITY CORRECTION
 RHOB.G/C3   45 350 01 00:   BULK DENSITY
 DPHI.DEC    45 890 12 00:   DENSITY POROSITY SANDSTONE
~PARAMETER INFORMATION
#MNEM.UNIT          VALUE    DESCRIPTION
#----------   ------------   ------------------------------
 CLNT.            A2DTECH:   CLIENT CODE
 ORIG.           5" PRINT:   ORIGIN OF DATA
 UWI .       490251033700:   UNIQUE WELL ID
 DICO. A2D Technologies, Inc.:   DIGITIZING COMPANY
~OTHER INFORMATION
~A   DEPT      SPR        ILD        ILM       SGRD         CALD      GRD       CORR       RHOB       DPHI   
# ...
  324.0000   -46.9137     7.5182     7.8372    12.3135     8.4931   128.6066     0.0241     2.5173     0.0846
  324.5000   -46.9180     7.5701     7.8913    12.3977     8.4928   128.8432     0.0226     2.5098     0.0874
  325.0000   -46.9223     7.6225     7.8909    12.4823     8.4925   131.3061     0.0225     2.5068     0.0898
  325.5000   -46.9266     7.6751     7.8906    12.4807     8.4922   129.5028     0.0307     2.5120     0.0883
  326.0000   -46.7807     7.6747     7.8903    12.5656     8.4919   128.9008     0.0360     2.5203     0.0840
  326.5000   -46.6349     7.7279     7.7815    12.5640     8.4765   129.1997     0.0314     2.5172     0.0850
  327.0000   -46.6402     7.7275     7.7812    12.6498     8.4763   129.0360     0.0269     2.5082     0.0880
  327.5000   -46.6445     7.7272     7.7271    12.6482     8.4610   127.6949     0.0254     2.5143     0.0871
  328.0000   -46.6488     7.7268     7.6735    12.7346     8.4607   127.0929     0.0238     2.5180     0.0856
  328.5000   -46.5030     7.6732     7.6732    12.5571     8.4754   129.0434     0.0238     2.5149     0.0856
  329.0000   -46.3571     7.6729     7.6729    12.3826     8.4750   130.6936     0.0253     2.5051     0.0887
  329.5000   -46.3625     7.6196     7.6726    12.2104     8.4898   130.0816     0.0373     2.5021     0.0910
  330.0000   -46.2156     7.6123     7.6722    11.7927     8.4895   126.7869     0.0538     2.5171     0.0877
  330.5000   -46.2209     7.6719     7.7253    11.7969     8.5042   129.9382     0.0567     2.5269     0.0784
  331.0000   -46.0751     7.6716     7.7249    12.4620     8.5039   127.0839     0.0582     2.5314     0.0748
  331.5000   -45.7802     7.7784     7.8324    13.0802     8.5187   124.8302     0.0597     2.5291     0.0751
  332.0000   -45.6332     7.9413     7.9486    13.5400     8.5333   124.8288     0.0611     2.5216     0.0826
  332.5000   -45.4874     8.0517     7.9961    13.9192     8.5330   125.9184     0.0611     2.5088     0.0931
  333.0000   -45.3426     7.9957     7.9958    13.5284     8.5478   128.1289     0.0574     2.4865     0.1037
  333.5000   -45.1967     7.5123     7.9403    13.4413     8.5475   130.8301     0.0550     2.4591     0.1145
  334.0000   -45.2012     6.8653     7.6168    13.5331     8.5471   132.6305     0.0520     2.4268     0.1262
  334.5000   -45.2064     6.4057     6.9480    13.3445     8.5468   131.7282     0.0415     2.4027     0.1378
  335.0000   -45.2107     5.9646     6.3173    11.5344     8.5465   130.6455     0.0264     2.3907     0.1419
  335.5000   -45.2150     5.0614     6.0181     7.0186     8.5613   128.2715     0.0204     2.4594     0.1109
  336.0000   -45.3695     4.9572     5.8942     5.8844     8.5610   123.0148     0.0399     2.5440     0.0934
  336.5000   -45.3739     5.7727     6.0177    10.9073     8.5606   118.8092     0.0413     2.5591     0.0703
  337.0000   -45.3791     6.1013     6.1494    14.4929     8.5753   115.8047     0.0413     2.5620     0.0573
  337.5000   -45.5336     6.3197     6.5840    14.7020     8.5751   114.4520     0.0413     2.5643     0.0558
  338.0000   -45.5379     6.6755     7.3044    14.6915     8.5748   113.8496     0.0413     2.5598     0.0576
  338.5000   -45.3919     6.9585     8.1036    14.9985     8.5745   113.5478     0.0427     2.5551     0.0604
  339.0000   -45.5465     7.3038     8.6844    15.1010     8.5592   112.9458     0.0472     2.5492     0.0634
  339.5000   -45.4006     7.7732     9.1323    15.4160     8.5588   110.9924     0.0502     2.5447     0.0664
  340.0000   -45.2548     8.3419     9.5676    15.5213     8.5585   111.5916     0.0502     2.5401     0.0694
  340.5000   -45.1100     9.0516     9.7008    15.6273     8.5432   112.7913     0.0471     2.5385     0.0700
  341.0000   -44.9640     9.4353     9.7003    15.7336     8.5430   108.2850     0.0403     2.5378     0.0697
  341.5000   -44.9685     9.5666     9.6999    15.6228     8.5277   104.6800     0.0365     2.5266     0.0775
  342.0000   -44.8226     9.6326     9.7670    15.6208     8.5273    98.5224     0.0320     2.5055     0.0890
  342.5000   -44.6767     9.9062     9.9027    15.6188     8.4970    94.7672     0.0290     2.4904     0.0983
  343.0000   -44.5309    10.5391    10.2512    15.6334     8.4967    87.1294     0.0274     2.4792     0.1051
  343.5000   -44.3850    11.3728    11.0622    16.2778     8.4814    78.3976     0.0274     2.4573     0.1146
  344.0000   -44.3904    12.4437    12.2726    21.6288     8.4811    72.5403     0.0289     2.4425     0.1230
  344.5000   -44.3957    13.5214    13.5041    33.7092     8.4657    69.2838     0.0304     2.4363     0.1305
  345.0000   -44.4000    14.6013    15.1051    35.4490     8.4654    66.2614     0.0333     2.4325     0.1362
  345.5000   -44.2542    16.1875    16.9916    45.7250     8.4501    63.3766     0.0378     2.4212     0.1408
  346.0000   -44.1083    17.8348    18.5915    50.7332     8.4499    64.8767     0.0513     2.4024     0.1468
  346.5000   -43.9625    19.1129    19.1130    37.3846     8.4496    66.9774     0.0573     2.4062     0.1546
  347.0000   -43.8177    19.6491    18.7020    32.9929     8.4718    68.9279     0.0527     2.4076     0.1489
  347.5000   -43.8220    19.9222    18.3336    31.8606     8.4940    71.3587     0.0542     2.4106     0.1495
  348.0000   -43.6762    20.1993    19.2433    36.0954     8.5237    73.5793     0.0617     2.4189     0.1444
  348.5000   -43.5303    20.4800    19.5111    41.1742     8.5685    74.9292     0.0677     2.4279     0.1392
  349.0000   -43.5346    20.4792    17.1048    37.6195     8.6132    75.0783     0.0646     2.4294     0.1369
  349.5000   -43.3887    20.4784    17.6172    33.6639     8.6504    73.7252     0.0616     2.4167     0.1393
  350.0000   -43.3932    20.6199    18.2034    40.0322     8.6726    71.7718     0.0541     2.3927     0.1497
  350.5000   -43.3950    20.5623    18.1500    36.5720     8.6722    69.6288     0.0555     2.3571     0.1796
  351.0000   -43.2462    20.5630    18.5286    36.0732     8.7018    67.2642     0.0555     2.3556     0.1823
  351.5000   -43.0976    20.5636    18.9155    33.6609     8.7314    65.2967     0.0495     2.3631     0.1778
  352.0000   -42.9489    20.4221    19.3110    34.8535     8.7609    65.0088     0.0404     2.3594     0.1779
  352.5000   -42.9254    20.2819    19.4432    36.3395     8.7905    65.3077     0.0426     2.3541     0.1811
  353.0000   -42.8017    20.2824    19.3064    38.6855     8.8051    66.5075     0.0509     2.3578     0.1799
  353.5000   -42.6530    20.2830    19.0388    39.2313     8.8347    68.0554     0.0568     2.3864     0.1694
  354.0000   -42.6549    20.1435    18.6453    35.6726     8.8492    70.2580     0.0613     2.4029     0.1551
  354.5000   -42.6563    20.1497    18.3869    37.3839     8.8638    72.3587     0.0628     2.4052     0.1510
  355.0000   -42.5073    20.1447    18.9100    42.6554     8.8934    73.4084     0.0613     2.3917     0.1550
  355.5000   -42.3586    20.1452    19.2960    42.0736     8.9080    73.2568     0.0567     2.3759     0.1622
  356.0000   -42.2102    20.1459    19.5630    36.8843     8.9375    74.3061     0.0492     2.3638     0.1724
  356.5000   -42.0616    20.1465    19.6969    32.7867     8.9671    76.4068     0.0447     2.3677     0.1766
  357.0000   -41.9129    20.1470    19.4233    31.2362     8.9817    77.3063     0.0416     2.3698     0.1718
  357.5000   -41.7642    20.0084    19.1541    32.3441     8.9963    77.1346     0.0371     2.3653     0.1778
  358.0000   -41.6155    20.0091    19.1520    35.4007     9.0108    75.8016     0.0326     2.3563     0.1797
  358.5000   -41.6173    20.0096    19.0178    36.4016     9.0253    74.8993     0.0310     2.3420     0.1887
  359.0000   -41.4687    20.0102    19.1480    35.5854     9.0550    75.0480     0.0310     2.3299     0.1929
  359.5000   -41.4701    20.0107    19.1459    34.6862     9.0695    77.8372     0.0325     2.3194     0.2010
  360.0000   -41.4716    20.0113    19.1437    37.4412     9.0840    79.5497     0.0339     2.3232     0.2022
