~VERSION INFORMATION
 VERS.                2.0:   CWLS LOG ASCII STANDARD - VERSION 2.0
 WRAP.                 NO:   ONE LINE PER DEPTH STEP
~WELL INFORMATION
#MNEM.UNIT      DATA TYPE    INFORMATION
#----------   ------------   ------------------------------
 STRT.F           16.0000:   START DEPTH
 STOP.F         1334.0000:   STOP DEPTH
 STEP.F            0.5000:   STEP LENGTH
 NULL.          -999.2500:   NO VALUE
 COMP. U S NAVY/INTEX OIL CO:   COMPANY
 WELL.  S-11 NPR 3 #87-11:   WELL
 FLD .             TEAPOT:   FIELD
 LOC .      S11 T38N R78W:   LOCATION
 CNTY.            NATRONA:   COUNTY
 STAT.            WYOMING:   STATE
 CTRY. UNITED STATES OF AMERICA:   COUNTRY
 SRVC.       Schlumberger:   SERVICE COMPANY
 DATE.        17-JUN-1966:   LOGDATE
 API .       490250958900:   API NUMBER
~CURVE INFORMATION
#MNEM.UNIT       API CODE    CURVE DESCRIPTION
#----------   ------------   ------------------------------
 DEPT.F                  :   
 GRD .GAPI   45 310 01 00:   GAMMA RAY FROM DENSITY LOG
 CALD.IN     45 280 60 00:   CALIPER
 RHOB.G/C3   45 350 01 00:   BULK DENSITY
 DPOR.DEC    45 890 12 00:   DENSITY POROSITY SANDSTONE
 DRHO.G/C3   45 356 01 00:   DENSITY CORRECTION
 ASN .OHMM   05 041 16 00:   AMPLIFIED SHORT NORMAL 16"
 ILD .OHMM   05 120 46 00:   INDUCTION LOG DEEP
 CILD.MMHO   05 110 46 00:   CONDUCTIVITY INDUCTION LOG DEEP
 SPR .MV     05 010 01 00:   SPONTANEOUS POTENTIAL FROM RES.
~PARAMETER INFORMATION
#MNEM.UNIT          VALUE    DESCRIPTION
#----------   ------------   ------------------------------
 PD  .                 GL:   PERMANENT DATUM
 EPD .F              5284:   ELEVATION PERMANENT DATUM
 LMF .                 KB:   LOG MEASURED FROM
 DAPD.F                 5:   FEET ABOVE PERMANENT DATUM
 DMF .                 KB:   DRILLING MEASURED FROM
 EKB .F              5289:   KELLING BUSHING
 EGL .F              5284:   GROUND LEVEL
 DATE.          8-17-1966:   RUN DATE
 RUN .                  1:   RUN NUMBER
 DD  .F              1335:   DEPTH DRILLER
 DL  .F              1335:   DEPTH LOGGER
 BLI .F              1334:   BOTTOM LOG INTERVAL
 TLI .F                50:   TOP LOG INTERVAL
 CS  .IN            8.625:   CASING SIZE
 CBD .F                10:   CASING BOTTOM DRILLER
 BS  .IN            7.875:   BIT SIZE
 BSD .F              1335:   BIT SIZE AT DEPTH
 DFT .           GEL-CHEM:   DRILLING FLUID TYPE
 DFD .                9.3:   DRILLING FLUID DENSITY
 DFV .                 50:   DRILLING FLUID VISCOSITY
 MSS .          FLOW LINE:   MUD SAMPLE SOURCE
 RMS .OHMM           1.38:   RESISTIVITY MUD SAMPLE
 MST .F                80:   MUD SAMPLE TEMPERATURE
 RMF .OHMM           1.09:   RESISTIVITY MUD FILTRATE SAMPLE
 MFST.F                77:   MUD FILTRATE SAMPLE TEMPERATURE
 MFSS.                  M:   MUD FILTRATE SAMPLE SOURCE
 RMB .OHMM           1.70:   RESISTIVITY MUD AT BHT
 BHT .F               108:   BOTTOM HOLE TEMPERATURE
 TCS .HRS               1:   TIME CURCULATED STOPPED
 MRT .F               108:   MAXIMUM RECORDED TEMPERATURE
 LUN .               4507:   LOGGING UNIT NUMBER
 LUL .               CSPR:   LOGGING UNIT LOCATION
 ENGI.            MANGOLD:   RECORDING ENGINEER
 WITN.                MAY:   WITNESSED BY
 CLNT.            A2DTECH:   CLIENT CODE
 ORIG.       2", 5" PRINT:   ORIGIN OF DATA
 UWI .       490250958900:   UNIQUE WELL ID
 DICO. A2D Technologies, Inc.:   DIGITIZING COMPANY
~OTHER INFORMATION
~A   DEPT       GRD      CALD       RHOB       DPOR       DRHO        ASN        ILD       CILD        SPR   
# ...
  454.0000    97.9464     7.8608     2.4890     0.0947     0.0893     7.0084     6.4633   157.3386   -49.7426
  454.5000    94.7455     7.9256     2.5145     0.0804     0.1041     7.2095     6.6705   154.4191   -49.7000
  455.0000    91.0611     7.9901     2.5389     0.0662     0.1191     7.4546     6.8781   150.2483   -49.6573
  455.5000    91.4527     8.0551     2.5498     0.0596     0.1329     7.7429     7.0857   145.9583   -49.6134
  456.0000    92.1433     8.0898     2.5591     0.0564     0.1061     8.0611     7.2932   141.6683   -49.6040
  456.5000    92.8040     8.0991     2.5514     0.0602     0.0773     8.3637     7.5009   137.3784   -49.6038
  457.0000    92.9537     8.1078     2.5416     0.0650     0.0861     8.6424     7.7082   133.0884   -49.6039
  457.5000    91.9361     8.1164     2.5297     0.0720     0.0965     8.9465     7.9176   129.9901   -49.6040
  458.0000    90.8169     8.1257     2.5171     0.0836     0.1013     8.6534     7.9936   128.5998   -49.6040
  458.5000    93.4578     8.1560     2.4897     0.0960     0.0769     8.2493     7.9989   129.7429   -49.6040
  459.0000    97.5244     8.1886     2.4610     0.1080     0.0595     8.3867     7.8237   131.3936   -49.6040
  459.5000    99.5699     8.2212     2.4422     0.1192     0.0442     8.5918     7.6200   134.7302   -49.6040
  460.0000   100.7988     8.2538     2.4577     0.1186     0.0494     8.6583     7.4154   138.0669   -49.6041
  460.5000   102.8993     8.2863     2.4701     0.1171     0.0579     8.3561     7.2116   141.4035   -49.6051
  461.0000   105.6843     8.3189     2.4883     0.1086     0.0663     8.1303     7.0079   144.7401   -49.5562
  461.5000   104.1018     8.3515     2.5095     0.1002     0.0746     8.0087     6.9013   146.4747   -49.4955
  462.0000   102.1832     8.3837     2.5095     0.0987     0.0757     7.8930     6.9018   147.4677   -49.4345
  462.5000   103.0259     8.4083     2.5073     0.1027     0.0671     7.8215     6.9016   147.4677   -49.3736
  463.0000   106.1287     8.4162     2.5131     0.1002     0.0587     7.7942     6.9017   147.4677   -49.3128
  463.5000   104.9189     8.4244     2.5134     0.0984     0.0501     7.7668     6.9017   147.4677   -49.2519
  464.0000   102.4659     8.4325     2.5091     0.1011     0.0416     7.7395     6.9017   147.4677   -49.1910
  464.5000   103.7629     8.4407     2.5049     0.1037     0.0331     7.7222     6.9016   147.4677   -49.1301
  465.0000   106.4711     8.4489     2.5044     0.1028     0.0399     7.7765     6.8926   147.4677   -49.0690
  465.5000   104.8267     8.4570     2.5114     0.0998     0.0480     7.8312     6.8645   147.4677   -49.0113
  466.0000   105.1248     8.4652     2.5129     0.0996     0.0551     7.8214     6.8367   147.4677   -49.0095
  466.5000   107.4212     8.4733     2.5041     0.1039     0.0447     7.7616     6.8089   147.4677   -49.0098
  467.0000   105.5233     8.4816     2.4970     0.1084     0.0317     7.7320     6.7811   147.4677   -49.0099
  467.5000   103.7051     8.4847     2.4996     0.1047     0.0186     7.7238     6.7533   147.4677   -49.0099
  468.0000   102.6682     8.4844     2.5094     0.1009     0.0055     7.7161     6.7255   147.9672   -49.0099
  468.5000   101.7125     8.4839     2.5084     0.1028     0.0114     7.7084     6.6977   148.6061   -49.0099
  469.0000   100.1764     8.4835     2.5104     0.0987     0.0189     7.7004     6.6699   149.2451   -49.0099
  469.5000   102.9288     8.4830     2.5328     0.0972     0.0263     7.6787     6.6421   149.8840   -49.0099
  470.0000   105.8891     8.4826     2.5192     0.1005     0.0332     7.6353     6.6143   150.5229   -49.0099
  470.5000   104.9469     8.4822     2.4987     0.1037     0.0608     7.5921     6.5865   151.1619   -49.0100
  471.0000   102.3910     8.4817     2.5033     0.1049     0.0528     7.5489     6.5587   151.8008   -49.0099
  471.5000   102.1888     8.4813     2.5102     0.0969     0.0408     7.5058     6.5308   152.4397   -49.0091
  472.0000   103.5554     8.4809     2.5171     0.0890     0.0302     7.4626     6.5030   153.0787   -48.9639
  472.5000   104.9761     8.4804     2.5157     0.0809     0.0376     7.4194     6.4752   154.0655   -48.8660
  473.0000   105.1440     8.4800     2.5049     0.0883     0.0489     7.3762     6.4474   155.4669   -48.7688
  473.5000   104.9652     8.4796     2.4942     0.0957     0.0595     7.3330     6.4196   156.8683   -48.6713
  474.0000   106.7436     8.4791     2.4833     0.1024     0.0538     7.2899     6.3918   158.2697   -48.5739
  474.5000   108.9240     8.4787     2.4807     0.0992     0.0451     7.2554     6.3639   159.6711   -48.4764
  475.0000   107.3450     8.4783     2.4928     0.1010     0.0364     7.2416     6.3356   160.3774   -48.3790
  475.5000   105.8346     8.4778     2.4906     0.1029     0.0275     7.2831     6.3078   160.3774   -48.2814
  476.0000   104.3389     8.4774     2.4973     0.0958     0.0331     7.3444     6.3693   159.7673   -48.1838
  476.5000   102.8141     8.4770     2.5175     0.0866     0.0405     7.3904     6.4400   158.5757   -48.0880
  477.0000   103.5440     8.4765     2.5240     0.0787     0.0480     7.3128     6.5106   157.3840   -48.0432
  477.5000   105.4101     8.4761     2.5302     0.0760     0.0554     7.2354     6.5810   156.1924   -48.1271
  478.0000   103.5029     8.4756     2.5187     0.0788     0.0630     7.1547     6.6514   155.0514   -48.2083
  478.5000   103.3645     8.4752     2.5038     0.0891     0.0706     7.2265     6.7217   153.9823   -48.2899
  479.0000   103.6372     8.4748     2.4888     0.0992     0.0621     7.3407     6.7921   152.9220   -48.3714
  479.5000   102.5441     8.4743     2.4762     0.1038     0.0512     7.4560     6.8625   151.8606   -48.4529
  480.0000   101.6957     8.4739     2.4732     0.1082     0.0401     7.5711     6.9329   150.7990   -48.5343
  480.5000   105.2551     8.4735     2.4700     0.1095     0.0300     7.6855     7.0033   149.7373   -48.6158
  481.0000   106.6759     8.4730     2.4681     0.1087     0.0373     7.7762     7.0736   148.6756   -48.6973
  481.5000   106.5986     8.4726     2.4734     0.1080     0.0302     7.8277     7.1440   146.6865   -48.7788
  482.0000   105.6457     8.4722     2.4834     0.1031     0.0192     7.7766     7.2144   144.4621   -48.8608
  482.5000   100.8983     8.4717     2.4932     0.0984     0.0231     7.7036     7.2848   142.2378   -48.9421
  483.0000    99.2457     8.4713     2.4969     0.0948     0.0296     7.7144     7.3552   140.3883   -48.9866
  483.5000    98.1196     8.4709     2.4917     0.1000     0.0360     7.9407     7.4255   139.8699   -48.8179
  484.0000    98.8269     8.4704     2.4959     0.0938     0.0365     8.1880     7.4959   139.3435   -48.6518
  484.5000   100.4664     8.4700     2.5047     0.0857     0.0236     8.4363     7.5663   138.8167   -48.4851
  485.0000   102.1282     8.4696     2.5091     0.0906     0.0174     8.4068     7.6367   137.6167   -48.3997
  485.5000   103.7970     8.4691     2.4873     0.0985     0.0373     8.3361     7.7071   135.6147   -48.3689
  486.0000   105.4769     8.4687     2.4840     0.1027     0.0192     8.5451     7.7775   133.6127   -48.3392
  486.5000   106.9068     8.4683     2.4918     0.0913     0.0252     8.7236     7.8478   131.6107   -48.3097
  487.0000   104.5258     8.4678     2.4866     0.0962     0.0341     8.5969     7.9183   129.6087   -48.2800
  487.5000   102.0758     8.4674     2.4829     0.1027     0.0393     8.7876     7.9884   127.6068   -48.2503
  488.0000    99.6449     8.4670     2.5000     0.0947     0.0228     9.0091     8.0591   126.6137   -48.2207
  488.5000    97.2140     8.4665     2.5045     0.0893     0.0268     9.2038     8.0757   126.6137   -48.1910
  489.0000    94.7651     8.4661     2.5075     0.0883     0.0342     9.1577     8.0429   126.6137   -48.1613
  489.5000    92.3874     8.4657     2.5279     0.0755     0.0419     9.1911     8.0098   126.6137   -48.1316
  490.0000    90.9694     8.4652     2.5404     0.0662     0.0495     9.3684     7.9361   127.3075   -48.1019
