~VERSION INFORMATION
 VERS.                2.0:   CWLS LOG ASCII STANDARD - VERSION 2.0
 WRAP.                 NO:   ONE LINE PER DEPTH STEP
~WELL INFORMATION
#MNEM.UNIT      DATA TYPE    INFORMATION
#----------   ------------   ------------------------------
 STRT.F           11.0000:   START DEPTH
 STOP.F          807.0000:   STOP DEPTH
 STEP.F            0.5000:   STEP LENGTH
 NULL.          -999.2500:   NO VALUE
 COMP. BROWN JOHN E&C INC:   COMPANY
 WELL. NPR 3 SHX-34 #77-1-34:   WELL
 FLD .             TEAPOT:   FIELD
 LOC .      S34 T39N R79W:   LOCATION
 CNTY.            NATRONA:   COUNTY
 STAT.            WYOMING:   STATE
 CTRY. UNITED STATES OF AMERICA:   COUNTRY
 SRVC.     Atlas Wireline:   SERVICE COMPANY
 DATE.        07-DEC-1991:   LOGDATE
 API .       490252248000:   API NUMBER
~CURVE INFORMATION
#MNEM.UNIT       API CODE    CURVE DESCRIPTION
#----------   ------------   ------------------------------
 DEPT.F                  :   
 CALD.IN     45 280 60 00:   CALIPER FROM DENSITY LOG
 CORR.G/C3   45 356 01 00:   DENSITY CORRECTION
 DEN .G/C3   45 350 01 00:   COMPENSATED BULK DENSTIY
 GRD .GAPI   45 310 01 00:   GAMMA RAY FROM DENSITY LOG
 PORD.DEC    45 890 12 00:   POROSITY DENSITY SANDSTONE
 GRR .GAPI   07 310 01 00:   GAMMA RAY FROM RESISTIVITY
 RILD.OHMM   07 120 46 00:   RESISTIVITY INDUCTION LOG DEEP
 RILM.OHMM   07 120 44 00:   RESITIVITY INDUCTION LOG MEDIUM
~PARAMETER INFORMATION
#MNEM.UNIT          VALUE    DESCRIPTION
#----------   ------------   ------------------------------
 PD  .                 GL:   PERMANENT DATUM
 EPD .F              5098:   ELEVATION PERMANENT DATUM
 LMF .                 KB:   LOG MEASURED FROM
 DAPD.F                10:   FEET ABOVE PERMANENT DATUM
 DMF .                 KB:   DRILLING MEASURED FROM
 EKB .F              5108:   KELLING BUSHING
 EDF .F              5107:   DRILLING FLOOR
 EGL .F              5098:   GROUND LEVEL
 DATE.        07-DEC-1991:   RUN DATE
 RUN .                  1:   RUN NUMBER
 DD  .F               810:   DEPTH DRILLER
 DL  .F               810:   DEPTH LOGGER
 BLI .F               808:   BOTTOM LOG INTERVAL
 CS  .IN            9.625:   CASING SIZE
 CBD .F                85:   CASING BOTTOM DRILLER
 CBL .F                97:   CASING BOTTOM LOGGER
 BS  .IN             8.75:   BIT SIZE
 BSD .F               810:   BIT SIZE AT DEPTH
 DFT .                AIR:   DRILLING FLUID TYPE
 BHT .F                90:   BOTTOM HOLE TEMPERATURE
 MRT .F                90:   MAXIMUM RECORDED TEMPERATURE
 LUN .            HL 6274:   LOGGING UNIT NUMBER
 LUL .             CASPER:   LOGGING UNIT LOCATION
 ENGI.       P. RASMUSSEN:   RECORDING ENGINEER
 WITN.        GARY STRONG:   WITNESSED BY
 CLNT.            A2DTECH:   CLIENT CODE
 ORIG.           5" PRINT:   ORIGIN OF DATA
 UWI .       490252248000:   UNIQUE WELL ID
 DICO. A2D Technologies, Inc.:   DIGITIZING COMPANY
~OTHER INFORMATION
~A   DEPT     CALD       CORR        DEN        GRD       PORD         GRR      RILD       RILM   
# ...
  132.5000     9.5937     0.0200     2.2762   110.2247     0.2244    89.0988     2.6407     2.7121
  133.0000     9.5933     0.0079     2.3002   112.6587     0.2142    94.4984     2.6036     2.5830
  133.5000     9.5781    -0.0027     2.2987   118.0136     0.2118    99.3233     2.5318     2.4727
  134.0000     9.5628    -0.0042     2.2814   119.8070     0.2314   101.0933     2.4224     2.3767
  134.5000     9.5475    -0.0044     2.2606   119.7986     0.2465   101.0861     2.2968     2.2483
  135.0000     9.5322     0.0032     2.2354   119.1874     0.2558   101.6809     2.1727     2.1417
  135.5000     9.5319     0.0077     2.2211   118.5784     0.2619   102.2756     2.0695     2.0685
  136.0000     9.5467     0.0077     2.2143   118.5700     0.2673   102.8719     1.9712     1.9978
  136.5000     9.5629     0.0015     2.2008   119.4774     0.2739   103.4667     1.9168     1.9564
  137.0000     9.5760    -0.0045     2.1616   124.5571     0.2827   102.8588     1.9698     1.9560
  137.5000     9.5757     0.0090     2.1270   127.5517     0.3086   102.2523     2.0834     2.0290
  138.0000     9.5904     0.0301     2.1028   127.5433     0.3348   101.9448     2.2443     2.2763
  138.5000     9.6200     0.0450     2.1013   128.1355     0.3285   101.6387     2.4039     2.6498
  139.0000     9.6647     0.0435     2.1314   128.1249     0.3038    99.2305     2.6288     2.8389
  139.5000     9.6944     0.0299     2.1826   127.5159     0.2802    93.8192     2.8549     2.9586
  140.0000     9.6942     0.0050     2.2675   126.9069     0.2113    94.7143     3.0791     3.0833
  140.5000     9.6638    -0.0018     2.3044   130.5000     0.2070    96.2100     3.2305     3.1691
  141.0000     9.6485     0.0027     2.3119   132.2955     0.2046    97.1051     3.2294     3.2126
  141.5000     9.6333     0.0057     2.3157   131.0838     0.2028    98.6747     3.2061     3.2118
  142.0000     9.6179     0.0086     2.3186   132.3163     0.2007   101.5965     3.0961     3.1236
  142.5000     9.6177     0.0131     2.3194   133.4672     0.1995   102.1927     2.9694     3.0168
  143.0000     9.6324     0.0146     2.3186   133.1585     0.2004   101.8852     2.8480     2.9137
  143.5000     9.6321     0.0145     2.3085   134.0510     0.2023   100.6782     2.7315     2.8336
  144.0000     9.6317     0.0145     2.2854   137.0435     0.2134    99.1708     2.6562     2.7558
  144.5000     9.6315     0.0144     2.2734   137.9381     0.2247    97.9638     2.5476     2.6433
  145.0000     9.6312     0.0144     2.2658   137.6273     0.2320    96.7568     2.4592     2.5506
  145.5000     9.6609     0.0128     2.2636   138.8899     0.2333   101.8008     2.3381     2.3653
  146.0000     9.6906     0.0083     2.2590   143.6143     0.2354   107.8548     2.1711     2.1766
  146.5000     9.7053     0.0022     2.2522   149.6120     0.2439   109.6523     2.0396     2.0307
  147.0000     9.6600    -0.0039     2.2318   152.6065     0.2614   107.5429     1.9294     1.9211
  147.5000     9.6446    -0.0039     2.1724   154.3999     0.2843   107.2368     1.9023     1.8813
  148.0000     9.6294    -0.0040     2.1415   153.1882     0.3008   110.5343     1.9283     1.8939
  148.5000     9.6291    -0.0008     2.1129   147.4741     0.3349   117.1351     1.9814     1.9875
  149.0000     9.6438     0.0230     2.0823   143.1411     0.3473   118.3304     2.0954     2.1182
  149.5000     9.6585     0.0742     2.0715   135.7435     0.3506   116.2211     2.2889     2.3943
  150.0000     9.5982     0.1042     2.0813   127.6269     0.3011   110.5095     2.4858     2.6739
  150.5000     9.4780     0.0319     2.2393   124.9158     0.2391   105.6989     2.6996     3.1126
  151.0000     9.4776     0.0138     2.3175   126.7071     0.1918    99.6871     2.9318     3.4760
  151.5000     9.4773     0.0138     2.3453   132.1041     0.1822    90.0717     3.3416     3.7500
  152.0000     9.4770     0.0137     2.3543   135.0987     0.1782    88.8208     3.8885     4.0455
  152.5000     9.4778     0.0107     2.3565   135.0401     0.1779    93.3633     4.1939     4.2747
  153.0000     9.5065     0.0076     2.3573   129.6743     0.1795    96.1281     4.3466     4.4578
  153.5000     9.5061     0.0046     2.3557   127.2635     0.1782    98.4554     4.5214     4.6425
  154.0000     9.5058     0.0045     2.3496   129.0569     0.1771    99.6507     4.6465     4.8048
  154.5000     9.5205     0.0045     2.3451   132.0515     0.1837   100.2470     4.7750     4.9386
  155.0000     9.5067     0.0059     2.3451   130.2392     0.1849   100.8418     4.8733     5.0760
  155.5000     9.5066     0.0074     2.3496   128.7293     0.1819   101.4365     5.2561     5.3267
  156.0000     9.5064     0.0104     2.3570   129.3414     0.1774    98.4263     5.4389     5.5512
  156.5000     9.5063     0.0103     2.3645   130.5121     0.1729    98.4204     5.6280     5.7058
  157.0000     9.5061     0.0073     2.3690   131.1043     0.1702    98.7608     5.7165     5.8689
  157.5000     9.5060     0.0057     2.3713   129.5944     0.1684    99.0094     5.9023     6.0276
  158.0000     9.5058     0.0042     2.3720   124.4788     0.1678    98.4016     6.0238     6.1106
  158.5000     9.5057     0.0071     2.3704   119.9659     0.1687    98.3957     6.1060     6.1091
  159.0000     9.5055     0.0101     2.3659   118.1578     0.1723   101.0926     6.1035     6.1078
  159.5000     9.5054     0.0070     2.3576   120.6095     0.1771   103.1889     6.0594     6.1066
  160.0000     9.5052     0.0040     2.3463   125.0436     0.1815   102.5825     6.0574     6.0633
  160.5000     9.5051     0.0100     2.3417   126.5367     0.1854   100.7748     6.0137     6.0619
  161.0000     9.5049     0.0204     2.3447   128.3301     0.1863   101.3682     6.0112     6.0607
  161.5000     9.5048     0.0294     2.3492   131.6229     0.1857   100.4615     6.0092     6.0595
  162.0000     9.5046     0.0293     2.3530   131.9169     0.1815    97.7530     5.9659     6.0583
  162.5000     9.5045     0.0218     2.3537   130.7052     0.1785    99.5489     5.9230     6.0569
  163.0000     9.5043     0.0173     2.3506   131.9079     0.1779   105.5491     5.9225     6.0557
  163.5000     9.5042     0.0157     2.3529   131.2868     0.1773   108.8466     5.9222     5.9713
  164.0000     9.5040     0.0126     2.3626   130.3775     0.1731   107.6396     5.9218     5.9701
  164.5000     9.5039     0.0096     2.3693   130.0688     0.1710   103.6676     5.9214     5.9687
  165.0000     9.5037     0.0065     2.3708   130.6589     0.1698   101.9208     5.9209     5.9676
  165.5000     9.5036     0.0035     2.3700   131.2511     0.1690   101.6161     5.9205     6.0495
  166.0000     9.5034     0.0004     2.3685   133.6451     0.1690   104.3116     5.9613     6.0903
  166.5000     9.5033     0.0034     2.3670   135.7538     0.1699   107.6091     6.0021     6.1736
  167.0000     9.5031     0.0049     2.3670   140.4381     0.1702   108.8059     6.0851     6.2583
  167.5000     9.5030     0.0063     2.3639   142.8377     0.1714   106.9968     6.2550     6.3883
  168.0000     9.5028     0.0093     2.3548   141.5536     0.1750   105.4855     6.3855     6.5206
  168.5000     9.5027     0.0092     2.3503   139.8284     0.1793    97.3400     6.4739     6.6560
  169.0000     9.5025     0.0077     2.3480   140.1259     0.1811    94.9235     6.5634     6.7942
  169.5000     9.5024     0.0061     2.3532   143.4665     0.1799    95.5100     6.7935     6.9384
  170.0000     9.5022     0.0091     2.3555   147.6272     0.1796   101.8753     7.0803     7.1280
  170.5000     9.5021     0.0121     2.3517   149.1266     0.1799   105.6886     7.4371     7.1266
  171.0000     9.5019     0.0150     2.3509   146.4204     0.1793   106.8792     7.6910     7.1747
  171.5000     9.5018     0.0150     2.3591   136.5070     0.1745   103.2581     7.7974     7.2230
  172.0000     9.5016     0.0119     2.3667   134.7024     0.1727   101.4387     7.7431     7.2718
  172.5000     9.5015     0.0089     2.3651   133.7987     0.1730   100.8240     7.4798     7.1701
