~VERSION INFORMATION
 VERS.                2.0:   CWLS LOG ASCII STANDARD - VERSION 2.0
 WRAP.                 NO:   ONE LINE PER DEPTH STEP
~WELL INFORMATION
#MNEM.UNIT      DATA TYPE    INFORMATION
#----------   ------------   ------------------------------
 STRT.F            6.0000:   START DEPTH
 STOP.F         4020.0000:   STOP DEPTH
 STEP.F            0.5000:   STEP LENGTH
 NULL.          -999.2500:   NO VALUE
 COMP. LAWRENCE/ALLISON INC:   COMPANY
 WELL.       66 JX #33-33:   WELL
 FLD .              NPR-3:   FIELD
 LOC .      S33 T39N R78W:   LOCATION
 CNTY.            NATRONA:   COUNTY
 STAT.            WYOMING:   STATE
 CTRY. UNITED STATES OF AMERICA:   COUNTRY
 SRVC.      Dresser Atlas:   SERVICE COMPANY
 DATE.        02-DEC-1983:   LOGDATE
 API .       490251095100:   API NUMBER
~CURVE INFORMATION
#MNEM.UNIT       API CODE    CURVE DESCRIPTION
#----------   ------------   ------------------------------
 DEPT.F                  :   
 CALD.IN     45 280 60 00:   CALIPER
 CNC .DEC    42 890 03 00:   NEUTRON POROSITY SANDSTONE
 PORD.DEC    45 890 12 00:   POROSITY DENSITY SANDSTONE
 DEN .G/C3   45 350 01 00:   COMPENSATED BULK DENSTIY
 CORR.G/C3   45 356 01 00:   DENSITY CORRECTION
 RFOC.OHMM   07 220 04 00:   RESISTIVITY FOCUSED LOG
 RILD.OHMM   07 120 46 00:   INDUCTION LOG DEEP RESISTIVITY
 RILM.OHMM   07 120 44 00:   INDUCTION LOG MEDIUM RESISTIVITY
 GRR .GAPI   07 310 01 00:   GAMMA RAY FROM RES. LOG.
 DT  .US/F   60 520 00 00:   INTERVAL TRANSIT TIME
 SPR .MV     07 010 01 00:   SPONTANEOUS POTENTIAL
~PARAMETER INFORMATION
#MNEM.UNIT          VALUE    DESCRIPTION
#----------   ------------   ------------------------------
 PD  .                 GL:   PERMANENT DATUM
 EPD .F              5141:   ELEVATION PERMANENT DATUM
 LMF .                 KB:   LOG MEASURED FROM
 DAPD.F                10:   FEET ABOVE PERMANENT DATUM
 DMF .                 KB:   DRILLING MEASURED FROM
 EKB .F              5151:   KELLING BUSHING
 EGL .F              5141:   GROUND LEVEL
 DATE.            12-2-83:   RUN DATE
 RUN .                  1:   RUN NUMBER
 DD  .F              4025:   DEPTH DRILLER
 DL  .F              4020:   DEPTH LOGGER
 BLI .F              4018:   BOTTOM LOG INTERVAL
 TLI .F                10:   TOP LOG INTERVAL
 CS  .IN            8.625:   CASING SIZE
 CBD .F               718:   CASING BOTTOM DRILLER
 CBL .F               722:   CASING BOTTOM LOGGER
 BS  .IN            7.875:   BIT SIZE
 BSD .F              4025:   BIT SIZE AT DEPTH
 DFT .            GEL/KCL:   DRILLING FLUID TYPE
 DFD .                  9:   DRILLING FLUID DENSITY
 DFV .                 45:   DRILLING FLUID VISCOSITY
 DFPH.                8.5:   DRILLING FLUID PH
 DFL .                 12:   DRILLING FLUID LOSS
 MSS .           FLOWLINE:   MUD SAMPLE SOURCE
 RMS .OHMM            .37:   RESISTIVITY MUD SAMPLE
 MST .F                88:   MUD SAMPLE TEMPERATURE
 RMF .OHMM            .29:   RESISTIVITY MUD FILTRATE SAMPLE
 MFST.F                88:   MUD FILTRATE SAMPLE TEMPERATURE
 RMC .OHMM            .46:   RESISTIVITY MUD CAKE
 MCST.F                88:   MUD CAKE SAMPLE TEMPERATURE
 MFSS.               MEAS:   MUD FILTRATE SAMPLE SOURCE
 MCSS.               CALC:   MUD CAKE SAMPLE SOURCE
 RMB .OHMM            .26:   RESISTIVITY MUD AT BHT
 BHT .F               127:   BOTTOM HOLE TEMPERATURE
 TCS .HRS               4:   TIME CURCULATED STOPPED
 MRT .F               127:   MAXIMUM RECORDED TEMPERATURE
 LUN .               6264:   LOGGING UNIT NUMBER
 LUL .              WLSTN:   LOGGING UNIT LOCATION
 ENGI.            PANASUK:   RECORDING ENGINEER
 WITN.              SCOTT:   WITNESSED BY
 CLNT.            A2DTECH:   CLIENT CODE
 ORIG.       2", 5" PRINT:   ORIGIN OF DATA
 UWI .       490251095100:   UNIQUE WELL ID
 DICO. A2D Technologies, Inc.:   DIGITIZING COMPANY
~OTHER INFORMATION
~A    DEPT    CALD        CNC       PORD        DEN       CORR       RFOC       RILD       RILM          GRR       DT        SPR   
# ...
 3757.5000     8.1165     0.2624     0.0418     2.5773     0.0398     7.8026     5.4400     5.8092   132.3926    80.1962   -31.0690
 3758.0000     8.1070     0.2730     0.0408     2.5842     0.0288     6.7892     5.0129     5.3305   136.7829    81.5354   -31.0344
 3758.5000     8.1190     0.2779     0.0367     2.5924     0.0353     5.9369     4.6203     4.8915   142.0699    83.0451   -31.0449
 3759.0000     8.1395     0.2826     0.0326     2.6007     0.0510     5.6585     4.3679     4.5834   147.2729    84.5526   -30.9951
 3759.5000     8.1603     0.2874     0.0284     2.6016     0.0628     5.3654     4.2644     4.4423   150.1069    86.0601   -30.9042
 3760.0000     8.1810     0.2886     0.0274     2.5973     0.0525     5.0813     4.1681     4.3318   148.8114    87.3774   -30.8325
 3760.5000     8.2017     0.2782     0.0324     2.5931     0.0450     4.8489     4.0681     4.2242   144.8821    87.9673   -30.7408
 3761.0000     8.2225     0.2795     0.0342     2.5919     0.0491     5.2507     3.9970     4.0690   141.7850    87.4565   -30.6839
 3761.5000     8.2430     0.2823     0.0342     2.5893     0.0530     5.9917     4.0339     4.1024   142.0935    86.7027   -30.4478
 3762.0000     8.2371     0.2826     0.0342     2.5803     0.0513     5.8525     4.2629     4.2327   142.9888    85.9980   -30.0502
 3762.5000     8.2197     0.2810     0.0422     2.5674     0.0367     5.3963     4.5256     4.3882   143.5174    86.4055   -29.7558
 3763.0000     8.2024     0.2773     0.0510     2.5535     0.0235     4.8938     4.7471     4.5880   142.4203    87.4562   -29.0918
 3763.5000     8.1850     0.2693     0.0607     2.5430     0.0104     5.1537     4.8962     5.2538   139.2375    88.4985   -28.3833
 3764.0000     8.1676     0.2612     0.0655     2.5473    -0.0016     5.6711     5.4168     6.0977   135.6835    88.5986   -27.6995
 3764.5000     8.1497     0.2531     0.0626     2.5538     0.0109     6.5479     6.1601     7.0771   125.1710    86.3783   -26.9977
 3765.0000     8.1497     0.2451     0.0587     2.5604     0.0275     7.9420     7.0054     8.0476   116.9770    84.5798   -26.3145
 3765.5000     8.1618     0.2370     0.0542     2.5670     0.0350    10.2170     7.9666     8.1579   113.1828    82.7814   -25.6255
 3766.0000     8.1739     0.2318     0.0486     2.5736     0.0292     9.8478     8.8998     8.2579   110.2719    81.1860   -25.4292
 3766.5000     8.1860     0.2339     0.0434     2.5784     0.0216     9.9861     9.2335     8.3622   110.3815    80.2815   -25.4406
 3767.0000     8.1978     0.2397     0.0412     2.5820     0.0139    10.3114     9.1489     7.7491   111.5750    79.3829   -25.5000
 3767.5000     8.1959     0.2485     0.0392     2.5853     0.0063    10.0266     8.6575     6.8685   115.5778    78.8338   -25.9742
 3768.0000     8.1691     0.2659     0.0378     2.5831    -0.0015     8.6131     7.7202     6.1020   121.0369    78.8889   -26.3886
 3768.5000     8.1427     0.2826     0.0382     2.5772    -0.0057     7.3746     6.5467     5.4210   126.6384    80.6373   -26.8101
 3769.0000     8.1158     0.2994     0.0418     2.5666     0.0196     6.1208     5.5515     4.8160   130.0565    82.9621   -27.2359
 3769.5000     8.1068     0.3126     0.0489     2.5510     0.0504     5.6691     4.7077     4.1851   130.3100    85.4028   -27.6070
 3770.0000     8.1339     0.3275     0.0604     2.5337     0.0816     5.1520     3.9920     4.0339   131.3085    87.8436   -27.5340
 3770.5000     8.1620     0.3422     0.0719     2.5162     0.0935     4.6806     3.5139     3.7324   133.6069    90.2843   -27.3635
 3771.0000     8.1899     0.3564     0.0830     2.5148     0.0903     4.2668     3.2606     3.4586   135.1528    92.2474   -27.2319
 3771.5000     8.2065     0.3636     0.0826     2.5245     0.0855     4.2402     3.0675     3.2048   135.0088    93.7247   -27.0432
 3772.0000     8.2104     0.3612     0.0706     2.5406     0.0424     4.1713     2.8860     2.9698   134.9767    94.5413   -27.2673
 3772.5000     8.2143     0.3598     0.0610     2.5555     0.0126     3.9675     2.7098     2.7519   136.1388    94.9158   -27.7281
 3773.0000     8.2182     0.3638     0.0558     2.5534     0.0348     3.7737     2.5384     2.5856   137.7274    95.6953   -28.0926
 3773.5000     8.2224     0.3791     0.0704     2.5220     0.0697     3.5893     2.3778     2.4684   139.0014    97.0449   -28.5334
 3774.0000     8.2226     0.3930     0.0904     2.4913     0.1052     3.4140     2.2274     2.3566   138.0589    98.6575   -28.4840
 3774.5000     8.1906     0.3926     0.1086     2.4689     0.1049     3.2587     2.0990     2.1777   135.3481   100.5957   -28.0527
 3775.0000     8.1678     0.3739     0.1086     2.4717     0.0662     3.1373     2.0046     2.1810   132.8745   102.5340   -27.6905
 3775.5000     8.1458     0.3541     0.0921     2.5135     0.0439     3.0051     2.0231     2.1923   132.6527   104.4883   -27.7507
 3776.0000     8.1247     0.2995     0.0736     2.5432     0.0364     2.7662     2.0794     2.2685   133.5900   106.6034   -28.1755
 3776.5000     8.1091     0.3006     0.0535     2.5741     0.0237     2.7745     2.1614     2.4132   128.2660   105.8951   -28.7330
 3777.0000     8.1139     0.2492     0.0375     2.5881     0.0058     2.8176     2.2338     2.6663   117.4542   101.7427   -29.2339
 3777.5000     8.1191     0.2495     0.0354     2.5856     0.0087     3.8286     2.2821     2.7085   105.9516    92.7828   -29.7601
 3778.0000     8.1244     0.2527     0.0409     2.5796     0.0181     5.0209     2.3315     2.7546   100.1480    89.0545   -30.2653
 3778.5000     8.1142     0.2600     0.0442     2.5799     0.0391     5.6699     2.4369     2.7997   107.5188    84.2943   -30.7971
 3779.0000     8.0807     0.2646     0.0373     2.6040     0.0606     4.6118     2.5666     2.8451   115.7190    84.3944   -31.2888
 3779.5000     8.0517     0.2662    -0.0009     2.6609     0.0613     3.8334     2.7031     2.8911   125.1296    88.5888   -31.8481
 3780.0000     8.0455     0.2743    -0.0463     2.7175     0.0342     3.3910     2.7918     2.9379   123.8497    90.8269   -31.9591
 3780.5000     8.0317     0.2768    -0.0566     2.7434     0.0113     3.5461     2.6614     3.0051   115.0303    89.3954   -31.8451
 3781.0000     8.0179     0.2762    -0.0137     2.6659     0.0025     4.1044     2.5346     2.8741   105.6859    85.8779   -31.9396
 3781.5000     8.0198     0.2785     0.0217     2.5909     0.0147     5.2650     2.4138     2.6655    98.3125    82.1922   -31.9751
 3782.0000     8.0627     0.3047     0.0572     2.5471     0.0294     5.1852     2.3226     2.4720   102.6743    82.0667   -32.0415
 3782.5000     8.1077     0.3296     0.0642     2.5474     0.0418     3.9084     2.2326     2.3354   112.1670    84.8248   -32.0915
 3783.0000     8.1532     0.3467     0.0582     2.5511     0.0399     3.0561     2.1600     2.2643   121.8378    89.0989   -32.1498
 3783.5000     8.1997     0.3602     0.0598     2.5497     0.0240     2.9203     2.0910     2.1954   128.4313    93.5712   -32.2043
 3784.0000     8.1671     0.3484     0.0689     2.5358     0.0082     2.9349     2.0241     2.1184   129.4338    96.2274   -32.2608
 3784.5000     8.1522     0.3306     0.0798     2.5221     0.0008     3.0083     1.9497     2.0548   128.6411    97.1922   -32.3169
 3785.0000     8.1364     0.3128     0.0814     2.5145     0.0001     3.1819     1.9129     1.9863   131.3619    97.7880   -32.3730
 3785.5000     8.1205     0.2966     0.0808     2.5203     0.0333     3.1621     1.9314     2.0046   135.8001    98.1963   -32.4305
 3786.0000     8.1046     0.2842     0.0689     2.5381     0.0466     3.0492     2.0370     2.2477   137.4642    98.6157   -32.4310
 3786.5000     8.0887     0.2729     0.0513     2.5632     0.0379     2.9678     2.1933     2.5022   131.6594    98.1161   -32.3220
 3787.0000     8.0727     0.2726     0.0353     2.5869     0.0296     3.1568     2.3619     2.8193   122.4991    96.2658   -32.1868
 3787.5000     8.0573     0.2745     0.0358     2.5872     0.0260     4.0695     2.5251     3.0452   114.4164    92.5526   -32.0545
