~VERSION INFORMATION
 VERS.                2.0:   CWLS LOG ASCII STANDARD - VERSION 2.0
 WRAP.                 NO:   ONE LINE PER DEPTH STEP
~WELL INFORMATION
#MNEM.UNIT      DATA TYPE    INFORMATION
#----------   ------------   ------------------------------
 STRT.F            0.5000:   START DEPTH
 STOP.F         3087.0000:   STOP DEPTH
 STEP.F            0.5000:   STEP LENGTH
 NULL.          -999.2500:   NO VALUE
 COMP. DEPARTMENT OF ENERGY:   COMPANY
 WELL.    NPR-3 #201-A-29:   WELL
 FLD . TEAPOT NAVAL RESERVE:   FIELD
 LOC .      S29 T39N R78W:   LOCATION
 CNTY.            NATRONA:   COUNTY
 STAT.            WYOMING:   STATE
 CTRY. UNITED STATES OF AMERICA:   COUNTRY
 SRVC.      NL McCullough:   SERVICE COMPANY
 DATE.        24-JUN-1965:   LOGDATE
 API .       490251144400:   API NUMBER
~CURVE INFORMATION
#MNEM.UNIT       API CODE    CURVE DESCRIPTION
#----------   ------------   ------------------------------
 DEPT.F                  :   
 GRR .GAPI   30 310 01 00:   GAMMA RAY
 CALI.IN     30 280 01 00:   CALIPER
~PARAMETER INFORMATION
#MNEM.UNIT          VALUE    DESCRIPTION
#----------   ------------   ------------------------------
 PD  .                 GL:   PERMANENT DATUM
 LMF .                 GL:   LOG MEASURED FROM
 EDF .F              5012:   DRILLING FLOOR
 DATE.        24-JUN-1965:   RUN DATE
 RUN .                  1:   RUN NUMBER
 DD  .F              2782:   DEPTH DRILLER
 DL  .F              2772:   DEPTH LOGGER
 BLI .F              2770:   BOTTOM LOG INTERVAL
 TLI .F              2300:   TOP LOG INTERVAL
 CS  .IN            6.625:   CASING SIZE
 CBD .F              2756:   CASING BOTTOM DRILLER
 ENGI.         COWLTHORPE:   RECORDING ENGINEER
 WITN.             HUDSON:   WITNESSED BY
 CLNT.            A2DTECH:   CLIENT CODE
 ORIG.           5" PRINT:   ORIGIN OF DATA
 UWI .       490251144400:   UNIQUE WELL ID
 DICO. A2D Technologies, Inc.:   DIGITIZING COMPANY
~OTHER INFORMATION
~A    DEPT     GRR         CALI 
# ...
  243.5000  -999.2500     6.3717
  244.0000  -999.2500     6.3707
  244.5000  -999.2500     6.3698
  245.0000  -999.2500     6.3689
  245.5000  -999.2500     6.3679
  246.0000  -999.2500     6.3670
  246.5000  -999.2500     6.3660
  247.0000  -999.2500     6.3651
  247.5000  -999.2500     6.3655
  248.0000  -999.2500     6.3664
  248.5000  -999.2500     6.3673
  249.0000  -999.2500     6.3682
  249.5000  -999.2500     6.3691
  250.0000  -999.2500     6.3700
  250.5000  -999.2500     6.3709
  251.0000  -999.2500     6.3718
  251.5000  -999.2500     6.3727
  252.0000  -999.2500     6.3736
  252.5000  -999.2500     6.3745
  253.0000  -999.2500     6.3754
  253.5000  -999.2500     6.3763
  254.0000  -999.2500     6.3773
  254.5000  -999.2500     6.3782
  255.0000  -999.2500     6.3791
  255.5000  -999.2500     6.3800
  256.0000  -999.2500     6.3809
  256.5000  -999.2500     6.3818
  257.0000  -999.2500     6.3827
  257.5000  -999.2500     6.3836
  258.0000  -999.2500     6.3845
  258.5000  -999.2500     6.3848
  259.0000  -999.2500     6.3848
  259.5000  -999.2500     6.3848
  260.0000  -999.2500     6.3848
  260.5000  -999.2500     6.3848
  261.0000  -999.2500     6.3848
  261.5000  -999.2500     6.3848
  262.0000  -999.2500     6.3848
  262.5000  -999.2500     6.3848
  263.0000  -999.2500     6.3848
  263.5000  -999.2500     6.3848
  264.0000  -999.2500     6.3848
  264.5000  -999.2500     6.3848
  265.0000  -999.2500     6.3848
  265.5000  -999.2500     6.3848
  266.0000  -999.2500     6.3848
  266.5000  -999.2500     6.3848
  267.0000  -999.2500     6.3848
  267.5000  -999.2500     6.3848
  268.0000  -999.2500     6.3848
  268.5000  -999.2500     6.3848
  269.0000  -999.2500     6.3848
  269.5000  -999.2500     6.3848
  270.0000  -999.2500     6.3848
  270.5000  -999.2500     6.3848
  271.0000  -999.2500     6.3848
  271.5000  -999.2500     6.3848
  272.0000  -999.2500     6.3848
  272.5000  -999.2500     6.3848
  273.0000  -999.2500     6.3848
  273.5000  -999.2500     6.3848
  274.0000  -999.2500     6.3848
  274.5000  -999.2500     6.3848
  275.0000  -999.2500     6.3848
  275.5000  -999.2500     6.3848
  276.0000  -999.2500     6.3848
  276.5000  -999.2500     6.3848
  277.0000  -999.2500     6.3848
  277.5000  -999.2500     6.3848
  278.0000  -999.2500     6.3848
  278.5000  -999.2500     6.3848
  279.0000  -999.2500     6.3848
  279.5000  -999.2500     6.3848
  280.0000  -999.2500     6.3848
  280.5000  -999.2500     6.3848
  281.0000  -999.2500     6.3848
  281.5000  -999.2500     6.3848
  282.0000  -999.2500     6.3848
  282.5000  -999.2500     6.3848
  283.0000  -999.2500     6.3848
  283.5000  -999.2500     6.3848
  284.0000  -999.2500     6.3848
  284.5000  -999.2500     6.3848
  285.0000  -999.2500     6.3848
  285.5000  -999.2500     6.3848
  286.0000  -999.2500     6.3848
  286.5000  -999.2500     6.3848
  287.0000  -999.2500     6.3848
  287.5000  -999.2500     6.3848
  288.0000  -999.2500     6.3848
  288.5000  -999.2500     6.3848
  289.0000  -999.2500     6.3848
  289.5000  -999.2500     6.3848
  290.0000  -999.2500     6.3848
  290.5000  -999.2500     6.3848
  291.0000  -999.2500     6.3848
  291.5000  -999.2500     6.3845
  292.0000  -999.2500     6.3836
  292.5000  -999.2500     6.3827
  293.0000  -999.2500     6.3818
  293.5000  -999.2500     6.3809
  294.0000  -999.2500     6.3800
  294.5000  -999.2500     6.3791
  295.0000  -999.2500     6.3782
  295.5000  -999.2500     6.3773
  296.0000  -999.2500     6.3764
  296.5000  -999.2500     6.3755
  297.0000  -999.2500     6.3746
  297.5000  -999.2500     6.3737
  298.0000  -999.2500     6.3728
  298.5000  -999.2500     6.3719
  299.0000  -999.2500     6.3710
  299.5000  -999.2500     6.3701
  300.0000  -999.2500     6.3692
  300.5000  -999.2500     6.3683
  301.0000  -999.2500     6.3674
  301.5000  -999.2500     6.3665
  302.0000  -999.2500     6.3656
  302.5000  -999.2500     6.3648
  303.0000  -999.2500     6.3648
  303.5000  -999.2500     6.3648
  304.0000  -999.2500     6.3648
  304.5000  -999.2500     6.3648
  305.0000  -999.2500     6.3648
  305.5000  -999.2500     6.3648
  306.0000  -999.2500     6.3648
  306.5000  -999.2500     6.3648
  307.0000  -999.2500     6.3648
  307.5000  -999.2500     6.3648
  308.0000  -999.2500     6.3648
  308.5000  -999.2500     6.3648
  309.0000  -999.2500     6.3648
  309.5000  -999.2500     6.3648
  310.0000  -999.2500     6.3648
  310.5000  -999.2500     6.3648
  311.0000  -999.2500     6.3648
  311.5000  -999.2500     6.3648
  312.0000  -999.2500     6.3648
  312.5000  -999.2500     6.3648
  313.0000  -999.2500     6.3648
  313.5000  -999.2500     6.3648
  314.0000  -999.2500     6.3658
  314.5000  -999.2500     6.3673
  315.0000  -999.2500     6.3688
  315.5000  -999.2500     6.3702
  316.0000  -999.2500     6.3717
  316.5000  -999.2500     6.3731
  317.0000  -999.2500     6.3746
  317.5000  -999.2500     6.3760
  318.0000  -999.2500     6.3775
  318.5000  -999.2500     6.3789
  319.0000  -999.2500     6.3804
  319.5000  -999.2500     6.3818
  320.0000  -999.2500     6.3833
  320.5000  -999.2500     6.3847
  321.0000  -999.2500     6.3862
  321.5000  -999.2500     6.3877
  322.0000  -999.2500     6.3891
  322.5000  -999.2500     6.3906
  323.0000  -999.2500     6.3920
  323.5000  -999.2500     6.3935
  324.0000  -999.2500     6.3949
  324.5000  -999.2500     6.3964
  325.0000  -999.2500     6.3978
  325.5000  -999.2500     6.3993
  326.0000  -999.2500     6.4007
  326.5000  -999.2500     6.4022
  327.0000  -999.2500     6.4036
  327.5000  -999.2500     6.4051
  328.0000  -999.2500     6.4066
  328.5000  -999.2500     6.4080
  329.0000  -999.2500     6.4095
  329.5000  -999.2500     6.4109
  330.0000  -999.2500     6.4124
  330.5000  -999.2500     6.4138
  331.0000  -999.2500     6.4153
  331.5000  -999.2500     6.4167
  332.0000  -999.2500     6.4182
  332.5000  -999.2500     6.4196
  333.0000  -999.2500     6.4211
  333.5000  -999.2500     6.4226
  334.0000  -999.2500     6.4240
  334.5000  -999.2500     6.4247
  335.0000  -999.2500     6.4247
  335.5000  -999.2500     6.4247
  336.0000  -999.2500     6.4247
  336.5000  -999.2500     6.4247
  337.0000  -999.2500     6.4247
  337.5000  -999.2500     6.4247
  338.0000  -999.2500     6.4247
  338.5000  -999.2500     6.4247
  339.0000  -999.2500     6.4247
  339.5000  -999.2500     6.4247
  340.0000  -999.2500     6.4247
  340.5000  -999.2500     6.4247
  341.0000  -999.2500     6.4247
  341.5000  -999.2500     6.4247
  342.0000  -999.2500     6.4247
  342.5000  -999.2500     6.4247
  343.0000  -999.2500     6.4247
  343.5000  -999.2500     6.4247
  344.0000  -999.2500     6.4247
  344.5000  -999.2500     6.4247
  345.0000  -999.2500     6.4223
  345.5000  -999.2500     6.4196
  346.0000  -999.2500     6.4168
  346.5000  -999.2500     6.4141
  347.0000  -999.2500     6.4114
  347.5000  -999.2500     6.4086
  348.0000  -999.2500     6.4059
  348.5000  -999.2500     6.4032
  349.0000  -999.2500     6.4005
  349.5000  -999.2500     6.3977
  350.0000  -999.2500     6.3950
  350.5000  -999.2500     6.3923
  351.0000  -999.2500     6.3896
  351.5000  -999.2500     6.3868
  352.0000  -999.2500     6.3841
  352.5000  -999.2500     6.3814
  353.0000  -999.2500     6.3787
  353.5000  -999.2500     6.3759
  354.0000  -999.2500     6.3732
  354.5000  -999.2500     6.3705
  355.0000  -999.2500     6.3677
  355.5000  -999.2500     6.3650
  356.0000  -999.2500     6.3666
  356.5000  -999.2500     6.3685
  357.0000  -999.2500     6.3705
  357.5000  -999.2500     6.3724
  358.0000  -999.2500     6.3744
  358.5000  -999.2500     6.3763
  359.0000  -999.2500     6.3783
  359.5000  -999.2500     6.3802
  360.0000  -999.2500     6.3822
  360.5000  -999.2500     6.3841
  361.0000  -999.2500     6.3860
  361.5000  -999.2500     6.3880
  362.0000  -999.2500     6.3899
  362.5000  -999.2500     6.3919
  363.0000  -999.2500     6.3938
  363.5000  -999.2500     6.3958
  364.0000  -999.2500     6.3977
  364.5000  -999.2500     6.3996
