~VERSION INFORMATION
 VERS.                2.0:   CWLS LOG ASCII STANDARD - VERSION 2.0
 WRAP.                 NO:   ONE LINE PER DEPTH STEP
~WELL INFORMATION
#MNEM.UNIT      DATA TYPE    INFORMATION
#----------   ------------   ------------------------------
 STRT.F           15.0000:   START DEPTH
 STOP.F          531.0000:   STOP DEPTH
 STEP.F            0.1000:   STEP LENGTH
 NULL.          -999.2500:   NO VALUE
 COMP. LAWRENCE/ALLISON INC:   COMPANY
 WELL.   NPR 3 #42-61SX10:   WELL
 FLD .          N.P.R. #3:   FIELD
 LOC .      S10 T38N R78W:   LOCATION
 CNTY.            NATRONA:   COUNTY
 STAT.            WYOMING:   STATE
 CTRY. UNITED STATES OF AMERICA:   COUNTRY
 SRVC.           Gearhart:   SERVICE COMPANY
 DATE.        06-JUL-1986:   LOGDATE
 API .       490251109500:   API NUMBER
~CURVE INFORMATION
#MNEM.UNIT       API CODE    CURVE DESCRIPTION
#----------   ------------   ------------------------------
 DEPT.F                  :   
 GRR .GAPI   07 310 01 00:   GAMMA RAY
 RILD.OHMM   07 120 46 00:   INDUCTION LOG DEEP
 RILM.OHMM   07 120 44 00:   INDUCTION LOG MEDIUM
~PARAMETER INFORMATION
#MNEM.UNIT          VALUE    DESCRIPTION
#----------   ------------   ------------------------------
 PD  .                 GL:   PERMANENT DATUM
 EPD .F              5196:   ELEVATION PERMANENT DATUM
 LMF .                 KB:   LOG MEASURED FROM
 DAPD.F                 5:   FEET ABOVE PERMANENT DATUM
 DMF .                 KB:   DRILLING MEASURED FROM
 EKB .F              5201:   KELLING BUSHING
 EGL .F              5196:   GROUND LEVEL
 DATE.        06-JUL-1986:   RUN DATE
 RUN .                  1:   RUN NUMBER
 DD  .F               548:   DEPTH DRILLER
 DL  .F               541:   DEPTH LOGGER
 BLI .F               531:   BOTTOM LOG INTERVAL
 TLI .F                15:   TOP LOG INTERVAL
 CS  .IN            8.625:   CASING SIZE
 CBD .F                47:   CASING BOTTOM DRILLER
 CBL .F                47:   CASING BOTTOM LOGGER
 BS  .IN            7.875:   BIT SIZE
 BSD .F               548:   BIT SIZE AT DEPTH
 DFT .                AIR:   DRILLING FLUID TYPE
 BHT .F                82:   BOTTOM HOLE TEMPERATURE
 TCS .HRS            2000:   TIME CURCULATED STOPPED
 TLAB.HRS            2130:   TIME LOGGER AT BOTTOM
 MRT .F                82:   MAXIMUM RECORDED TEMPERATURE
 LUN .               7609:   LOGGING UNIT NUMBER
 LUL .           GILLETTE:   LOGGING UNIT LOCATION
 ENGI.              BAUER:   RECORDING ENGINEER
 WITN.           JENNINGS:   WITNESSED BY
 CLNT.            A2DTECH:   CLIENT CODE
 ORIG.           5" PRINT:   ORIGIN OF DATA
 UWI .       490251109500:   UNIQUE WELL ID
 DICO. A2D Technologies, Inc.:   DIGITIZING COMPANY
~OTHER INFORMATION
~A   DEPT      GRR       RILD       RILM   
# ...
  233.4000   116.0309     7.9773     7.9487
  233.5000   116.2860     7.9402     7.9365
  233.6000   116.6461     7.9405     7.9121
  233.7000   117.3229     7.8852     7.8814
  233.8000   118.6063     7.8854     7.8757
  233.9000   120.4036     7.8580     7.8267
  234.0000   121.8850     7.8307     7.8269
  234.1000   123.3500     7.8218     7.7940
  234.2000   124.5154     7.7763     7.7488
  234.3000   125.4748     7.7312     7.7184
  234.4000   126.2281     7.7224     7.7187
  234.5000   126.8121     7.6956     7.7189
  234.6000   127.2497     7.6688     7.6776
  234.7000   127.4217     7.6601     7.6653
  234.8000   127.4211     7.6156     7.6422
  234.9000   127.4205     7.6159     7.6121
  235.0000   127.3995     7.5805     7.6070
  235.1000   127.1138     7.5365     7.5593
  235.2000   126.8869     7.5103     7.5190
  235.3000   126.4539     7.5018     7.5068
  235.4000   126.1960     7.4582     7.4844
  235.5000   126.1181     7.4063     7.4410
  235.6000   125.8618     7.4064     7.4028
  235.7000   125.5835     7.3808     7.4030
  235.8000   125.3492     7.3379     7.3638
  235.9000   125.0929     7.2953     7.3211
  236.0000   124.9710     7.2529     7.2786
  236.1000   124.8857     7.2024     7.2495
  236.2000   124.6644     7.1690     7.2451
  236.3000   124.6638     7.1273     7.1992
  236.4000   124.6632     7.1025     7.1613
  236.5000   124.6626     7.0945     7.1198
  236.6000   124.5203     7.0532     7.0995
  236.7000   124.3560     7.0123     7.0870
  236.8000   124.3131     6.9716     7.0458
  236.9000   124.0494     6.9311     7.0011
  237.0000   123.8005     6.9070     6.9644
  237.1000   123.7429     6.8992     6.9240
  237.2000   123.7423     6.8591     6.8838
  237.3000   123.6424     6.7796     6.8439
  237.4000   123.4357     6.7009     6.8042
  237.5000   123.4351     6.6463     6.7607
  237.6000   123.4344     6.5924     6.7255
  237.7000   123.4339     6.5083     6.6865
  237.8000   123.4333     6.3950     6.6477
  237.9000   123.4327     6.3060     6.5977
  238.0000   123.4321     6.2475     6.5248
  238.1000   123.4388     6.1966     6.4830
  238.2000   123.7361     6.1463     6.3825
  238.3000   124.1623     6.0819     6.2971
  238.4000   124.6730     6.0466     6.2240
  238.5000   125.1837     6.0115     6.1518
  238.6000   125.6302     5.9766     6.0837
  238.7000   125.8706     5.9212     6.0445
  238.8000   125.8698     5.8661     5.9822
  238.9000   126.0900     5.8388     5.9366
  239.0000   126.0031     5.8390     5.9022
  239.1000   125.8681     5.8051     5.8582
  239.2000   125.7958     5.7714     5.7931
  239.3000   125.5175     5.7379     5.7556
  239.4000   124.9502     5.7046     5.7261
  239.5000   124.4937     5.6781     5.6929
  239.6000   123.9817     5.6783     5.6599
  239.7000   123.3411     5.6785     5.6270
  239.8000   122.5734     5.6521     5.5917
  239.9000   121.7472     5.6193     5.5192
  240.0000   120.3664     5.5998     5.4910
  240.1000   119.1893     5.5999     5.4591
  240.2000   117.9102     5.6001     5.4275
  240.3000   116.6312     5.5611     5.4047
  240.4000   115.2660     5.5613     5.4049
  240.5000   113.8412     5.5614     5.4051
  240.6000   113.0345     5.5747     5.4052
  240.7000   112.5486     5.6076     5.4267
  240.8000   112.0367     5.6407     5.4587
  240.9000   111.6680     5.6740     5.4997
  241.0000   111.4117     5.7344     5.5621
  241.1000   111.1994     5.7817     5.5991
  241.2000   111.1988     5.8295     5.6566
  241.3000   111.4481     5.8983     5.7234
  241.4000   111.9035     5.9679     5.8069
  241.5000   112.2636     6.0032     5.9003
  241.6000   112.6197     6.0671     5.9722
  241.7000   113.1817     6.1387     6.0922
  241.8000   113.9481     6.2112     6.1859
  241.9000   114.8585     6.2845     6.2709
  242.0000   115.6886     6.3586     6.3623
  242.1000   116.7107     6.4489     6.4648
  242.2000   117.6245     6.5099     6.5410
  242.3000   118.3908     6.5635     6.6288
  242.4000   119.1483     6.6179     6.6624
  242.5000   119.7404     6.6960     6.7017
  242.6000   120.1698     6.7750     6.7412
  242.7000   120.6805     6.8150     6.7912
  242.8000   121.0756     6.8875     6.8689
  242.9000   121.2647     6.9443     6.9151
  243.0000   121.2478     6.9853     6.9500
  243.1000   120.9581     7.0265     6.9910
  243.2000   120.7353     7.0680     7.0322
  243.3000   120.3064     7.1097     7.0631
  243.4000   119.9174     7.1517     7.0655
  243.5000   119.5878     7.1939     7.1133
  243.6000   119.0759     7.2194     7.1490
  243.7000   118.5117     7.2282     7.1911
  243.8000   117.8223     7.2708     7.2144
  243.9000   116.8748     7.2711     7.2251
  244.0000   115.9817     7.3054     7.2656
  244.1000   115.2141     7.3228     7.2659
  244.2000   114.4465     7.3230     7.2660
  244.3000   113.6226     7.3318     7.2663
  244.4000   112.9111     7.3751     7.2665
  244.5000   112.1435     7.3323     7.2667
  244.6000   111.3758     7.3239     7.2650
  244.7000   110.7841     7.2985     7.2163
  244.8000   110.5661     7.2561     7.2164
  244.9000   110.5655     7.2140     7.2166
  245.0000   110.8092     7.1721     7.1983
  245.1000   111.0642     7.1723     7.1666
  245.2000   111.6092     7.1391     7.1652
  245.3000   112.2803     7.1225     7.1169
  245.4000   112.9279     7.1061     7.1170
  245.5000   114.2259     7.0649     7.0908
  245.6000   115.2318     7.0238     7.0319
  245.7000   116.4558     6.9424     6.9503
  245.8000   117.5812     6.8618     6.8710
  245.9000   118.7059     6.7822     6.8245
  246.0000   119.9308     6.6879     6.7587
  246.1000   120.9529     6.5792     6.7049
  246.2000   122.1605     6.5027     6.6494
  246.3000   122.5785     6.3899     6.5722
  246.4000   122.9296     6.3083     6.4949
  246.5000   123.2946     6.2350     6.3629
  246.6000   123.6849     6.1770     6.3019
  246.7000   123.6949     6.1340     6.2062
  246.8000   123.9889     6.0627     6.0985
  246.9000   123.9884     6.0205     5.9925
  247.0000   123.9878     5.9646     5.8892
  247.1000   123.9872     5.9160     5.8089
  247.2000   124.0541     5.8817     5.7261
  247.3000   124.2913     5.8475     5.6675
  247.4000   123.9853     5.8135     5.6209
  247.5000   123.9847     5.7731     5.5628
  247.6000   123.8099     5.7463     5.5305
  247.7000   123.5536     5.7129     5.4926
  247.8000   123.2973     5.6797     5.4665
  247.9000   123.0157     5.6467     5.4348
  248.0000   122.4549     5.6139     5.3902
  248.1000   122.2231     5.5814     5.3411
  248.2000   121.7852     5.5750     5.3408
  248.3000   121.2732     5.5557     5.3040
  248.4000   120.6790     5.5363     5.2790
  248.5000   119.9766     5.5365     5.2484
  248.6000   119.7032     5.5367     5.2431
  248.7000   119.2255     5.5694     5.2740
  248.8000   118.9024     5.5761     5.3053
  248.9000   118.5068     5.5959     5.3799
  249.0000   117.9949     5.6289     5.4313
  249.1000   117.5627     5.6621     5.4757
  249.2000   117.5621     5.6955     5.5212
  249.3000   117.5615     5.7359     5.5862
  249.4000   117.5609     5.7630     5.6520
  249.5000   117.5603     5.8175     5.7318
  249.6000   117.6566     5.8724     5.7861
  249.7000   117.8645     5.9210     5.8544
  249.8000   117.8638     6.0260     5.9234
  249.9000   117.8632     6.0687     5.9931
  250.0000   117.8477     6.1630     6.0637
  250.1000   117.8284     6.2809     6.1476
  250.2000   117.8091     6.3989     6.2314
  250.3000   117.7898     6.5168     6.3153
  250.4000   117.7704     6.5742     6.3956
  250.5000   117.7511     6.6333     6.4700
  250.6000   117.7318     6.7105     6.5499
  250.7000   117.7125     6.7841     6.6214
  250.8000   117.6932     6.8277     6.6985
  250.9000   117.6739     6.8990     6.7967
  251.0000   117.6545     6.9794     6.9035
  251.1000   117.6352     7.0416     6.9837
  251.2000   117.6159     7.0928     7.0752
  251.3000   117.5966     7.1753     7.1472
  251.4000   117.5773     7.2741     7.2303
  251.5000   117.5580     7.2742     7.2953
