~VERSION INFORMATION
 VERS.                2.0:   CWLS LOG ASCII STANDARD - VERSION 2.0
 WRAP.                 NO:   ONE LINE PER DEPTH STEP
~WELL INFORMATION
#MNEM.UNIT      DATA TYPE    INFORMATION
#----------   ------------   ------------------------------
 STRT.F          142.0000:   START DEPTH
 STOP.F          940.5000:   STOP DEPTH
 STEP.F            0.5000:   STEP LENGTH
 NULL.          -999.2500:   NO VALUE
 COMP. U S NAVY-INTEX OIL:   COMPANY
 WELL.     RESERVE #44S-2:   WELL
 FLD .             TEAPOT:   FIELD
 LOC .       S2 T38N R78W:   LOCATION
 CNTY.            NATRONA:   COUNTY
 STAT.            WYOMING:   STATE
 CTRY. UNITED STATES OF AMERICA:   COUNTRY
 SRVC. Schlumberger Well Surveying Corp:   SERVICE COMPANY
 DATE.        06-AUG-1959:   LOGDATE
 API .       490250644200:   API NUMBER
~CURVE INFORMATION
#MNEM.UNIT       API CODE    CURVE DESCRIPTION
#----------   ------------   ------------------------------
 DEPT.F                  :   
 ASN .OHMM   05 041 16 00:   AMPLIFIER SHORT NORMAL 16"
 CILD.MMHO   05 110 46 00:   CONDUCTIVITY INDUCTION LOG DEEP
 ILD .OHMM   05 110 46 00:   INDUCTION LOG DEEP
 SPR .MV     05 010 01 00:   SPONTANEOUS POTENTIAL FROM RES.
~PARAMETER INFORMATION
#MNEM.UNIT          VALUE    DESCRIPTION
#----------   ------------   ------------------------------
 LMF .                 KB:   LOG MEASURED FROM
 DMF .                 KB:   DRILLING MEASURED FROM
 EDF .F              5146:   DRILLING FLOOR
 EGL .F              5142:   GROUND LEVEL
 DATE.        06-AUG-1959:   RUN DATE
 RUN .                  1:   RUN NUMBER
 DD  .F               948:   DEPTH DRILLER
 DL  .F               946:   DEPTH LOGGER
 BLI .F               940:   BOTTOM LOG INTERVAL
 TLI .F               143:   TOP LOG INTERVAL
 CBD .F                17:   CASING BOTTOM DRILLER
 BS  .IN             6.75:   BIT SIZE
 BSD .F               948:   BIT SIZE AT DEPTH
 DFT .                GEL:   DRILLING FLUID TYPE
 RMS .OHMM             75:   RESISTIVITY MUD SAMPLE
 MST .F                75:   MUD SAMPLE TEMPERATURE
 TCS .HRS               1:   TIME CURCULATED STOPPED
 LUN .               2754:   LOGGING UNIT NUMBER
 LUL .                 NC:   LOGGING UNIT LOCATION
 ENGI.             QUINBY:   RECORDING ENGINEER
 WITN.             MARTIN:   WITNESSED BY
 CLNT.            A2DTECH:   CLIENT CODE
 ORIG.        2" 5" PRINT:   ORIGIN OF DATA
 UWI .       490250644200:   UNIQUE WELL ID
 DICO. A2D Technologies, Inc.:   DIGITIZING COMPANY
~OTHER INFORMATION
~A   DEPT      ASN       CILD        ILD        SPR   
# ...
  361.0000    19.3713    54.4683    17.7862   -80.4561
  361.5000    19.1924    54.9073    17.6894   -79.7755
  362.0000    18.9959    55.5928    17.5102   -79.3697
  362.5000    18.8770    55.7409    17.3988   -79.9036
  363.0000    18.6552    56.2858    17.2196   -80.1715
  363.5000    18.4770    56.5893    17.1027   -80.1738
  364.0000    18.3659    56.9774    16.9290   -79.9893
  364.5000    18.2490    56.9842    16.7380   -79.3664
  365.0000    18.1064    56.9909    16.4890   -78.8941
  365.5000    17.9648    57.6769    16.4203   -78.5060
  366.0000    17.7737    58.0317    16.4193   -78.1889
  366.5000    17.5762    58.3688    16.3502   -77.8495
  367.0000    17.3543    58.3766    16.2399   -77.6607
  367.5000    17.0951    58.3824    15.8734   -77.6631
  368.0000    16.8184    58.3893    15.5170   -77.6649
  368.5000    16.3493    58.7953    15.0067   -77.6536
  369.0000    15.6436    60.8530    14.3778   -77.4033
  369.5000    14.6785    64.5189    13.4162   -76.4962
  370.0000    13.5704    69.0950    11.8838   -75.5452
  370.5000    12.0197    73.5847    10.6433   -74.5942
  371.0000    10.4072    81.7152     9.8799   -73.1024
  371.5000     9.9826    93.9618     9.0132   -71.1630
  372.0000     9.5773   107.9914     8.3329   -70.4911
  372.5000     9.1795   118.5690     7.5187   -70.1917
  373.0000     8.7028   126.3212     6.9748   -69.8393
  373.5000     8.3659   137.1979     6.7396   -69.6505
  374.0000     7.9710   145.9505     6.5658   -69.4441
  374.5000     7.5572   154.8576     6.4968   -69.4465
  375.0000     7.3374   157.6923     6.4959   -69.4481
  375.5000     7.3475   159.0780     6.4949   -69.4502
  376.0000     7.3886   158.9510     6.4939   -69.4521
  376.5000     7.4308   158.9570     6.5073   -69.4541
  377.0000     7.4557   158.2556     6.5597   -69.4563
  377.5000     7.4885   157.1663     6.6265   -69.4581
  378.0000     7.5106   155.8914     6.6318   -69.4601
  378.5000     7.5368   154.2335     6.6923   -69.4624
  379.0000     7.5278   152.8779     6.6913   -69.4641
  379.5000     7.4012   152.2099     6.7581   -69.4661
  380.0000     7.2638   154.9333     6.7571   -69.4681
  380.5000     7.1404   155.8540     6.7561   -69.4701
  381.0000     7.1570   156.9821     6.8228   -69.4722
  381.5000     7.2658   157.6674     6.8219   -69.4741
  382.0000     7.3775   157.4118     6.8888   -69.4761
  382.5000     7.4143   155.6456     6.8876   -69.4781
  383.0000     7.4389   153.7195     6.8867   -69.4800
  383.5000     7.4554   151.5599     6.8857   -69.4820
  384.0000     7.4683   150.4706     6.8847   -69.4844
  384.5000     7.4547   150.2410     6.7995   -69.4860
  385.0000     7.4275   152.2856     6.7469   -69.4880
  385.5000     7.3845   154.3258     6.6446   -69.4900
  386.0000     7.3236   155.7692     6.5332   -69.4920
  386.5000     7.2511   157.7364     6.4045   -69.4941
  387.0000     7.1501   158.4208     6.3783   -69.4960
  387.5000     7.0579   159.1065     6.4026   -69.3648
  388.0000     7.0206   159.1131     6.4441   -69.3673
  388.5000     7.0205   159.7979     6.6043   -69.3114
  389.0000     7.0763   159.1267     6.6709   -69.2380
  389.5000     7.1829   157.2081     6.7722   -69.2404
  390.0000     7.3333   155.0226     6.8559   -69.1090
  390.5000     7.4539   152.8371     6.9391   -69.1111
  391.0000     7.4886   150.8303     6.9853   -69.1130
  391.5000     7.5107   148.9802     7.0395   -69.1150
  392.0000     7.5214   147.6380     7.1153   -69.1172
  392.5000     7.5278   146.2048     7.1568   -69.1190
  393.0000     7.5499   145.6063     7.2056   -69.1210
  393.5000     7.6160   144.0260     7.2724   -69.1233
  394.0000     7.6908   142.9052     7.3492   -69.1250
  394.5000     7.7931   141.1685     7.4060   -69.1270
  395.0000     7.9126   139.4004     7.4322   -69.1290
  395.5000     8.0029   137.4963     7.5397   -69.1310
  396.0000     8.0493   136.5430     7.5830   -69.1330
  396.5000     8.0914   135.4536     7.6057   -69.1350
  397.0000     8.1195   134.8009     7.6044   -69.1370
  397.5000     8.1440   134.6324     7.5673   -69.1392
  398.0000     8.1637   134.1358     7.5129   -69.1410
  398.5000     8.1561   134.1425     7.3299   -69.1430
  399.0000     8.0760   134.9683     7.1653   -69.1453
  399.5000     7.9280   137.5510     7.0539   -69.0982
  400.0000     7.7642   138.6877     6.9878   -69.0160
  400.5000     7.6276   140.9572     6.9868   -69.0179
  401.0000     7.4957   143.7647     6.9179   -69.0200
  401.5000     7.4388   145.8427     6.9169   -68.8891
  402.0000     7.4043   146.0679     6.9159   -68.8910
  402.5000     7.3821   147.1776     6.9147   -68.7598
  403.0000     7.3709   147.7584     6.9138   -68.7622
  403.5000     7.3829   147.7613     6.9164   -68.7640
  404.0000     7.4000   147.7647     6.9796   -68.7660
  404.5000     7.4384   147.7681     7.0495   -68.7683
  405.0000     7.4566   146.8892     7.0896   -68.6813
  405.5000     7.4789   146.4174     7.1992   -68.6390
  406.0000     7.5203   145.3620     7.2510   -68.6329
  406.5000     7.5746   144.2590     7.3182   -68.6345
  407.0000     7.6187   143.7127     7.3854   -68.6356
  407.5000     7.6694   143.0373     7.3846   -68.6370
  408.0000     7.7070   142.9864     7.4518   -68.6383
  408.5000     7.7371   141.6872     7.4511   -68.7726
  409.0000     7.7197   141.6900     7.5599   -68.7740
  409.5000     7.6583   141.0148     7.6018   -68.9082
  410.0000     7.6829   141.0181     7.6526   -69.0426
  410.5000     7.7522   140.3423     7.6854   -69.0441
  411.0000     7.8405   139.6677     7.7273   -69.0452
  411.5000     7.9539   138.9921     7.8540   -69.0465
  412.0000     7.9978   138.9140     7.9213   -69.0479
  412.5000     8.0499   138.3201     7.8528   -69.0825
  413.0000     8.0940   137.6448     7.6314   -69.1836
  413.5000     8.1382   136.9694     7.4100   -69.0519
  414.0000     8.1707   138.5204     7.2401   -68.7871
  414.5000     8.0699   141.5984     7.1716   -68.5228
  415.0000     7.8613   145.8034     7.0262   -68.5239
  415.5000     7.6152   148.5621     6.8988   -68.3923
  416.0000     7.4244   150.7784     6.8042   -68.3936
  416.5000     7.3115   153.9586     6.6244   -68.3950
  417.0000     7.1816   155.2104     6.4464   -68.3964
  417.5000     7.1230   156.7477     6.3354   -68.3976
  418.0000     7.1138   159.3988     6.2849   -68.5319
  418.5000     7.1353   159.4016     6.2490   -68.5335
  419.0000     7.1409   159.4051     6.2157   -68.5346
  419.5000     7.1138   159.4084     6.2150   -68.5359
  420.0000     7.0804   159.4118     6.2415   -68.5372
  420.5000     7.0435   159.4155     6.3512   -68.5386
  421.0000     6.9783   159.4185     6.4609   -68.5400
  421.5000     6.9369   158.6821     6.6384   -68.4082
  422.0000     6.8970   158.0679     6.7544   -68.2765
  422.5000     6.9954   157.1550     6.9256   -68.2782
  423.0000     7.1898   155.3598     7.1031   -68.2793
  423.5000     7.3984   150.9920     7.2272   -68.1476
  424.0000     7.5400   146.8959     7.3225   -68.1489
  424.5000     7.6776   143.8317     7.4322   -68.1503
  425.0000     7.7778   141.7986     7.5418   -68.1517
  425.5000     7.8151   139.6776     7.5639   -68.1529
  426.0000     7.8592   137.7335     7.5631   -68.1649
  426.5000     7.8812   137.4717     7.5253   -68.2888
  427.0000     7.9133   137.0610     7.4143   -68.2899
  427.5000     7.9268   137.0645     7.2896   -68.2913
  428.0000     7.9474   137.7466     7.2601   -68.2925
  428.5000     7.9675   138.4289     7.1526   -68.2939
  429.0000     7.9539   140.1561     7.0840   -68.2954
  429.5000     7.8858   142.7387     7.0156   -68.2965
  430.0000     7.7046   145.9054     7.0149   -68.2979
  430.5000     7.4578   147.8496     6.9464   -68.2995
  431.0000     7.3363   149.3869     6.9331   -68.3005
  431.5000     7.3171   151.3457     6.9450   -68.3019
  432.0000     7.3171   152.2443     6.9742   -68.3032
  432.5000     7.3194   152.7094     7.0884   -68.1714
  433.0000     7.3442   151.6403     7.2821   -68.1730
  433.5000     7.4141   149.5735     7.4389   -68.0412
