~VERSION INFORMATION
 VERS.                2.0:   CWLS LOG ASCII STANDARD - VERSION 2.0
 WRAP.                 NO:   ONE LINE PER DEPTH STEP
~WELL INFORMATION
#MNEM.UNIT      DATA TYPE    INFORMATION
#----------   ------------   ------------------------------
 STRT.F           36.0000:   START DEPTH
 STOP.F          493.0000:   STOP DEPTH
 STEP.F            0.5000:   STEP LENGTH
 NULL.          -999.2500:   NO VALUE
 COMP.    FENIX & SCISSON:   COMPANY
 WELL.       NPR #68-S-10:   WELL
 FLD .             TEAPOT:   FIELD
 LOC .      S10 T38N R78W:   LOCATION
 CNTY.            NATRONA:   COUNTY
 STAT.            WYOMING:   STATE
 CTRY. UNITED STATES OF AMERICA:   COUNTRY
 SRVC.              Welex:   SERVICE COMPANY
 DATE.        18-APR-1977:   LOGDATE
 API .       490251033500:   API NUMBER
~CURVE INFORMATION
#MNEM.UNIT       API CODE    CURVE DESCRIPTION
#----------   ------------   ------------------------------
 DEPT.F                  :   
 SPR .MV     07 010 01 00:   SPONTANEOUS POTENTIAL
 ILD .OHMM   07 120 46 00:   INDUCTION LOG DEEP
 ILM .OHMM   07 120 44 00:   INDUCTION LOG MEDIUM
 SGRD.OHMM   07 221 05 00:   SHALLOW SHORT GUARD RESISTIVITY
 CALD.IN     45 280 60 00:   CALIPER FROM DENSITY LOG
 GRD .GAPI   45 310 01 00:   GAMMA RAY FROM DENSITY LOG
 CORR.G/C3   45 356 01 00:   DENSITY CORRECTION
 RHOB.G/C3   45 350 01 00:   BULK DENSITY
 DPHI.DEC    45 890 12 00:   DENSITY POROSITY SANDSTONE
~PARAMETER INFORMATION
#MNEM.UNIT          VALUE    DESCRIPTION
#----------   ------------   ------------------------------
 PD  .                 GL:   PERMANENT DATUM
 EPD .F              5198:   ELEVATION PERMANENT DATUM
 LMF .                 GL:   LOG MEASURED FROM
 DMF .                 GL:   DRILLING MEASURED FROM
 EGL .F              5198:   GROUND LEVEL
 DATE.        18-APR-1977:   RUN DATE
 RUN .                  1:   RUN NUMBER
 DD  .F               505:   DEPTH DRILLER
 DL  .F               492:   DEPTH LOGGER
 BLI .F               490:   BOTTOM LOG INTERVAL
 TLI .F                32:   TOP LOG INTERVAL
 CS  .IN            8.625:   CASING SIZE
 CBD .F                40:   CASING BOTTOM DRILLER
 CBL .F                42:   CASING BOTTOM LOGGER
 BS  .IN            7.875:   BIT SIZE
 BSD .F               505:   BIT SIZE AT DEPTH
 DFT .            KCL MUD:   DRILLING FLUID TYPE
 DFV .                 36:   DRILLING FLUID VISCOSITY
 MSS .           FLOWLINE:   MUD SAMPLE SOURCE
 RMS .OHMM           2.46:   RESISTIVITY MUD SAMPLE
 MST .F                52:   MUD SAMPLE TEMPERATURE
 RMF .OHMM           2.30:   RESISTIVITY MUD FILTRATE SAMPLE
 MFST.F                52:   MUD FILTRATE SAMPLE TEMPERATURE
 RMC .OHMM           2.66:   RESISTIVITY MUD CAKE
 MCST.F                52:   MUD CAKE SAMPLE TEMPERATURE
 MFSS.               MEAS:   MUD FILTRATE SAMPLE SOURCE
 MCSS.               MEAS:   MUD CAKE SAMPLE SOURCE
 RMB .OHMM           1.97:   RESISTIVITY MUD AT BHT
 BHT .F                65:   BOTTOM HOLE TEMPERATURE
 TCS .HRS            0400:   TIME CURCULATED STOPPED
 MRT .F                65:   MAXIMUM RECORDED TEMPERATURE
 LUN .               8611:   LOGGING UNIT NUMBER
 LUL .             CASPER:   LOGGING UNIT LOCATION
 ENGI.               DOAK:   RECORDING ENGINEER
 WITN.            R. LYON:   WITNESSED BY
 CLNT.            A2DTECH:   CLIENT CODE
 ORIG.           5" PRINT:   ORIGIN OF DATA
 UWI .       490251033500:   UNIQUE WELL ID
 DICO. A2D Technologies, Inc.:   DIGITIZING COMPANY
~OTHER INFORMATION
~A   DEPT      SPR        ILD        ILM       SGRD         CALD       GRD      CORR       RHOB       DPHI   
# ...
  255.0000   -52.3400     8.0906    10.3487    13.0554     7.9687   120.8775     0.0041     2.4037     0.1449
  255.5000   -52.3176     7.9869    10.3559    12.9764     7.9703   121.4920     0.0042     2.4090     0.1433
  256.0000   -52.2996     7.7231    10.2117    12.7025     7.9570   121.0649     0.0058     2.4210     0.1370
  256.5000   -52.4341     7.4680     9.9417    12.5545     7.9289   120.1913     0.0119     2.4352     0.1283
  257.0000   -52.7076     7.2712     9.6188    12.6523     7.9305   120.0618     0.0180     2.4480     0.1217
  257.5000   -52.6896     7.0797     9.3582    12.9338     7.9620   120.8252     0.0211     2.4593     0.1172
  258.0000   -52.8241     6.9410     9.1108    13.1183     7.9636   122.6302     0.0182     2.4414     0.1237
  258.5000   -52.8017     6.8520     8.8119    10.8214     7.9652   124.8816     0.0153     2.4302     0.1282
  259.0000   -52.7838     6.7162     8.8181     8.6237     7.9669   127.1331     0.0094     2.4183     0.1354
  259.5000   -52.7658     6.5323     9.0097    10.9147     7.9685   129.3845     0.0050     2.4094     0.1419
  260.0000   -52.7810     6.3556     9.0773    11.7046     7.9701   131.1895     0.0006     2.4019     0.1479
  260.5000   -53.0303     6.1524     9.0836    11.6338     7.9718   131.8040    -0.0008     2.3968     0.1503
  261.0000   -53.1603     5.9914     8.6018    12.3901     7.9734   130.7817    -0.0022     2.3938     0.1521
  261.5000   -53.1424     5.8771     8.2019    12.4004     7.9750   127.0807    -0.0036     2.3939     0.1508
  262.0000   -53.2782     5.8824     7.9841    10.5157     7.9767   123.8262    -0.0035     2.3984     0.1469
  262.5000   -53.6982     5.8877     7.8802     7.7138     7.9634   123.5479    -0.0034     2.4052     0.1436
  263.0000   -53.6803     5.9338     7.8857     6.7697     7.9651   124.1624    -0.0003     2.4097     0.1406
  263.5000   -53.6624     6.0217     8.1120    10.3260     7.9518   125.0746     0.0044     2.4120     0.1397
  264.0000   -53.6444     6.1958     8.4607    12.1132     7.9534   125.9867     0.0105     2.4143     0.1339
  264.5000   -53.6265     6.4634     8.8855    11.8748     7.9700   124.8156     0.0181     2.4316     0.1270
  265.0000   -53.6086     6.7894     9.2037    12.2176     7.9567   120.2218     0.0272     2.4488     0.1207
  265.5000   -53.5906     6.9856     9.4678    12.3125     7.9434   119.7946     0.0333     2.4743     0.1072
  266.0000   -53.2769     7.1876     9.4744    12.2355     7.9451   121.5996     0.0349     2.4841     0.1009
  266.5000   -53.1110     7.2439     9.4809    12.1615     7.9318   122.5118     0.0350     2.4819     0.0976
  267.0000   -53.0931     7.2504     9.4875    12.1742     7.9185   122.0847     0.0366     2.4812     0.0975
  267.5000   -52.9272     7.2071     9.4272    12.2688     7.9351   122.5504     0.0427     2.4925     0.0942
  268.0000   -52.9093     6.8735     9.3705    12.2791     7.9367   123.9090     0.0519     2.5053     0.0831
  268.5000   -52.8913     6.5103     9.1217    12.2873     7.9383   124.8211     0.0610     2.5195     0.0750
  269.0000   -53.0258     6.3374     8.6977    12.1044     7.9400   124.2452     0.0671     2.5300     0.0687
  269.5000   -53.2993     6.1294     8.0676    11.4615     7.9416   122.3300     0.0732     2.5353     0.0663
  270.0000   -53.5817     5.8457     7.7459    10.6172     7.9433   120.1171     0.0763     2.5279     0.0719
  270.5000   -53.8551     5.6513     7.3858     9.8842     7.9598   118.5019     0.0746     2.4913     0.0824
  271.0000   -53.9896     5.5406     6.9460    11.0606     7.9614   117.7028     0.0717     2.4824     0.0976
  271.5000   -53.9672     5.5074     6.7139     5.9399     7.9631   117.1268     0.0658     2.4720     0.1057
  272.0000   -53.9493     5.5518     7.1997    10.6909     7.9647   116.2533     0.0614     2.4638     0.1120
  272.5000   -53.6390     5.6340     8.0455    11.4173     7.9663   112.7012     0.0558     2.4556     0.1144
  273.0000   -53.4497     5.7175     8.4495    11.3279     7.9531   115.7710     0.0526     2.4684     0.1074
  273.5000   -53.1421     5.8828     8.6919    12.4733     7.9398   120.1802     0.0497     2.4871     0.0999
  274.0000   -52.8461     6.1369     8.8799     8.6581     7.9414   123.2501     0.0483     2.4999     0.0915
  274.5000   -52.6805     6.4910     9.1979    12.4968     7.9431   122.7486     0.0457     2.5044     0.0849
  275.0000   -52.3669     7.0091     9.4618    12.9466     7.9447   123.2887     0.0443     2.5037     0.0831
  275.5000   -52.3489     7.5166     9.8007    13.0472     7.9613   126.2097     0.0412     2.5008     0.0845
  276.0000   -52.3310     7.8413    10.0126    13.6104     7.9629   127.6428     0.0383     2.4964     0.0878
  276.5000   -52.3131     8.1801    10.1587    13.7162     7.9645   124.7603     0.0324     2.4889     0.0932
  277.0000   -52.1472     8.4166    10.5226    13.9185     7.9662   121.1338     0.0280     2.4785     0.0974
  277.5000   -52.1293     8.6703    11.2044    14.3203     7.9678   119.7393     0.0221     2.4726     0.1018
  278.0000   -52.1114     8.9086    10.6835    14.6322     7.9694   118.7914     0.0194     2.4681     0.1051
  278.5000   -52.0934     8.9783    10.3982    14.6445     7.9711   118.1410     0.0165     2.4712     0.1051
  279.0000   -52.0755     9.0561    10.7724    14.2575     7.9578   117.5651     0.0149     2.4675     0.1054
  279.5000   -51.9096     9.0567    11.0815    13.9769     7.9595   117.5100     0.0137     2.4646     0.1086
  280.0000   -51.8917     9.0024    11.1660    13.8894     7.9760   119.3174     0.0123     2.4646     0.1086
  280.5000   -51.8738     9.0106    11.0950    13.9040     7.9778   121.1224     0.0109     2.4677     0.1068
  281.0000   -51.8558     8.9566    11.0263    14.1250     7.9795   121.1417     0.0110     2.4707     0.1038
  281.5000   -51.8379     8.9647    11.1123    14.4285     7.9587   119.9705     0.0111     2.4790     0.1007
  282.0000   -51.8200     8.9728    11.1200    14.7278     7.9454   117.7577     0.0127     2.4746     0.1010
  282.5000   -51.9545     8.9809    10.8248    14.7400     7.9397   115.5448     0.0145     2.4746     0.1028
  283.0000   -52.0800     9.0513    10.5375    14.8544     7.9413   113.3320     0.0174     2.4739     0.1028
  283.5000   -52.0620     9.0594    10.3287    14.9697     7.9429   113.2025     0.0191     2.4740     0.1030
  284.0000   -52.0441     9.0676    10.1788    14.4739     7.9446   114.1146     0.0193     2.4740     0.1030
  284.5000   -52.0262     9.2019     9.9784    13.6133     7.9462   112.3482     0.0209     2.4718     0.1045
  285.0000   -52.0118     9.2102    10.2306    13.2535     7.9479   111.3259     0.0225     2.4704     0.1054
  285.5000   -51.9941     9.2824    10.8274    12.9922     7.9495   110.3035     0.0240     2.4682     0.1050
  286.0000   -51.9764     9.3551    11.5142    13.7420     7.9511   108.8347     0.0224     2.4630     0.1110
  286.5000   -51.9585     9.3635    12.0797    14.5346     7.9528   107.8123     0.0197     2.4661     0.1146
  287.0000   -52.2369     9.3720    12.1616    15.5866     7.9544   110.6590     0.0229     2.4721     0.1068
  287.5000   -52.3669     9.1251    11.8322    16.5997     7.9560   113.6545     0.0274     2.4751     0.1028
  288.0000   -52.4971     8.6429    11.5194    16.7287     7.9577   114.2690     0.0290     2.4677     0.1076
  288.5000   -52.7752     8.1299    11.3707    16.1746     7.9593   112.2050     0.0291     2.4506     0.1160
  289.0000   -52.9053     7.7003    11.4692    15.7439     7.9609   110.5874     0.0261     2.4327     0.1228
  289.5000   -52.8869     7.2934    12.2067    16.5408     7.9551   110.6067     0.0233     2.4163     0.1339
  290.0000   -53.1648     6.9558    11.4771    15.7736     7.9493   112.1141     0.0218     2.3999     0.1462
  290.5000   -53.2993     6.7711     9.7998     7.6993     7.9509   113.3238     0.0190     2.3879     0.1545
  291.0000   -53.2769     6.5942     9.2800     4.8519     7.9526   115.4265     0.0176     2.3798     0.1590
