~VERSION INFORMATION
 VERS.                2.0:   CWLS LOG ASCII STANDARD - VERSION 2.0
 WRAP.                 NO:   ONE LINE PER DEPTH STEP
~WELL INFORMATION
#MNEM.UNIT      DATA TYPE    INFORMATION
#----------   ------------   ------------------------------
 STRT.F           30.0000:   START DEPTH
 STOP.F          620.0000:   STOP DEPTH
 STEP.F            0.5000:   STEP LENGTH
 NULL.          -999.2500:   NO VALUE
 COMP. FENIX & SCISSON INC:   COMPANY
 WELL.       NPR-3 #62-15:   WELL
 FLD .             TEAPOT:   FIELD
 LOC .      S15 T38N R78W:   LOCATION
 CNTY.            NATRONA:   COUNTY
 STAT.            WYOMING:   STATE
 CTRY. UNITED STATES OF AMERICA:   COUNTRY
 SRVC.           BIRDWELL:   SERVICE COMPANY
 DATE.        08-JUN-1978:   LOGDATE
 API .       490251063700:   API NUMBER
~CURVE INFORMATION
#MNEM.UNIT       API CODE    CURVE DESCRIPTION
#----------   ------------   ------------------------------
 DEPT.F                  :   
 SPR .MV     05 010 01 00:   SPONTANEOUS POTENTIAL FROM RES.
 SN  .OHMM   05 040 16 00:   SHORT NORMAL 16"
 ILD .OHMM   05 120 46 00:   INDUCTION LOG DEEP
 CALD.IN     45 280 60 00:   CALIPER FROM DENSITY LOG
 GRD .GAPI   45 310 01 00:   GAMMA RAY FROM DENSITY LOG
 CORR.G/C3   45 356 01 00:   DENSITY CORRECTION
 DPHI.DEC    45 890 12 00:   DENSITY POROSITY SANDSTONE
 DEN .G/C3   45 350 01 00:   DENSITY
~PARAMETER INFORMATION
#MNEM.UNIT          VALUE    DESCRIPTION
#----------   ------------   ------------------------------
 PD  .                 GL:   PERMANENT DATUM
 EPD .F              5246:   ELEVATION PERMANENT DATUM
 LMF .                 KB:   LOG MEASURED FROM
 DAPD.F                 4:   FEET ABOVE PERMANENT DATUM
 DMF .                 KB:   DRILLING MEASURED FROM
 EKB .F              5250:   KELLING BUSHING
 EGL .F              5246:   GROUND LEVEL
 DATE.        08-JUN-1978:   RUN DATE
 RUN .                  1:   RUN NUMBER
 DD  .F               620:   DEPTH DRILLER
 DL  .F               627:   DEPTH LOGGER
 BLI .F               620:   BOTTOM LOG INTERVAL
 TLI .F                42:   TOP LOG INTERVAL
 CS  .IN            8.625:   CASING SIZE
 CBD .F                40:   CASING BOTTOM DRILLER
 CBL .F                42:   CASING BOTTOM LOGGER
 BS  .IN            7.875:   BIT SIZE
 BSD .F               620:   BIT SIZE AT DEPTH
 DFT .                KCL:   DRILLING FLUID TYPE
 DFD .                8.7:   DRILLING FLUID DENSITY
 DFV .                 31:   DRILLING FLUID VISCOSITY
 DFPH.               10.5:   DRILLING FLUID PH
 DFL .                 10:   DRILLING FLUID LOSS
 MSS .           FLOWLINE:   MUD SAMPLE SOURCE
 RMS .OHMM            .26:   RESISTIVITY MUD SAMPLE
 MST .F                76:   MUD SAMPLE TEMPERATURE
 RMF .OHMM            .28:   RESISTIVITY MUD FILTRATE SAMPLE
 MFST.F                76:   MUD FILTRATE SAMPLE TEMPERATURE
 RMC .OHMM            .40:   RESISTIVITY MUD CAKE
 MCST.F                77:   MUD CAKE SAMPLE TEMPERATURE
 MFSS.               MEAS:   MUD FILTRATE SAMPLE SOURCE
 MCSS.               MEAS:   MUD CAKE SAMPLE SOURCE
 RMB .OHMM            .28:   RESISTIVITY MUD AT BHT
 BHT .F                70:   BOTTOM HOLE TEMPERATURE
 TCS .HRS            0400:   TIME CURCULATED STOPPED
 MRT .F                70:   MAXIMUM RECORDED TEMPERATURE
 LUN .               2958:   LOGGING UNIT NUMBER
 LUL .               CASP:   LOGGING UNIT LOCATION
 ENGI.             MILLER:   RECORDING ENGINEER
 WITN.           MCGINLEY:   WITNESSED BY
 CLNT.            A2DTECH:   CLIENT CODE
 ORIG.           5" PRINT:   ORIGIN OF DATA
 UWI .       490251063700:   UNIQUE WELL ID
 DICO. A2D Technologies, Inc.:   DIGITIZING COMPANY
~OTHER INFORMATION
~A   DEPT      SPR         SN        ILD       CALD        GRD       CORR       DPHI        DEN   
# ...
  394.5000   -39.1198     7.9577     5.0941     7.1500   107.1257     0.0283     0.1347     2.4545
  395.0000   -39.1018     7.9622     5.0954     7.2996   105.9000     0.0326     0.1296     2.4552
  395.5000   -39.0805     7.9079     5.0968     7.4491   107.0839     0.0520     0.1287     2.4559
  396.0000   -39.2170     7.7535     5.0631     7.5535   108.7248     0.0683     0.1303     2.4566
  396.5000   -39.1950     7.4436     4.9953     7.6127   103.4276     0.0772     0.1324     2.4550
  397.0000   -39.1796     7.2939     4.7937     7.6270   102.5031     0.0890     0.1192     2.4505
  397.5000   -39.3139     7.2988     4.5059     7.5956   105.4943     0.1293     0.0934     2.4587
  398.0000   -39.4416     7.3027     4.3541     7.6548   108.6360     0.1577     0.0856     2.5561
  398.5000   -39.4240     7.1568     4.2659     7.7140   110.4224     0.1246     0.0995     2.5328
  399.0000   -39.5569     6.8698     4.2966     7.7280   111.6063     0.0631     0.1124     2.5012
  399.5000   -39.5386     6.6401     4.3276     7.7269   112.1930     0.0495     0.1313     2.4764
  400.0000   -39.5210     6.5074     4.3588     7.7410   109.7446     0.0459     0.1381     2.4456
  400.5000   -39.5713     6.6542     4.3905     7.8003   105.9884     0.0583     0.1371     2.4418
  401.0000   -39.6217     6.7455     4.3920     7.8299   101.3157     0.0724     0.1117     2.4853
  401.5000   -39.7750     6.7511     4.3938     7.8892    94.5341     0.0626     0.1050     2.5087
  402.0000   -39.7603     6.9931     4.5498     7.9338    95.4333     0.0349     0.1063     2.5114
  402.5000   -39.7455     7.1940     4.9108     7.9178    98.2903     0.0325     0.1087     2.4933
  403.0000   -39.7305     7.4006     5.1204     7.8569   100.0930     0.0324     0.1096     2.4925
  403.5000   -39.7156     7.4057     5.3022     7.7808    99.3356     0.0338     0.1096     2.4932
  404.0000   -39.6979     7.4107     5.3040     7.8102    96.4697     0.0352     0.1087     2.4931
  404.5000   -39.6832     7.4157     5.1611     7.8697    94.8086     0.0351     0.1096     2.4931
  405.0000   -39.6685     7.2685     4.8852     7.8238    92.5451     0.0350     0.1118     2.4878
  405.5000   -39.6538     7.1737     4.5606     7.7025    90.4322     0.0341     0.1124     2.4832
  406.0000   -39.6391     6.9829     4.2871     7.6265    89.8253     0.0311     0.1136     2.4824
  406.5000   -39.6244     6.7971     4.1717     7.6107    91.0797     0.0258     0.1154     2.4808
  407.0000   -39.6096     6.4806     4.0875     7.6099    97.4306     0.0167     0.1236     2.4680
  407.5000   -39.5949     6.2217     4.0861     7.5791   105.6241     0.0076     0.1482     2.4492
  408.0000   -39.7305     5.9725     4.0621     7.5612   109.8366    -0.0014     0.1659     2.4124
  408.5000   -39.7152     5.8951     4.0638     7.5296   108.4767     0.0419     0.1515     2.4030
  409.0000   -39.5508     5.9050     4.0652     7.5166    99.4361     0.0777     0.1296     2.4378
  409.5000   -39.0868     6.1967     4.0666     7.6060    89.3413     0.0836     0.1096     2.5046
  410.0000   -38.9222     6.5988     4.1246     7.5902    87.0778     0.0296     0.1080     2.5119
  410.5000   -38.6049     6.9785     4.5450     7.3937    90.8384     0.0325     0.1129     2.4893
  411.0000   -38.5902     7.3294     4.8050     7.2574    91.1363     0.0369     0.1135     2.4886
  411.5000   -38.5755     7.5922     5.0100     7.2567    90.5283     0.0428     0.1036     2.4967
  412.0000   -38.5608     7.7564     5.1522     7.2861    91.4275     0.0443     0.0982     2.5162
  412.5000   -38.3964     7.9243     5.2257     7.3006    93.0796     0.0352     0.0977     2.5191
  413.0000   -38.3817     8.0958     5.3739     7.3149    93.4408     0.0246     0.0999     2.5123
  413.5000   -38.3670     8.2710     5.4883     7.2838    89.6069     0.0185     0.1051     2.5002
  414.0000   -38.3523     8.3917     5.5666     7.3584    94.2771     0.0155     0.1025     2.4965
  414.5000   -38.4909     8.5143     5.6510     7.4179    95.4715     0.0124     0.1002     2.5001
  415.0000   -38.6223     8.5792     5.7270     7.4774    92.7159     0.0108     0.1014     2.5038
  415.5000   -38.6076     8.6445     5.7686     7.5218    90.3410     0.0107     0.1029     2.5045
  416.0000   -38.5928     8.6505     5.8106     7.5663    88.6799     0.0136     0.1035     2.5045
  416.5000   -38.5778     8.6564     5.8126     7.6107    93.3441     0.0150     0.0960     2.5096
  417.0000   -38.5629     8.7225     5.8145     7.6556    94.6951     0.0164     0.0973     2.5141
  417.5000   -38.5451     8.7297     5.8165     7.6845    94.2388     0.0193     0.0982     2.5185
  418.0000   -38.5304     8.7356     5.8185     7.7159    89.2645     0.0222     0.0973     2.5162
  418.5000   -38.5157     8.7416     5.8204     7.7309    92.8745     0.0236     0.0928     2.5124
  419.0000   -38.5010     8.7475     5.8224     7.7425    96.1833     0.0272     0.0913     2.5184
  419.5000   -38.4863     8.7535     5.8244     7.7416    97.6849     0.0294     0.0908     2.5252
  420.0000   -38.4716     8.7594     5.8264     7.7258    96.1744     0.0308     0.0932     2.5280
  420.5000   -38.4569     8.7050     5.8284     7.6649    91.5013     0.0262     0.0968     2.5089
  421.0000   -38.4422     8.7109     5.8304     7.6641    90.1414     0.0262     0.0986     2.4986
  421.5000   -38.4275     8.7169     5.8728     7.6785    91.0406     0.0276     0.0993     2.5098
  422.0000   -38.5629     8.7228     5.9570     7.7229    94.6506     0.0275     0.0993     2.5165
  422.5000   -38.5478     8.6684     6.0419     7.7221    95.5497     0.0274     0.0990     2.5209
  423.0000   -38.8325     8.7347     6.1281     7.6762    91.9167     0.0228     0.0990     2.5194
  423.5000   -38.9675     8.7406     6.1727     7.7058    91.4513     0.0167     0.0993     2.5133
  424.0000   -38.7994     8.7466     6.1748     7.7811    90.4148     0.0122     0.1030     2.5072
  424.5000   -38.6350     8.6922     6.1769     7.7608    86.6453     0.0121     0.1139     2.4877
  425.0000   -38.4706     8.5197     5.8064     7.6556    89.5023     0.0135     0.1160     2.4764
  425.5000   -38.4559     8.3520     5.4206     7.5972    93.7158     0.0134     0.1183     2.4763
  426.0000   -38.5909     8.1863     5.0955     7.6414    90.8488     0.0073     0.1222     2.4650
  426.5000   -38.5762     8.0238     4.9926     7.6710    89.3383    -0.0092     0.1379     2.4462
  427.0000   -38.4118     7.7032     4.9944     7.6853    94.6049    -0.0228     0.1694     2.4124
  427.5000   -38.3971     7.1938     4.9961     7.5940   105.2933    -0.0304     0.1979     2.3508
  428.0000   -37.9333     6.7647     4.9978     7.5330   108.0008    -0.0245     0.2014     2.3222
  428.5000   -37.6192     6.8635     4.9995     7.5473   100.0133     0.1146     0.1958     2.3308
  429.0000   -37.0057     7.1588     5.0016     7.5619    89.4667     0.1879     0.0441     2.5914
  429.5000   -36.3922     7.8913     5.1081     7.5762    84.6429     0.1249     0.0726     2.6011
  430.0000   -35.6188     8.6388     5.9077     7.6355    83.8855     0.0530     0.0882     2.5320
  430.5000   -34.9940     9.1360     6.7388     7.8908    84.1822     0.0304     0.0900     2.5200
  431.0000   -34.2486     9.3984     7.1736     7.8750    84.4790     0.0319     0.0864     2.5342
  431.5000   -34.2339     9.6018     7.3263     7.8441    84.0055     0.0318     0.0922     2.5296
  432.0000   -34.2192     9.6119     7.3288     7.9036    83.3895     0.0332     0.0982     2.5175
  432.5000   -34.2045     9.7567     7.3313     8.0233    83.5609     0.0376     0.0952     2.5145
  433.0000   -34.0401    10.1940     7.2833     8.0226    86.4179     0.0435     0.0919     2.5152
  433.5000   -33.8757    10.5346     7.2857     7.9613    85.3592     0.0479     0.0929     2.5226
  434.0000   -33.5616    10.7625     7.2882     7.8855    83.5475     0.0358     0.0965     2.5210
  434.5000   -33.0978    10.9954     7.2907     7.8999    81.1335     0.0193     0.1100     2.4991
