~VERSION INFORMATION
 VERS.                2.0:   CWLS LOG ASCII STANDARD - VERSION 2.0
 WRAP.                 NO:   ONE LINE PER DEPTH STEP
~WELL INFORMATION
#MNEM.UNIT      DATA TYPE    INFORMATION
#----------   ------------   ------------------------------
 STRT.F           28.0000:   START DEPTH
 STOP.F          494.0000:   STOP DEPTH
 STEP.F            0.5000:   STEP LENGTH
 NULL.          -999.2500:   NO VALUE
 COMP.    FENIX & SCISSON:   COMPANY
 WELL.        67-S-3 #3-3:   WELL
 FLD .             TEAPOT:   FIELD
 LOC .       S3 T38N R78W:   LOCATION
 CNTY.            NATRONA:   COUNTY
 STAT.            WYOMING:   STATE
 CTRY. UNITED STATES OF AMERICA:   COUNTRY
 SRVC.           BIRDWELL:   SERVICE COMPANY
 DATE.        15-OCT-1978:   LOGDATE
 API .       490251072100:   API NUMBER
~CURVE INFORMATION
#MNEM.UNIT       API CODE    CURVE DESCRIPTION
#----------   ------------   ------------------------------
 DEPT.F                  :   
 ILD .OHMM   05 120 46 00:   INDUCTION LOG DEEP
 SN  .OHMM   05 040 16 00:   SHORT NORMAL 16"
 SPR .MV     05 010 01 00:   SPONTANEOUS POTENTIAL FROM RES.
 CALD.IN     45 280 60 00:   CALIPER FROM DENSITY LOG
 CORR.G/C3   45 356 01 00:   DENSITY CORRECTION
 DPHI.DEC    45 890 12 00:   DENSITY POROSITY SANDSTONE
 GRD .GAPI   45 310 01 00:   GAMMA RAY FROM DENSITY LOG
 RHOB.G/C3   45 350 01 00:   BULK DENSITY
~PARAMETER INFORMATION
#MNEM.UNIT          VALUE    DESCRIPTION
#----------   ------------   ------------------------------
 PD  .                 GL:   PERMANENT DATUM
 EPD .F              5173:   ELEVATION PERMANENT DATUM
 LMF .                 KB:   LOG MEASURED FROM
 DAPD.F                 4:   FEET ABOVE PERMANENT DATUM
 DMF .                 KB:   DRILLING MEASURED FROM
 EKB .F              5177:   KELLING BUSHING
 EGL .F              5173:   GROUND LEVEL
 DATE.        15-OCT-1978:   RUN DATE
 RUN .                  1:   RUN NUMBER
 DD  .F               492:   DEPTH DRILLER
 DL  .F               494:   DEPTH LOGGER
 BLI .F               488:   BOTTOM LOG INTERVAL
 TLI .F                46:   TOP LOG INTERVAL
 CS  .IN            8.625:   CASING SIZE
 CBD .F                40:   CASING BOTTOM DRILLER
 BS  .IN            7.875:   BIT SIZE
 BSD .F               492:   BIT SIZE AT DEPTH
 DFT .                KCL:   DRILLING FLUID TYPE
 DFD .                8.7:   DRILLING FLUID DENSITY
 DFV .                 35:   DRILLING FLUID VISCOSITY
 DFPH.                  9:   DRILLING FLUID PH
 LUN .               2958:   LOGGING UNIT NUMBER
 LUL .               CASP:   LOGGING UNIT LOCATION
 ENGI.             MILLER:   RECORDING ENGINEER
 WITN.           DINSMORE:   WITNESSED BY
 CLNT.            A2DTECH:   CLIENT CODE
 ORIG.           5" PRINT:   ORIGIN OF DATA
 UWI .       490251072100:   UNIQUE WELL ID
 DICO. A2D Technologies, Inc.:   DIGITIZING COMPANY
~OTHER INFORMATION
~A   DEPT      ILD         SN        SPR       CALD       CORR       DPHI         GRD      RHOB   
# ...
  190.0000     3.7717     3.9026   -33.8806     8.1671     0.0336     0.1715    92.6568     2.3967
  190.5000     4.4372     4.2503   -33.5716     8.1670     0.0306     0.1629    90.2702     2.4124
  191.0000     5.3248     4.8683   -33.2836     8.1668     0.0276     0.1425    90.5702     2.4372
  191.5000     5.8103     5.3627   -32.9851     8.1369     0.0290     0.1373    92.7348     2.4551
  192.0000     6.0556     5.8263   -32.8358     8.1069     0.0305     0.1353   116.5435     2.4611
  192.5000     6.1818     6.0730   -32.6866     8.0769     0.0365     0.1347   120.7241     2.4619
  193.0000     6.2668     6.2431   -32.5981     8.0469     0.0485     0.1341   123.7106     2.4626
  193.5000     6.3526     6.3300   -32.5006     8.0019     0.0665     0.1332   128.3389     2.4619
  194.0000     6.3513     6.3300   -32.3881     7.9719     0.1085     0.1263   132.3702     2.4668
  194.5000     6.2624     6.3300   -31.9403     7.9419     0.1385     0.1062   134.1627     2.5308
  195.0000     6.1751     6.3300   -31.6418     7.9269     0.1459     0.0954   130.0946     2.5428
  195.5000     6.0889     6.3300   -31.6418     7.8969     0.1369     0.0949   123.5717     2.5345
  196.0000     5.9214     6.3300   -31.4925     7.8818     0.0843     0.1053   124.1674     2.5158
  196.5000     5.7985     6.2431   -31.1940     7.8667     0.0468     0.1163   126.2584     2.4971
  197.0000     5.5984     6.0730   -31.1940     7.8665     0.0137     0.1305   125.6628     2.4821
  197.5000     5.3708     5.9074   -31.1940     7.8814     0.0062     0.1384   121.3359     2.4692
  198.0000     5.2230     5.6675   -31.1940     7.8812     0.0001     0.1516   117.0090     2.4536
  198.5000     5.0793     5.5897   -31.1940     7.8960     0.0001     0.1606   116.6950     2.4348
  199.0000     5.0084     5.5897   -31.1940     7.8958     0.0001     0.1645   118.8248     2.4198
  199.5000     4.9385     5.5897   -31.1940     7.8977     0.0000     0.1639   119.4014     2.4101
  200.0000     4.9719     5.6285   -31.1940     7.8955    -0.0030     0.1621   118.8058     2.4093
  200.5000     5.0930     5.5753   -31.2372     7.8496     0.0007     0.1585   122.9851     2.4183
  201.0000     5.2166     5.8238   -31.2804     7.8209     0.0015     0.1489   123.2836     2.4235
  201.5000     5.4789     6.0691   -31.3236     7.7761     0.0000     0.1360   124.4776     2.4423
  202.0000     5.8252     6.3248   -30.7588     7.7761    -0.0001     0.1315   123.5821     2.4588
  202.5000     6.0711     6.5495   -30.0154     7.7761    -0.0001     0.1300   120.1493     2.4663
  203.0000     6.3274     6.8684   -29.5705     7.7761    -0.0001     0.1270   114.9254     2.4730
  203.5000     6.5946     7.1084   -29.2742     7.7761    -0.0001     0.1201   114.6269     2.4808
  204.0000     6.8255     7.3568   -28.9786     7.7761    -0.0001     0.1159   115.9701     2.4948
  204.5000     7.0646     7.5094   -28.9822     7.7761    -0.0001     0.1159   118.5075     2.5007
  205.0000     7.2616     7.5600   -29.8806     7.7910    -0.0004     0.1184   125.2239     2.5015
  205.5000     7.3663     7.5585   -29.2289     7.7910    -0.0047     0.1216   127.0229     2.4895
  206.0000     7.4110     7.5569   -27.7969     7.8060    -0.0062     0.1243   127.6119     2.4843
  206.5000     7.3580     7.5031   -27.9497     7.8358    -0.0077     0.1270   125.8209     2.4813
  207.0000     7.3565     7.4499   -28.1257     7.8507    -0.0062     0.1309   118.9552     2.4745
  207.5000     7.2539     7.3462   -28.2540     7.8955    -0.0062     0.1339   112.3881     2.4745
  208.0000     7.1527     7.2941   -28.4062     7.9552    -0.0062     0.1351   110.0000     2.4714
  208.5000     7.0529     7.2425   -28.7076     8.0000    -0.0048     0.1351   111.7910     2.4655
  209.0000     6.9541     7.1400   -28.7104     8.0299    -0.0018     0.1321   116.8657     2.4648
  209.5000     6.8509     7.0419   -29.1816     8.0597     0.0012     0.1278   121.3433     2.4700
  210.0000     6.7147     6.8960   -29.6125     8.0746     0.0057     0.1216   121.9403     2.4805
  210.5000     6.5754     6.7532   -29.6154     8.0746     0.0087     0.1175   121.0448     2.4843
  211.0000     6.4836     6.5678   -29.7675     8.0746     0.0102     0.1154   116.5274     2.4895
  211.5000     6.3490     6.4764   -29.9197     8.0746     0.0057     0.1175   113.6438     2.4978
  212.0000     6.1317     6.3862   -29.9225     8.0746     0.0026     0.1211   111.7910     2.5015
  212.5000     5.8810     6.2973   -29.9254     8.0746     0.0011     0.1259   112.3881     2.4915
  213.0000     5.5611     6.1666   -30.2269     8.0746    -0.0004     0.1313   114.1791     2.4805
  213.5000     5.3352     6.0389   -30.3797     8.0746    -0.0019     0.1403   113.4328     2.4685
  214.0000     5.3341     5.9961   -30.0841     8.0746    -0.0019     0.1521   112.9851     2.4573
  214.5000     5.4828     5.9536   -28.2959     8.0746    -0.0019     0.1580   114.1791     2.4438
  215.0000     5.5581     5.9524   -26.9555     8.0746     0.0010     0.1577   115.9701     2.4243
  215.5000     5.5570     5.9925   -26.8085     8.0746     0.0100     0.1544   119.5522     2.4235
  216.0000     5.5945     6.2076   -26.9613     8.0746     0.0175     0.1316   120.7463     2.4423
  216.5000     5.6323     6.5527   -26.9642     8.0746     0.0115     0.1196   119.5045     2.4685
  217.0000     5.8771     6.8287   -26.8178     8.0746     0.0070     0.1160   114.3362     2.4798
  217.5000     6.4660     7.0674   -26.6716     8.0746     0.0070     0.1148   105.9701     2.4888
  218.0000     6.8330     7.2640   -26.6751     8.0746     0.0055     0.1148   103.5821     2.4970
  218.5000     7.0238     7.4146   -26.5280     8.0896     0.0024     0.1173   104.0299     2.4933
  219.0000     7.2193     7.4646   -26.6809     8.0896    -0.0006     0.1244   105.2239     2.4850
  219.5000     7.3694     7.5144   -26.6838     8.0896    -0.0006     0.1280   110.1493     2.4738
  220.0000     7.4706     7.5129   -26.6867     8.0896    -0.0006     0.1271   115.0746     2.4730
  220.5000     7.5733     7.6163   -26.9881     8.0896    -0.0006     0.1220   117.3134     2.4805
  221.0000     7.6774     7.6144   -27.1592     8.0896     0.0039     0.1199   118.8060     2.4820
  221.5000     7.7292     7.6129   -28.1886     8.0896     0.0069     0.1187   119.7015     2.4820
  222.0000     7.8354     7.6642   -29.3855     8.0896     0.0133     0.1148   117.5642     2.4829
  222.5000     7.8883     7.6098   -30.1340     8.0896     0.0233     0.1064   116.5672     2.4865
  223.0000     7.9415     7.6080   -27.7495     8.1045     0.0338     0.1015   117.1642     2.5067
  223.5000     7.9395     7.6064   -28.2002     8.1194     0.0443     0.0966   118.0597     2.5165
  224.0000     7.8287     7.5526   -28.8001     8.1045     0.0488     0.0888   118.3582     2.5255
  224.5000     7.7195     7.4991   -29.4000     8.1045     0.0443     0.0825   118.2090     2.5330
  225.0000     7.6558     7.4459   -26.6667     8.1194     0.0413     0.0789   118.3582     2.5405
  225.5000     7.6098     7.4444   -26.1222     8.1194     0.0383     0.0765   118.8060     2.5547
  226.0000     7.5037     7.3917   -26.1258     8.1045     0.0352     0.0780   120.1493     2.5615
  226.5000     7.5021     7.3899   -26.1287     8.1045     0.0307     0.0843   123.1343     2.5580
  227.0000     7.5006     7.3375   -26.1313     8.1045     0.0307     0.0897   122.5313     2.5397
  227.5000     7.4991     7.2855   -26.1750     8.1045     0.0307     0.0848   118.9851     2.5337
  228.0000     7.4976     7.2841   -26.2866     8.0896     0.0322     0.0824   116.4179     2.5405
  228.5000     7.4961     7.2826   -26.2896     8.0896     0.0352     0.0801   117.7612     2.5457
  229.0000     7.4942     7.2812   -26.2931     8.0896     0.0412     0.0828   118.2090     2.5525
  229.5000     7.4927     7.2794   -26.2960     8.0896     0.0472     0.0894   117.0149     2.5615
  230.0000     7.4395     7.2779   -26.4478     8.0746     0.0426     0.1005   114.0299     2.5465
