~VERSION INFORMATION
 VERS.                2.0:   CWLS LOG ASCII STANDARD - VERSION 2.0
 WRAP.                 NO:   ONE LINE PER DEPTH STEP
~WELL INFORMATION
#MNEM.UNIT      DATA TYPE    INFORMATION
#----------   ------------   ------------------------------
 STRT.F           80.0000:   START DEPTH
 STOP.F          744.0000:   STOP DEPTH
 STEP.F            0.5000:   STEP LENGTH
 NULL.          -999.2500:   NO VALUE
 COMP.               NAVY:   COMPANY
 WELL. RES 3 TEAPOT DOM #44-S-11:   WELL
 FLD .             TEAPOT:   FIELD
 LOC .      S11 T38N R78W:   LOCATION
 CNTY.            NATRONA:   COUNTY
 STAT.            WYOMING:   STATE
 CTRY. UNITED STATES OF AMERICA:   COUNTRY
 SRVC.       Schlumberger:   SERVICE COMPANY
 DATE.        09-JUL-1962:   LOGDATE
 API .       490250634600:   API NUMBER
~CURVE INFORMATION
#MNEM.UNIT       API CODE    CURVE DESCRIPTION
#----------   ------------   ------------------------------
 DEPT.F                  :   
 SPR .MV     05 010 01 00:   SPONTANEOUS POTENTIAL FROM RES.
 ASN .OHMM   05 041 16 00:   AMPLIFIED SHORT NORMAL 16"
 ILD .OHMM   05 120 46 00:   INDUCTION LOG DEEP
 CILD.MMHO   05 110 46 00:   CONDUCTIVITY INDUCTION LOG DEEP
 GR  .GAPI   30 310 01 00:   GAMMA RAY
~PARAMETER INFORMATION
#MNEM.UNIT          VALUE    DESCRIPTION
#----------   ------------   ------------------------------
 PD  .                 KB:   PERMANENT DATUM
 EPD .F              5182:   ELEVATION PERMANENT DATUM
 EKB .F              5182:   KELLING BUSHING
 EGL .F              5177:   GROUND LEVEL
 DATE.        09-JUL-1962:   RUN DATE
 RUN .                  1:   RUN NUMBER
 DD  .F               745:   DEPTH DRILLER
 DL  .F               745:   DEPTH LOGGER
 BLI .F               744:   BOTTOM LOG INTERVAL
 TLI .F                90:   TOP LOG INTERVAL
 BS  .IN             6.75:   BIT SIZE
 BSD .F               745:   BIT SIZE AT DEPTH
 DFT .           OIL EMUL:   DRILLING FLUID TYPE
 DFD .               10.3:   DRILLING FLUID DENSITY
 DFV .                 50:   DRILLING FLUID VISCOSITY
 DFL .                3.4:   DRILLING FLUID LOSS
 RMS .OHMM            7.0:   RESISTIVITY MUD SAMPLE
 MST .F                73:   MUD SAMPLE TEMPERATURE
 RMF .OHMM            4.5:   RESISTIVITY MUD FILTRATE SAMPLE
 MFST.F                73:   MUD FILTRATE SAMPLE TEMPERATURE
 RMC .OHMM           13.5:   RESISTIVITY MUD CAKE
 MCST.F                73:   MUD CAKE SAMPLE TEMPERATURE
 MFSS.               MEAS:   MUD FILTRATE SAMPLE SOURCE
 MCSS.               MEAS:   MUD CAKE SAMPLE SOURCE
 TCS .HRS            0030:   TIME CURCULATED STOPPED
 LUN .               2503:   LOGGING UNIT NUMBER
 LUL .               CSPR:   LOGGING UNIT LOCATION
 ENGI.           ELLERMAN:   RECORDING ENGINEER
 WITN.          JORGENSON:   WITNESSED BY
 CLNT.            A2DTECH:   CLIENT CODE
 ORIG.           5" PRINT:   ORIGIN OF DATA
 UWI .       490250634600:   UNIQUE WELL ID
 DICO. A2D Technologies, Inc.:   DIGITIZING COMPANY
~OTHER INFORMATION
~A   DEPT      SPR        ASN        ILD       CILD         GR   
# ...
  568.0000   -47.8787     7.6327     6.8639   139.9795   121.9664
  568.5000   -47.8832     7.5859     6.8586   141.4342   108.8773
  569.0000   -47.8878     7.5240     6.8533   143.0072    97.9638
  569.5000   -47.8924     7.4620     6.8480   143.0674   106.9994
  570.0000   -47.8969     7.4142     6.7668   143.1275   120.6953
  570.5000   -47.9015     7.3987     6.7625   143.1877   123.7202
  571.0000   -47.9061     7.4441     6.7572   141.7199   105.0421
  571.5000   -47.9107     7.5020     6.6760   141.0237   109.2775
  572.0000   -47.7616     7.4990     6.6566   139.5860   102.1320
  572.5000   -47.7674     7.4538     6.5137   139.6462   104.0879
  573.0000   -47.6195     7.3709     6.4188   140.4628   119.0961
  573.5000   -47.6241     7.1680     6.1237   146.5744   122.5762
  574.0000   -47.4762     6.9127     5.8908   157.2246   110.7232
  574.5000   -47.3283     6.6311     5.7337   176.1955    90.8312
  575.0000   -47.0280     6.2853     5.4881   189.1149   107.0545
  575.5000   -46.5753     5.9653     5.1920   192.9572   121.9120
  576.0000   -45.8176     6.1110     5.1108   193.7738   136.1626
  576.5000   -44.9064     5.8707     5.2574   196.1033   127.0445
  577.0000   -46.2841     5.4261     5.2519   198.4327   114.5879
  577.5000   -47.9655     5.7278     5.2466   201.5186    97.8825
  578.0000   -47.6652     6.1658     5.1543   204.6045   105.0011
  578.5000   -47.3649     6.0584     5.0842   209.9597   116.6720
  579.0000   -46.9121     5.8146     5.0030   219.8534   114.8230
  579.5000   -46.4594     5.5709     4.9218   225.2086   114.6725
  580.0000   -45.8542     5.1908     4.9165   215.4352   121.8515
  580.5000   -45.2490     5.5985     4.9112   213.9674   126.4817
  581.0000   -44.3389     5.6884     4.9059   215.5555   109.6234
  581.5000   -45.2581     5.4140     4.9006   216.3721   115.2260
  582.0000   -47.2444     5.2463     4.8194   217.1887   100.2205
  582.5000   -47.5539     5.7446     5.4388   203.2197    89.0975
  583.0000   -47.5584     6.2735     5.8797   188.6235    91.4143
  583.5000   -47.4094     6.5297     6.1693   171.2370   102.8761
  584.0000   -47.2627     6.6496     6.3158   156.9250   105.8975
  584.5000   -47.1148     6.7092     6.3863   149.4209   115.5958
  585.0000   -46.9670     6.7681     6.3733   147.2117   112.5508
  585.5000   -46.8179     6.8125     6.2239   150.2976   111.3200
  586.0000   -46.5188     6.8108     6.0597   160.1914   103.2641
  586.5000   -46.3698     6.7488     5.6752   176.8930    99.1569
  587.0000   -46.2219     6.5051     5.2974   194.3510   109.4587
  587.5000   -46.0740     5.8976     5.1404   201.2191   111.4213
  588.0000   -45.7749     5.4114     5.1351   215.6514   100.1754
  588.5000   -45.4746     5.3347     5.1297   217.2244   114.2742
  589.0000   -45.0218     5.5454     5.1244   220.3103   117.2957
  589.5000   -43.6533     5.3316     5.1191   225.6655   116.0577
  590.0000   -44.8785     5.1636     5.1138   227.2234   110.4506
  590.5000   -45.0355     5.6016     5.3409   217.6333    92.8969
  591.0000   -45.0401     6.1457     5.7951   202.5641    98.4222
  591.5000   -45.5020     6.3262     6.1687   187.4949   108.1204
  592.0000   -45.9639     6.7187     6.5382   171.4983   115.8493
  592.5000   -46.2733     7.0962     6.8361   150.3785   106.8796
  593.0000   -46.8876     7.4736     7.1341   138.3262   102.0020
  593.5000   -47.3495     7.6692     7.3561   131.5432   103.0164
  594.0000   -47.9638     7.8194     7.5752   127.8268   105.3240
  594.5000   -48.2733     7.9392     7.6457   126.3562    94.6851
  595.0000   -47.5157     8.0591     7.6404   125.7171    87.0844
  595.5000   -46.9093     8.1183     7.6351   125.7791    89.6506
  596.0000   -46.9150     8.1775     7.6298   125.8396    88.8818
  596.5000   -46.9196     8.2216     7.5486   126.0288   102.5220
  597.0000   -46.7717     8.2960     7.5433   125.9578   111.3132
  597.5000   -46.7763     8.3704     7.5367   126.7894    93.2387
  598.0000   -46.6273     8.4448     7.4568   126.8496    74.1054
  598.5000   -46.6330     8.4738     7.4515   126.9097    63.3214
  599.0000   -46.4840     8.4270     7.5220   126.9699    76.2029
  599.5000   -46.1848     8.3650     7.5167   127.0300    93.9436
  600.0000   -45.7321     8.2879     7.5873   127.0784    98.7860
  600.5000   -46.4989     8.2263     7.5819   127.1169    84.1971
  601.0000   -46.1985     8.0596     7.6525   127.1555    95.2424
  601.5000   -44.6787     8.0455     7.7989   125.5444   108.5703
  602.0000   -44.3773     8.2482     7.9454   120.4307   102.3230
  602.5000   -44.8477     8.4314     8.0159   115.1729    99.5723
  603.0000   -45.3110     8.6141     8.1623   111.4280   105.3130
  603.5000   -45.7804     8.9545     8.0966   112.2217    87.3749
  604.0000   -46.2520     9.0455     7.9419   119.0669    77.6376
  604.5000   -46.5488     8.8939     7.4078   132.3548    68.8107
  605.0000   -46.5561     8.6212     6.3426   149.5714    64.0566
  605.5000   -46.2557     8.0606     5.8085   173.4130    81.3541
  606.0000   -45.8059     7.2529     5.4261   192.6665    90.2814
  606.5000   -44.5924     6.1263     5.4231   197.1623   111.1922
  607.0000   -43.9887     6.3046     5.4201   192.5311   113.1392
  607.5000   -43.3849     6.3767     5.4171   191.1854   123.2869
  608.0000   -45.2202     6.1302     5.4142   190.4663   116.1228
  608.5000   -46.1409     6.3540     5.5630   185.2178   100.0121
  609.0000   -46.2993     7.1393     6.0910   173.9086    91.1852
  609.5000   -46.3054     8.6682     6.7738   153.7465    76.7437
  610.0000   -46.4638     9.3473     7.9969   130.1747    83.6983
  610.5000   -46.6223     9.6774     8.9074   109.7208    97.0262
  611.0000   -47.0856    10.0068     9.2787    95.3859    91.3859
  611.5000   -47.7014    10.2307     9.1861    95.4236    73.9160
  612.0000   -48.0123    10.3028     9.1072    97.8920    86.1816
  612.5000   -48.3232    10.2991     9.1801   101.6767    81.9007
  613.0000   -48.3293    10.2953     9.1771   103.1086    71.8598
  613.5000   -48.3357    10.3674     9.2500    99.3637    67.2817
  614.0000   -48.3414    10.5154     9.3987    94.8624    70.1392
  614.5000   -48.3487    10.7393     9.6233    92.6303    73.1549
  615.0000   -48.2008    11.1149    10.1514    87.0988    67.0529
  615.5000   -47.4461    12.0975    11.2865    79.2239    55.6464
  616.0000   -47.6046    13.5353    12.8769    71.3489    44.8468
  616.5000   -48.3728    15.6560    14.6189    63.4740    40.8757
  617.0000   -49.2935    18.4595    15.5264    55.5991    22.6406
  617.5000   -50.5190    21.1872    16.2063    47.7241     4.8608
  618.0000   -53.5738    24.5977    18.1001    39.8492   -13.2226
  618.5000   -59.2206    23.7593    20.9803    34.6865   -17.1937
  619.0000   -59.3790    23.8315    22.4188    32.4451   -18.4333
  619.5000   -57.2509    23.7518    22.4036    35.5174   -18.9142
  620.0000   -57.8667    22.0788    21.2343    38.5804   -14.8428
  620.5000   -58.4824    20.5576    19.9110    40.8869    -3.4876
  621.0000   -58.6409    19.9469    18.3090    43.1935     9.2333
  621.5000   -58.1896    19.7914    17.6231    45.5001    11.3384
  622.0000   -56.0615    19.6288    17.1649    47.8066     3.7191
  622.5000   -55.4562    19.3185    16.8584    49.3821     8.3975
  623.0000   -56.2259    18.9191    16.6278    50.1513     5.6404
  623.5000   -57.1466    18.2580    16.4731    50.9455     7.1321
  624.0000   -58.0672    17.7990    16.3183    52.5035     8.9338
  624.5000   -56.7013    17.6435    15.7084    53.2972    -2.1757
  625.0000   -55.1829    17.4121    15.0984    54.8474    -5.1351
  625.5000   -53.8170    17.3325    14.8678    56.3975     6.2707
  626.0000   -53.9754    17.3287    14.6372    56.4347     8.9267
  626.5000   -52.9937    17.3250    14.4065    57.2284     5.4606
  627.0000   -52.1582    17.3980    14.5553    57.2657     7.2558
  627.5000   -52.0118    17.4702    14.6282    56.5465    16.6383
  628.0000   -52.1718    17.4655    14.7011    55.8274     9.2282
  628.5000   -52.4827    17.3858    14.7769    55.0989    21.5493
