~VERSION INFORMATION
 VERS.                2.0:   CWLS LOG ASCII STANDARD - VERSION 2.0
 WRAP.                 NO:   ONE LINE PER DEPTH STEP
~WELL INFORMATION
#MNEM.UNIT      DATA TYPE    INFORMATION
#----------   ------------   ------------------------------
 STRT.F           34.0000:   START DEPTH
 STOP.F          496.0000:   STOP DEPTH
 STEP.F            0.5000:   STEP LENGTH
 NULL.          -999.2500:   NO VALUE
 COMP. LAWRENCE/ALLISON INC:   COMPANY
 WELL.   55-55 SX FI #3-3:   WELL
 FLD .             TEAPOT:   FIELD
 LOC .       S3 T38N R78W:   LOCATION
 CNTY.            NATRONA:   COUNTY
 STAT.            WYOMING:   STATE
 CTRY. UNITED STATES OF AMERICA:   COUNTRY
 SRVC.       Schlumberger:   SERVICE COMPANY
 DATE.        18-JUL-1982:   LOGDATE
 API .       490251089500:   API NUMBER
~CURVE INFORMATION
#MNEM.UNIT       API CODE    CURVE DESCRIPTION
#----------   ------------   ------------------------------
 DEPT.F                  :   
 CALD.IN     45 280 60 00:   CALIPER FROM DENSITY LOG
 GRD .GAPI   45 310 01 00:   GAMMA RAY FROM DENSITY LOG
 CORR.G/C3   45 356 01 00:   DENSITY CORRECTION
 RHOB.G/C3   45 350 01 00:   BULK DENSITY
 DPHI.DEC    45 890 12 00:   DENSITY POROSITY SANDSTONE
 SPR .MV     07 010 01 00:   SPONTANEOUS POTENTIAL
 ILD .OHMM   07 120 46 00:   INDUCTION LOG DEEP
 ILM .OHMM   07 120 44 00:   INDUCTION LOG MEDIUM
 SFL .OHMM   07 220 01 00:   SHALLOW FOCUSED LOG RESISTIVITY
~PARAMETER INFORMATION
#MNEM.UNIT          VALUE    DESCRIPTION
#----------   ------------   ------------------------------
 PD  .                 GL:   PERMANENT DATUM
 EPD .F              5167:   ELEVATION PERMANENT DATUM
 LMF .                 KB:   LOG MEASURED FROM
 DAPD.F                 9:   FEET ABOVE PERMANENT DATUM
 DMF .                 KB:   DRILLING MEASURED FROM
 EKB .F              5176:   KELLING BUSHING
 EDF .F                  :   DRILLING FLOOR
 EGL .F              5167:   GROUND LEVEL
 DATE.        18-JUL-1982:   RUN DATE
 RUN .                  1:   RUN NUMBER
 DD  .F               500:   DEPTH DRILLER
 DL  .F               499:   DEPTH LOGGER
 BLI .F               436:   BOTTOM LOG INTERVAL
 TLI .F                50:   TOP LOG INTERVAL
 CS  .IN           13.375:   CASING SIZE
 CBD .F                50:   CASING BOTTOM DRILLER
 CBL .F                50:   CASING BOTTOM LOGGER
 BS  .IN            12.25:   BIT SIZE
 BSD .F               500:   BIT SIZE AT DEPTH
 DFT .         KCL FILLED:   DRILLING FLUID TYPE
 DFD .                   :   DRILLING FLUID DENSITY
 DFV .                   :   DRILLING FLUID VISCOSITY
 DFPH.                   :   DRILLING FLUID PH
 DFL .                   :   DRILLING FLUID LOSS
 MSS .           WELLHEAD:   MUD SAMPLE SOURCE
 RMS .OHMM           2.82:   RESISTIVITY MUD SAMPLE
 MST .F                80:   MUD SAMPLE TEMPERATURE
 RMF .OHMM               :   RESISTIVITY MUD FILTRATE SAMPLE
 MFST.F                  :   MUD FILTRATE SAMPLE TEMPERATURE
 RMC .OHMM               :   RESISTIVITY MUD CAKE
 MCST.F                  :   MUD CAKE SAMPLE TEMPERATURE
 MFSS.                   :   MUD FILTRATE SAMPLE SOURCE
 MCSS.                   :   MUD CAKE SAMPLE SOURCE
 RMB .OHMM           2.62:   RESISTIVITY MUD AT BHT
 BHT .F                86:   BOTTOM HOLE TEMPERATURE
 TCS .HRS            1530:   TIME CURCULATED STOPPED
 TLAB.HRS            1800:   TIME LOGGER AT BOTTOM
 MRT .F                86:   MAXIMUM RECORDED TEMPERATURE
 LUN .               8035:   LOGGING UNIT NUMBER
 LUL .             CASPER:   LOGGING UNIT LOCATION
 ENGI.              PENNY:   RECORDING ENGINEER
 WITN.             TAYLOR:   WITNESSED BY
 CLNT.            A2DTECH:   CLIENT CODE
 ORIG.           5" PRINT:   ORIGIN OF DATA
 UWI .       490251089500:   UNIQUE WELL ID
 DICO. A2D Technologies, Inc.:   DIGITIZING COMPANY
 OS  .                   :   OTHER SERVICES
 PWI .                   :   PRIMARY WELL IDENTIFIER
 R1  . POROSITY WITH SANDSTONE:   REMARKS 1
 R2  .                   :   REMARKS 2
 LSRV.                   :   LOG MNEMONIC
~OTHER INFORMATION
~A   DEPT     CALD         GRD      CORR       RHOB       DPHI        SPR        ILD        ILM        SFL   
# ...
   70.5000    12.4168    82.6442     0.0176     2.4788     0.1165   -38.4805     7.5059     7.3584     7.6549
   71.0000    12.4154    80.1610     0.0244     2.5084     0.0986   -38.6377     7.6576     7.5060     7.8654
   71.5000    12.3992    79.0421     0.0213     2.5022     0.1035   -38.6452     7.8667     7.6565     8.1942
   72.0000    12.4132    79.2548     0.0137     2.4860     0.1130   -38.8064     8.0256     7.8101     8.5368
   72.5000    12.4119    81.0426     0.0015     2.4767     0.1225   -38.9596     8.1878     7.9676     8.8938
   73.0000    12.3956    83.7360     0.0052     2.4770     0.1201   -39.2666     8.3533     8.1291     8.7062
   73.5000    12.3944    86.6550     0.0127     2.4934     0.1079   -39.2742     8.4633     8.2367     8.5225
   74.0000    12.3933    87.3216     0.0179     2.5063     0.1013   -39.5812     8.5172     8.3458     8.4007
   74.5000    12.3921    84.3726     0.0171     2.4963     0.1019   -39.8882     8.5698     8.3398     8.3381
   75.0000    12.4062    78.2690     0.0140     2.4848     0.1096   -40.1952     8.6227     8.3340     8.3925
   75.5000    12.4047    75.3233     0.0064     2.4839     0.1179   -40.5022     8.6144     8.3863     8.5625
   76.0000    12.3885    75.9866    -0.0043     2.4807     0.1173   -40.6595     8.5484     8.3801     8.9205
   76.5000    12.4024    78.2289    -0.0044     2.4776     0.1209   -40.8168     8.4244     8.3166     9.1671
   77.0000    12.4012    79.7945    -0.0006     2.4668     0.1250   -40.9741     8.3611     8.2535     8.7786
   77.5000    12.4301    83.6157     0.0032     2.4584     0.1318   -41.2811     8.2303     8.1343     8.4777
   78.0000    12.4289    85.1846     0.0068     2.4499     0.1398   -41.4384     8.1128     7.9617     8.3012
   78.5000    12.4277    81.1078     0.0022     2.4414     0.1453   -41.7454     7.9970     7.8468     8.1314
   79.0000    12.4415    78.1621    -0.0002     2.4345     0.1466   -41.9291     7.8320     7.6802     8.0152
   79.5000    12.4554    78.1375     0.0043     2.4420     0.1429   -42.2081     7.7184     7.5693     7.9006
   80.0000    12.4539    81.7444     0.0156     2.4579     0.1345   -42.3653     7.6593     7.4601     7.7340
   80.5000    12.4527    85.6221     0.0193     2.4639     0.1293   -42.5225     7.5481     7.4035     7.6234
   81.0000    12.4515    86.9056     0.0124     2.4554     0.1315   -42.6797     7.4903     7.2967     7.5144
   81.5000    12.4503    83.7903    -0.0028     2.4424     0.1480   -42.8370     7.4329     7.1914     7.4070
   82.0000    12.4491    79.8830    -0.0074     2.4194     0.1566   -42.9943     7.4272     7.0876     7.3011
   82.5000    12.4480    78.7419    -0.0014     2.4210     0.1521   -43.1516     7.4215     6.9853     7.2971
   83.0000    12.4468    78.5063     0.0129     2.4394     0.1436   -43.3089     7.4158     6.9804     7.2930
   83.5000    12.4305    80.7452     0.0182     2.4590     0.1326   -43.3165     7.4101     6.9755     7.3395
   84.0000    12.4294    82.5363     0.0135     2.4582     0.1308   -43.4738     7.4558     7.0203     7.4376
   84.5000    12.4131    84.3275     0.0036     2.4478     0.1376   -43.6311     7.5019     7.1132     7.4861
   85.0000    12.4273    83.4119    -0.0048     2.4371     0.1447   -43.6387     7.5497     7.2060     7.5852
   85.5000    12.4258    80.6917    -0.0048     2.4355     0.1456   -43.9457     7.5963     7.2623     7.6346
   86.0000    12.4246    78.6483     0.0005     2.4453     0.1429   -44.2527     7.6432     7.3568     7.6833
   86.5000    12.4234    77.7327     0.0043     2.4604     0.1284   -44.4100     7.6904     7.4971     7.7324
   87.0000    12.4222    77.9449     0.0056     2.4748     0.1217   -44.7170     7.7379     7.5963     7.8357
   87.5000    12.4211    78.1604    -0.0021     2.4670     0.1244   -44.8728     7.7857     7.6968     7.8846
   88.0000    12.4198    78.5982    -0.0006     2.4555     0.1303   -45.0299     7.8338     7.8014     7.9350
   88.5000    12.4186    79.9348     0.0038     2.4653     0.1288   -45.1871     7.9354     7.9018     7.9867
   89.0000    12.4174    82.1771     0.0098     2.4736     0.1258   -45.1946     7.9844     7.9511     8.0377
   89.5000    12.4160    84.1938     0.0060     2.4781     0.1201   -45.5016     8.0353     8.0563     8.0985
   90.0000    12.3998    87.7895     0.0036     2.4666     0.1281   -45.5092     8.1411     8.0507     8.1971
   90.5000    12.3986    88.4528     0.0051     2.4642     0.1281   -45.6665     8.1914     8.0451     8.2494
   91.0000    12.4124    85.1688     0.0103     2.4686     0.1272   -45.6741     8.2419     8.0395     8.3020
   91.5000    12.4113    80.3955     0.0209     2.4731     0.1248   -45.8314     8.2340     7.9785     8.2974
   92.0000    12.4101    77.1312     0.0382     2.4784     0.1209   -45.8390     8.1722     7.9179     8.2928
   92.5000    12.4390    76.4411     0.0397     2.4828     0.1179   -45.8466     8.1096     7.8578     8.2310
   93.0000    12.4531    76.8789     0.0381     2.4858     0.1164   -46.0039     8.0960     7.8524     8.2264
   93.5000    12.4670    78.2189     0.0327     2.4872     0.1153   -46.1612     8.0358     7.8469     8.1651
   94.0000    12.4955    79.3333     0.0235     2.4870     0.1156   -46.4682     7.9798     7.8414     8.1042
   94.5000    12.5247    80.6733     0.0174     2.4821     0.1169   -46.4758     7.9737     7.8360     8.0997
   95.0000    12.5232    80.4344     0.0112     2.4709     0.1227   -46.7828     7.9677     7.8305     8.0952
   95.5000    12.5521    78.6165     0.0011     2.4578     0.1313   -46.7889     7.9615     7.8250     8.0907
   96.0000    12.5810    76.1220     0.0028     2.4524     0.1365   -46.7964     8.0108     7.8196     8.0861
   96.5000    12.5798    74.0785     0.0202     2.4516     0.1360   -46.9536     8.0046     7.8141     8.1377
   97.0000    12.5937    72.9373     0.0292     2.4476     0.1361   -47.1108     8.0542     7.8087     8.1897
   97.5000    12.5915    72.9240     0.0200     2.4437     0.1398   -47.1183     8.1040     7.9120     8.2419
   98.0000    12.5444    74.2640     0.0109     2.4444     0.1434   -47.2756     8.2104     7.9628     8.2957
   98.5000    12.4946    75.6040     0.0002     2.4466     0.1401   -47.4329     8.3186     8.1227     8.4638
   99.0000    12.4533    75.5906    -0.0037     2.4495     0.1365   -47.4405     8.4867     8.2873     8.6365
   99.5000    12.4371    74.9006    -0.0045     2.4540     0.1353   -47.5978     8.7183     8.4567     8.8127
  100.0000    12.4210    74.6617     0.0038     2.4623     0.1299   -48.2058     8.9091     8.6510     8.9736
  100.5000    12.4047    75.1083     0.0082     2.4736     0.1241   -48.2194     8.9858     8.9239     9.3041
  101.0000    12.4035    76.9174     0.0127     2.4743     0.1214   -48.3826     9.1330     9.1035     9.2960
  101.5000    12.3873    79.6243     0.0134     2.4802     0.1202   -48.3961     9.2546     9.2227     9.4190
  102.0000    12.4014    78.3163     0.0148     2.4862     0.1169   -48.4096     9.3146     9.4083     9.4795
  102.5000    12.3698    73.6243     0.0155     2.4831     0.1163   -48.5728     9.4386     9.5315     9.6049
  103.0000    12.3686    72.0997     0.0070     2.4655     0.1237   -48.7361     9.6292     9.6563     9.7320
  103.5000    12.3828    72.5373    -0.0029     2.4562     0.1308   -48.7496     9.8935     9.8507     9.9293
  104.0000    12.3813    71.1339     0.0000     2.4553     0.1363   -48.9128    10.3068    10.1890    10.1991
  104.5000    12.3801    69.2300     0.0007     2.4575     0.1342   -49.0749    10.7373    10.5389    10.5508
  105.0000    12.3942    66.6289    -0.0032     2.4643     0.1288   -49.0884    11.1087    11.0527    11.0668
  105.5000    12.3777    65.7132    -0.0025     2.4779     0.1206   -49.2516    11.4929    11.5117    11.6080
  106.0000    12.4065    65.2486    -0.0003     2.5006     0.1072   -49.2651    11.8083    11.9071    12.3454
  106.5000    12.4053    65.4607     0.0011     2.5173     0.0938   -49.2787    12.0487    12.2311    13.8769
