~VERSION INFORMATION
 VERS.                2.0:   CWLS LOG ASCII STANDARD - VERSION 2.0
 WRAP.                 NO:   ONE LINE PER DEPTH STEP
~WELL INFORMATION
#MNEM.UNIT      DATA TYPE    INFORMATION
#----------   ------------   ------------------------------
 STRT.F           40.0000:   START DEPTH
 STOP.F          876.5000:   STOP DEPTH
 STEP.F            0.5000:   STEP LENGTH
 NULL.          -999.2500:   NO VALUE
 COMP. FENIX & SCISSON INC:   COMPANY
 WELL.     NPR 3 #41-S-14:   WELL
 FLD .             TEAPOT:   FIELD
 LOC .      S14 T38N R78W:   LOCATION
 CNTY.            NATRONA:   COUNTY
 STAT.            WYOMING:   STATE
 CTRY. UNITED STATES OF AMERICA:   COUNTRY
 SRVC.            Unknown:   SERVICE COMPANY
 DATE.        12-MAR-1978:   LOGDATE
 API .       490251060200:   API NUMBER
~CURVE INFORMATION
#MNEM.UNIT       API CODE    CURVE DESCRIPTION
#----------   ------------   ------------------------------
 DEPT.F                  :   
 CALD.IN     45 280 60 00:   CALIPER FROM DENSITY LOG
 GRD .GAPI   45 310 01 00:   GAMMA RAY FROM DENSITY LOG
 RHOB.G/C3   45 350 01 00:   BULK DENSITY
 DPHI.DEC    45 890 12 00:   DENSITY POROSITY SANDSTONE
 CORR.G/C3   45 356 01 00:   DENSITY CORRECTION
 SPR .MV     05 010 01 00:   SPONTANEOUS POTENTIAL FROM RES.
 IL  .OHMM   05 120 00 00:   INDUCTION LOG
 SN  .OHMM   05 040 16 00:   SHORT NORMAL 16"
~PARAMETER INFORMATION
#MNEM.UNIT          VALUE    DESCRIPTION
#----------   ------------   ------------------------------
 PD  .                 GL:   PERMANENT DATUM
 EPD .F              5211:   ELEVATION PERMANENT DATUM
 LMF .                 KB:   LOG MEASURED FROM
 DMF .                 KB:   DRILLING MEASURED FROM
 EKB .F              5215:   KELLING BUSHING
 EGL .F              5211:   GROUND LEVEL
 DATE.            3-12-78:   RUN DATE
 RUN .                  1:   RUN NUMBER
 DD  .F               870:   DEPTH DRILLER
 DL  .F               872:   DEPTH LOGGER
 BLI .F               866:   BOTTOM LOG INTERVAL
 TLI .F                50:   TOP LOG INTERVAL
 CS  .IN            8.625:   CASING SIZE
 CBD .F                40:   CASING BOTTOM DRILLER
 CBL .F                40:   CASING BOTTOM LOGGER
 BS  .IN            7.875:   BIT SIZE
 BSD .F               870:   BIT SIZE AT DEPTH
 DFT .                KCL:   DRILLING FLUID TYPE
 DFD .                8.6:   DRILLING FLUID DENSITY
 DFV .                 33:   DRILLING FLUID VISCOSITY
 DFPH.                 10:   DRILLING FLUID PH
 DFL .               12.1:   DRILLING FLUID LOSS
 MSS .           FLOWLINE:   MUD SAMPLE SOURCE
 RMS .OHMM            .32:   RESISTIVITY MUD SAMPLE
 MST .F                54:   MUD SAMPLE TEMPERATURE
 RMF .OHMM            .36:   RESISTIVITY MUD FILTRATE SAMPLE
 MFST.F                55:   MUD FILTRATE SAMPLE TEMPERATURE
 RMC .OHMM             .5:   RESISTIVITY MUD CAKE
 MCST.F                56:   MUD CAKE SAMPLE TEMPERATURE
 MFSS.           MEASURED:   MUD FILTRATE SAMPLE SOURCE
 MCSS.           MEASURED:   MUD CAKE SAMPLE SOURCE
 RMB .OHMM            .24:   RESISTIVITY MUD AT BHT
 BHT .F                72:   BOTTOM HOLE TEMPERATURE
 TCS .HRS               4:   TIME CURCULATED STOPPED
 MRT .F                72:   MAXIMUM RECORDED TEMPERATURE
 LUN .               2958:   LOGGING UNIT NUMBER
 LUL .               CASP:   LOGGING UNIT LOCATION
 ENGI.             MILLER:   RECORDING ENGINEER
 WITN.         HARRINGTON:   WITNESSED BY
 CLNT.            A2DTECH:   CLIENT CODE
 ORIG.        2" 5" PRINT:   ORIGIN OF DATA
 UWI .       490251060200:   UNIQUE WELL ID
 DICO. A2D Technologies, Inc.:   DIGITIZING COMPANY
~OTHER INFORMATION
~A   DEPT     CALD         GRD      RHOB       DPHI       CORR        SPR         IL         SN   
# ...
  485.5000     8.1162    89.6813     2.4509     0.1064     0.0215   -58.1121     7.4363     8.3922
  486.0000     8.1158    87.8499     2.4573     0.1038     0.0283   -57.9148     7.4836     8.4015
  486.5000     8.1154    91.0222     2.4656     0.0971     0.0301   -57.5200     7.5312     8.4118
  487.0000     8.1150    94.2570     2.4766     0.0864     0.0168   -57.3600     7.5790     8.4219
  487.5000     8.1146    95.2753     2.4852     0.0896     0.0032   -57.3345     7.6271     8.4320
  488.0000     8.1143    97.5751     2.4665     0.0975    -0.0034   -57.3107     7.6755     8.4421
  488.5000     8.1138   100.1358     2.4689     0.1014    -0.0057   -57.2875     7.7231     8.4523
  489.0000     8.1135   100.3769     2.4560     0.1033    -0.0056   -57.2641     7.7066     8.4623
  489.5000     8.1131   101.2645     2.4551     0.1042    -0.0041   -57.2406     7.6908     8.4708
  490.0000     8.1127   102.3326     2.4615     0.1037    -0.0023   -57.2170     7.6749     8.4705
  490.5000     8.1123   101.6702     2.4609     0.1007     0.0007   -57.1936     7.6590     8.4705
  491.0000     8.1119    97.6739     2.4636     0.0976    -0.0007   -57.1770     7.6432     8.4705
  491.5000     8.1115    94.8016     2.4705     0.0945    -0.0031   -57.2094     7.6274     8.4705
  492.0000     8.1111    95.1213     2.4717     0.0936    -0.0054   -57.2425     7.6116     8.4705
  492.5000     8.1107    95.0600     2.4673     0.0992    -0.0075   -57.2754     7.5959     8.4705
  493.0000     8.1103    95.1942     2.4589     0.1042    -0.0059   -57.3083     7.5802     8.4705
  493.5000     8.1099    98.6901     2.4516     0.1080    -0.0041   -57.3411     7.5645     8.4705
  494.0000     8.1095   102.1702     2.4462     0.1084    -0.0035   -57.3740     7.5489     8.4705
  494.5000     8.1091   103.5774     2.4475     0.1086    -0.0035   -57.4068     7.5332     8.4703
  495.0000     8.1087   103.5745     2.4461     0.1112    -0.0035   -57.4397     7.5136     8.4696
  495.5000     8.1083   101.4880     2.4416     0.1139    -0.0035   -57.4725     7.5695     8.4683
  496.0000     8.1079    97.9986     2.4413     0.1126    -0.0035   -57.5056     7.6614     8.5909
  496.5000     8.1075    94.5704     2.4435     0.1108    -0.0023   -57.5392     7.7544     8.7093
  497.0000     8.1071    91.4259     2.4424     0.1116    -0.0008   -57.5688     7.8485     8.8294
  497.5000     8.1067    90.8480     2.4411     0.1136     0.0007   -57.4605     7.9436     8.9513
  498.0000     8.1063    90.7693     2.4524     0.0996     0.0022   -57.3428     8.0398     9.0749
  498.5000     8.1059    90.6674     2.4582     0.1019     0.0039   -57.2259     8.1371     9.2002
  499.0000     8.1055    90.5705     2.4554     0.1064     0.0074   -56.9654     8.2954     9.3272
  499.5000     8.1051    90.6266     2.4528     0.1078     0.0177   -56.5802     8.4778     9.4560
  500.0000     8.1047    92.0343     2.4517     0.1055     0.0276   -56.1943     8.6642     9.5866
  500.5000     8.1044    94.7705     2.4588     0.1013     0.0322   -55.8061     8.8547     9.7189
  501.0000     8.1040    96.5887     2.4639     0.0992     0.0331   -55.4220     9.0000     9.8531
  501.5000     8.1036    93.9860     2.4610     0.1027     0.0365   -55.3274     9.0958     9.9892
  502.0000     8.1032    91.5054     2.4702     0.0913     0.0287   -55.2723     9.1927    10.1271
  502.5000     8.1029    89.4500     2.4745     0.0930     0.0210   -55.2177     9.2585    10.2669
  503.0000     8.1025    89.6412     2.4634     0.0965     0.0170   -55.1628     9.3385    10.4086
  503.5000     8.1021    90.1276     2.4627     0.1016     0.0189   -55.1077     9.4192    10.5699
  504.0000     8.1018    90.6107     2.4608     0.0997     0.0207   -55.0526     9.6058    10.5474
  504.5000     8.1014    90.6516     2.4667     0.0955     0.0225   -54.9975     9.9260    10.5171
  505.0000     8.1010    89.5760     2.4738     0.0937     0.0215   -54.9423    10.2569    10.4868
  505.5000     8.1006    88.5262     2.4725     0.0943     0.0199   -54.8875    10.5989    10.4566
  506.0000     8.1003    87.2546     2.4721     0.0948     0.0183   -54.8338    10.8701    10.4267
  506.5000     8.0999    85.1674     2.4754     0.0952     0.0168   -54.7694    10.8916    10.3968
  507.0000     8.0995    82.3671     2.4729     0.0951     0.0153   -54.4066    10.9124    10.3741
  507.5000     8.0991    79.5985     2.4689     0.0949     0.0112   -54.2749    10.9333    10.3611
  508.0000     8.0988    77.3995     2.4661     0.0962     0.0042   -54.5048    10.9542    10.3484
  508.5000     8.0984    80.0187     2.4597     0.1031    -0.0028   -54.7340    10.9707    10.3355
  509.0000     8.0980    82.6815     2.4458     0.1100    -0.0065   -54.7869    10.7496    10.3227
  509.5000     8.0977    83.6130     2.4389     0.1140    -0.0082   -54.7997    10.5674    10.3099
  510.0000     8.0973    82.9106     2.4391     0.1147    -0.0096   -54.8111    10.3886    10.2971
  510.5000     8.0969    83.3278     2.4344     0.1185    -0.0095   -54.8226    10.2127    10.2844
  511.0000     8.0965    83.8783     2.4327     0.1165    -0.0095   -54.8342    10.0395    10.2716
  511.5000     8.0962    80.5137     2.4345     0.1152    -0.0095   -54.8459     9.8689    10.2589
  512.0000     8.0958    77.9803     2.4328     0.1200    -0.0096   -54.8576     9.7277    10.2462
  512.5000     8.0954    82.1641     2.4299     0.1192    -0.0166   -54.8692     9.7101    10.2334
  513.0000     8.0950    85.1263     2.4276     0.1241    -0.0217   -54.8809     9.6752    10.2207
  513.5000     8.0947    84.8036     2.4195     0.1280    -0.0181   -54.8926     9.6405    10.2081
  514.0000     8.0943    84.3414     2.4175     0.1252    -0.0135   -54.9043     9.6058    10.1954
  514.5000     8.0939    83.9635     2.4229     0.1232    -0.0087   -54.9159     9.5713    10.1722
  515.0000     8.0936    85.0598     2.4281     0.1201    -0.0073   -54.9276     9.5369    10.1197
  515.5000     8.0932    84.4343     2.4335     0.1175    -0.0073   -54.9393     9.5026    10.0675
  516.0000     8.0928    83.2356     2.4343     0.1138     0.0007   -54.9509     9.4684    10.0155
  516.5000     8.0924    82.4221     2.4385     0.1088     0.0023   -54.9626     9.4344     9.9639
  517.0000     8.0921    83.7488     2.4661     0.1000    -0.0019   -54.9754     9.4005     9.9124
  517.5000     8.0917    86.1038     2.4590     0.1002    -0.0063   -54.9446     9.3611     9.8613
  518.0000     8.0913    87.5214     2.4450     0.1102    -0.0074   -54.8974     9.3085     9.8104
  518.5000     8.0910    86.2933     2.4401     0.1135    -0.0072   -54.8516     9.2562     9.7598
  519.0000     8.0906    84.9331     2.4413     0.1115    -0.0070   -54.8064     9.2041     9.7094
  519.5000     8.0902    84.6119     2.4415     0.1124    -0.0069   -55.0103     9.1524     9.6593
  520.0000     8.0898    86.4763     2.4297     0.1215    -0.0067   -55.5032     9.1009     9.6095
  520.5000     8.0894    87.3355     2.4245     0.1232    -0.0065   -55.7615     9.0497     9.5599
  521.0000     8.0891    86.9721     2.4261     0.1216    -0.0063   -55.7360     8.9989     9.5106
  521.5000     8.0887    86.7665     2.4289     0.1172    -0.0061   -55.7115     8.9483     9.4636
  522.0000     8.0883    86.8764     2.4279     0.1195    -0.0060   -55.6848     8.8980     9.3467
  522.5000     8.0880    85.2982     2.4267     0.1199    -0.0058   -55.6582     8.8479     9.3001
  523.0000     8.0876    84.2996     2.4264     0.1216    -0.0056   -55.6317     8.7982     9.2538
  523.5000     8.0872    85.8568     2.4286     0.1181    -0.0055   -55.6053     8.6969     9.2078
  524.0000     8.0868    86.9224     2.4288     0.1168    -0.0053   -55.5788     8.5861     9.1619
  524.5000     8.0865    85.5779     2.4240     0.1219    -0.0051   -55.5524     8.4761     9.1163
  525.0000     8.0861    84.3471     2.4231     0.1232    -0.0049   -55.5259     8.3676     9.0709
  525.5000     8.0857    83.1131     2.4193     0.1264    -0.0047   -55.4995     8.2605     9.0258
