~VERSION INFORMATION
 VERS.                2.0:   CWLS LOG ASCII STANDARD - VERSION 2.0
 WRAP.                 NO:   ONE LINE PER DEPTH STEP
~WELL INFORMATION
#MNEM.UNIT      DATA TYPE    INFORMATION
#----------   ------------   ------------------------------
 STRT.F            2.0000:   START DEPTH
 STOP.F          467.0000:   STOP DEPTH
 STEP.F            0.5000:   STEP LENGTH
 NULL.          -999.2500:   NO VALUE
 COMP. LAWRENCE/ALLISON INC:   COMPANY
 WELL.      57-36 SX #3-3:   WELL
 FLD .             TEAPOT:   FIELD
 LOC .       S3 T38N R78W:   LOCATION
 CNTY.            NATRONA:   COUNTY
 STAT.            WYOMING:   STATE
 CTRY. UNITED STATES OF AMERICA:   COUNTRY
 SRVC.      NL McCullough:   SERVICE COMPANY
 DATE.        13-SEP-1988:   LOGDATE
 API .       490251120900:   API NUMBER
~CURVE INFORMATION
#MNEM.UNIT       API CODE    CURVE DESCRIPTION
#----------   ------------   ------------------------------
 DEPT.F                  :   
 GRR .GAPI   07 310 01 00:   GAMMA RAY
 ILD .OHMM   07 120 46 00:   INDUCTION LOG DEEP
 ILM .OHMM   07 120 44 00:   INDUCTION LOG MEDIUM
~PARAMETER INFORMATION
#MNEM.UNIT          VALUE    DESCRIPTION
#----------   ------------   ------------------------------
 PD  .                 GL:   PERMANENT DATUM
 EPD .F              5186:   ELEVATION PERMANENT DATUM
 LMF .                 KB:   LOG MEASURED FROM
 DMF .                 KB:   DRILLING MEASURED FROM
 EKB .F              5191:   KELLING BUSHING
 EGL .F              5186:   GROUND LEVEL
 DATE.        13-SEP-1988:   RUN DATE
 RUN .                  1:   RUN NUMBER
 DD  .F               409:   DEPTH DRILLER
 DL  .F               409:   DEPTH LOGGER
 BLI .F               404:   BOTTOM LOG INTERVAL
 BSD .F               409:   BIT SIZE AT DEPTH
 DFT .              WATER:   DRILLING FLUID TYPE
 ENGI.          BANGERTER:   RECORDING ENGINEER
 WITN.            SCHULTE:   WITNESSED BY
 CLNT.            A2DTECH:   CLIENT CODE
 ORIG.           5" PRINT:   ORIGIN OF DATA
 UWI .       490251120900:   UNIQUE WELL ID
 DICO. A2D Technologies, Inc.:   DIGITIZING COMPANY
~OTHER INFORMATION
~A    DEPT      GRR       ILD        ILM   
# ...
  275.0000    70.5358    33.2847    34.8260
  275.5000    70.8587    32.1401    35.0807
  276.0000    71.1817    32.8291    35.5863
  276.5000    71.5053    34.7318    36.0992
  277.0000    72.1373    36.0055    36.3770
  277.5000    71.5442    37.0099    36.6317
  278.0000    69.7297    37.0149    36.6416
  278.5000    70.0526    35.7420    36.6514
  279.0000    71.5969    35.4954    36.1501
  279.5000    72.6330    35.7517    34.4259
  280.0000    74.3846    36.5182    32.7536
  280.5000    74.4022    36.7817    32.3355
  281.0000    73.8091    37.5702    34.2149
  281.5000    71.3839    38.6462    35.9479
  282.0000    67.1267    41.7568    36.7229
  282.5000    62.7176    43.5604    37.2522
  283.0000    59.5327    42.0639    37.5272
  283.5000    58.6299    40.9038    37.2721
  284.0000    61.7053    38.6735    35.7468
  284.5000    70.5778    35.5515    34.2816
  285.0000    77.6183    33.3777    32.8765
  285.5000    78.9089    31.9790    31.0404
  286.0000    80.7113    30.4736    29.8151
  286.5000    81.9503    29.8421    29.4073
  287.0000    83.1893    30.0565    29.2094
  287.5000    83.8175    30.2725    29.4251
  288.0000    83.5298    30.2765    29.6431
  288.5000    81.1090    30.0696    30.0695
  289.0000    79.5999    30.0737    29.8652
  289.5000    79.0068    29.4504    29.2526
  290.0000    79.0244    28.6382    28.4503
  290.5000    79.0420    27.6534    27.4764
  291.0000    81.1969    26.6851    27.0831
  291.5000    83.9670    25.6046    26.1746
  292.0000    84.5953    24.8984    25.1018
  292.5000    84.9182    24.3824    24.2425
  293.0000    84.6261    24.2141    23.9093
  293.5000    85.2588    24.2182    23.4189
  294.0000    85.8870    24.3931    22.7781
  294.5000    85.9090    24.3963    22.6233
  295.0000    85.6169    24.5716    22.6309
  295.5000    85.9442    24.7482    22.9571
  296.0000    86.5725    24.7515    22.9632
  296.5000    87.2007    24.7549    23.1433
  297.0000    87.2183    24.7584    23.3020
  297.5000    85.4038    24.7624    23.3083
  298.0000    84.8108    24.9403    23.3802
  298.5000    86.6648    25.1195    23.4851
  299.0000    87.9038    25.1229    23.6568
  299.5000    88.5320    25.4819    23.8564
  300.0000    88.8550    25.1234    24.0195
  300.5000    88.4303    25.0446    24.1739
  301.0000    87.9645    24.9646    24.1739
  301.5000    86.7550    24.7949    24.1739
  302.0000    85.5454    24.6263    24.0048
  302.5000    84.9466    24.4589    24.0048
  303.0000    85.5695    24.1225    23.6701
  303.5000    86.1945    23.9586    23.6701
  304.0000    86.8170    23.7957    23.5046
  304.5000    86.2182    23.3053    23.0147
  305.0000    84.7033    22.8239    22.6938
  305.5000    84.1044    22.6478    22.3623
  306.0000    84.7269    22.5147    22.0655
  306.5000    86.6118    22.2051    21.9111
  307.0000    89.3337    22.0541    21.9111
  307.5000    91.1775    22.0597    22.0655
  308.0000    91.7971    22.2198    22.0655
  308.5000    89.3691    22.2243    22.0655
  309.0000    86.9382    22.3857    22.0644
  309.5000    86.0336    22.5491    21.9111
  310.0000    86.6565    22.4382    22.0655
  310.5000    86.3630    22.3006    22.0655
  311.0000    85.1534    22.1630    22.0655
  311.5000    83.6415    22.0965    22.0655
  312.0000    82.4319    22.1021    21.7578
  312.5000    82.1354    21.9508    21.7578
  313.0000    83.0662    21.6489    21.4545
  313.5000    84.6048    21.3512    21.0074
  314.0000    85.5532    20.7649    20.5696
  314.5000    86.4634    20.4793    20.2828
  315.0000    86.7806    20.3401    20.0000
  315.5000    87.0978    20.3444    19.8601
  316.0000    87.4149    20.3494    20.0000
  316.5000    87.7321    20.3536    20.2828
  317.0000    87.7439    20.3577    20.4381
  317.5000    87.7557    20.5044    20.8604
  318.0000    87.1166    20.3650    20.5696
  318.5000    85.3396    20.0860    20.2828
  319.0000    84.1300    19.9494    19.8601
  319.5000    83.5282    19.5383    19.3102
  320.0000    83.5430    19.0008    18.7755
  320.5000    84.7762    18.6074    18.2556
  321.0000    86.3147    18.0964    17.7344
  321.5000    88.4641    17.7226    17.2586
  322.0000    90.3108    17.6020    17.1379
  322.5000    89.7119    17.3600    17.1379
  323.0000    88.8077    17.3637    17.1379
  323.5000    87.5981    17.3680    17.2586
  324.0000    86.0832    17.2490    17.1379
  324.5000    84.2630    17.2534    17.1291
  325.0000    82.7481    17.1353    16.8989
  325.5000    80.5822    16.8996    16.6633
  326.0000    80.0236    16.6681    16.4310
  326.5000    81.5651    16.4389    16.4310
  327.0000    84.9357    16.4431    16.2019
  327.5000    87.3903    16.3305    15.9760
  328.0000    88.9288    16.2203    15.7533
  328.5000    89.8567    15.9972    15.5337
  329.0000    88.5863    15.7772    15.3171
  329.5000    85.6085    15.5602    15.3171
  330.0000    84.3989    15.3463    15.2099
  330.5000    84.4107    15.1354    15.1035
  331.0000    85.6439    15.0324    14.8930
  331.5000    88.4038    15.0362    14.5826
  332.0000    90.8584    15.0393    14.2787
  332.5000    93.0076    15.1484    14.1788
  333.0000    94.8519    15.1515    14.2787
  333.5000    93.6449    15.2614    14.2787
  334.0000    91.2140    15.4806    14.4806
  334.5000    88.7831    15.7036    14.6853
  335.0000    87.8759    15.8175    14.9979
  335.5000    88.1960    15.8377    15.3171
  336.0000    88.8185    15.9355    15.3142
  336.5000    87.8329    15.8272    15.1035
  337.0000    84.5674    15.8304    14.9979
  337.5000    85.8035    15.8336    14.9979
  338.0000    87.6474    15.8370    14.8930
  338.5000    89.1859    15.8409    14.8930
  339.0000    88.8924    15.8441    14.8930
  339.5000    88.5985    15.7356    14.7888
  340.0000    88.9160    15.5192    14.6853
  340.5000    89.2336    15.1994    14.6853
  341.0000    89.5533    14.8855    14.4806
  341.5000    88.9515    14.5780    14.2787
  342.0000    88.3526    14.2769    14.0796
  342.5000    88.0591    14.1801    13.6898
  343.0000    88.0739    14.1834    13.3107
  343.5000    88.3910    14.2856    13.0333
  344.0000    89.6651    14.2893    12.8420
  344.5000    92.0817    14.4944    12.7617
  345.0000    93.0096    14.7025    12.8516
  345.5000    93.3268    15.0471    12.9421
  346.0000    91.8119    16.3440    13.4045
  346.5000    90.2970    17.9106    14.2787
  347.0000    88.1714    19.9052    15.7533
  347.5000    86.0458    22.2778    18.0206
  348.0000    82.2717    25.6438    22.2047
  348.5000    76.6067    29.3118    25.5704
  349.0000    71.4277    32.1519    29.6320
  349.5000    66.5541    36.4608    34.5808
  350.0000    64.1202    40.0034    39.7942
  350.5000    67.3160    41.6802    39.7996
  351.0000    69.9620    39.6867    38.9755
  351.5000    71.8117    38.3220    37.6362
  352.0000    74.2721    37.0042    36.5990
  352.5000    73.6591    36.2362    35.0942
  353.0000    73.0861    35.4863    34.1282
  353.5000    74.3295    34.5078    33.6558
  354.0000    75.5686    34.2708    33.1911
  354.5000    76.1970    34.0359    32.9645
  355.0000    76.5200    33.8018    32.9689
  355.5000    76.2321    33.5697    32.9734
  356.0000    75.9166    33.5754    32.7482
  356.5000    75.6570    33.3448    32.7527
  357.0000    75.6790    33.1159    32.7571
  357.5000    75.6967    32.4307    32.5312
  358.0000    76.0197    32.2069    32.3089
  358.5000    76.3428    32.2124    32.0874
  359.0000    76.6658    31.9901    31.8673
  359.5000    76.9893    31.7714    31.4272
  360.0000    77.6216    31.5534    30.5622
  360.5000    76.7232    30.9005    29.7199
  361.0000    77.0462    30.6873    28.6987
  361.5000    78.8960    30.2643    28.1044
  362.0000    81.6617    29.6361    27.2944
  362.5000    81.3739    28.8197    26.3917
  363.0000    80.1262    27.8287    26.0273
  363.5000    79.5773    27.6376    26.2142
  364.0000    80.2101    28.0334    26.2177
  364.5000    80.8385    28.4340    26.7794
  365.0000    81.1615    28.8402    27.3659
  365.5000    80.2631    28.8441    28.1367
