~VERSION INFORMATION
 VERS.                2.0:   CWLS LOG ASCII STANDARD - VERSION 2.0
 WRAP.                 NO:   ONE LINE PER DEPTH STEP
~WELL INFORMATION
#MNEM.UNIT      DATA TYPE    INFORMATION
#----------   ------------   ------------------------------
 STRT.F          520.5000:   START DEPTH
 STOP.F         2062.0000:   STOP DEPTH
 STEP.F            0.5000:   STEP LENGTH
 NULL.          -999.2500:   NO VALUE
 COMP. LAWRENCE-ALLISON &AS:   COMPANY
 WELL.     NPR 3 #18-X-28:   WELL
 FLD .             TEAPOT:   FIELD
 LOC .      S28 T39N R78W:   LOCATION
 CNTY.            NATRONA:   COUNTY
 STAT.            WYOMING:   STATE
 CTRY. UNITED STATES OF AMERICA:   COUNTRY
 SRVC.            Unknown:   SERVICE COMPANY
 DATE.        08-DEC-1987:   LOGDATE
 API .       490251119700:   API NUMBER
~CURVE INFORMATION
#MNEM.UNIT       API CODE    CURVE DESCRIPTION
#----------   ------------   ------------------------------
 DEPT.F                  :   
 ROP .MIN/FT 91 810 01 00:   RAT OF DRILLING PENETRATION
 TGAS.UNITS  91 830 01 00:   TOTAL GAS FROM HOTWIRE
~PARAMETER INFORMATION
#MNEM.UNIT          VALUE    DESCRIPTION
#----------   ------------   ------------------------------
 EKB .F              5090:   KELLING BUSHING
 EGL .F              5080:   GROUND LEVEL
 DATE.            12-8-87:   RUN DATE
 DD  .F              2062:   DEPTH DRILLER
 CS  .IN                7:   CASING SIZE
 CBD .F               513:   CASING BOTTOM DRILLER
 TCS .HRS            1000:   TIME CURCULATED STOPPED
 TLAB.HRS            0432:   TIME LOGGER AT BOTTOM
 ENGI.              TOWER:   RECORDING ENGINEER
 WITN.               HUSK:   WITNESSED BY
 CLNT.            A2DTECH:   CLIENT CODE
 ORIG.           5" PRINT:   ORIGIN OF DATA
 UWI .       490251119700:   UNIQUE WELL ID
 DICO. A2D Technologies, Inc.:   DIGITIZING COMPANY
~OTHER INFORMATION
~A   DEPT      ROP         TGAS 
  520.5000  -999.2500     0.0110
  521.0000     0.5009     0.0004
  521.5000     0.5025     0.0004
  522.0000     0.5042     0.0004
  522.5000     0.5059     0.0004
  523.0000     0.5075     0.0004
  523.5000     0.5092     0.0004
  524.0000     0.5109     0.0004
  524.5000     0.5126     0.0004
  525.0000     0.5142     0.0004
  525.5000     0.5159     0.0004
  526.0000     0.5176     0.0004
  526.5000     0.5357     0.0004
  527.0000     0.4949     0.0004
  527.5000     0.4643     0.0004
  528.0000     0.4440     0.0004
  528.5000     0.4341     0.0004
  529.0000     0.4243     0.0004
  529.5000     0.4248     0.0004
  530.0000     0.4149     0.0004
  530.5000     0.4051     0.0004
  531.0000     0.4057     0.0004
  531.5000     0.4062     0.0004
  532.0000     0.4171     0.0004
  532.5000     0.4176     0.0004
  533.0000     0.4181     0.0004
  533.5000     0.4186     0.0004
  534.0000     0.4086     0.0004
  534.5000     0.4092     0.0004
  535.0000     0.4098     0.0004
  535.5000     0.4103     0.0004
  536.0000     0.4225     0.0004
  536.5000     0.4529     0.0004
  537.0000     0.4845     0.0004
  537.5000     0.5265     0.0004
  538.0000     0.5374     0.0004
  538.5000     0.5379     0.0004
  539.0000     0.5279     0.0004
  539.5000     0.5389     0.0004
  540.0000     0.5602     0.0017
  540.5000     0.5918     0.0119
  541.0000     0.6442     0.0220
  541.5000     0.6768     0.4508
  542.0000     0.6972     0.4610
  542.5000     0.6666     0.4711
  543.0000     0.6152     0.4814
  543.5000     0.5950     0.4290
  544.0000     0.5746     0.0830
  544.5000     0.5753     0.0958
  545.0000     0.5861     0.1059
  545.5000     0.5866     0.1161
  546.0000     0.5975     0.0004
  546.5000     0.6084     0.1364
  547.0000     0.6095     0.1466
  547.5000     0.6213     0.1570
  548.0000     0.6412     0.1695
  548.5000     0.6521     0.1796
  549.0000     0.6629     0.1898
  549.5000     0.6738     0.2000
  550.0000     0.6847     0.2101
  550.5000     0.6747     0.2203
  551.0000     0.6753     0.2305
  551.5000     0.6655     0.2407
  552.0000     0.6660     0.2512
  552.5000     0.6561     0.2635
  553.0000     0.6566     0.2737
  553.5000     0.6573     0.2839
  554.0000     0.6681     0.2940
  554.5000     0.6686     0.3042
  555.0000     0.6795     0.3144
  555.5000     0.6904     0.3245
  556.0000     0.7013     0.0004
  556.5000     0.7329     0.0004
  557.0000     0.7542     0.0004
  557.5000     0.7754     0.0004
  558.0000     0.7759     0.0004
  558.5000     0.7868     0.0004
  559.0000     0.7873     0.0004
  559.5000     0.7983     0.0004
  560.0000     0.7988     0.0030
  560.5000     0.7993     0.0004
  561.0000     0.7999     0.0004
  561.5000     0.8000     0.0004
  562.0000     0.7759     0.0004
  562.5000     0.6669     0.0004
  563.0000     0.5482     0.0004
  563.5000     0.4753     0.0004
  564.0000     0.4543     0.0004
  564.5000     0.4437     0.0004
  565.0000     0.4434     0.0004
  565.5000     0.4432     0.0004
  566.0000     0.4429     0.0004
  566.5000     0.4427     0.0004
  567.0000     0.4321     0.0004
  567.5000     0.4318     0.0004
  568.0000     0.4315     0.0004
  568.5000     0.4416     0.0004
  569.0000     0.4414     0.0004
  569.5000     0.4411     0.0004
  570.0000     0.4408     0.0004
  570.5000     0.4510     0.0004
  571.0000     0.4507     0.0004
  571.5000     0.4505     0.0052
  572.0000     0.4606     0.0004
  572.5000     0.4713     0.0004
  573.0000     0.4912     0.0004
  573.5000     0.5013     0.0004
  574.0000     0.5010     0.0004
  574.5000     0.5112     0.0004
  575.0000     0.5109     0.0004
  575.5000     0.5210     0.0004
  576.0000     0.5207     0.0004
  576.5000     0.5205     0.0004
  577.0000     0.5099     0.0004
  577.5000     0.5096     0.0004
  578.0000     0.4874     0.0004
  578.5000     0.4053     0.0004
  579.0000     0.3324     0.0004
  579.5000     0.3322     0.0004
  580.0000     0.3319     0.0004
  580.5000     0.3317     0.0004
  581.0000     0.3314     0.0004
  581.5000     0.3312     0.0004
  582.0000     0.3413     0.0004
  582.5000     0.3410     0.0004
  583.0000     0.3408     0.0004
  583.5000     0.3405     0.0004
  584.0000     0.3402     0.0004
  584.5000     0.3399     0.0004
  585.0000     0.3501     0.0004
  585.5000     0.3603     0.0004
  586.0000     0.3599     0.0004
  586.5000     0.3597     0.0004
  587.0000     0.3698     0.0004
  587.5000     0.3695     0.0004
  588.0000     0.3693     0.0004
  588.5000     0.3794     0.0004
  589.0000     0.3895     0.0004
  589.5000     0.3892     0.0004
  590.0000     0.3890     0.0004
  590.5000     0.3991     0.0004
  591.0000     0.3988     0.0004
  591.5000     0.3986     0.0004
  592.0000     0.3983     0.0004
  592.5000     0.3981     0.0004
  593.0000     0.3978     0.0004
  593.5000     0.3985     0.3610
  594.0000     0.4077     0.4045
  594.5000     0.3970     0.0128
  595.0000     0.3449     0.0004
  595.5000     0.3135     0.0004
  596.0000     0.2925     0.0004
  596.5000     0.2923     0.0004
  597.0000     0.2920     0.0004
  597.5000     0.2917     0.0004
  598.0000     0.2915     0.0004
  598.5000     0.2912     0.0004
  599.0000     0.2910     0.0004
  599.5000     0.2907     0.0004
  600.0000     0.2853     0.0004
  600.5000     0.2698     0.0366
  601.0000     0.2700     0.0004
  601.5000     0.2701     0.0004
  602.0000     0.2806     0.0004
  602.5000     0.2808     0.0004
  603.0000     0.2705     0.0004
  603.5000     0.2499     0.0004
  604.0000     0.2292     0.0004
  604.5000     0.2086     0.0004
  605.0000     0.1984     0.0004
  605.5000     0.1985     0.0004
  606.0000     0.2090     0.0004
  606.5000     0.2195     0.0004
  607.0000     0.2300     0.0004
  607.5000     0.2302     0.0004
  608.0000     0.2407     0.0004
  608.5000     0.2615     0.0004
  609.0000     0.2720     0.2440
  609.5000     0.2825     0.6980
  610.0000     0.2931     0.7333
  610.5000     0.3036     0.7692
  611.0000     0.3141     0.8128
  611.5000     0.3142     0.4207
  612.0000     0.3143     0.4649
  612.5000     0.3144     0.0728
  613.0000     0.3146     0.1170
  613.5000     0.3147     0.1523
  614.0000     0.3149     0.1884
  614.5000     0.3150     0.2318
  615.0000     0.3151     0.2671
  615.5000     0.3152     0.3025
  616.0000     0.3154     0.3378
  616.5000     0.3051     0.0004
  617.0000     0.3052     0.0004
  617.5000     0.3158     0.0262
  618.0000     0.3159     0.0694
  618.5000     0.3160     0.1048
  619.0000     0.3161     0.0004
  619.5000     0.3163     0.0004
  620.0000     0.3268     0.0004
  620.5000     0.3269     0.0004
  621.0000     0.3270     0.0004
  621.5000     0.3272     0.0004
  622.0000     0.3273     0.0004
  622.5000     0.3171     0.0004
  623.0000     0.3172     0.0130
  623.5000     0.3173     0.0484
  624.0000     0.3174     0.5023
  624.5000     0.3176     0.5390
  625.0000     0.3177     1.0004
  625.5000     0.3178     1.0358
  626.0000     0.3180     0.6437
  626.5000     0.3285     0.6879
  627.0000     0.3390     0.7232
  627.5000     0.3391     0.7585
  628.0000     0.3402     0.3753
  628.5000     0.3079     0.0008
  629.0000     0.2756     0.0362
  629.5000     0.2462     0.0004
  630.0000     0.2256     0.0004
  630.5000     0.2258     0.0004
  631.0000     0.2259     0.0004
  631.5000     0.2260     0.0004
  632.0000     0.2261     0.0004
  632.5000     0.2269     0.0004
  633.0000     0.2368     0.0004
  633.5000     0.2369     0.0004
  634.0000     0.2371     0.0004
  634.5000     0.2372     0.0004
  635.0000     0.2477     0.0004
  635.5000     0.2478     0.0004
  636.0000     0.2479     0.0004
  636.5000     0.2481     0.0004
  637.0000     0.2482     0.0004
  637.5000     0.2587     0.0004
  638.0000     0.2692     0.0004
  638.5000     0.2797     0.0004
  639.0000     0.3006     0.0004
  639.5000     0.3215     0.0004
  640.0000     0.3216     0.0029
  640.5000     0.3321     0.0314
  641.0000     0.3322     0.0628
  641.5000     0.3213     0.0004
