~VERSION INFORMATION
 VERS.                2.0:   CWLS LOG ASCII STANDARD - VERSION 2.0
 WRAP.                 NO:   ONE LINE PER DEPTH STEP
~WELL INFORMATION
#MNEM.UNIT      DATA TYPE    INFORMATION
#----------   ------------   ------------------------------
 STRT.F           20.0000:   START DEPTH
 STOP.F          610.0000:   STOP DEPTH
 STEP.F            0.5000:   STEP LENGTH
 NULL.          -999.2500:   NO VALUE
 COMP. LAWRENCE/ALLISON INC:   COMPANY
 WELL.    44-55 SX #10-10:   WELL
 FLD .             TEAPOT:   FIELD
 LOC .      S10 T38N R78W:   LOCATION
 CNTY.            NATRONA:   COUNTY
 STAT.            WYOMING:   STATE
 CTRY. UNITED STATES OF AMERICA:   COUNTRY
 SRVC.            Unknown:   SERVICE COMPANY
 DATE.        29-AUG-1984:   LOGDATE
 API .       490251098300:   API NUMBER
~CURVE INFORMATION
#MNEM.UNIT       API CODE    CURVE DESCRIPTION
#----------   ------------   ------------------------------
 DEPT.F                  :   
 AC  .US/F   60 520 00 00:   ACOUSTIC SONIC
 SPR .MV     07 010 01 00:   SPONTANEOUS POTENTIAL
 RILD.OHMM   07 120 46 00:   INDUCTION LOG DEEP RESISTIVITY
 RILM.OHMM   07 120 44 00:   INDUCTION LOG MEDIUM RESISTIVITY
 RFOC.OHMM   07 220 04 00:   RESISTIVITY FOCUSED LOG
 GRD .GAPI   45 310 01 00:   GAMMA RAY FROM DENSITY LOG
 CALD.IN     45 280 60 00:   CALIPER
 DEN .G/C3   45 350 01 00:   COMPENSATED BULK DENSTIY
 CNC .DEC    42 890 03 00:   NEUTRON POROSITY SANDSTONE
 PORD.DEC    45 890 12 00:   DENSITY POROSITY SANDSTONE
 CORR.G/C3   45 356 01 00:   DENSITY CORRECTION
~PARAMETER INFORMATION
#MNEM.UNIT          VALUE    DESCRIPTION
#----------   ------------   ------------------------------
 PD  .                 GL:   PERMANENT DATUM
 EPD .F              5247:   ELEVATION PERMANENT DATUM
 LMF .                 KB:   LOG MEASURED FROM
 DAPD.F                13:   FEET ABOVE PERMANENT DATUM
 DMF .                 KB:   DRILLING MEASURED FROM
 EKB .F              5260:   KELLING BUSHING
 EGL .F              5247:   GROUND LEVEL
 DATE.        29-AUG-1984:   RUN DATE
 RUN .                  1:   RUN NUMBER
 DD  .F               613:   DEPTH DRILLER
 DL  .F               607:   DEPTH LOGGER
 BLI .F               607:   BOTTOM LOG INTERVAL
 TLI .F                42:   TOP LOG INTERVAL
 CBL .F                42:   CASING BOTTOM LOGGER
 BS  .IN            7.875:   BIT SIZE
 BSD .F               613:   BIT SIZE AT DEPTH
 DFT .          KCL WATER:   DRILLING FLUID TYPE
 MSS .               TANK:   MUD SAMPLE SOURCE
 RMS .OHMM           .295:   RESISTIVITY MUD SAMPLE
 MST .F                75:   MUD SAMPLE TEMPERATURE
 TCS .HRS               3:   TIME CURCULATED STOPPED
 MRT .F               100:   MAXIMUM RECORDED TEMPERATURE
 LUN .               4082:   LOGGING UNIT NUMBER
 LUL .               ROOS:   LOGGING UNIT LOCATION
 ENGI.             MILLER:   RECORDING ENGINEER
 WITN.            JOHNSON:   WITNESSED BY
 CLNT.            A2DTECH:   CLIENT CODE
 ORIG.       2", 5" PRINT:   ORIGIN OF DATA
 UWI .       490251098300:   UNIQUE WELL ID
 DICO. A2D Technologies, Inc.:   DIGITIZING COMPANY
~OTHER INFORMATION
~A   DEPT       AC        SPR       RILD       RILM       RFOC         GRD      CALD        DEN        CNC       PORD       CORR   
# ...
   50.5000   103.8340     3.7520    11.7811     9.9001    10.0200    91.7054     8.1498     2.4880     0.2755     0.1138     0.0446
   51.0000   105.1588     2.8558    12.3438     9.6348     9.8741    93.3268     8.1469     2.4837     0.2894     0.1156     0.0477
   51.5000   105.7339     1.9810    11.4818     9.4574     9.7303    95.3411     8.1439     2.4788     0.2990     0.1190     0.0506
   52.0000   106.2046     1.0986    10.3539     9.4811     9.6405    98.7168     8.1410     2.4702     0.3007     0.1238     0.0455
   52.5000   106.6754     0.2983     9.5306     9.5053     9.7568   100.7411     8.1381     2.4633     0.3027     0.1284     0.0181
   53.0000   107.1467     0.1682     9.4097     9.5292     9.8547    99.3826     8.1352     2.4692     0.3046     0.1263    -0.0034
   53.5000   107.3154     0.0524     9.2903     9.5531     9.9537    98.2504     8.1323     2.4753     0.3065     0.1216    -0.0054
   54.0000   107.0971    -0.0552     9.1724     9.5771    10.0754    98.4066     8.1293     2.4744     0.3086     0.1229     0.0065
   54.5000   106.8337    -0.5856     9.1141     9.6011    10.0224   100.0467     8.1264     2.4705     0.2992     0.1253     0.0295
   55.0000   106.5702    -1.2761     9.1952     9.6252     9.9345    96.9474     8.1235     2.4701     0.2913     0.1246     0.0523
   55.5000   106.4381    -1.9783     9.2862     9.6494     9.8474    94.4916     8.1206     2.4723     0.2952     0.1224     0.0609
   56.0000   106.3393    -2.6977     9.3781     9.6736     9.7613    92.9382     8.1177     2.4706     0.3002     0.1237     0.0408
   56.5000   106.2405    -3.5705     9.4710     9.6979     9.6759    95.4299     8.1186     2.4668     0.3053     0.1270     0.0168
   57.0000   106.1417    -4.4220     9.5650     9.7382     9.5912    98.3851     8.1200     2.4704     0.3104     0.1280     0.0132
   57.5000   106.0429    -5.0122     9.6255     9.9266     9.5073   100.0705     8.1214     2.4789     0.3154     0.1196     0.0507
   58.0000   105.9441    -5.3154     9.5571    10.1746     9.4242   100.3352     8.1229     2.4830     0.3189     0.1168     0.0329
   58.5000   106.0524    -5.8634     9.5004    10.1573     9.3417    98.2977     8.1243     2.4762     0.3022     0.1207     0.0074
   59.0000   106.2344    -6.7168     9.4442    10.1293     9.2600    95.7154     8.1257     2.4694     0.3062     0.1246    -0.0182
   59.5000   106.4164    -7.5711     9.3884    10.1014     9.1790    93.1597     8.1272     2.4624     0.3142     0.1285    -0.0235
   60.0000   106.5984    -8.0266     9.3329    10.0736     9.0987    91.2034     8.1286     2.4612     0.3222     0.1300     0.0127
   60.5000   107.0054    -8.2950     9.2716    10.0459     9.0191    91.3812     8.1301     2.4771     0.3273     0.1212     0.0434
   61.0000   107.4725    -8.5466     9.1561    10.0182     8.9352    91.5043     8.1315     2.4935     0.3224     0.1118     0.0606
   61.5000   108.0321    -9.4829     9.0420     9.9906     8.8078    91.6162     8.1329     2.5060     0.3159     0.1055     0.0665
   62.0000   108.3830   -10.7276     8.9291     9.9631     8.6817    92.0964     8.1344     2.5082     0.3118     0.1020     0.0671
   62.5000   108.3353   -11.9909     8.7954     9.9357     8.5578    93.8630     8.1358     2.5103     0.3114     0.1009     0.0455
   63.0000   108.2026   -12.8007     8.8928     9.9029     8.6644    96.6948     8.1374     2.5126     0.3209     0.1001     0.0236
   63.5000   108.0686   -13.3867     9.0505     9.9985     8.7983    99.5838     8.1429     2.5151     0.3350     0.0996     0.0165
   64.0000   107.9353   -13.9721     9.2103    10.1414     8.9346    99.3799     8.1484     2.5187     0.3238     0.0975     0.0342
   64.5000   108.1390   -14.3271     9.3730    10.2718     9.0722   100.0109     8.1539     2.5222     0.3140     0.0952     0.0557
   65.0000   108.4175   -14.7890     9.4554    10.1536     9.2406   102.6988     8.1518     2.5222     0.3143     0.0932     0.0772
   65.5000   108.6973   -15.2587     9.2647     9.9229     9.1036   105.3972     8.1397     2.5141     0.3166     0.0940     0.0980
   66.0000   108.8756   -15.7302     9.0947     9.6975     8.9173   105.0155     8.1277     2.4965     0.3317     0.1072     0.0852
   66.5000   109.4117   -15.9441     8.9278     9.4769     8.7347   101.9590     8.1157     2.4775     0.3455     0.1192     0.0602
   67.0000   110.0468   -16.1039     8.7640     9.3581     8.5559    99.0464     8.1037     2.4583     0.3581     0.1312     0.0419
   67.5000   111.3287   -15.9190     8.6032     9.2513     8.4032    96.8130     8.0916     2.4392     0.3582     0.1444     0.0552
   68.0000   112.8169   -15.2450     8.4453     9.1459     8.2755    94.5584     8.0786     2.4387     0.3401     0.1446     0.1050
   68.5000   114.3031   -14.5780     8.2903     8.9384     8.1497    92.9235     8.1036     2.4577     0.3302     0.1341     0.0870
   69.0000   115.1397   -13.9091     8.1382     8.6927     8.0258    93.5119     8.1348     2.4760     0.3366     0.1227     0.0628
   69.5000   115.2674   -13.2405     7.9888     8.4538     7.8880    99.6395     8.1661     2.4932     0.3434     0.1124     0.0377
   70.0000   114.9792   -12.5720     7.8422     8.2215     7.7165   105.9605     8.1945     2.4970     0.3374     0.1099     0.0308
   70.5000   114.6910   -11.9033     7.6982     7.9957     7.5488   108.7527     8.1860     2.4990     0.3332     0.1088     0.0409
   71.0000   114.3014   -11.2345     7.5571     7.7756     7.3847   105.8177     8.1357     2.4929     0.3444     0.1107     0.0499
   71.5000   114.0878   -10.5663     7.4184     7.5828     7.2241   102.9194     8.1175     2.4849     0.3551     0.1157     0.0420
   72.0000   113.9022    -9.9333     7.3773     7.6537     7.1766   103.9170     8.1173     2.4769     0.3393     0.1212     0.0337
   72.5000   112.8094    -9.4382     7.4758     7.7567     7.4550   107.6921     8.1172     2.4744     0.3067     0.1220     0.0323
   73.0000   111.3273    -8.9395     7.5669     7.8603     7.7770   108.6718     8.1173     2.4813     0.3028     0.1190     0.0271
   73.5000   109.3513    -8.2919     7.6591     7.9654     8.1129   104.4908     8.1173     2.4887     0.2994     0.1143     0.0147
   74.0000   107.4152    -7.4070     7.7523     8.0719     8.4636   100.2036     8.1173     2.4961     0.2993     0.1097     0.0196
   74.5000   106.2632    -6.5251     7.8467     8.1798     8.8297    95.8059     8.1173     2.5034     0.2991     0.1050     0.0359
   75.0000   105.3179    -5.6365     7.9422     8.2891     8.9547    94.0876     8.1173     2.5070     0.2989     0.1028     0.0334
   75.5000   105.0095    -5.0236     8.0389     8.3999     8.9656    92.1255     8.1173     2.4966     0.3068     0.1085     0.0304
   76.0000   104.9682    -4.4860     8.1032     8.5124     8.9767    88.4236     8.1173     2.4906     0.3198     0.1136     0.0384
   76.5000   104.9275    -4.3606     8.1342     8.5536     8.9881    84.4710     8.1173     2.4948     0.2983     0.1117     0.0648
   77.0000   105.0624    -4.2543     8.1654     8.5638     8.9996    83.9645     8.1173     2.4929     0.2990     0.1108     0.0681
   77.5000   105.2476    -4.1441     8.1967     8.5741     9.0111    85.8799     8.1173     2.4911     0.2934     0.1119     0.0616
   78.0000   105.4329    -3.9415     8.2281     8.5844     9.0226    89.1046     8.1173     2.4974     0.2978     0.1112     0.0660
   78.5000   105.4192    -3.1515     8.2597     8.5948     9.0299    94.0217     8.1173     2.5035     0.2970     0.1072     0.0731
   79.0000   105.1917    -2.3699     8.2914     8.6053     9.0209    97.2351     8.1173     2.5037     0.2966     0.1048     0.0747
   79.5000   104.8715    -1.5903     8.3232     8.6157     9.0133    96.2840     8.1173     2.4982     0.2995     0.1060     0.0649
   80.0000   104.5524    -0.8116     8.3552     8.6248     9.0058    93.3941     8.1173     2.4915     0.2998     0.1111     0.0549
   80.5000   104.6432    -0.0320     8.3872     8.6232     8.9983    90.5224     8.1173     2.4842     0.3000     0.1172     0.0449
