~VERSION INFORMATION
 VERS.                2.0:   CWLS LOG ASCII STANDARD - VERSION 2.0
 WRAP.                 NO:   ONE LINE PER DEPTH STEP
~WELL INFORMATION
#MNEM.UNIT      DATA TYPE    INFORMATION
#----------   ------------   ------------------------------
 STRT.F           65.0000:   START DEPTH
 STOP.F          860.0000:   STOP DEPTH
 STEP.F            0.5000:   STEP LENGTH
 NULL.          -999.2500:   NO VALUE
 COMP.          U.S. NAVY:   COMPANY
 WELL. NPR 3 TEAPOT DOM #71-S-34:   WELL
 FLD .             TEAPOT:   FIELD
 LOC .      S34 T39N R78W:   LOCATION
 CNTY.            NATRONA:   COUNTY
 STAT.            WYOMING:   STATE
 CTRY. UNITED STATES OF AMERICA:   COUNTRY
 SRVC. Schlumberger Well Surveying Corp:   SERVICE COMPANY
 DATE.        22-FEB-1961:   LOGDATE
 API .       490250657300:   API NUMBER
~CURVE INFORMATION
#MNEM.UNIT       API CODE    CURVE DESCRIPTION
#----------   ------------   ------------------------------
 DEPT.F                  :   
 GR  .GAPI   30 310 01 00:   GAMMA RAY
 ASN .OHMM   05 041 16 00:   AMPLIFIED SHORT NORMAL 16"
 CILD.MMHO   05 110 46 00:   CONDUCTIVITY INDUCTION LOG DEEP
 ILD .OHMM   05 120 46 00:   INDUCTION LOG DEEP
 SPR .MV     05 010 01 00:   SPONTANEOUS POTENTIAL FROM RES.
~PARAMETER INFORMATION
#MNEM.UNIT          VALUE    DESCRIPTION
#----------   ------------   ------------------------------
 LMF .                 KB:   LOG MEASURED FROM
 DMF .                 KB:   DRILLING MEASURED FROM
 EKB .F              5067:   KELLING BUSHING
 EGL .F              5063:   GROUND LEVEL
 DATE.        22-FEB-1961:   RUN DATE
 RUN .                  1:   RUN NUMBER
 DD  .F               861:   DEPTH DRILLER
 DL  .F               861:   DEPTH LOGGER
 BLI .F               860:   BOTTOM LOG INTERVAL
 TLI .F                80:   TOP LOG INTERVAL
 CBD .F                12:   CASING BOTTOM DRILLER
 BS  .IN            7.875:   BIT SIZE
 BSD .F               861:   BIT SIZE AT DEPTH
 DFT .       GEL-OIL EMUL:   DRILLING FLUID TYPE
 DFD .                9.6:   DRILLING FLUID DENSITY
 DFV .                 38:   DRILLING FLUID VISCOSITY
 DFPH.                  9:   DRILLING FLUID PH
 DFL .               15.4:   DRILLING FLUID LOSS
 MSS .           FLOWLINE:   MUD SAMPLE SOURCE
 RMS .OHMM           0.86:   RESISTIVITY MUD SAMPLE
 MST .F                68:   MUD SAMPLE TEMPERATURE
 RMF .OHMM           0.52:   RESISTIVITY MUD FILTRATE SAMPLE
 MFST.F                68:   MUD FILTRATE SAMPLE TEMPERATURE
 RMC .OHMM           1.98:   RESISTIVITY MUD CAKE
 MCST.F                68:   MUD CAKE SAMPLE TEMPERATURE
 MFSS.               MEAS:   MUD FILTRATE SAMPLE SOURCE
 MCSS.               MEAS:   MUD CAKE SAMPLE SOURCE
 RMB .OHMM           0.77:   RESISTIVITY MUD AT BHT
 BHT .F                78:   BOTTOM HOLE TEMPERATURE
 TCS .HRS               1:   TIME CURCULATED STOPPED
 MRT .F                78:   MAXIMUM RECORDED TEMPERATURE
 LUN .               2523:   LOGGING UNIT NUMBER
 LUL .               CSPR:   LOGGING UNIT LOCATION
 ENGI.             KNOBEL:   RECORDING ENGINEER
 WITN.          JORGENSEN:   WITNESSED BY
 CLNT.            A2DTECH:   CLIENT CODE
 ORIG.      2" , 5" PRINT:   ORIGIN OF DATA
 UWI .       490250657300:   UNIQUE WELL ID
 DICO. A2D Technologies, Inc.:   DIGITIZING COMPANY
~OTHER INFORMATION
~A   DEPT       GR          ASN       CILD        ILD      SPR   
# ...
  797.0000    45.0689    19.2006    53.7312    18.0441   -17.8683
  797.5000    49.1362    18.7304    55.2751    17.8101   -18.0251
  798.0000    45.6846    18.3386    56.8190    17.5018   -18.3386
  798.5000    48.5489    18.0209    58.3629    17.2570   -18.3255
  799.0000    53.3698    17.6217    59.9069    16.8619   -17.9989
  799.5000    53.9784    17.3197    62.2305    16.4037   -17.5549
  800.0000    51.8801    17.2414    62.9947    16.0128   -17.5549
  800.5000    54.8090    17.1630    62.9523    15.8570   -17.3966
  801.0000    55.7030    17.1255    62.9132    15.8743   -18.0220
  801.5000    54.1851    17.0846    62.8672    15.9176   -18.1772
  802.0000    55.0792    17.0846    64.4132    15.9403   -18.0186
  802.5000    53.2625    17.0846    64.3651    16.0204   -18.0170
  803.0000    49.0361    17.0846    64.3267    16.1008   -18.0155
  803.5000    47.0687    17.1630    64.2882    16.1808   -18.0140
  804.0000    46.0026    17.1630    64.2498    16.4178   -17.8558
  804.5000    46.7461    17.1630    64.2126    16.5764   -17.8542
  805.0000    51.1040    17.0846    64.1729    16.4994   -17.6959
  805.5000    53.0523    16.9279    64.6754    16.3439   -17.4336
  806.0000    49.2754    16.9279    64.8819    16.1100   -17.2226
  806.5000    51.2237    16.8495    65.6324    15.8761   -17.2210
  807.0000    50.6117    16.7255    65.5906    15.6295   -16.9057
  807.5000    50.3639    16.6144    65.5459    15.4867   -16.7474
  808.0000    55.7731    16.6144    65.5118    15.4097   -16.7459
  808.5000    55.2495    16.4577    65.4690    15.4113   -16.9015
  809.0000    52.8303    16.4577    65.4306    15.4132   -17.3698
  809.5000    50.5617    16.4577    65.3937    15.4144   -17.6144
  810.0000    48.8956    16.4577    65.3537    15.4947   -17.8997
  810.5000    49.9379    16.5361    65.3150    15.4963   -18.1489
  811.0000    52.3380    16.6144    65.2756    15.4978   -18.1473
  811.5000    54.2863    16.6928    65.2362    15.4993   -18.1348
  812.0000    51.2647    16.7712    65.1968    15.5301   -17.8307
  812.5000    48.2178    16.8561    65.1519    15.5808   -17.9856
  813.0000    48.8337    16.9279    65.1181    15.6609   -17.9841
  813.5000    52.1374    16.9279    65.0787    15.6625   -17.9828
  814.0000    54.2363    16.7712    65.0366    15.5855   -17.9812
  814.5000    49.7087    16.6765    64.9981    15.4301   -17.8227
  815.0000    45.1787    16.6144    64.9597    15.3134   -17.8212
  815.5000    44.7198    16.4577    64.9213    15.1886   -17.8197
  816.0000    46.2139    16.3009    64.8819    15.0426   -17.8181
  816.5000    42.8911    16.0658    64.8347    14.9303   -17.8166
  817.0000    36.9882    15.8307    65.5933    14.8098   -17.8150
  817.5000    35.3396    15.6740    67.1201    14.6549   -17.8135
  818.0000    32.9228    15.5172    67.8740    14.5468   -17.8119
  818.5000    34.7181    15.3605    68.8491    14.3095   -17.8101
  819.0000    33.2026    15.2038    69.6351    14.0314   -17.8088
  819.5000    33.6972    15.0470    70.9055    13.8723   -17.8072
  820.0000    32.1269    15.0470    71.6535    13.6316   -17.8055
  820.5000    27.2981    15.0470    72.4016    13.3909   -17.8040
  821.0000    25.0296    14.9687    73.9376    13.1622   -17.8025
  821.5000    24.8546    14.9687    74.8083    12.9406   -17.8464
  822.0000    30.7310    14.8119    76.3203    12.7851   -17.9561
  822.5000    33.2817    14.5768    77.7593    12.7078   -18.0616
  823.0000    35.0818    14.4201    78.5082    12.4742   -18.1097
  823.5000    33.8651    14.2633    80.0446    12.3969   -18.2650
  824.0000    35.7231    14.1850    80.7839    12.3203   -18.7333
  824.5000    39.4160    14.1066    80.7455    12.3218   -19.0456
  825.0000    38.5028    14.0282    81.4961    12.4019   -19.2008
  825.5000    39.9993    14.0282    81.4567    12.4103   -19.3560
  826.0000    39.0862    14.0282    81.4173    12.4835   -19.4420
  826.5000    37.4200    14.0282    81.3780    12.4065   -19.5097
  827.0000    39.5189    14.1066    81.3311    12.4869   -19.3510
  827.5000    39.3588    14.1850    81.2926    12.4096   -19.3495
  828.0000    40.4035    14.1850    82.0416    12.2541   -19.3480
  828.5000    36.7745    14.1850    82.8002    12.1536   -19.3464
  829.0000    36.7652    14.1066    84.3269    12.0672   -19.3445
  829.5000    36.4553    14.1066    85.8729    12.0235   -19.3433
  830.0000    36.7102    14.1066    87.4093    12.0251   -19.3104
  830.5000  -999.2500    14.0217    88.9360    11.9482   -19.1834
  831.0000  -999.2500    13.8584    88.8976    11.8713   -19.1817
  831.5000  -999.2500    13.7147    88.8583    11.8728   -19.1800
  832.0000  -999.2500    13.6364    88.8111    11.8747   -19.1787
  832.5000  -999.2500    13.4796    88.7726    11.8760   -19.1771
  833.0000  -999.2500    13.3229    88.7342    11.8778   -19.1755
  833.5000  -999.2500    13.1661    88.6958    11.8793   -19.1740
  834.0000  -999.2500    13.1661    88.6573    11.8809   -19.1723
  834.5000  -999.2500    13.1661    88.6221    11.8823   -19.1705
  835.0000  -999.2500    13.2445    88.5827    11.8838   -19.1693
  835.5000  -999.2500    13.3229    88.5420    11.8855   -19.1675
  836.0000  -999.2500    13.3229    88.8820    11.8085   -19.2920
  836.5000  -999.2500    13.4013    89.6679    11.7316   -19.3215
  837.0000  -999.2500    13.4013    90.0000    11.7358   -19.3196
  837.5000  -999.2500    13.4013    89.9534    11.8132   -19.3182
  838.0000  -999.2500    13.4013    89.9150    11.8150   -19.3166
  838.5000  -999.2500    13.3229    89.8819    11.8514   -19.3150
  839.0000  -999.2500    13.3229    89.8425    11.8964   -19.3124
  839.5000  -999.2500    13.3229    89.8031    11.8981   -19.1552
  840.0000  -999.2500    13.3229    90.5582    11.8997   -19.1536
  840.5000  -999.2500    13.2772    90.5102    11.9012   -18.9953
  841.0000  -999.2500    13.1661    91.2598    11.7458   -18.9935
  841.5000  -999.2500    13.0878    91.2205    11.5903   -18.9920
  842.0000  -999.2500    13.0094    91.9697    11.5134   -18.9904
  842.5000  -999.2500    12.9310    92.7186    11.4364   -19.1460
  843.0000  -999.2500    12.8527    92.6706    11.3595   -19.1442
  843.5000  -999.2500    12.8527    93.4291    11.2825   -19.1426
  844.0000  -999.2500    12.7743    94.1732    11.2844   -19.1410
  844.5000  -999.2500    12.6959    94.1300    11.2860   -19.1395
  845.0000  -999.2500    12.5392    94.0916    11.2873   -19.1301
  845.5000  -999.2500    12.4608    94.8502    11.2890   -18.9793
  846.0000  -999.2500    12.3824    96.3769    11.1332   -18.9778
  846.5000  -999.2500    12.1473    97.1260    10.9777   -18.7908
  847.0000  -999.2500    11.9906    98.6622    10.7907   -18.6614
  847.5000  -999.2500    11.8339   100.1986    10.6319   -18.6597
  848.0000  -999.2500    11.6771   102.5128    10.4333   -18.6582
  848.5000  -999.2500    11.5139   104.0587    10.2358   -18.6566
  849.0000  -999.2500    11.2853   106.3729     9.9984   -18.6551
  849.5000  -999.2500    11.0502   107.9189     9.7907   -18.8103
  850.0000  -999.2500    10.8934   109.4552     9.4194   -18.9655
  850.5000  -999.2500    10.5799   111.7694     8.9500   -19.1277
  851.0000  -999.2500    10.2665   117.2428     8.4806   -19.2759
  851.5000  -999.2500     9.9530   128.2279     7.8542   -19.4308
  852.0000  -999.2500     9.6395   140.9980     7.2278   -19.4295
  852.5000  -999.2500     9.3260   154.7244     6.2874   -19.5844
  853.0000  -999.2500     8.8558   172.1975     5.5825   -19.5831
  853.5000  -999.2500     8.3072   184.7575     5.1131   -19.5814
  854.0000  -999.2500     7.4451   185.5160     5.0361   -19.5798
  854.5000  -999.2500     6.6614   184.6806     5.0466   -19.7354
  855.0000  -999.2500     6.7398   183.8548     5.1180   -19.7335
  855.5000  -999.2500     7.1317   182.2415     5.1306   -19.8887
  856.0000  -999.2500     7.6019   181.7253     5.1994   -19.8871
  856.5000  -999.2500     8.1505   181.0145     5.2011   -20.0424
  857.0000  -999.2500     8.7774   179.7638     5.2025   -20.1976
  857.5000  -999.2500     9.5611   178.8452     5.2826   -20.0389
