~VERSION INFORMATION
 VERS.                2.0:   CWLS LOG ASCII STANDARD - VERSION 2.0
 WRAP.                 NO:   ONE LINE PER DEPTH STEP
~WELL INFORMATION
#MNEM.UNIT      DATA TYPE    INFORMATION
#----------   ------------   ------------------------------
 STRT.F           80.0000:   START DEPTH
 STOP.F          814.0000:   STOP DEPTH
 STEP.F            0.5000:   STEP LENGTH
 NULL.          -999.2500:   NO VALUE
 COMP.          U.S. NAVY:   COMPANY
 WELL. RES 3 TEAPOT DOM #17-S-35:   WELL
 FLD .             TEAPOT:   FIELD
 LOC .      S35 T39N R78W:   LOCATION
 CNTY.            NATRONA:   COUNTY
 STAT.            WYOMING:   STATE
 CTRY. UNITED STATES OF AMERICA:   COUNTRY
 SRVC. Schlumberger Well Surveying Corp:   SERVICE COMPANY
 DATE.        20-JUL-1952:   LOGDATE
 API .       490250650200:   API NUMBER
~CURVE INFORMATION
#MNEM.UNIT       API CODE    CURVE DESCRIPTION
#----------   ------------   ------------------------------
 DEPT.F                  :   
 SPR .MV     05 010 01 00:   SPONTANEOUS POTENTIAL FROM RES.
 ILD .OHMM   05 120 46 00:   INDUCTION LOG DEEP
 ASN .OHMM   05 041 16 00:   AMPLIFIED SHORT NORMAL 16"
 CILD.MMHO   05 110 46 00:   CONDUCTIVITY INDUCTION LOG DEEP
 GR  .GAPI   30 310 01 00:   GAMMA RAY
~PARAMETER INFORMATION
#MNEM.UNIT          VALUE    DESCRIPTION
#----------   ------------   ------------------------------
 PD  .                 KB:   PERMANENT DATUM
 LMF .                 KB:   LOG MEASURED FROM
 DMF .                 KB:   DRILLING MEASURED FROM
 EKB .F              5101:   KELLING BUSHING
 EGL .F              5096:   GROUND LEVEL
 DATE.        20-JUL-1962:   RUN DATE
 RUN .                  1:   RUN NUMBER
 DD  .F               815:   DEPTH DRILLER
 DL  .F               815:   DEPTH LOGGER
 BLI .F               814:   BOTTOM LOG INTERVAL
 TLI .F                80:   TOP LOG INTERVAL
 BS  .IN             6.75:   BIT SIZE
 BSD .F               815:   BIT SIZE AT DEPTH
 DFT .       OIL EMULSION:   DRILLING FLUID TYPE
 DFD .               10.0:   DRILLING FLUID DENSITY
 DFV .                 45:   DRILLING FLUID VISCOSITY
 DFL .                2.7:   DRILLING FLUID LOSS
 RMS .OHMM           3.64:   RESISTIVITY MUD SAMPLE
 MST .F                89:   MUD SAMPLE TEMPERATURE
 RMF .OHMM           3.01:   RESISTIVITY MUD FILTRATE SAMPLE
 MFST.F                89:   MUD FILTRATE SAMPLE TEMPERATURE
 RMC .OHMM           3.41:   RESISTIVITY MUD CAKE
 MCST.F                89:   MUD CAKE SAMPLE TEMPERATURE
 RMB .OHMM           3.41:   RESISTIVITY MUD AT BHT
 BHT .F                89:   BOTTOM HOLE TEMPERATURE
 TCS .HRS              .5:   TIME CURCULATED STOPPED
 LUN .               2503:   LOGGING UNIT NUMBER
 LUL .               CSPR:   LOGGING UNIT LOCATION
 ENGI.             DANNER:   RECORDING ENGINEER
 WITN.          JORGENSEN:   WITNESSED BY
 CLNT.            A2DTECH:   CLIENT CODE
 ORIG.           5" PRINT:   ORIGIN OF DATA
 UWI .       490250650200:   UNIQUE WELL ID
 DICO. A2D Technologies, Inc.:   DIGITIZING COMPANY
~OTHER INFORMATION
~A   DEPT      SPR          ILD        ASN      CILD        GR   
# ...
  629.0000   -47.4600     8.0931     8.1173   131.8576   147.2977
  629.5000   -47.2810     8.1648     8.1168   130.3989   140.9775
  630.0000   -46.8458     8.1594     8.1322   129.6685   142.5301
  630.5000   -46.5365     8.0753     8.1316   130.5102   140.5332
  631.0000   -46.3858     8.0698     8.0997   132.9309   135.2980
  631.5000   -46.5506     8.0644     8.0363   135.3403   131.6037
  632.0000   -47.0278     7.9803     7.9572   138.5345   138.7407
  632.5000   -46.4061     8.0534     7.8624   140.1589   138.7187
  633.0000   -46.0968     7.9693     7.7991   137.0737   142.7713
  633.5000   -45.9461     7.9639     7.8302   133.9885   147.3794
  634.0000   -45.7969     7.9584     7.8610   130.9034   139.1273
  634.5000   -45.6462     7.7957     7.8605   133.3127   149.4042
  635.0000   -45.4939     7.7116     7.8113   138.8617   141.6975
  635.5000   -45.5017     7.3917     7.6764   146.7656   149.7316
  636.0000   -45.3494     7.1504     7.3931   154.6694   160.6977
  636.5000   -45.3572     6.9091     7.1144   159.4335   167.3428
  637.0000   -45.3635     6.6677     6.8203   161.8428   168.5443
  637.5000   -45.3697     6.5050     6.8042   163.4672   166.3838
  638.0000   -45.5329     6.4210     6.5836   165.8765   178.3276
  638.5000   -45.8531     6.4155     6.2686   166.7160   157.0383
  639.0000   -46.3304     6.4886     6.4254   168.3404   163.8378
  639.5000   -46.8076     6.9549     6.7079   170.7497   158.6026
  640.0000   -46.4998     6.9494     6.7862   173.9440   165.7106
  640.5000   -46.0351     6.6295     6.6756   181.0629   173.2817
  641.0000   -45.7274     6.0737     6.3449   195.2462   175.9122
  641.5000   -45.7337     5.5179     5.8098   207.0746   171.4485
  642.0000   -45.7399     4.9621     5.5264   211.0538   161.2727
  642.5000   -45.5876     4.8781     5.4946   212.6782   153.4117
  643.0000   -45.4369     4.8726     5.7770   212.7327   150.3322
  643.5000   -45.2861     5.0244     5.8395   212.8309   148.8007
  644.0000   -45.1354     5.2557     5.6817   212.0569   145.8779
  644.5000   -45.1432     5.5667     5.7284   206.6088   129.6836
  645.0000   -45.1494     5.8443     6.1525   192.4100   123.2114
  645.5000   -44.9984     6.0288     6.4979   177.4354   125.0726
  646.0000   -45.1619     6.2544     6.7176   164.1755   140.6684
  646.5000   -45.3252     6.5634     6.8901   154.0528   141.6013
  647.0000   -45.4884     6.7938     6.9997   147.7816   139.7588
  647.5000   -45.8086     6.9456     7.0621   142.5799   147.0733
  648.0000   -46.2858     6.8615     7.1088   146.5727   153.4502
  648.5000   -46.7630     6.6988     7.1240   159.1861   151.3922
  649.0000   -46.4553     6.1430     7.0921   174.9393   148.8806
  649.5000   -45.6766     5.5872     6.9344   183.6280   152.1566
  650.0000   -45.3689     5.3459     6.3522   191.3135   146.4496
  650.5000   -45.1547     5.0283     5.9269   197.0409   149.8523
  651.0000   -45.0670     4.9465     5.7691   198.6344   152.1732
  651.5000   -45.2319     4.8647     5.7843   198.6581   159.2766
  652.0000   -45.3952     4.9403     5.7678   198.6817   142.7719
  652.5000   -45.5585     5.1729     5.8143   196.3506   152.0372
  653.0000   -45.7218     5.4055     6.2540   190.8797   159.2964
  653.5000   -45.9142     5.8741     6.8980   179.1294   163.0063
  654.0000   -46.2041     6.4212     7.2591   161.8846   164.8721
  654.5000   -46.3673     6.9684     7.5559   145.4247   151.8047
  655.0000   -46.5306     7.3591     7.8160   134.4594   154.2283
  655.5000   -46.6939     7.6696     8.0190   128.2036   146.0554
  656.0000   -46.8571     7.9809     8.2220   123.5177   156.6805
  656.5000   -47.0204     8.1358     8.3917   120.4016   146.9783
  657.0000   -47.0267     8.2112     8.4833   121.2102   139.5938
  657.5000   -47.1900     8.2073     8.4811   122.0187   127.7172
  658.0000   -47.3532     8.2041     8.4491   123.6123   128.9579
  658.5000   -47.2025     8.2009     8.4484   123.6359   120.1677
  659.0000   -46.7379     8.1978     8.4950   123.6595   126.1923
  659.5000   -46.2732     8.1946     8.5418   122.8983   116.0132
  660.0000   -45.8086     8.1915     8.6038   120.5612   112.0055
  660.5000   -45.6578     8.1883     8.6818   117.4451   126.9822
  661.0000   -46.2922     8.1065     8.7440   119.8295   125.4451
  661.5000   -46.7694     8.1033     8.7906   121.4230   135.4806
  662.0000   -47.2467     8.1002     8.7899   123.0165   128.5438
  662.5000   -47.0960     8.0970     8.6478   123.0421   127.7783
  663.0000   -46.3174     8.2511     8.6000   120.7110   125.6224
  663.5000   -46.0097     8.4052     8.5836   117.5949   134.1177
  664.0000   -45.8575     8.4814     8.7402   114.1606   139.0621
  664.5000   -45.8654     8.6355     9.0069   111.3568   135.0558
  665.0000   -46.1857     8.5529     9.1792   114.7823   124.2595
  665.5000   -46.5059     7.7636     9.2572   123.7669   120.2532
  666.0000   -46.6692     6.8956     9.2094   136.9645   110.6914
  666.5000   -46.9895     6.1849     8.6742   154.7507   106.8395
  667.0000   -47.3098     5.7101     7.7773   176.8596   102.9301
  667.5000   -47.6301     5.6290     6.5817   183.8425    98.1691
  668.0000   -47.7918     5.5472     6.4553   188.4984   103.6045
  668.5000   -46.7008     5.5332     6.3761   190.0392   115.8419
  669.0000   -46.0792     5.5410     6.3127   190.0628   112.1196
  669.5000   -45.3005     5.5448     6.9408   189.3013   108.8824
  670.0000   -45.1483     6.1007     8.0723   177.5510   114.9085
  670.5000   -46.0981     7.0352     8.8893   146.1775   105.9640
  671.0000   -47.0463     8.0471     9.5333   123.4382   107.0504
  671.5000   -47.9946     8.9057     9.8816   105.4085   107.8266
  672.0000   -48.0009     9.6100    10.2056    94.4431   107.8342
  672.5000   -48.1642     9.9213    10.5849    89.7572   107.9946
  673.0000   -48.0119    10.0755    10.8986    89.7808   107.6921
  673.5000   -48.0198    10.0723    10.9768    92.9442   108.7785
  674.0000   -48.1831    10.1478    11.0704    97.6774   112.0253
  674.5000   -48.0308    10.4590    11.2113    97.9366   119.1302
  675.0000   -48.1957    11.0062    11.3680    93.0151   113.8894
  675.5000   -48.5160    11.3961    11.6268    86.7593   102.9387
  676.0000   -49.1502    11.6288    12.1738    82.8583   104.3337
  676.5000   -49.6275    12.1759    13.1321    77.3875   111.2843
  677.0000   -50.2618    13.1948    14.6988    73.4865   107.8953
  677.5000   -51.9949    13.8205    15.4658    70.3704    96.9452
  678.0000   -53.5711    14.9180    16.0183    68.0333    74.2661
  678.5000   -54.3915    16.1727    17.1222    63.3533    70.8771
  679.0000   -54.9953    17.2702    18.6356    57.0975    54.8339
  679.5000   -55.5207    18.8393    20.4031    49.2719    38.3276
  680.0000   -57.1645    19.7796    21.1100    42.2312    35.8646
  680.5000   -59.5671    20.2481    21.7383    44.6096    29.2349
  681.0000   -60.5153    20.7166    22.2880    46.2031    40.8151
  681.5000   -60.9926    21.3634    22.9163    45.4418    41.9015
  682.0000   -60.5279    22.2043    23.6232    43.1048    45.3518
  682.5000   -59.2783    23.1445    24.7093    41.5586    31.4199
  683.0000   -57.7148    23.9275    26.5308    40.0124    34.6667
  683.5000   -58.1921    24.2388    28.3383    38.4720    36.3703
  684.0000   -59.7682    25.2577    29.2025    36.9199    44.3693
  684.5000   -60.7165    26.5910    29.9094    35.3737    50.2725
  685.0000   -61.3507    27.8457    31.0880    34.6124    49.3527
  685.5000   -62.2989    28.6287    33.1314    33.8511    42.8773
  686.0000   -63.2472    29.3331    34.5459    33.0899    32.6967
  686.5000   -64.6663    30.0374    35.8031    30.7587    31.3154
  687.0000   -66.0855    30.8204    36.9031    28.4335    37.3401
  687.5000   -66.2472    31.2112    36.6666    27.6663    40.1240
  688.0000   -64.9993    30.6569    37.1377    27.6959    41.9804
  688.5000   -64.3760    30.5751    37.2158    27.7195    33.6547
  689.0000   -64.2254    30.7292    35.4069    28.5281    34.4324
  689.5000   -65.8031    31.0405    35.0133    29.3367    30.2997
