~VERSION INFORMATION
 VERS.                2.0:   CWLS LOG ASCII STANDARD - VERSION 2.0
 WRAP.                 NO:   ONE LINE PER DEPTH STEP
~WELL INFORMATION
#MNEM.UNIT      DATA TYPE    INFORMATION
#----------   ------------   ------------------------------
 STRT.F           30.0000:   START DEPTH
 STOP.F         1178.5000:   STOP DEPTH
 STEP.F            0.5000:   STEP LENGTH
 NULL.          -999.2500:   NO VALUE
 COMP. FENIX & SCISSON INC:   COMPANY
 WELL.     64-S-14 #14-14:   WELL
 FLD .        TEAPOT DOME:   FIELD
 LOC .      S14 T38N R78W:   LOCATION
 CNTY.            NATRONA:   COUNTY
 STAT.            WYOMING:   STATE
 CTRY. UNITED STATES OF AMERICA:   COUNTRY
 SRVC.            Unknown:   SERVICE COMPANY
 DATE.        19-APR-1978:   LOGDATE
 API .       490251061400:   API NUMBER
~CURVE INFORMATION
#MNEM.UNIT       API CODE    CURVE DESCRIPTION
#----------   ------------   ------------------------------
 DEPT.F                  :   
 SPR .MV     05 010 01 00:   SPONTANEOUS POTENTIAL
 SN  .OHMM   05 040 16 00:   SHORT NORMAL 16'
 ILD .OHMM   05 120 46 00:   INDUCTION LOG DEEP
 CALD.IN     45 280 60 00:   CALIPER
 GRD .GAPI   45 310 01 00:   GAMMA RAY FROM DENSITY LOG
 RHOB.G/C3   45 350 01 00:   BULK DENSITY
 DPHI.DEC    45 890 12 00:   DENSITY POROSITY SANDSTONE
 CORR.G/C3   45 356 01 00:   DENSITY CORRECTION
~PARAMETER INFORMATION
#MNEM.UNIT          VALUE    DESCRIPTION
#----------   ------------   ------------------------------
 PD  .                 GL:   PERMANENT DATUM
 EPD .F              5235:   ELEVATION PERMANENT DATUM
 LMF .                 KB:   LOG MEASURED FROM
 DMF .                 KB:   DRILLING MEASURED FROM
 EKB .F              5299:   KELLING BUSHING
 EGL .F              5295:   GROUND LEVEL
 DATE.          4-19-1978:   RUN DATE
 RUN .                  1:   RUN NUMBER
 DD  .F              1180:   DEPTH DRILLER
 DL  .F              1182:   DEPTH LOGGER
 BLI .F              1176:   BOTTOM LOG INTERVAL
 TLI .F                50:   TOP LOG INTERVAL
 CS  .IN            8.625:   CASING SIZE
 CBD .F                40:   CASING BOTTOM DRILLER
 CBL .F                50:   CASING BOTTOM LOGGER
 BS  .IN            7.875:   BIT SIZE
 BSD .F              1180:   BIT SIZE AT DEPTH
 DFT .                KCL:   DRILLING FLUID TYPE
 DFD .                8.7:   DRILLING FLUID DENSITY
 DFV .                 33:   DRILLING FLUID VISCOSITY
 DFPH.               10.5:   DRILLING FLUID PH
 DFL .               12.3:   DRILLING FLUID LOSS
 MSS .            MUD PIT:   MUD SAMPLE SOURCE
 RMS .OHMM            .54:   RESISTIVITY MUD SAMPLE
 MST .F                62:   MUD SAMPLE TEMPERATURE
 RMF .OHMM            .65:   RESISTIVITY MUD FILTRATE SAMPLE
 MFST.F                60:   MUD FILTRATE SAMPLE TEMPERATURE
 RMC .OHMM            .35:   RESISTIVITY MUD CAKE
 MCST.F                60:   MUD CAKE SAMPLE TEMPERATURE
 MFSS.           MEASURED:   MUD FILTRATE SAMPLE SOURCE
 RMB .OHMM            .42:   RESISTIVITY MUD AT BHT
 BHT .F                80:   BOTTOM HOLE TEMPERATURE
 TCS .HRS               2:   TIME CURCULATED STOPPED
 MRT .F                80:   MAXIMUM RECORDED TEMPERATURE
 LUN .               2955:   LOGGING UNIT NUMBER
 LUL .               CASP:   LOGGING UNIT LOCATION
 ENGI.             MILLER:   RECORDING ENGINEER
 WITN.           MCGINLEY:   WITNESSED BY
 CLNT.            A2DTECH:   CLIENT CODE
 ORIG.      2" & 5" PRINT:   ORIGIN OF DATA
 UWI .       490251061400:   UNIQUE WELL ID
 DICO. A2D Technologies, Inc.:   DIGITIZING COMPANY
~OTHER INFORMATION
~A   DEPT      SPR         SN        ILD       CALD         GRD      RHOB       DPHI       CORR   
# ...
   70.5000   -42.4824     5.4435     5.0338     8.0743    75.6408     2.4451     0.1416     0.0140
   71.0000   -42.4954     5.4968     5.0123     7.9612    75.7331     2.4160     0.1562     0.0192
   71.5000   -42.5083     5.5439     5.0371     7.8363    78.3663     2.3968     0.1624     0.0270
   72.0000   -42.5213     5.5323     5.0123     7.7111    80.2087     2.3830     0.1661     0.0348
   72.5000   -42.5342     5.5230     5.3800     7.5861    82.0442     2.3847     0.1625     0.0365
   73.0000   -42.5472     5.5137     5.7604     7.4588    83.8801     2.3838     0.1671     0.0330
   73.5000   -42.5602     5.5044     6.0206     7.3629    85.1533     2.3807     0.1693     0.0305
   74.0000   -42.5731     5.4951     5.9815     7.3326    83.4126     2.3774     0.1704     0.0305
   74.5000   -42.5861     5.4764     5.8883     7.3009    81.1999     2.3697     0.1726     0.0305
   75.0000   -42.5990     5.4488     5.7965     7.2691    78.9592     2.3663     0.1747     0.0305
   75.5000   -42.6120     5.4213     5.7062     7.2517    78.0789     2.3657     0.1768     0.0305
   76.0000   -42.6250     5.3939     5.6173     7.2568    79.7879     2.3619     0.1789     0.0305
   76.5000   -42.6379     5.3667     5.5297     7.2613    82.1725     2.3554     0.1795     0.0306
   77.0000   -42.6509     5.3396     5.4773     7.2668    84.5548     2.3581     0.1780     0.0289
   77.5000   -42.6638     5.3126     5.4496     7.2930    85.5294     2.3607     0.1766     0.0264
   78.0000   -42.6768     5.2858     5.4221     7.4282    85.4945     2.3630     0.1753     0.0238
   78.5000   -42.6898     5.2591     5.3947     7.5690    86.3046     2.3694     0.1719     0.0213
   79.0000   -42.7027     5.2326     5.3675     7.6965    87.0418     2.3762     0.1693     0.0186
   79.5000   -42.7157     5.2062     5.3404     7.7796    86.7027     2.3788     0.1681     0.0183
   80.0000   -42.7287     5.1799     5.3134     7.8639    85.0211     2.3860     0.1669     0.0272
   80.5000   -42.7416     5.1537     5.2866     7.9479    80.4554     2.3948     0.1605     0.0392
   81.0000   -42.7546     5.1277     5.2599     8.0320    75.9287     2.4036     0.1537     0.0511
   81.5000   -42.7675     5.1018     5.2328     8.1161    71.1494     2.4124     0.1470     0.0599
   82.0000   -42.7805     5.0761     5.1998     8.1997    66.0077     2.4213     0.1424     0.0619
   82.5000   -42.7935     5.0584     5.3061     8.2501    63.3061     2.4264     0.1470     0.0579
   83.0000   -42.8064     5.2380     5.4606     8.2376    65.4594     2.4207     0.1545     0.0540
   83.5000   -42.8194     5.4052     5.6196     8.1110    68.9234     2.4012     0.1620     0.0544
   84.0000   -42.8324     5.5777     5.7828     7.9567    72.4194     2.3818     0.1695     0.0627
   84.5000   -42.8453     5.7556     5.9507     7.8047    74.7750     2.3738     0.1725     0.0707
   85.0000   -42.8583     5.9393     6.1236     7.6340    75.0826     2.3734     0.1701     0.0785
   85.5000   -42.8712     6.0760     6.3014     7.4998    75.0044     2.3791     0.1650     0.0778
   86.0000   -42.8842     6.0760     6.3609     7.4246    74.9464     2.3798     0.1652     0.0574
   86.5000   -42.8971     5.9124     6.2164     7.3615    75.0299     2.3700     0.1760     0.0374
   87.0000   -42.9101     5.6749     6.0059     7.2977    76.7002     2.3637     0.1805     0.0288
   87.5000   -42.9231     5.4470     5.8019     7.2338    79.3500     2.3535     0.1800     0.0210
   88.0000   -42.9360     5.2282     5.6050     7.1705    82.0129     2.3407     0.1785     0.0292
   88.5000   -42.9490     5.0583     5.4151     7.1293    84.5859     2.3339     0.1742     0.0387
   89.0000   -42.9620     4.9157     5.2313     7.1295    84.5366     2.3588     0.1692     0.0437
   89.5000   -42.9749     4.7771     5.0584     7.1323    81.8059     2.3809     0.1642     0.0405
   90.0000   -42.9879     4.6424     5.0123     7.2641    79.5836     2.3872     0.1607     0.0355
   90.5000   -43.0009     4.5115     4.9794     7.4184    78.0904     2.3904     0.1593     0.0328
   91.0000   -43.0137     4.3843     4.9395     7.5731    77.6300     2.3936     0.1583     0.0356
   91.5000   -43.0201     4.2607     4.9000     7.7272    77.1530     2.3968     0.1574     0.0392
   92.0000   -43.0141     4.1409     4.8608     7.8741    77.0466     2.3978     0.1566     0.0483
   92.5000   -43.0084     4.0231     4.8218     7.9746    78.8225     2.3960     0.1540     0.0598
   93.0000   -43.0027     4.0226     4.7833     7.9860    80.8008     2.4064     0.1506     0.0713
   93.5000   -42.9970     4.0226     4.7441     8.0409    82.7685     2.4166     0.1457     0.0827
   94.0000   -42.9913     4.0226     4.7440     8.1123    84.5183     2.4269     0.1408     0.0899
   94.5000   -42.9856     4.0226     4.7690     8.1835    83.1089     2.4371     0.1372     0.0865
   95.0000   -42.9799     4.0226     4.8018     8.2304    81.2163     2.4339     0.1383     0.0730
   95.5000   -42.9741     4.0225     4.8348     8.2141    79.3073     2.4215     0.1478     0.0585
   96.0000   -42.9684     4.0220     4.8679     8.1535    78.7011     2.4055     0.1572     0.0543
   96.5000   -42.9627     4.0241     4.9013     8.0026    79.2511     2.3893     0.1632     0.0571
   97.0000   -42.9570     4.0911     4.9350     7.8529    76.5504     2.3868     0.1631     0.0602
   97.5000   -42.9513     4.1853     4.9696     7.7026    76.1373     2.3872     0.1629     0.0552
   98.0000   -42.9456     4.2817     5.0045     7.5524    76.5576     2.3866     0.1629     0.0486
   98.5000   -42.9398     4.3803     5.0604     7.5011    75.1870     2.3845     0.1669     0.0420
   99.0000   -42.9341     4.4903     5.0584     7.4672    72.9318     2.3782     0.1725     0.0355
   99.5000   -42.9284     4.5733     5.0584     7.4336    71.7533     2.3671     0.1777     0.0289
  100.0000   -42.9227     4.5243     5.0518     7.3997    73.3149     2.3535     0.1892     0.0223
  100.5000   -42.9170     4.4284     4.9865     7.3656    75.2170     2.3398     0.1969     0.0163
  101.0000   -42.9113     4.3344     4.9220     7.3315    76.1207     2.3258     0.1960     0.0166
  101.5000   -42.9055     4.2500     4.8584     7.3299    76.2066     2.3244     0.1949     0.0210
  102.0000   -42.8998     4.2500     4.7956     7.3300    76.2702     2.3292     0.1902     0.0258
  102.5000   -42.8941     4.2500     4.7338     7.3170    76.4833     2.3390     0.1853     0.0301
  103.0000   -42.8884     4.2149     4.6936     7.2428    77.4024     2.3486     0.1825     0.0203
  103.5000   -42.8827     4.1629     4.6774     7.1711    82.4739     2.3450     0.1871     0.0159
  104.0000   -42.8770     4.1115     4.6614     7.1859    91.6407     2.3379     0.1905     0.0146
  104.5000   -42.8713     4.0607     4.6455     7.3107    95.5315     2.3372     0.1887     0.0174
  105.0000   -42.8655     4.0226     4.6296     7.4655    96.3221     2.3406     0.1869     0.0208
  105.5000   -42.8598     4.0100     4.6139     7.6305    96.2996     2.3442     0.1839     0.0271
  106.0000   -42.8541     3.9978     4.5981     7.7978    94.9368     2.3540     0.1782     0.0366
  106.5000   -42.8484     3.9857     4.5733     7.9654    93.1899     2.3768     0.1725     0.0414
  107.0000   -42.8424     3.9736     4.6171     8.0541    90.8609     2.3811     0.1668     0.0511
  107.5000   -42.8373     3.9616     4.7235     8.0866    87.4785     2.3902     0.1591     0.0652
  108.0000   -42.8310     3.9496     4.8323     8.1076    84.1115     2.4100     0.1499     0.0795
  108.5000   -42.8068     3.9860     4.9436     8.1285    80.7488     2.4297     0.1408     0.0774
  109.0000   -43.4252     4.0597     5.0575     8.1495    78.7553     2.4451     0.1317     0.0665
  109.5000   -44.2226     4.2554     5.1682     8.1711    79.7423     2.4504     0.1304     0.0577
  110.0000   -44.4010     4.5380     5.2557     8.1924    81.9565     2.4447     0.1379     0.0518
  110.5000   -44.4040     4.8394     5.3446     8.1817    83.8111     2.4327     0.1430     0.0465
