~VERSION INFORMATION
 VERS.                2.0:   CWLS LOG ASCII STANDARD - VERSION 2.0
 WRAP.                 NO:   ONE LINE PER DEPTH STEP
~WELL INFORMATION
#MNEM.UNIT      DATA TYPE    INFORMATION
#----------   ------------   ------------------------------
 STRT.F         1500.0000:   START DEPTH
 STOP.F         3480.0000:   STOP DEPTH
 STEP.F            0.5000:   STEP LENGTH
 NULL.          -999.2500:   NO VALUE
 COMP. FLUOR DANIEL (NOPSR). INC.:   COMPANY
 WELL.   22-STX-26 #22-26:   WELL
 FLD .             NPR #3:   FIELD
 LOC .      S26 T38N R78W:   LOCATION
 CNTY.            NATRONA:   COUNTY
 STAT.            WYOMING:   STATE
 CTRY. UNITED STATES OF AMERICA:   COUNTRY
 SRVC.            Unknown:   SERVICE COMPANY
 DATE.        14-JUN-1995:   LOGDATE
 API .       490252272400:   API NUMBER
~CURVE INFORMATION
#MNEM.UNIT       API CODE    CURVE DESCRIPTION
#----------   ------------   ------------------------------
 DEPT.F                  :   
 ROP .MIN/FT 91 810 01 00:   RATE OF DRILLING PENETRATION
 TGAS.UNITS  91 830 01 00:   TOTAL GAS FROM HOTWIRE
~PARAMETER INFORMATION
#MNEM.UNIT          VALUE    DESCRIPTION
#----------   ------------   ------------------------------
 EKB .F              5348:   KELLING BUSHING
 EGL .F              5338:   GROUND LEVEL
 DATE.            6-14-95:   RUN DATE
 DD  .F              3480:   DEPTH DRILLER
 BLI .F              3480:   BOTTOM LOG INTERVAL
 TLI .F              1500:   TOP LOG INTERVAL
 CS  .IN            9.625:   CASING SIZE
 CBD .F                87:   CASING BOTTOM DRILLER
 ENGI.               HUSK:   RECORDING ENGINEER
 WITN.              TOWER:   WITNESSED BY
 CLNT.            A2DTECH:   CLIENT CODE
 ORIG.           5" PRINT:   ORIGIN OF DATA
 UWI .       490252272400:   UNIQUE WELL ID
 DICO. A2D Technologies, Inc.:   DIGITIZING COMPANY
~OTHER INFORMATION
~A  DEPT         ROP       TGAS 
# ...
 2472.0000     0.5104    14.2936
 2472.5000     0.5105    14.2926
 2473.0000     0.5106    14.2915
 2473.5000     0.5106    14.2905
 2474.0000     0.5107    14.2895
 2474.5000     0.5108    14.2884
 2475.0000     0.5109    14.2874
 2475.5000     0.5110    14.2864
 2476.0000     0.5111    14.2853
 2476.5000     0.5112    14.2843
 2477.0000     0.5112    14.2833
 2477.5000     0.5113    14.2822
 2478.0000     0.5114    14.2812
 2478.5000     0.5115    14.2802
 2479.0000     0.5116    14.2791
 2479.5000     0.5117    14.2781
 2480.0000     0.5118    14.2770
 2480.5000     0.5119    14.2760
 2481.0000     0.5119    14.2750
 2481.5000     0.5120    14.2739
 2482.0000     0.5121    14.2729
 2482.5000     0.5122    14.2719
 2483.0000     0.5123    14.2708
 2483.5000     0.5124    14.2698
 2484.0000     0.5125    14.2688
 2484.5000     0.5126    14.2677
 2485.0000     0.5126    14.2667
 2485.5000     0.5127    14.2657
 2486.0000     0.5128    14.2646
 2486.5000     0.5129    14.2636
 2487.0000     0.5130    14.2626
 2487.5000     0.5131    14.2615
 2488.0000     0.5132    14.2605
 2488.5000     0.5133    14.2595
 2489.0000     0.5133    14.2584
 2489.5000     0.5134    14.2574
 2490.0000     0.5135    14.2563
 2490.5000     0.5136    14.2553
 2491.0000     0.5137    14.2543
 2491.5000     0.5138    14.2532
 2492.0000     0.5139    14.2522
 2492.5000     0.5140    14.2512
 2493.0000     0.5140    14.2501
 2493.5000     0.5141    14.2491
 2494.0000     0.5142    14.2481
 2494.5000     0.5143    14.2470
 2495.0000     0.5144    14.2460
 2495.5000     0.5145    14.2450
 2496.0000     0.5146    14.2439
 2496.5000     0.5147    14.2429
 2497.0000     0.5147    14.2419
 2497.5000     0.5148    14.2408
 2498.0000     0.5149    14.2398
 2498.5000     0.5150    14.2388
 2499.0000     0.5151    14.2377
 2499.5000     0.5152    14.2367
 2500.0000     0.5153    14.2357
 2500.5000     0.5154    14.2362
 2501.0000     0.5154    14.2372
 2501.5000     0.5155    14.2382
 2502.0000     0.5156    14.2393
 2502.5000     0.5157    14.2403
 2503.0000     0.5158    14.2413
 2503.5000     0.5159    14.2424
 2504.0000     0.5160    14.2434
 2504.5000     0.5161    14.2444
 2505.0000     0.5161    14.2455
 2505.5000     0.5162    14.2465
 2506.0000     0.5163    14.2475
 2506.5000     0.5164    14.2486
 2507.0000     0.5165    14.2496
 2507.5000     0.5166    14.2506
 2508.0000     0.5167    14.2517
 2508.5000     0.5168    14.2527
 2509.0000     0.5168    14.2537
 2509.5000     0.5169    14.2548
 2510.0000     0.5170    14.2558
 2510.5000     0.5171    14.2568
 2511.0000     0.5172    14.2579
 2511.5000     0.5173    14.2589
 2512.0000     0.5174    14.2599
 2512.5000     0.5174    14.2610
 2513.0000     0.5175    14.2620
 2513.5000     0.5176    14.2631
 2514.0000     0.5177    14.2641
 2514.5000     0.5178    14.2651
 2515.0000     0.5179    14.2662
 2515.5000     0.5180    14.2672
 2516.0000     0.5181    14.2682
 2516.5000     0.5181    14.2693
 2517.0000     0.5182    14.2703
 2517.5000     0.5183    14.2713
 2518.0000     0.5184    14.2724
 2518.5000     0.5185    14.2734
 2519.0000     0.5186    14.2744
 2519.5000     0.5187    14.2755
 2520.0000     0.5188    14.2765
 2520.5000     0.5188    14.2775
 2521.0000     0.5189    14.2786
 2521.5000     0.5190    14.2796
 2522.0000     0.5191    14.2806
 2522.5000     0.5192    14.2817
 2523.0000     0.5193    14.2827
 2523.5000     0.5194    14.2837
 2524.0000     0.5195    14.2848
 2524.5000     0.5195    14.2858
 2525.0000     0.5196    14.2868
 2525.5000     0.5197    14.2879
 2526.0000     0.5198    14.2889
 2526.5000     0.5199    14.2899
 2527.0000     0.5200    14.2910
 2527.5000     0.5201    14.2920
 2528.0000     0.6461    14.2930
 2528.5000     0.6468    14.2941
 2529.0000     0.6475    14.2951
 2529.5000     0.6482    14.2961
 2530.0000     0.6488    14.2972
 2530.5000     0.6495    14.2982
 2531.0000     0.6502    14.2992
 2531.5000     0.6509    14.3003
 2532.0000     0.6516    14.3013
 2532.5000     0.6523    14.3023
 2533.0000     0.6529    14.3034
 2533.5000     0.6536    14.3044
 2534.0000     0.6543    14.3054
 2534.5000     0.6550    14.3065
 2535.0000     0.6557    14.3075
 2535.5000     0.6563    14.3085
 2536.0000     0.7238    14.3096
 2536.5000     0.9988    14.3106
 2537.0000     0.9993    14.3116
 2537.5000     0.9997    14.3127
 2538.0000     1.0002    14.3137
 2538.5000     0.5500    14.3147
 2539.0000     0.5493    14.3158
 2539.5000     0.5483    14.3168
 2540.0000     0.5474    14.3178
 2540.5000     0.5465    14.3189
 2541.0000     0.5456    14.3199
 2541.5000     0.5447    14.3209
 2542.0000     0.5438    14.3220
 2542.5000     0.6796    14.3230
 2543.0000     0.6793    14.3240
 2543.5000     0.6786    14.3251
 2544.0000     0.6778    14.3261
 2544.5000     0.6770    14.3271
 2545.0000     0.6763    14.3282
 2545.5000     0.6755    14.3292
 2546.0000     0.6747    14.3302
 2546.5000     0.6740    14.3313
 2547.0000     0.6732    14.3323
 2547.5000     0.6724    14.3333
 2548.0000     0.6717    14.3344
 2548.5000     0.6709    14.3354
 2549.0000     0.6701    14.3364
 2549.5000     0.6693    14.3375
 2550.0000     0.6686    14.3385
 2550.5000     0.6678    14.3395
 2551.0000     0.6670    14.3406
 2551.5000     0.6663    14.3416
 2552.0000     0.6655    14.3426
 2552.5000     0.6647    14.3437
 2553.0000     0.6640    14.3447
 2553.5000     0.6632    14.3457
 2554.0000     0.6624    14.3468
 2554.5000     0.6617    14.3478
 2555.0000     0.6609    14.3488
 2555.5000     0.6601    14.3499
 2556.0000     0.6594    14.3509
 2556.5000     0.6586    14.3519
 2557.0000     0.6578    14.3530
 2557.5000     0.6570    14.3540
 2558.0000     0.6563    14.3550
 2558.5000     0.6555    14.3561
 2559.0000     0.6547    14.3571
 2559.5000     0.6540    14.3581
 2560.0000     0.6016    14.3592
 2560.5000     0.6015    14.3602
 2561.0000     0.6015    14.3612
 2561.5000     0.6014    14.3623
 2562.0000     0.6014    14.3633
 2562.5000     0.6013    14.3643
 2563.0000     0.6013    14.3654
 2563.5000     0.6012    14.3664
 2564.0000     0.6012    14.3674
 2564.5000     0.6011    14.3685
 2565.0000     0.6010    14.3695
 2565.5000     0.6010    14.3705
 2566.0000     0.6009    14.3716
 2566.5000     0.6009    14.3726
 2567.0000     0.6008    14.3736
 2567.5000     0.6008    14.3747
 2568.0000     0.6007    14.3757
 2568.5000     0.6007    14.3767
 2569.0000     0.6006    14.3778
 2569.5000     0.6005    14.3788
 2570.0000     0.6005    14.3798
 2570.5000     0.6004    14.3809
 2571.0000     0.6004    14.3819
 2571.5000     0.6003    14.3829
 2572.0000     0.6003    14.3840
 2572.5000     0.6002    14.3850
 2573.0000     0.6001    14.3860
 2573.5000     0.6001    14.3871
 2574.0000     0.6000    14.3881
 2574.5000     0.6000    14.3891
 2575.0000     0.5999    14.3902
 2575.5000     0.5999    14.3912
 2576.0000     0.5998    14.3922
 2576.5000     0.5998    14.3933
 2577.0000     0.5997    14.3943
 2577.5000     0.5996    14.3953
 2578.0000     0.5996    14.3964
 2578.5000     0.5995    14.3974
 2579.0000     0.5995    14.3984
 2579.5000     0.5994    14.3995
 2580.0000     0.5994    14.4005
 2580.5000     0.5993    14.4015
 2581.0000     0.5993    14.4026
 2581.5000     0.5992    14.4036
 2582.0000     0.5991    14.4046
 2582.5000     0.5991    14.4057
 2583.0000     0.5990    14.4067
 2583.5000     0.5990    14.4077
 2584.0000     0.5989    14.4088
 2584.5000     0.5989    14.4098
 2585.0000     0.5988    14.4108
 2585.5000     0.5987    14.4119
 2586.0000     0.5987    14.4129
 2586.5000     0.5986    14.4139
 2587.0000     0.5986    14.4150
 2587.5000     0.5985    14.4160
 2588.0000     0.5985    14.4171
 2588.5000     0.5984    14.4181
 2589.0000     0.5984    14.4191
 2589.5000     0.5983    14.4202
 2590.0000     0.8082    14.4212
 2590.5000     0.8086    14.4222
 2591.0000     0.8091    14.4233
 2591.5000     0.8096    14.4243
 2592.0000     0.8940    14.4253
 2592.5000     0.8924    14.4264
 2593.0000     0.8901    14.4274
