~VERSION INFORMATION
 VERS.                2.0:   CWLS LOG ASCII STANDARD - VERSION 2.0
 WRAP.                 NO:   ONE LINE PER DEPTH STEP
~WELL INFORMATION
#MNEM.UNIT      DATA TYPE    INFORMATION
#----------   ------------   ------------------------------
 STRT.F           90.5000:   START DEPTH
 STOP.F          836.0000:   STOP DEPTH
 STEP.F            0.5000:   STEP LENGTH
 NULL.          -999.2500:   NO VALUE
 COMP.          U.S. NAVY:   COMPANY
 WELL.    NPR #3 #38-S-35:   WELL
 FLD .           TEAPOT E:   FIELD
 LOC .      S35 T39N R78W:   LOCATION
 CNTY.            NATRONA:   COUNTY
 STAT.            WYOMING:   STATE
 CTRY. UNITED STATES OF AMERICA:   COUNTRY
 SRVC. Schlumberger Well Surveying Corp:   SERVICE COMPANY
 DATE.        21-JUL-1963:   LOGDATE
 API .       490250649100:   API NUMBER
~CURVE INFORMATION
#MNEM.UNIT       API CODE    CURVE DESCRIPTION
#----------   ------------   ------------------------------
 DEPT.F                  :   
 SPR .MV     05 010 01 00:   SPONTANEOUS POTENTIAL FROM RES.
 ASN .OHMM   05 041 16 00:   AMPLIFIED SHORT NORMAL 16"
 ILD .OHMM   05 120 46 00:   INDUCTION LOG DEEP
 CILD.MMHO   05 110 46 00:   CONDUCTIVITY INDUCTION LOG DEEP
 DT  .US/F   60 520 33 00:   INTERVAL TRANSIT TIME
 GR  .GAPI   30 310 01 00:   GAMMA RAY
~PARAMETER INFORMATION
#MNEM.UNIT          VALUE    DESCRIPTION
#----------   ------------   ------------------------------
 LMF .                 KB:   LOG MEASURED FROM
 DMF .                 KB:   DRILLING MEASURED FROM
 EKB .F              5119:   KELLING BUSHING
 EGL .F              5114:   GROUND LEVEL
 DATE.          7-21-1963:   RUN DATE
 RUN .                  1:   RUN NUMBER
 DD  .F               836:   DEPTH DRILLER
 DL  .F               837:   DEPTH LOGGER
 BLI .F               836:   BOTTOM LOG INTERVAL
 TLI .F                90:   TOP LOG INTERVAL
 CBD .F                12:   CASING BOTTOM DRILLER
 BS  .IN             6.75:   BIT SIZE
 BSD .F               836:   BIT SIZE AT DEPTH
 DFT .            GEL-OIL:   DRILLING FLUID TYPE
 DFD .                9.2:   DRILLING FLUID DENSITY
 DFV .                 85:   DRILLING FLUID VISCOSITY
 DFPH.                  8:   DRILLING FLUID PH
 DFL .                3.6:   DRILLING FLUID LOSS
 MSS .           FLOWLINE:   MUD SAMPLE SOURCE
 RMS .OHMM           2.95:   RESISTIVITY MUD SAMPLE
 MST .F                88:   MUD SAMPLE TEMPERATURE
 RMF .OHMM           2.31:   RESISTIVITY MUD FILTRATE SAMPLE
 MFST.F                88:   MUD FILTRATE SAMPLE TEMPERATURE
 RMC .OHMM           2.65:   RESISTIVITY MUD CAKE
 MCST.F                88:   MUD CAKE SAMPLE TEMPERATURE
 MFSS.                  M:   MUD FILTRATE SAMPLE SOURCE
 MCSS.                  M:   MUD CAKE SAMPLE SOURCE
 TCS .HRS               1:   TIME CURCULATED STOPPED
 LUN .               2523:   LOGGING UNIT NUMBER
 LUL .              CSPR.:   LOGGING UNIT LOCATION
 ENGI.             KNOBEL:   RECORDING ENGINEER
 WITN.          JORGENSON:   WITNESSED BY
 CLNT.            A2DTECH:   CLIENT CODE
 ORIG.      2" , 5" PRINT:   ORIGIN OF DATA
 UWI .       490250649100:   UNIQUE WELL ID
 DICO. A2D Technologies, Inc.:   DIGITIZING COMPANY
~OTHER INFORMATION
~A   DEPT      SPR        ASN        ILD       CILD         DT         GR   
# ...
  246.5000   -29.3642     4.6642     3.9485   233.5636  -999.2500  -999.2500
  247.0000   -29.2579     4.9078     4.2004   220.2002  -999.2500  -999.2500
  247.5000   -29.1930     5.0877     4.4523   204.9149  -999.2500  -999.2500
  248.0000   -29.1272     5.1778     4.7034   195.5636  -999.2500  -999.2500
  248.5000   -29.2264     5.2657     4.9559   186.2122  -999.2500  -999.2500
  249.0000   -29.4464     5.3393     5.0299   180.3775  -999.2500  -999.2500
  249.5000   -29.6683     5.3495     4.9724   179.6797  -999.2500  -999.2500
  250.0000   -29.8906     5.3609     4.9132   181.5633  -999.2500  -999.2500
  250.5000   -30.1125     5.3733     4.8539   183.3407  -999.2500  -999.2500
  251.0000   -30.3189     5.3536     4.7951   185.1161  -999.2500  -999.2500
  251.5000   -30.4091     5.3071     4.7357   186.8932  -999.2500  -999.2500
  252.0000   -30.4950     5.2302     4.6787   188.6091  -999.2500  -999.2500
  252.5000   -30.4073     5.1502     4.4583   193.7795  -999.2500  -999.2500
  253.0000   -30.3223     4.9738     4.1484   202.7027  -999.2500  -999.2500
  253.5000   -29.9548     4.7975     3.8356   225.9860  -999.2500  -999.2500
  254.0000   -29.5562     4.6198     3.5222   255.5706  -999.2500  -999.2500
  254.5000   -29.1573     4.3584     3.2098   285.1552  -999.2500  -999.2500
  255.0000   -28.7592     4.0635     2.9480   310.9359  -999.2500  -999.2500
  255.5000   -28.3603     3.7657     2.8513   324.9049  -999.2500  -999.2500
  256.0000   -27.9580     3.6296     2.7575   327.6045  -999.2500  -999.2500
  256.5000   -27.9362     3.5464     2.7943   325.6256  -999.2500  -999.2500
  257.0000   -27.9812     3.5254     2.8277   323.8238  -999.2500  -999.2500
  257.5000   -28.0267     3.5029     2.8851   318.2182  -999.2500  -999.2500
  258.0000   -28.0719     3.5788     3.1596   305.8058  -999.2500  -999.2500
  258.5000   -28.1510     3.8862     3.4362   281.3814  -999.2500  -999.2500
  259.0000   -28.2936     4.1943     3.7121   255.6557  -999.2500  -999.2500
  259.5000   -28.4354     4.4091     3.9877   230.7307  -999.2500  -999.2500
  260.0000   -28.5773     4.4880     4.2657   216.2617  -999.2500  -999.2500
  260.5000   -28.7190     4.5688     4.3929   202.2295  -999.2500  -999.2500
  261.0000   -28.8664     4.6511     4.4528   200.8595  -999.2500  -999.2500
  261.5000   -28.9001     4.6730     4.4264   204.6326  -999.2500  -999.2500
  262.0000   -28.9005     4.6918     4.3864   208.4057  -999.2500  -999.2500
  262.5000   -28.9000     4.7120     4.3468   210.7107  -999.2500  -999.2500
  263.0000   -28.9000     4.6921     4.3068   210.7107  -999.2500  -999.2500
  263.5000   -28.9000     4.6647     4.2690   211.8755  -999.2500  -999.2500
  264.0000   -28.9000     4.5919     4.1155   216.5529  -999.2500  -999.2500
  264.5000   -28.9000     4.4998     3.9120   221.8418  -999.2500  -999.2500
  265.0000   -28.9003     4.4066     3.7059   233.1513  -999.2500  -999.2500
  265.5000   -28.9024     4.3137     3.4994   250.9255  -999.2500  -999.2500
  266.0000   -28.8903     4.1813     3.2906   268.6996  -999.2500  -999.2500
  266.5000   -28.5358     4.0213     3.1666   286.5107  -999.2500  -999.2500
  267.0000   -28.1677     3.8610     3.0278   304.2857  -999.2500  -999.2500
  267.5000   -27.8944     3.7122     2.9527   313.4200  -999.2500  -999.2500
  268.0000   -27.8996     3.6523     2.9528   311.2628  -999.2500  -999.2500
  268.5000   -27.8996     3.6110     2.9510   304.4301  -999.2500  -999.2500
  269.0000   -27.9006     3.7078     3.0347   297.6742  -999.2500  -999.2500
  269.5000   -27.9453     3.8288     3.1431   287.9580  -999.2500  -999.2500
  270.0000   -28.0673     3.8249     3.2619   272.2155  -999.2500  -999.2500
  270.5000   -28.1885     3.9883     3.6119   251.3655  -999.2500  -999.2500
  271.0000   -28.2989     4.3915     3.9695   230.4367  -999.2500  -999.2500
  271.5000   -28.3006     4.7249     4.3380   212.0206  -999.2500  -999.2500
  272.0000   -28.3001     4.8921     4.5569   199.5252  -999.2500  -999.2500
  272.5000   -28.3000     5.0033     4.7754   187.0593  -999.2500  -999.2500
  273.0000   -28.3000     5.1150     4.9646   179.6287  -999.2500  -999.2500
  273.5000   -28.3000     5.2185     4.9894   177.6616  -999.2500  -999.2500
  274.0000   -28.3000     5.2357     5.0180   178.7888  -999.2500  -999.2500
  274.5000   -28.3000     5.2359     5.0433   181.3614  -999.2500  -999.2500
  275.0000   -28.3000     5.2266     4.8920   184.6013  -999.2500  -999.2500
  275.5000   -28.3000     5.1402     4.5573   194.5858  -999.2500  -999.2500
  276.0000   -28.3001     5.0534     4.2249   210.6835  -999.2500  -999.2500
  276.5000   -28.3007     4.8973     3.8878   231.9827  -999.2500  -999.2500
  277.0000   -28.3003     4.6466     3.7010   254.7253  -999.2500  -999.2500
  277.5000   -28.2509     4.3238     3.3977   277.4245  -999.2500  -999.2500
  278.0000   -28.0043     4.0028     3.2905   294.4745  -999.2500  -999.2500
  278.5000   -27.7643     3.7452     3.2172   299.5396  -999.2500  -999.2500
  279.0000   -27.5241     3.7013     3.1442   302.1121  -999.2500  -999.2500
  279.5000   -27.2838     3.7972     3.0679   303.4514  -999.2500  -999.2500
  280.0000   -27.0468     3.8529     3.1503   302.4224  -999.2500  -999.2500
  280.5000   -26.9529     3.7133     3.3209   295.6757  -999.2500  -999.2500
  281.0000   -27.0943     3.6900     3.4927   280.7808  -999.2500  -999.2500
  281.5000   -27.2327     3.9789     3.6643   255.4855  -999.2500  -999.2500
  282.0000   -27.3719     4.2373     3.8358   233.7137  -999.2500  -999.2500
  282.5000   -27.5108     4.3465     4.0075   217.5175  -999.2500  -999.2500
  283.0000   -27.6497     4.4630     4.1792   206.7067  -999.2500  -999.2500
  283.5000   -27.7886     4.6503     4.3493   202.6627  -999.2500  -999.2500
  284.0000   -27.9313     4.8419     4.4555   201.9047  -999.2500  -999.2500
  284.5000   -28.0898     4.9210     4.4545   201.1354  -999.2500  -999.2500
  285.0000   -28.2479     4.9944     4.4556   201.0556  -999.2500  -999.2500
  285.5000   -28.2147     5.0696     4.4491   202.4588  -999.2500  -999.2500
  286.0000   -28.0364     4.9927     4.3340   204.3672  -999.2500  -999.2500
  286.5000   -27.8578     4.8984     4.2212   210.2474  -999.2500  -999.2500
  287.0000   -27.6788     4.7475     4.1093   218.4735  -999.2500  -999.2500
  287.5000   -27.5000     4.5782     3.9975   227.4775  -999.2500  -999.2500
  288.0000   -27.3212     4.4084     3.8856   236.4815  -999.2500  -999.2500
  288.5000   -27.1423     4.2642     3.7738   245.4855  -999.2500  -999.2500
  289.0000   -26.9639     4.1522     3.6619   246.7467  -999.2500  -999.2500
  289.5000   -26.7849     4.0403     3.5501   247.7878  -999.2500  -999.2500
  290.0000   -26.7015     3.9279     3.4382   251.2179  -999.2500  -999.2500
  290.5000   -26.6997     3.7881     3.3264   254.7547  -999.2500  -999.2500
  291.0000   -26.6998     3.5203     3.2146   263.7608  -999.2500  -999.2500
  291.5000   -26.7000     3.4941     3.1025   273.0695  -999.2500  -999.2500
  292.0000   -26.6998     3.5978     2.9910   282.4368  -999.2500  -999.2500
  292.5000   -26.6987     3.6057     2.8581   291.7060  -999.2500  -999.2500
  293.0000   -26.7017     3.5027     2.7173   315.4138  -999.2500  -999.2500
  293.5000   -26.9674     3.3898     2.5752   344.1408  -999.2500  -999.2500
  294.0000   -27.2621     3.2259     2.4330   372.8679  -999.2500  -999.2500
  294.5000   -27.4655     3.0599     2.2899   401.5949  -999.2500  -999.2500
  295.0000   -27.2139     2.8931     2.1578   430.3220  -999.2500  -999.2500
  295.5000   -26.9712     2.8006     2.2314   443.9439  -999.2500  -999.2500
  296.0000   -26.7292     2.7697     2.3118   424.5565  -999.2500  -999.2500
  296.5000   -26.4867     2.8627     2.3910   406.0340  -999.2500  -999.2500
  297.0000   -26.2458     2.9668     2.4697   387.5115  -999.2500  -999.2500
  297.5000   -26.0010     3.0685     2.5534   367.5321  -999.2500  -999.2500
  298.0000   -26.1319     3.0373     2.7533   339.9101  -999.2500  -999.2500
