~VERSION INFORMATION
 VERS.                2.0:   CWLS LOG ASCII STANDARD - VERSION 2.0
 WRAP.                 NO:   ONE LINE PER DEPTH STEP
~WELL INFORMATION
#MNEM.UNIT      DATA TYPE    INFORMATION
#----------   ------------   ------------------------------
 STRT.F           32.0000:   START DEPTH
 STOP.F          501.0000:   STOP DEPTH
 STEP.F            0.5000:   STEP LENGTH
 NULL.          -999.2500:   NO VALUE
 COMP. FENIX & SCISSON, INC., U.S. NAVY:   COMPANY
 WELL.     NPR-3 #82-S-10:   WELL
 FLD .             TEAPOT:   FIELD
 LOC .      S10 T38N R78W:   LOCATION
 CNTY.            NATRONA:   COUNTY
 STAT.            WYOMING:   STATE
 CTRY. UNITED STATES OF AMERICA:   COUNTRY
 SRVC.              Welex:   SERVICE COMPANY
 DATE.        10-MAY-1977:   LOGDATE
 API .       490251035300:   API NUMBER
~CURVE INFORMATION
#MNEM.UNIT       API CODE    CURVE DESCRIPTION
#----------   ------------   ------------------------------
 DEPT.F                  :   
 GURD.OHMM   07 220 05 00:   SHALLOW SHORT GUARD RESISTIVITY
 ILD .OHMM   07 120 46 00:   INDUCTION LOG DEEP
 ILM .OHMM   07 120 44 00:   INDUCTION LOG MEDIUM
 SPR .MV     07 010 01 00:   SPONTANEOUS POTENTIAL
 CALD.IN     45 280 60 00:   CALIPER FROM DENSITY LOG
 CORR.G/C3   45 356 01 00:   DENSITY CORRECTION
 DPHI.DEC    45 890 12 00:   DENSITY POROSITY SANDSTONE
 GRD .GAPI   45 310 01 00:   GAMMA RAY FROM DENSITY LOG
 RHOB.G/C3   45 350 01 00:   BULK DENSITY
~PARAMETER INFORMATION
#MNEM.UNIT          VALUE    DESCRIPTION
#----------   ------------   ------------------------------
 PD  .                 GL:   PERMANENT DATUM
 EPD .F              5134:   ELEVATION PERMANENT DATUM
 LMF .                 GL:   LOG MEASURED FROM
 DMF .                 GL:   DRILLING MEASURED FROM
 EGL .F              5134:   GROUND LEVEL
 DATE.        10-MAY-1977:   RUN DATE
 RUN .                  1:   RUN NUMBER
 DD  .F               505:   DEPTH DRILLER
 DL  .F               504:   DEPTH LOGGER
 BLI .F               502:   BOTTOM LOG INTERVAL
 TLI .F                30:   TOP LOG INTERVAL
 CS  .IN            8.625:   CASING SIZE
 CBD .F                40:   CASING BOTTOM DRILLER
 CBL .F                41:   CASING BOTTOM LOGGER
 BS  .IN            7.875:   BIT SIZE
 BSD .F               505:   BIT SIZE AT DEPTH
 DFT .            KCL MUD:   DRILLING FLUID TYPE
 DFD .                8.7:   DRILLING FLUID DENSITY
 DFV .                 29:   DRILLING FLUID VISCOSITY
 DFPH.                7.5:   DRILLING FLUID PH
 DFL .                6.6:   DRILLING FLUID LOSS
 MSS .           FLOWLINE:   MUD SAMPLE SOURCE
 RMS .OHMM           0.26:   RESISTIVITY MUD SAMPLE
 MST .F                72:   MUD SAMPLE TEMPERATURE
 RMF .OHMM           0.22:   RESISTIVITY MUD FILTRATE SAMPLE
 MFST.F                72:   MUD FILTRATE SAMPLE TEMPERATURE
 RMC .OHMM           0.42:   RESISTIVITY MUD CAKE
 MCST.F                72:   MUD CAKE SAMPLE TEMPERATURE
 MFSS.           FANN KIT:   MUD FILTRATE SAMPLE SOURCE
 MCSS.           FANN KIT:   MUD CAKE SAMPLE SOURCE
 RMB .OHMM           0.24:   RESISTIVITY MUD AT BHT
 BHT .F                78:   BOTTOM HOLE TEMPERATURE
 TCS .HRS               1:   TIME CURCULATED STOPPED
 MRT .F                78:   MAXIMUM RECORDED TEMPERATURE
 LUN .               8611:   LOGGING UNIT NUMBER
 LUL .             CASPER:   LOGGING UNIT LOCATION
 ENGI.            C. DOAK:   RECORDING ENGINEER
 WITN.         D. RHOADES:   WITNESSED BY
 CLNT.            A2DTECH:   CLIENT CODE
 ORIG.           5" PRINT:   ORIGIN OF DATA
 UWI .       490251035300:   UNIQUE WELL ID
 DICO. A2D Technologies, Inc.:   DIGITIZING COMPANY
~OTHER INFORMATION
~A   DEPT     GURD        ILD        ILM         SPR      CALD       CORR       DPHI        GRD       RHOB   
# ...
  360.5000    19.7214    15.2167    15.1894   -35.1071     7.9566     0.0200     0.1928    90.2775     2.3517
  361.0000    19.7310    15.3297    15.1985   -35.5357     7.9425     0.0217     0.1830    92.2166     2.3772
  361.5000    19.7420    15.2329    15.3122   -35.8181     7.9735     0.0248     0.1718    92.8204     2.3960
  362.0000    19.7514    15.2402    15.2130   -36.1010     8.0787     0.0265     0.1679    91.4798     2.4021
  362.5000    19.7596    15.2474    15.0144   -36.2351     8.1839     0.0237     0.1687    89.9976     2.3969
  363.0000    19.7702    15.1496    14.6131   -36.3770     8.2147     0.0193     0.1660    88.6134     2.4058
  363.5000    19.6434    14.9486    14.3211   -36.5034     8.2306     0.0225     0.1528    87.3720     2.4238
  364.0000    19.1171    14.6487    14.1310   -36.6375     8.2317     0.0317     0.1379    92.1306     2.4508
  364.5000    18.2231    14.3548    13.9390   -36.4732     8.2476     0.0363     0.1333    88.5822     2.4598
  365.0000    17.7348    14.2627    13.8513   -36.4556     8.2485     0.0335     0.1357    87.6997     2.4517
  365.5000    17.3622    14.1694    13.7695   -36.4410     8.2496     0.0340     0.1405    89.4930     2.4450
  366.0000    17.8748    13.9831    13.7789   -36.4286     8.2451     0.0348     0.1450    91.5805     2.4391
  366.5000    18.6403    14.0745    13.6896   -36.4137     8.2366     0.0340     0.1476    92.6293     2.4316
  367.0000    19.0398    14.2235    13.6977   -36.3969     8.2227     0.0296     0.1503    93.5299     2.4264
  367.5000    18.3645    13.9391    13.7064   -36.3810     8.2178     0.0282     0.1536    94.4278     2.4213
  368.0000    17.4207    13.7551    13.6194   -36.5470     8.1952     0.0268     0.1556    92.2152     2.4213
  368.5000    17.1919    13.6678    13.6268   -36.6541     8.1814     0.0285     0.1490    92.3738     2.4304
  369.0000    17.2001    13.6771    13.4471   -36.6358     8.1676     0.0331     0.1406    94.6097     2.4476
  369.5000    16.9721    13.7795    13.3600   -36.4723     8.1537     0.0349     0.1343    99.0710     2.4582
  370.0000    16.9802    13.8109    13.3691   -36.3088     8.1399     0.0363     0.1298   102.4938     2.4650
  370.5000    17.5855    13.9417    13.4691   -36.2312     8.1260     0.0380     0.1298   100.5753     2.4620
  371.0000    18.0869    14.0462    13.6640   -36.0635     8.1122     0.0336     0.1370    96.5797     2.4456
  371.5000    17.7222    14.1987    13.6714   -35.9671     8.0983     0.0277     0.1462    98.0737     2.4217
  372.0000    17.8557    14.2064    13.8201   -35.8525     8.0835     0.0248     0.1510   100.3095     2.4076
  372.5000    18.7494    14.2142    13.9763   -35.7887     8.0706     0.0234     0.1566    98.8361     2.4106
  373.0000    19.5524    14.2219    14.1311   -35.7738     8.0571     0.0251     0.1608    96.7693     2.4138
  373.5000    19.1604    14.2296    13.8925   -35.5843     8.0430     0.0252     0.1632    94.5541     2.4078
  374.0000    18.3911    14.2374    13.9965   -35.2948     8.0294     0.0253     0.1641    92.9323     2.4086
  374.5000    18.1472    14.2451    14.6981   -35.2801     8.0238     0.0224     0.1587    95.1682     2.4131
  375.0000    18.6648    14.1527    14.2067   -35.2654     8.0014     0.0225     0.1519    97.2556     2.4177
  375.5000    18.9335    13.9660    13.7205   -35.2530     8.0027     0.0242     0.1457    97.2859     2.4350
  376.0000    18.1585    13.7816    13.3647   -35.2360     7.9886     0.0228     0.1541    96.3860     2.4325
  376.5000    17.5645    13.5079    13.1885   -35.3720     7.9747     0.0154     0.1529    95.3578     2.4223
  377.0000    17.2144    13.1465    13.1974   -35.3555     7.9609     0.0125     0.1481    94.1811     2.4339
  377.5000    16.5232    12.8837    13.3884   -35.3408     7.9622     0.0171     0.1427    94.9333     2.4390
  378.0000    16.4153    12.7079    13.4885   -35.4749     7.9482     0.0218     0.1379    97.9109     2.4502
  378.5000    16.4251    12.4482    13.4030   -35.4613     7.9342     0.0234     0.1331    95.8249     2.4675
  379.0000    16.4330    12.2119    13.0447   -35.4455     7.9205     0.0280     0.1280    95.1126     2.4705
  379.5000    16.2152    11.9677    12.6086   -35.4309     7.9065     0.0296     0.1246    97.1592     2.4669
  380.0000    16.3354    11.8097    12.6155   -35.4162     7.9028     0.0297     0.1288   100.6825     2.4654
  380.5000    16.8011    11.8982    12.9761   -35.4015     7.8939     0.0329     0.1300   101.5237     2.4677
  381.0000    17.1612    12.0704    13.4395   -35.0893     7.8950     0.0360     0.1282   101.4767     2.4685
  381.5000    17.2884    12.4157    13.8237   -34.8492     7.8960     0.0376     0.1305    98.1340     2.4641
  382.0000    17.5374    12.9487    14.0236   -34.5729     7.8971     0.0362     0.1362    93.9901     2.4559
  382.5000    18.0374    13.7876    14.3252   -34.3651     7.8832     0.0363     0.1425    92.0716     2.4418
  383.0000    18.8099    14.6809    15.1475   -33.9762     7.8842     0.0365     0.1484    94.4558     2.4321
  383.5000    20.4601    16.1819    16.7045   -33.6728     7.8853     0.0413     0.1529    94.9086     2.4224
  384.0000    23.0697    18.2103    19.1014   -33.3676     7.8863     0.0489     0.1622    92.9927     2.4105
  384.5000    32.9962    21.0677    21.6670   -33.0248     7.8874     0.0549     0.1708    86.7716     2.3941
  385.0000    45.9581    26.6658    24.9690   -32.7083     7.8884     0.0565     0.1783    82.0341     2.3620
  385.5000    58.1560    32.4718    29.8990   -32.2748     7.8894     0.0551     0.1986    73.2907     2.3276
  386.0000    69.6256    35.2010    35.5560   -32.1113     7.8905     0.0522     0.2225    68.2565     2.3037
  386.5000    53.9510    36.2122    32.2952   -31.9478     7.8833     0.0523     0.2294    69.7505     2.2963
  387.0000    45.7287    36.7365    30.1515   -31.9331     7.8757     0.0509     0.2272    74.3602     2.2986
  387.5000    42.9921    37.2683    29.7539   -32.0672     7.8489     0.0495     0.2248    77.7830     2.3046
  388.0000    44.2180    38.3343    30.3936   -32.0525     7.8336     0.0497     0.2180    79.8704     2.3152
  388.5000    46.4313    38.0909    27.4162   -32.1867     7.8047     0.0498     0.2046    80.9193     2.3280
  389.0000    46.7755    37.8439    28.5923   -32.4696     7.7776     0.0484     0.2077    79.7427     2.3318
  389.5000    46.7978    37.6035    25.9737   -32.7525     7.7489     0.0500     0.2083    78.8538     2.3296
  390.0000   134.7558    37.8902    24.0859   -33.0355     7.7350     0.0517     0.2005    77.9829     2.3364
  390.5000    58.8389    37.9108    22.6460   -33.1696     7.7212     0.0593     0.1915    77.2514     2.3614
  391.0000    47.3369    37.4054    25.8370   -33.4525     7.7073     0.0669     0.1732    76.0747     2.3906
  391.5000    69.5178    36.1589    29.6821   -33.4375     7.7086     0.0721     0.1544    75.3432     2.4333
  392.0000    64.1742    34.9491    29.7318   -33.4226     7.6945     0.0747     0.1343    74.3149     2.4515
  392.5000    42.5869    33.7798    35.1232   -33.4085     7.6807     0.0763     0.1295    73.7318     2.4662
  393.0000    34.2942    32.6200    34.5362   -33.5426     7.6668     0.0764     0.1468    75.5225     2.4311
  393.5000    32.5718    31.2830    32.3227   -33.5242     7.6681     0.0735     0.1576    78.5001     2.4064
  394.0000    37.9417    29.4690    31.2422   -33.5096     7.6540     0.0631     0.1701    82.2197     2.3923
  394.5000    40.6753    28.0919    29.3745   -33.6437     7.6702     0.0572     0.1743    83.2690     2.3886
  395.0000    36.9426    26.9649    27.8100   -33.6290     7.6861     0.0589     0.1769    82.6707     2.3819
  395.5000    38.7918    25.3518    25.9675   -33.4673     7.7020     0.0620     0.1820    82.3989     2.3760
  396.0000    37.4924    24.5036    24.2471   -33.4508     7.7030     0.0621     0.1739    84.4074     2.3888
  396.5000    34.7650    24.0136    22.4847   -33.4361     7.6889     0.0622     0.1727    87.3343     2.3828
