~VERSION INFORMATION
 VERS.                2.0:   CWLS LOG ASCII STANDARD - VERSION 2.0
 WRAP.                 NO:   ONE LINE PER DEPTH STEP
~WELL INFORMATION
#MNEM.UNIT      DATA TYPE    INFORMATION
#----------   ------------   ------------------------------
 STRT.F           32.0000:   START DEPTH
 STOP.F          456.0000:   STOP DEPTH
 STEP.F            0.5000:   STEP LENGTH
 NULL.          -999.2500:   NO VALUE
 COMP. LAWRENCE/ALLISON INC:   COMPANY
 WELL.    52-62 SX #10-10:   WELL
 FLD .             TEAPOT:   FIELD
 LOC .      S10 T38N R78W:   LOCATION
 CNTY.            NATRONA:   COUNTY
 STAT.            WYOMING:   STATE
 CTRY. UNITED STATES OF AMERICA:   COUNTRY
 SRVC.           Gearhart:   SERVICE COMPANY
 DATE.        06-AUG-1987:   LOGDATE
 API .       490251116500:   API NUMBER
~CURVE INFORMATION
#MNEM.UNIT       API CODE    CURVE DESCRIPTION
#----------   ------------   ------------------------------
 DEPT.F                  :   
 GRR .GAPI   07 310 01 00:   GAMMA RAY
 RILD.OHMM   07 120 46 00:   INDUCTION LOG DEEP RESISTIVITY
 RILM.OHMM   07 120 44 00:   INDUCTION LOG MEDIUM RESISTIVITY
 RLL .OHMM   07 220 00 00:   LATEROLOG RESISTIVITY
~PARAMETER INFORMATION
#MNEM.UNIT          VALUE    DESCRIPTION
#----------   ------------   ------------------------------
 PD  .                 GL:   PERMANENT DATUM
 EPD .F              5173:   ELEVATION PERMANENT DATUM
 LMF .                 KB:   LOG MEASURED FROM
 DAPD.F                 8:   FEET ABOVE PERMANENT DATUM
 DMF .                 KB:   DRILLING MEASURED FROM
 EKB .F              5181:   KELLING BUSHING
 EDF .F              5180:   DRILLING FLOOR
 EGL .F              5173:   GROUND LEVEL
 DATE.        06-AUG-1987:   RUN DATE
 RUN .                  1:   RUN NUMBER
 DD  .F               455:   DEPTH DRILLER
 DL  .F               456:   DEPTH LOGGER
 BLI .F               448:   BOTTOM LOG INTERVAL
 TLI .F                30:   TOP LOG INTERVAL
 CS  .IN            8.625:   CASING SIZE
 CBD .F                48:   CASING BOTTOM DRILLER
 CBL .F                48:   CASING BOTTOM LOGGER
 BS  .IN            7.875:   BIT SIZE
 BSD .F               455:   BIT SIZE AT DEPTH
 DFT .          OIL/WATER:   DRILLING FLUID TYPE
 DFD .               10.2:   DRILLING FLUID DENSITY
 DFV .                 40:   DRILLING FLUID VISCOSITY
 MSS .           MUD TANK:   MUD SAMPLE SOURCE
 RMS .OHMM            .22:   RESISTIVITY MUD SAMPLE
 MST .F                70:   MUD SAMPLE TEMPERATURE
 RMF .OHMM            .17:   RESISTIVITY MUD FILTRATE SAMPLE
 MFST.F                70:   MUD FILTRATE SAMPLE TEMPERATURE
 RMC .OHMM            .30:   RESISTIVITY MUD CAKE
 MCST.F                70:   MUD CAKE SAMPLE TEMPERATURE
 MFSS.              CHART:   MUD FILTRATE SAMPLE SOURCE
 TCS .HRS            1600:   TIME CURCULATED STOPPED
 TLAB.HRS            1807:   TIME LOGGER AT BOTTOM
 LUN .               7597:   LOGGING UNIT NUMBER
 LUL .           GILLETTE:   LOGGING UNIT LOCATION
 ENGI.         WEATHERMON:   RECORDING ENGINEER
 WITN.              FIVAS:   WITNESSED BY
 CLNT.            A2DTECH:   CLIENT CODE
 ORIG.           5" PRINT:   ORIGIN OF DATA
 UWI .       490251116500:   UNIQUE WELL ID
 DICO. A2D Technologies, Inc.:   DIGITIZING COMPANY
~OTHER INFORMATION
~A   DEPT       GRR      RILD       RILM        RLL   
# ...
  251.0000    94.0831    14.8840    12.8004    12.0651
  251.5000    86.1771    15.7445    14.3141    13.4642
  252.0000    74.3138    17.1162    16.4600    16.0792
  252.5000    63.6682    18.6149    18.4066    17.4916
  253.0000    58.7255    20.3865    19.4659    18.8958
  253.5000    56.0755    21.4119    20.0233    19.9895
  254.0000    57.3042    22.1775    20.8790    20.0196
  254.5000    59.7484    22.8109    21.3235    19.9679
  255.0000    60.9749    23.1374    21.4757    20.6817
  255.5000    59.4616    23.4908    20.8874    20.8310
  256.0000    57.0350    23.9728    20.7442    20.6901
  256.5000    57.0644    23.9793    21.1866    20.4084
  257.0000    59.7948    23.8175    21.7974    19.9883
  257.5000    61.0213    23.4940    21.9455    19.7151
  258.0000    61.0301    23.5020    21.9484    19.7201
  258.5000    61.0389    23.6728    21.4966    19.8623
  259.0000    63.1787    23.6903    21.2009    19.4545
  259.5000    65.6228    24.1878    20.7645    19.0371
  260.0000    66.5449    24.5341    21.2073    19.0599
  260.5000    67.5079    24.8853    21.9879    19.7411
  261.0000    69.3045    25.4182    23.3906    20.4467
  261.5000    71.7487    26.1441    23.8886    21.1775
  262.0000    72.0597    26.5184    23.8918    21.9344
  262.5000    69.9399    26.7111    23.7281    23.0379
  263.0000    68.1222    26.9055    23.7321    23.6953
  263.5000    66.9134    27.1027    23.9015    24.3713
  264.0000    65.0756    26.9216    23.7385    22.7333
  264.5000    63.8869    26.7418    23.4134    21.9567
  265.0000    62.3759    26.3768    22.7721    21.5069
  265.5000    60.8605    25.8395    21.8413    21.3605
  266.0000    63.6112    25.1356    21.2430    20.9230
  266.5000    66.0554    24.9677    20.5174    20.6370
  267.0000    69.1084    24.8010    19.8166    20.2133
  267.5000    70.6393    24.9829    19.5447    19.9380
  268.0000    71.2978    25.3406    19.5479    19.8023
  268.5000    70.3547    25.5247    19.8253    20.0859
  269.0000    69.4481    25.7103    20.2474    20.2308
  269.5000    70.0680    26.0783    20.6785    20.5194
  270.0000    70.6857    26.6367    21.2666    20.8122
  270.5000    70.6945    27.2074    21.7215    21.2571
  271.0000    69.4857    27.7916    22.3623    21.8638
  271.5000    68.2567    28.3867    23.1341    22.3322
  272.0000    69.8100    28.7930    23.7921    22.6508
  272.5000    72.5585    29.0023    24.2986    22.8142
  273.0000    74.0895    29.0101    24.8159    23.1397
  273.5000    74.7071    28.8164    25.3443    23.3066
  274.0000    74.4093    28.2145    25.8839    23.6392
  274.5000    73.5069    27.0801    25.7082    23.8097
  275.0000    73.5160    25.9777    24.6575    23.6216
  275.5000    74.1339    25.2700    23.4853    22.0594
  276.0000    75.3624    24.9251    22.2132    20.4325
  276.5000    77.5021    24.2477    20.2897    19.5981
  277.0000    79.9462    23.9184    20.2924    19.0612
  277.5000    80.5639    23.5936    19.9955    18.6708
  278.0000    79.9639    23.0902    19.4657    18.4156
  278.5000    78.4507    22.6407    19.3329    18.1543
  279.0000    77.2217    22.4879    19.6079    17.9165
  279.5000    76.9463    22.3377    19.6105    17.9202
  280.0000    80.0015    22.3452    19.6132    18.0494
  280.5000    79.4015    22.3513    19.6231    18.0531
  281.0000    76.9750    22.5137    19.6058    18.0567
  281.5000    75.7640    22.5199    19.2153    18.0604
  282.0000    77.2971    22.6850    19.2179    17.6896
  282.5000    80.0457    22.8499    19.3551    17.2058
  283.0000    80.3592    23.0160    19.4932    17.2102
  283.5000    80.9788    23.1833    19.6323    17.2137
  284.0000    81.5965    23.3518    19.7725    17.5816
  284.5000    81.2987    23.3581    20.0699    18.0833
  285.0000    81.0031    23.6925    20.3382    18.5993
  285.5000    81.3186    23.6991    20.1989    18.7334
  286.0000    81.9362    23.5422    19.9223    18.4739
  286.5000    82.5540    23.2224    19.6482    18.0784
  287.0000    82.8693    22.5898    19.3792    17.6030
  287.5000    83.1826    22.2830    19.1132    17.2416
  288.0000    83.8003    21.9789    18.9828    16.8885
  288.5000    83.8091    21.6818    18.7223    16.8919
  289.0000    84.1224    21.3776    18.5946    16.8953
  289.5000    81.3915    20.8062    18.3400    16.8988
  290.0000    78.3562    20.6658    18.0877    16.9022
  290.5000    76.1939    20.5277    18.0907    17.0249
  291.0000    75.0275    20.6783    18.0932    17.1468
  291.5000    75.3407    20.3961    17.9704    16.9125
  292.0000    76.2628    20.2611    18.0986    16.6822
  292.5000    77.7937    20.2667    17.9746    16.5686
  293.0000    79.9335    20.2724    17.7279    16.3430
  293.5000    81.4644    20.2790    17.2429    16.1196
  294.0000    81.7776    20.2845    17.1252    16.1229
  294.5000    80.2666    20.1490    17.1276    16.2399
  295.0000    79.0578    20.1544    17.2504    16.2432
  295.5000    77.8490    20.0184    17.3735    16.3604
  296.0000    76.6379    20.0252    17.4975    16.2490
  296.5000    77.5622    20.1708    17.6224    15.9162
  297.0000    77.2667    19.8982    17.7482    15.8086
  297.5000    76.6667    19.7639    17.7506    15.7018
  298.0000    76.7163    19.7706    17.6295    15.5957
  298.5000    79.7307    19.7759    17.7560    15.5997
  299.0000    81.2616    19.7812    17.7584    15.8223
  299.5000    80.0528    19.7866    17.7607    16.0481
  300.0000    78.2351    19.7919    17.3956    15.9387
  300.5000    77.0241    19.7991    17.2798    15.7251
  301.0000    77.9484    19.6681    17.1683    15.7344
  301.5000    78.8898    19.6750    17.1755    15.6304
  302.0000    79.5133    19.4105    17.1840    15.6397
  302.5000    79.8326    19.2805    17.1909    15.6471
  303.0000    80.1552    19.1530    16.9596    15.6548
  303.5000    81.0831    19.0279    16.2708    15.6637
  304.0000    81.4022    18.6388    15.6100    15.2395
  304.5000    81.7213    18.2606    15.3998    14.5193
  305.0000    81.1272    18.0138    15.4062    14.0278
  305.5000    80.2283    17.8947    15.4139    13.6478
  306.0000    79.9389    17.7763    15.4201    13.8463
  306.5000    79.9573    17.6588    15.5343    14.0479
  307.0000    77.8411    17.6662    15.4310    14.0560
  307.5000    75.7249    17.5479    15.4388    14.0626
  308.0000    76.3484    17.6781    15.3377    13.9714
  308.5000    79.1028    17.6715    15.2372    13.7825
  309.0000    81.5528    17.4450    15.3495    13.6931
  309.5000    82.7852    17.2107    15.1429    13.7966
  310.0000    80.0638    16.9767    14.8368    13.8103
  310.5000    77.9476    16.7472    14.6360    13.9086
  311.0000    77.6542    16.5209    14.3246    13.7222
  311.5000    79.4991    16.4129    14.1466    13.4441
  312.0000    79.8182    16.3044    14.1538    12.9890
  312.5000    79.2240    16.0854    14.3580    12.7257
  313.0000    78.5936    16.0908    14.4644    12.8209
  313.5000    76.5174    15.8733    14.2697    13.0096
  314.0000    76.5321    15.6588    14.0776    13.3824
  314.5000    78.9821    15.5539    13.8882    13.4839
  315.0000    81.7365    15.4523    13.6060    13.3964
  315.5000    85.0998    15.3502    13.5168    13.2168
  316.0000    86.9409    15.2499    13.4296    13.2231
  316.5000    86.3278    15.2551    13.3416    13.1370
  317.0000    85.1438    15.2602    13.2542    13.0520
  317.5000    84.8541    15.1580    13.1674    12.8668
  318.0000    86.0901    15.4849    13.1740    12.7936
  318.5000    87.6269    15.5985    13.2716    12.8908
  319.0000    87.9460    15.7131    13.3700    13.0783
  319.5000    87.0475    15.9403    13.5633    13.3615
  320.0000    85.1752    16.1695    13.7660    13.6508
  320.5000    82.2099    16.4021    13.9599    13.9463
  321.0000    79.4849    16.4076    14.0633    13.9529
  321.5000    78.2819    16.2989    14.1675    13.6718
  322.0000    77.9885    16.1913    14.0733    13.3947
  322.5000    79.8334    16.0714    14.0804    13.2136
  323.0000    81.9790    15.6484    13.9882    13.1278
  323.5000    81.3638    15.4369    13.7999    13.0426
