~VERSION INFORMATION
 VERS.                2.0:   CWLS LOG ASCII STANDARD - VERSION 2.0
 WRAP.                 NO:   ONE LINE PER DEPTH STEP
~WELL INFORMATION
#MNEM.UNIT      DATA TYPE    INFORMATION
#----------   ------------   ------------------------------
 STRT.F           70.0000:   START DEPTH
 STOP.F         1088.0000:   STOP DEPTH
 STEP.F            0.5000:   STEP LENGTH
 NULL.          -999.2500:   NO VALUE
 COMP. U S NAVY/INTEX OIL CO:   COMPANY
 WELL. RES 3 TEAPOT DOME #66S-11:   WELL
 FLD .             TEAPOT:   FIELD
 LOC .      S11 T38N R78W:   LOCATION
 CNTY.            NATRONA:   COUNTY
 STAT.            WYOMING:   STATE
 CTRY. UNITED STATES OF AMERICA:   COUNTRY
 SRVC.         Lane Wells:   SERVICE COMPANY
 DATE.        06-MAR-1960:   LOGDATE
 API .       490250633400:   API NUMBER
~CURVE INFORMATION
#MNEM.UNIT       API CODE    CURVE DESCRIPTION
#----------   ------------   ------------------------------
 DEPT.F                  :   
 SPR .MV     05 010 01 00:   SPONTANEOUS POTENTIAL FROM RES.
 ILD .OHMM   05 120 46 00:   INDUCTION LOG DEEP
 CILD.MMHO   05 110 00 00:   CONDUCTIVITY INDUCTION LOG
 ASN .OHMM   05 041 16 00:   AMPLIFIED SHORT NORMAL 16"
~PARAMETER INFORMATION
#MNEM.UNIT          VALUE    DESCRIPTION
#----------   ------------   ------------------------------
 PD  .                 GL:   PERMANENT DATUM
 EPD .F              5238:   ELEVATION PERMANENT DATUM
 LMF .                 KB:   LOG MEASURED FROM
 DAPD.F                 5:   FEET ABOVE PERMANENT DATUM
 DMF .                 KB:   DRILLING MEASURED FROM
 EKB .F              5243:   KELLING BUSHING
 EGL .F              5238:   GROUND LEVEL
 DATE.             3-6-60:   RUN DATE
 RUN .                  1:   RUN NUMBER
 DD  .F              1085:   DEPTH DRILLER
 DL  .F              1087:   DEPTH LOGGER
 BLI .F              1085:   BOTTOM LOG INTERVAL
 TLI .F                70:   TOP LOG INTERVAL
 CS  .IN            8.625:   CASING SIZE
 CBD .F                12:   CASING BOTTOM DRILLER
 BS  .IN            7.875:   BIT SIZE
 BSD .F              1085:   BIT SIZE AT DEPTH
 DFT .   GEL/OIL EMULSION:   DRILLING FLUID TYPE
 DFD .               10.3:   DRILLING FLUID DENSITY
 DFV .                 37:   DRILLING FLUID VISCOSITY
 DFPH.                8.5:   DRILLING FLUID PH
 DFL .                7.2:   DRILLING FLUID LOSS
 MSS .          FLOW LINE:   MUD SAMPLE SOURCE
 RMS .OHMM           1.65:   RESISTIVITY MUD SAMPLE
 MST .F                70:   MUD SAMPLE TEMPERATURE
 RMF .OHMM            1.2:   RESISTIVITY MUD FILTRATE SAMPLE
 MFST.F                68:   MUD FILTRATE SAMPLE TEMPERATURE
 RMC .OHMM            1.8:   RESISTIVITY MUD CAKE
 MCST.F                68:   MUD CAKE SAMPLE TEMPERATURE
 MFSS.              PRESS:   MUD FILTRATE SAMPLE SOURCE
 MCSS.              PRESS:   MUD CAKE SAMPLE SOURCE
 RMB .OHMM            1.5:   RESISTIVITY MUD AT BHT
 BHT .F                74:   BOTTOM HOLE TEMPERATURE
 MRT .F                74:   MAXIMUM RECORDED TEMPERATURE
 LUN .               4474:   LOGGING UNIT NUMBER
 LUL .             CASPER:   LOGGING UNIT LOCATION
 ENGI.      NELSON/GRIGGS:   RECORDING ENGINEER
 WITN.   JORGENSEN/HUDSON:   WITNESSED BY
 CLNT.            A2DTECH:   CLIENT CODE
 ORIG.       2", 5" PRINT:   ORIGIN OF DATA
 UWI .       490250633400:   UNIQUE WELL ID
 DICO. A2D Technologies, Inc.:   DIGITIZING COMPANY
~OTHER INFORMATION
~A   DEPT      SPR          ILD      CILD         ASN 
# ...
  508.0000   -44.6293    12.7723    78.8929    17.0964
  508.5000   -44.6397    12.3417    80.4565    16.4143
  509.0000   -44.4688    12.1213    82.0308    15.9711
  509.5000   -44.1444    11.9012    84.3639    15.5440
  510.0000   -43.8209    11.6809    87.3751    15.2415
  510.5000   -43.4942    11.4610    90.3850    14.9475
  511.0000   -43.3896    11.1554    93.3934    14.5570
  511.5000   -43.4403    10.7888    96.3851    14.1014
  512.0000   -43.4931    10.3380    99.9510    13.8581
  512.5000   -43.5453     9.8357   107.8638    13.2230
  513.0000   -43.2455     9.3325   115.7765    12.1316
  513.5000   -42.5180     8.8293   123.6893    11.0544
  514.0000   -41.6034     8.3261   131.6020    10.1798
  514.5000   -40.6216     7.8230   139.5147     9.0239
  515.0000   -39.6321     7.3196   147.4275     8.3266
  515.5000   -38.6434     6.8155   155.3402     7.6002
  516.0000   -37.7509     6.3136   163.2530     7.1702
  516.5000   -37.3120     5.9229   171.1657     6.8096
  517.0000   -37.2742     5.9310   177.0515     6.7333
  517.5000   -37.2295     5.9245   177.1282     6.8131
  518.0000   -37.1816     5.8929   177.4113     6.9165
  518.5000   -37.0129     5.8626   177.6944     6.9914
  519.0000   -36.5304     5.8414   177.9775     6.9483
  519.5000   -36.0512     5.8246   178.2609     6.8743
  520.0000   -35.5634     5.8040   178.5443     6.8005
  520.5000   -35.8598     5.7835   178.8290     6.7269
  521.0000   -36.2771     5.7635   178.7879     6.6532
  521.5000   -36.6992     5.7646   178.5843     6.5796
  522.0000   -37.1301     5.8018   178.3792     6.5063
  522.5000   -37.2657     5.8386   178.1746     6.4567
  523.0000   -37.3868     5.8754   177.9701     6.4421
  523.5000   -37.5098     5.9117   177.7656     6.4281
  524.0000   -37.6329     5.9120   177.5612     6.4575
  524.5000   -37.6819     5.8685   177.3567     6.4900
  525.0000   -37.6479     5.8254   177.1523     6.5224
  525.5000   -37.6144     5.7820   177.9230     6.5533
  526.0000   -37.5808     5.7388   179.6405     6.5154
  526.5000   -37.5484     5.6955   181.3580     6.4411
  527.0000   -37.5069     5.6522   183.0755     6.3763
  527.5000   -37.2987     5.6089   184.7929     6.4312
  528.0000   -37.0911     5.5697   186.5104     6.4764
  528.5000   -36.8857     5.5897   188.2279     6.3861
  529.0000   -36.6756     5.6236   189.7424     6.2960
  529.5000   -36.7676     5.6575   187.9294     6.2753
  530.0000   -37.0234     5.6914   186.8819     6.3615
  530.5000   -37.2834     5.7252   185.2462     6.3905
  531.0000   -37.5432     5.7591   183.6105     6.3897
  531.5000   -37.8068     5.7930   181.9748     6.4591
  532.0000   -37.8364     5.8268   180.3391     6.5560
  532.5000   -37.7758     5.8607   178.7034     6.6561
  533.0000   -37.7097     5.8946   177.0676     6.7398
  533.5000   -37.7827     5.9284   175.4319     6.7503
  534.0000   -37.8962     5.9623   173.7962     6.7628
  534.5000   -38.0106     5.9962   172.3582     6.7960
  535.0000   -38.1248     6.0300   170.9780     6.9011
  535.5000   -38.2392     6.0639   169.5979     7.0024
  536.0000   -38.3523     6.0978   168.2178     7.1028
  536.5000   -38.4280     6.1316   166.8377     7.1929
  537.0000   -38.3070     6.1656   165.4575     7.2578
  537.5000   -37.8094     6.1995   164.0774     7.3235
  538.0000   -37.1115     6.2035   162.6973     7.3895
  538.5000   -36.4155     6.1973   162.9123     7.4572
  539.0000   -35.7239     6.1812   163.3212     7.4611
  539.5000   -35.3237     6.1652   163.7302     7.4426
  540.0000   -35.4878     6.1492   164.1294     7.3286
  540.5000   -35.8595     6.1332   164.9999     7.2068
  541.0000   -36.2302     6.1172   166.3694     7.0849
  541.5000   -36.5999     6.1012   167.7532     6.9631
  542.0000   -36.9719     6.0852   169.1333     6.8416
  542.5000   -37.0187     6.0693   170.5135     6.7196
  543.0000   -36.7761     6.0532   171.8936     6.6441
  543.5000   -36.5271     6.0372   173.2737     6.5913
  544.0000   -36.5001     6.0226   174.6539     6.5263
  544.5000   -36.6367     6.0223   175.2500     6.5000
  545.0000   -36.7753     6.0224   175.5698     6.4812
  545.5000   -36.9175     6.0224   175.8778     6.4826
  546.0000   -36.8503     6.0224   176.1843     6.4949
  546.5000   -36.6681     6.0224   176.4910     6.5072
  547.0000   -36.4770     6.0224   176.7977     6.5273
  547.5000   -36.6213     6.0224   177.0515     6.5911
  548.0000   -36.9131     6.0224   176.4261     6.6548
  548.5000   -37.1563     6.0224   175.5060     6.7184
  549.0000   -37.1558     6.0224   174.5859     6.7821
  549.5000   -36.9150     6.0202   173.6658     6.8486
  550.0000   -36.5916     6.0091   173.8141     6.8247
  550.5000   -36.2660     5.9983   174.3398     6.7744
  551.0000   -35.9319     5.9875   174.8656     6.7232
  551.5000   -35.9686     5.9766   175.0441     6.6699
  552.0000   -36.0913     5.9658   174.3749     6.7373
  552.5000   -36.2159     5.9550   173.7058     6.8307
  553.0000   -36.3396     5.9441   173.0366     6.9249
  553.5000   -36.4637     5.9328   172.3674     7.0188
  554.0000   -36.5879     5.9493   171.6983     7.1110
  554.5000   -36.5736     5.9697   172.3978     7.1433
  555.0000   -36.5397     5.9903   174.4680     7.0911
  555.5000   -36.5057     6.0108   176.5382     6.9791
  556.0000   -36.4720     6.0219   178.6084     6.8274
  556.5000   -36.4383     5.9747   180.6786     6.6146
  557.0000   -36.4046     5.9231   182.7488     6.4408
  557.5000   -36.3709     5.8715   184.8190     6.3122
  558.0000   -36.3372     5.8200   186.8892     6.1830
  558.5000   -36.3035     5.7686   189.7424     6.0959
  559.0000   -36.2699     5.7171   191.5553     6.0497
  559.5000   -36.2362     5.6656   194.0573     6.0139
  560.0000   -36.2025     5.6142   195.8461     5.9856
  560.5000   -36.1688     5.5627   196.9943     6.0202
  561.0000   -36.1350     5.5112   196.9943     6.1033
  561.5000   -36.1015     5.4597   195.6708     6.1102
  562.0000   -36.0669     5.4078   195.0018     6.0670
  562.5000   -36.0969     5.3886   193.3457     6.0227
  563.0000   -36.1635     5.3927   191.6895     5.9787
  563.5000   -36.2309     5.4252   190.0334     5.9326
  564.0000   -36.2984     5.4578   188.3772     6.0033
  564.5000   -36.3658     5.4903   186.7210     6.1268
  565.0000   -36.4332     5.5227   185.0649     6.2521
  565.5000   -36.5005     5.5552   183.4087     6.3774
  566.0000   -36.5679     5.5876   181.7526     6.5062
  566.5000   -36.6354     5.6200   180.0964     6.5790
  567.0000   -36.7031     5.6535   178.6288     6.6382
  567.5000   -36.7748     5.6667   177.7087     6.6968
  568.0000   -36.6637     5.6962   177.0515     6.7557
  568.5000   -36.5081     5.7244   177.0515     6.8158
  569.0000   -36.3516     5.7527   177.0515     6.8381
  569.5000   -36.1954     5.7810   177.0515     6.8572
  570.0000   -36.0394     5.8095   177.0515     6.8140
  570.5000   -35.8834     5.8390   178.2578     6.7240
  571.0000   -35.7272     5.7960   179.6713     6.6344
  571.5000   -35.5709     5.7434   181.0884     6.5450
  572.0000   -35.4147     5.6907   182.5050     6.4556
  572.5000   -35.3261     5.6382   183.9199     6.3662
  573.0000   -35.5523     5.5856   185.3354     6.2766
  573.5000   -35.8000     5.5326   186.1164     6.2101
  574.0000   -36.0475     5.4803   186.1348     6.1923
  574.5000   -36.2951     5.4808   185.2658     6.1911
  575.0000   -36.4505     5.5637   183.5214     6.2091
  575.5000   -36.5123     5.6507   181.7550     6.2695
  576.0000   -36.5740     5.7373   179.9949     6.3620
  576.5000   -36.6356     5.8238   178.2347     6.6188
  577.0000   -36.6974     5.9103   176.4745     6.8629
  577.5000   -36.7591     5.9969   174.7144     6.9725
  578.0000   -36.8210     6.0833   172.9542     7.0759
  578.5000   -36.8830     6.1705   171.1940     7.1796
  579.0000   -36.9455     6.2034   169.4339     7.2829
  579.5000   -36.9434     6.1778   167.6737     7.3891
  580.0000   -36.7584     6.1372   166.4461     7.3333
  580.5000   -36.5725     6.0963   168.4965     7.1958
