~VERSION INFORMATION
 VERS.                2.0:   CWLS LOG ASCII STANDARD - VERSION 2.0
 WRAP.                 NO:   ONE LINE PER DEPTH STEP
~WELL INFORMATION
#MNEM.UNIT      DATA TYPE    INFORMATION
#----------   ------------   ------------------------------
 STRT.F            8.0000:   START DEPTH
 STOP.F          500.0000:   STOP DEPTH
 STEP.F            0.5000:   STEP LENGTH
 NULL.          -999.2500:   NO VALUE
 COMP. FENIX & SCISSON INC:   COMPANY
 WELL. 65 12 SX 3FI #65-3:   WELL
 FLD .             TEAPOT:   FIELD
 LOC .       S3 T38N R78W:   LOCATION
 CNTY.            NATRONA:   COUNTY
 STAT.            WYOMING:   STATE
 CTRY. UNITED STATES OF AMERICA:   COUNTRY
 SRVC.              Welex:   SERVICE COMPANY
 DATE.        01-JUN-1980:   LOGDATE
 API .       490251082400:   API NUMBER
~CURVE INFORMATION
#MNEM.UNIT       API CODE    CURVE DESCRIPTION
#----------   ------------   ------------------------------
 DEPT.F                  :   
 GRD .GAPI   45 310 01 00:   GAMMA RAY FROM DENSITY LOG
 CALD.IN     45 280 60 00:   CALIPER
 RHOB.G/C3   45 350 01 00:   BULK DENSITY
 CORR.G/C3   45 356 01 00:   DENSITY CORRECTION
 DPHI.DEC    45 890 12 00:   DENSITY POROSITY SANDSTONE
 NPHI.DEC    42 890 03 00:   NEUTRON POROSITY SANDSTONE
 SPR .MV     07 010 01 00:   SPONTANEOUS POTENTIAL
 SGRD.OHMM   07 220 05 00:   SHALLOW GUARD RESISTIVITY
 ILD .OHMM   07 120 46 00:   INDUCTION LOG DEEP
 ILM .OHMM   07 120 44 00:   INDUCTION LOG MEDIUM
~PARAMETER INFORMATION
#MNEM.UNIT          VALUE    DESCRIPTION
#----------   ------------   ------------------------------
 PD  .                 GL:   PERMANENT DATUM
 EPD .F              5155:   ELEVATION PERMANENT DATUM
 LMF .                 KB:   LOG MEASURED FROM
 DAPD.F                 4:   FEET ABOVE PERMANENT DATUM
 DMF .                 KB:   DRILLING MEASURED FROM
 EKB .F              5159:   KELLING BUSHING
 EGL .F              5155:   GROUND LEVEL
 DATE.             6-1-80:   RUN DATE
 RUN .                  1:   RUN NUMBER
 DD  .F               505:   DEPTH DRILLER
 DL  .F               502:   DEPTH LOGGER
 BLI .F               500:   BOTTOM LOG INTERVAL
 TLI .F                20:   TOP LOG INTERVAL
 BS  .IN            9.875:   BIT SIZE
 BSD .F               505:   BIT SIZE AT DEPTH
 DFT .      OIL BASED MUD:   DRILLING FLUID TYPE
 MSS .            MUD PIT:   MUD SAMPLE SOURCE
 RMS .OHMM             .9:   RESISTIVITY MUD SAMPLE
 MST .F                65:   MUD SAMPLE TEMPERATURE
 RMF .OHMM            .72:   RESISTIVITY MUD FILTRATE SAMPLE
 MFST.F                65:   MUD FILTRATE SAMPLE TEMPERATURE
 RMC .OHMM           1.08:   RESISTIVITY MUD CAKE
 MCST.F                65:   MUD CAKE SAMPLE TEMPERATURE
 MFSS.           MEASURED:   MUD FILTRATE SAMPLE SOURCE
 MCSS.           MEASURED:   MUD CAKE SAMPLE SOURCE
 RMB .OHMM            .71:   RESISTIVITY MUD AT BHT
 BHT .F                76:   BOTTOM HOLE TEMPERATURE
 TCS .HRS               2:   TIME CURCULATED STOPPED
 MRT .F                76:   MAXIMUM RECORDED TEMPERATURE
 LUN .               9685:   LOGGING UNIT NUMBER
 LUL .             CASPER:   LOGGING UNIT LOCATION
 ENGI.               REIN:   RECORDING ENGINEER
 WITN.            RHOADES:   WITNESSED BY
 CLNT.            A2DTECH:   CLIENT CODE
 ORIG.        2" 5" PRINT:   ORIGIN OF DATA
 UWI .       490251082400:   UNIQUE WELL ID
 DICO. A2D Technologies, Inc.:   DIGITIZING COMPANY
~OTHER INFORMATION
~A    DEPT     GRD       CALD       RHOB       CORR       DPHI       NPHI        SPR        SGRD         ILD        ILM 
# ...
  477.0000    95.1733     9.7972     2.5177     0.0335     0.0955  -999.2500    -9.3689    11.7175     8.5905     9.8363
  477.5000    96.3442     9.7951     2.5086     0.0285     0.0944  -999.2500    -9.3688    11.6940     8.5260     9.7648
  478.0000    95.2829     9.7930     2.4997     0.0235     0.1009  -999.2500    -9.3688    11.6940     8.4620     9.6938
  478.5000    96.1125     9.7910     2.4909     0.0217     0.1079  -999.2500    -9.3688    11.6940     8.3984     9.6265
  479.0000    97.1504     9.7889     2.4823     0.0223     0.1120  -999.2500    -9.3688    11.6939     8.3354     9.5666
  479.5000    97.4560     9.7868     2.4746     0.0228     0.1155  -999.2500    -9.3689    11.6940     8.2728     9.5071
  480.0000    95.1118     9.7849     2.4722     0.0262     0.1198  -999.2500    -9.3694    11.6489     8.2106     9.4480
  480.5000    94.7972     9.7818     2.4783     0.0408     0.1230  -999.2500    -9.3677    11.4797     8.1490     9.3892
  481.0000    95.8361     9.8403     2.4912     0.0610     0.1160  -999.2500    -9.2619    11.3131     8.0878     9.3308
  481.5000    92.2660     9.9292     2.5034     0.0902     0.1073  -999.2500    -9.1451    11.1487     8.0281     9.2637
  482.0000    93.5349     9.9007     2.5135     0.1010     0.1050  -999.2500    -9.0285    10.9867     7.9677     9.1848
  482.5000    95.4968     9.8124     2.5238     0.1118     0.0996  -999.2500    -8.9120    10.8271     7.8700     9.1065
  483.0000    93.8057     9.8332     2.5275     0.1076     0.0934  -999.2500    -8.7956    10.6699     7.7736     9.0290
  483.5000    93.8933     9.9097     2.4974     0.0864     0.0893  -999.2500    -8.6791    10.5317     7.6783     8.9520
  484.0000    95.4359     9.9902     2.4754     0.0408     0.1069  -999.2500    -8.5627    10.4240     7.5842     8.8758
  484.5000    96.9770     9.9074     2.4759     0.0189     0.1170  -999.2500    -8.4464    10.3174     7.4912     8.8001
  485.0000    98.4998     9.7484     2.4941     0.0223     0.1194  -999.2500    -8.3262    10.2119     7.3920     8.7191
  485.5000   101.1650     9.7799     2.4969     0.0255     0.1145  -999.2500    -8.1957    10.0976     7.2943     8.6275
  486.0000   111.6562     9.8182     2.4949     0.0172     0.1090  -999.2500    -8.4929    10.0438     7.1895     8.5012
  486.5000   117.0713     9.8401     2.5011     0.0111     0.1083  -999.2500    -8.7047     9.9848     7.0862     8.3768
  487.0000   119.2155     9.8373     2.5081     0.0190     0.1080  -999.2500    -8.9248     9.9265     6.9844     8.2541
  487.5000   123.6376     9.8348     2.5120     0.0268     0.1059  -999.2500    -8.9036     9.8667     6.8840     8.1333
  488.0000   130.4729     9.8323     2.5029     0.0228     0.1000  -999.2500    -8.8067     9.7359     6.7851     8.0142
  488.5000   136.2602     9.8298     2.5094     0.0168     0.0982  -999.2500    -8.7076     9.3627     6.6876     7.8969
  489.0000   148.4553     9.8273     2.5147     0.0245     0.0975  -999.2500    -8.6090     9.0067     6.5915     7.7813
  489.5000   161.8186     9.8248     2.5058     0.0202     0.0967  -999.2500    -8.5105     8.6642     6.4968     7.6674
  490.0000   177.7961     9.8223     2.4928     0.0035     0.0999  -999.2500    -8.4121     8.3262     6.4031     7.5982
  490.5000   200.0000     9.8198     2.4866    -0.0042     0.1055  -999.2500    -8.3136     8.7324     6.3313     7.5982
  491.0000   200.0000     9.8173     2.4873    -0.0029     0.1111  -999.2500    -8.2152     9.2835     6.2656     7.5982
  491.5000   152.0301     9.8147     2.4771    -0.0075     0.1190  -999.2500    -8.1167     9.8706     6.2096     7.7541
  492.0000    98.2187     9.8122     2.4734    -0.0140     0.1119  -999.2500    -8.0183    10.3815     6.2096     7.9674
  492.5000    99.5088     9.8097     2.4947    -0.0058     0.1177  -999.2500    -7.9198    10.6824     6.3405     8.2222
  493.0000    94.6954     9.8072     2.5043     0.0030     0.1230  -999.2500    -7.8205    10.9919     6.4855     8.4995
  493.5000    91.7546     9.8047     2.5136     0.0117     0.1152  -999.2500    -7.7227    11.3104     6.6339     8.7861
  494.0000    93.0657     9.8022     2.5289     0.0229     0.1037  -999.2500    -7.6316    11.5108     6.7856     9.0826
  494.5000  -999.2500     9.7989     2.5305     0.0293     0.1044  -999.2500    -8.0528    11.6198     6.9961     9.3892
  495.0000  -999.2500     9.7954     2.5175     0.0232     0.0943  -999.2500    -8.9562    11.7298     6.7419     9.7052
  495.5000  -999.2500     9.7918     2.5080     0.0137     0.0888  -999.2500   -12.2519    11.8408     6.3682     9.8595
  496.0000  -999.2500     9.7882     2.5056    -0.0030     0.0913  -999.2500   -15.8936    11.9529     6.0152     9.9435
  496.5000  -999.2500     9.7847     2.4899    -0.0121     0.0947  -999.2500   -15.7308    12.0276     5.6818    10.0282
  497.0000  -999.2500     9.7811     2.4890    -0.0128     0.1013  -999.2500   -15.3212    12.0639     5.3619    10.0976
  497.5000  -999.2500     9.7776     2.4892    -0.0071     0.1046  -999.2500   -15.9300    12.1003     5.7219    10.0375
  498.0000  -999.2500     9.7740     2.4801    -0.0133     0.1063  -999.2500   -16.4887    12.1311     6.2184     9.9952
  498.5000  -999.2500     9.7704     2.4681    -0.0304     0.1129  -999.2500   -15.6562    12.0677     6.7580     9.9670
  499.0000  -999.2500     9.7669     2.4728    -0.0323     0.1147  -999.2500   -14.2021    12.0132     7.3445     9.9388
  499.5000  -999.2500     9.7632     2.4878    -0.0131     0.1111  -999.2500   -12.7392    11.9593     7.9818     9.9133
  500.0000  -999.2500     9.7623     2.4901    -0.0027     0.1274  -999.2500   -11.3345    11.9099     8.1768     9.9142
