~VERSION INFORMATION
 VERS.                2.0:   CWLS LOG ASCII STANDARD - VERSION 2.0
 WRAP.                 NO:   ONE LINE PER DEPTH STEP
~WELL INFORMATION
#MNEM.UNIT      DATA TYPE    INFORMATION
#----------   ------------   ------------------------------
 STRT.F            4.0000:   START DEPTH
 STOP.F          674.0000:   STOP DEPTH
 STEP.F            0.5000:   STEP LENGTH
 NULL.          -999.2500:   NO VALUE
 COMP. LAWRENCE/ALLISON INC:   COMPANY
 WELL.         21X #10-10:   WELL
 FLD .             TEAPOT:   FIELD
 LOC .      S10 T38N R78W:   LOCATION
 CNTY.            NATRONA:   COUNTY
 STAT.            WYOMING:   STATE
 CTRY. UNITED STATES OF AMERICA:   COUNTRY
 SRVC.           Gearhart:   SERVICE COMPANY
 DATE.        17-AUG-1987:   LOGDATE
 API .       490251118400:   API NUMBER
~CURVE INFORMATION
#MNEM.UNIT       API CODE    CURVE DESCRIPTION
#----------   ------------   ------------------------------
 DEPT.F                  :   
 GRR .GAPI   07 310 01 00:   GAMMA RAY FROM RESISTIVITY
 ILD .OHMM   07 120 46 00:   INDUCTION LOG DEEP
 ILM .OHMM   07 120 44 00:   INDUCTION LOG MEDIUM
~PARAMETER INFORMATION
#MNEM.UNIT          VALUE    DESCRIPTION
#----------   ------------   ------------------------------
 PD  .                 GL:   PERMANENT DATUM
 EPD .F              5253:   ELEVATION PERMANENT DATUM
 LMF .                 KB:   LOG MEASURED FROM
 DAPD.F                12:   FEET ABOVE PERMANENT DATUM
 DMF .                 KB:   DRILLING MEASURED FROM
 EKB .F              5265:   KELLING BUSHING
 EDF .F              5263:   DRILLING FLOOR
 EGL .F              5253:   GROUND LEVEL
 DATE.        17-AUG-1987:   RUN DATE
 RUN .                  1:   RUN NUMBER
 DD  .F               690:   DEPTH DRILLER
 DL  .F               682:   DEPTH LOGGER
 BLI .F               674:   BOTTOM LOG INTERVAL
 TLI .F                60:   TOP LOG INTERVAL
 CS  .IN            8.625:   CASING SIZE
 CBD .F                50:   CASING BOTTOM DRILLER
 CBL .F                60:   CASING BOTTOM LOGGER
 BS  .IN             7.87:   BIT SIZE
 BSD .F               690:   BIT SIZE AT DEPTH
 DFT .               FOAM:   DRILLING FLUID TYPE
 TCS .HRS            1500:   TIME CURCULATED STOPPED
 TLAB.HRS            1609:   TIME LOGGER AT BOTTOM
 LUN .               7597:   LOGGING UNIT NUMBER
 LUL .           GILLETTE:   LOGGING UNIT LOCATION
 ENGI.           JOHNSTON:   RECORDING ENGINEER
 WITN.             STRONG:   WITNESSED BY
 CLNT.            A2DTECH:   CLIENT CODE
 ORIG.       2", 5" PRINT:   ORIGIN OF DATA
 UWI .       490251118400:   UNIQUE WELL ID
 DICO. A2D Technologies, Inc.:   DIGITIZING COMPANY
~OTHER INFORMATION
~A    DEPT      GRR       ILD        ILM   
    4.0000    18.5410  -999.2500  -999.2500
    4.5000    17.9331  -999.2500  -999.2500
    5.0000    15.8055  -999.2500  -999.2500
    5.5000    10.9422  -999.2500  -999.2500
    6.0000     8.5106  -999.2500  -999.2500
    6.5000     8.8146  -999.2500  -999.2500
    7.0000     8.8146  -999.2500  -999.2500
    7.5000    12.4620  -999.2500  -999.2500
    8.0000    15.5015  -999.2500  -999.2500
    8.5000    19.1489  -999.2500  -999.2500
    9.0000    27.3556  -999.2500  -999.2500
    9.5000    30.6991  -999.2500  -999.2500
   10.0000    35.5623  -999.2500  -999.2500
   10.5000    40.4255  -999.2500  -999.2500
   11.0000    44.9848  -999.2500  -999.2500
   11.5000    46.5046  -999.2500  -999.2500
   12.0000    46.5046  -999.2500  -999.2500
   12.5000    47.4164  -999.2500  -999.2500
   13.0000    52.2796  -999.2500  -999.2500
   13.5000    59.2705  -999.2500  -999.2500
   14.0000    64.7416  -999.2500  -999.2500
   14.5000    67.1859  -999.2500  -999.2500
   15.0000    68.3891  -999.2500  -999.2500
   15.5000    68.6930  -999.2500  -999.2500
   16.0000    68.9970  -999.2500  -999.2500
   16.5000    69.3009  -999.2500  -999.2500
   17.0000    70.2128  -999.2500  -999.2500
   17.5000    70.5167  -999.2500  -999.2500
   18.0000    68.9970  -999.2500  -999.2500
   18.5000    66.2614  -999.2500  -999.2500
   19.0000    66.2614  -999.2500  -999.2500
   19.5000    67.4772  -999.2500  -999.2500
   20.0000    67.1733  -999.2500  -999.2500
   20.5000    66.5653  -999.2500  -999.2500
   21.0000    66.2614  -999.2500  -999.2500
   21.5000    67.7812  -999.2500  -999.2500
   22.0000    69.3009  -999.2500  -999.2500
   22.5000    70.5167  -999.2500  -999.2500
   23.0000    70.8207  -999.2500  -999.2500
   23.5000    71.7325  -999.2500  -999.2500
   24.0000    71.1246  -999.2500  -999.2500
   24.5000    68.0851  -999.2500  -999.2500
   25.0000    65.3495  -999.2500  -999.2500
   25.5000    64.4377  -999.2500  -999.2500
   26.0000    66.5653  -999.2500  -999.2500
   26.5000    69.3262  -999.2500  -999.2500
   27.0000    70.8460  -999.2500  -999.2500
   27.5000    71.1246  -999.2500  -999.2500
   28.0000    69.6049  -999.2500  -999.2500
   28.5000    69.6049  -999.2500  -999.2500
   29.0000    69.9088  -999.2500  -999.2500
   29.5000    70.2128  -999.2500  -999.2500
   30.0000    72.0365  -999.2500  -999.2500
   30.5000    73.2523  -999.2500  -999.2500
   31.0000    73.2523  -999.2500  -999.2500
   31.5000    71.4286  -999.2500  -999.2500
   32.0000    69.6049  -999.2500  -999.2500
   32.5000    70.5167  -999.2500  -999.2500
   33.0000    71.4286  -999.2500  -999.2500
   33.5000    70.2128  -999.2500  -999.2500
   34.0000    68.0851  -999.2500  -999.2500
   34.5000    67.1733  -999.2500  -999.2500
   35.0000    67.1733  -999.2500  -999.2500
   35.5000    66.5653  -999.2500  -999.2500
   36.0000    66.2614  -999.2500  -999.2500
   36.5000    65.6535  -999.2500  -999.2500
   37.0000    66.5653  -999.2500  -999.2500
   37.5000    67.1733  -999.2500  -999.2500
   38.0000    67.1733  -999.2500  -999.2500
   38.5000    67.4899  -999.2500  -999.2500
   39.0000    69.0983  -999.2500  -999.2500
   39.5000    72.1125  -999.2500  -999.2500
   40.0000    73.8602  -999.2500  -999.2500
   40.5000    72.6444  -999.2500  -999.2500
   41.0000    71.1246  -999.2500  -999.2500
   41.5000    69.6049  -999.2500  -999.2500
   42.0000    71.4286  -999.2500  -999.2500
   42.5000    72.3404  -999.2500  -999.2500
   43.0000    72.3404  -999.2500  -999.2500
   43.5000    72.3404  -999.2500  -999.2500
   44.0000    72.3404  -999.2500  -999.2500
   44.5000    72.6444  -999.2500  -999.2500
   45.0000    73.5562  -999.2500  -999.2500
   45.5000    74.7720  -999.2500  -999.2500
   46.0000    75.6839  -999.2500  -999.2500
   46.5000    74.7720  -999.2500  -999.2500
   47.0000    73.5562  -999.2500  -999.2500
   47.5000    73.2523  -999.2500  -999.2500
   48.0000    75.0760  -999.2500  -999.2500
   48.5000    75.4179  -999.2500  -999.2500
   49.0000    73.2523  -999.2500  -999.2500
   49.5000    71.4286  -999.2500  -999.2500
   50.0000    72.0365  -999.2500  -999.2500
   50.5000    74.8085  -999.2500  -999.2500
   51.0000    76.3222  -999.2500  -999.2500
   51.5000    76.9482  -999.2500  -999.2500
   52.0000    76.6555  -999.2500  -999.2500
   52.5000    75.1544  -999.2500  -999.2500
   53.0000    72.7377  -999.2500  -999.2500
   53.5000    72.4450  -999.2500  -999.2500
   54.0000    73.9834  -999.2500  -999.2500
   54.5000    74.9102  -999.2500  -999.2500
   55.0000    75.5330  -999.2500  -999.2500
   55.5000    74.9363  -999.2500  -999.2500
   56.0000    73.7392  -999.2500  -999.2500
   56.5000    72.8423  -999.2500  -999.2500
   57.0000    72.8572  -999.2500  -999.2500
   57.5000    75.3799  -999.2500  -999.2500
   58.0000    81.6900  -999.2500  -999.2500
   58.5000    99.0456  -999.2500  -999.2500
   59.0000   111.5225  -999.2500  -999.2500
   59.5000   113.9691  -999.2500  -999.2500
   60.0000   115.1998     5.0583     2.8588
   60.5000   115.8226     7.8156     3.1179
   61.0000   115.2297    11.9156     3.8987
   61.5000   112.8130    12.6879     4.3906
   62.0000   111.0042    10.0109     5.5673
   62.5000   113.7547     7.6280     6.6761
   63.0000   115.5934     7.1646     7.2606
   63.5000   116.2162     7.3165     7.2621
   64.0000   114.4074     8.0672     7.2636
   64.5000   113.2066     8.1242     7.1629
   65.0000   112.2796     8.5909     6.9687
   65.5000   111.0061     8.8962     6.9868
   66.0000   109.6040     9.0218     7.4237
   66.5000   109.6226     8.7133     8.0176
   67.0000   110.2455     8.1839     8.1320
   67.5000   109.3486     8.0711     8.1336
   68.0000   105.7161     8.1281     7.9114
   68.5000   105.1194     7.9053     7.7491
   69.0000   106.6578     7.9058     7.6964
   69.5000   109.1043     7.9617     7.6984
   70.0000   110.3351     7.9622     7.4876
   70.5000   110.3500     8.0185     7.1825
   71.0000   110.6689     7.9632     7.1840
   71.5000   110.3769     7.9639     7.1855
   72.0000   109.0091     7.9091     7.2373
   72.5000   104.5897     7.8546     7.2464
   73.0000   102.2218     7.8006     7.5502
   73.5000   102.5406     7.8011     7.6046
   74.0000   104.6832     7.8017     7.6062
   74.5000   107.4337     7.8568     7.5023
   75.0000   110.1842     7.8574     7.3480
   75.5000   111.1073     7.8580     7.2984
   76.0000   109.9064     7.8586     7.3003
   76.5000   110.2290     7.8591     7.3018
   77.0000   110.5479     7.8596     7.3033
   77.5000   111.1708     7.9152     7.3048
   78.0000   111.4897     7.9711     7.2555
   78.5000   110.2888     7.9716     7.2065
   79.0000   108.4255     8.0280     7.1579
   79.5000   106.3673     8.0847     7.1594
   80.0000   108.2097     8.1418     7.2114
   80.5000   111.8720     8.1424     7.3142
   81.0000   114.0146     8.1429     7.4185
   81.5000   113.7219     8.0869     7.5243
   82.0000   114.9564     8.0792     7.6851
   82.5000   118.3148     8.0318     7.7405
   83.0000   120.7613     8.0325     7.7421
   83.5000   121.9920     7.9772     7.6363
   84.0000   122.3109     7.8673     7.5321
   84.5000   122.3259     7.6515     7.3263
   85.0000   119.6052     7.3898     7.0273
   85.5000   116.8846     7.2373     6.8832
   86.0000   115.6837     7.1375     6.8367
   86.5000   116.3404     7.1381     6.8382
   87.0000   116.3215     7.1386     6.7920
   87.5000   116.3402     7.1391     6.8413
   88.0000   117.5709     7.1396     6.8427
   88.5000   118.8017     7.1401     6.8441
   89.0000   119.7285     7.1406     6.8453
   89.5000   116.7039     7.0422     6.8469
   90.0000   114.8951     7.0428     6.8483
   90.5000   114.9100     7.0925     6.8018
   91.0000   114.6173     7.1426     6.6162
   91.5000   114.3320     7.2434     6.4802
   92.0000   113.7391     7.1935     6.3920
   92.5000   113.7540     7.2444     6.4381
   93.0000   114.0730     7.3466     6.4845
   93.5000   114.6961     7.5549     6.5354
   94.0000   114.7113     7.6616     6.6709
   94.5000   114.7293     7.7157     6.8614
