~VERSION INFORMATION
 VERS.                2.0:   CWLS LOG ASCII STANDARD - VERSION 2.0
 WRAP.                 NO:   ONE LINE PER DEPTH STEP
~WELL INFORMATION
#MNEM.UNIT      DATA TYPE    INFORMATION
#----------   ------------   ------------------------------
 STRT.F            0.0000:   START DEPTH
 STOP.F         2694.5000:   STOP DEPTH
 STEP.F            0.5000:   STEP LENGTH
 NULL.          -999.2500:   NO VALUE
 COMP. FENIX & SCISSON INC:   COMPANY
 WELL.       102 A #20-20:   WELL
 FLD .        TEAPOT DOME:   FIELD
 LOC .      S20 T39N R78W:   LOCATION
 CNTY.            NATRONA:   COUNTY
 STAT.            WYOMING:   STATE
 CTRY. UNITED STATES OF AMERICA:   COUNTRY
 SRVC.            Unknown:   SERVICE COMPANY
 DATE.        17-AUG-1965:   LOGDATE
 API .       490251022200:   API NUMBER
~CURVE INFORMATION
#MNEM.UNIT       API CODE    CURVE DESCRIPTION
#----------   ------------   ------------------------------
 DEPT.F                  :   
 CALI.IN     30 280 01 00:   CALIPER FROM GAMMA RAY LOG
 GR  .GAPI   30 310 01 00:   GAMMA RAY
~PARAMETER INFORMATION
#MNEM.UNIT          VALUE    DESCRIPTION
#----------   ------------   ------------------------------
 PD  .                 GL:   PERMANENT DATUM
 LMF .                 GL:   LOG MEASURED FROM
 DMF .                 GL:   DRILLING MEASURED FROM
 DATE.            8-17-65:   RUN DATE
 RUN .                  1:   RUN NUMBER
 DD  .F            2696.5:   DEPTH DRILLER
 DL  .F              2697:   DEPTH LOGGER
 BLI .F              2695:   BOTTOM LOG INTERVAL
 TLI .F              2000:   TOP LOG INTERVAL
 CS  .IN                7:   CASING SIZE
 CBD .F              2678:   CASING BOTTOM DRILLER
 DFT .                OIL:   DRILLING FLUID TYPE
 TCS .HRS               1:   TIME CURCULATED STOPPED
 ENGI.            JACKSON:   RECORDING ENGINEER
 WITN.          JORGENSEN:   WITNESSED BY
 CLNT.            A2DTECH:   CLIENT CODE
 ORIG.           5" PRINT:   ORIGIN OF DATA
 UWI .       490251022200:   UNIQUE WELL ID
 DICO. A2D Technologies, Inc.:   DIGITIZING COMPANY
~OTHER INFORMATION
~A    DEPT      CALI       GR   
# ...
 1701.0000     6.4242  -999.2500
 1701.5000     6.4242  -999.2500
 1702.0000     6.4242  -999.2500
 1702.5000     6.4242  -999.2500
 1703.0000     6.4242  -999.2500
 1703.5000     6.4242  -999.2500
 1704.0000     6.4242  -999.2500
 1704.5000     6.4242  -999.2500
 1705.0000     6.4242  -999.2500
 1705.5000     6.4242  -999.2500
 1706.0000     6.4242  -999.2500
 1706.5000     6.4242  -999.2500
 1707.0000     6.4242  -999.2500
 1707.5000     6.4242  -999.2500
 1708.0000     6.4242  -999.2500
 1708.5000     6.4242  -999.2500
 1709.0000     6.4242  -999.2500
 1709.5000     6.4242  -999.2500
 1710.0000     6.4242  -999.2500
 1710.5000     6.4242  -999.2500
 1711.0000     6.4242  -999.2500
 1711.5000     6.4242  -999.2500
 1712.0000     6.4242  -999.2500
 1712.5000     6.4242  -999.2500
 1713.0000     6.4320  -999.2500
 1713.5000     6.4406  -999.2500
 1714.0000     6.4763  -999.2500
 1714.5000     6.4819  -999.2500
 1715.0000     6.4329  -999.2500
 1715.5000     6.4299  -999.2500
 1716.0000     6.4267  -999.2500
 1716.5000     6.4246  -999.2500
 1717.0000     6.4429  -999.2500
 1717.5000     6.4366  -999.2500
 1718.0000     6.4283  -999.2500
 1718.5000     6.4294  -999.2500
 1719.0000     6.4392  -999.2500
 1719.5000     6.4370  -999.2500
 1720.0000     6.4247  -999.2500
 1720.5000     6.4264  -999.2500
 1721.0000     6.4290  -999.2500
 1721.5000     6.4315  -999.2500
 1722.0000     6.4340  -999.2500
 1722.5000     6.4341  -999.2500
 1723.0000     6.4302  -999.2500
 1723.5000     6.4074  -999.2500
 1724.0000     6.3859  -999.2500
 1724.5000     6.4019  -999.2500
 1725.0000     6.4195  -999.2500
 1725.5000     6.4372  -999.2500
 1726.0000     6.4411  -999.2500
 1726.5000     6.4367  -999.2500
 1727.0000     6.4367  -999.2500
 1727.5000     6.4429  -999.2500
 1728.0000     6.4490  -999.2500
 1728.5000     6.4539  -999.2500
 1729.0000     6.4537  -999.2500
 1729.5000     6.4537  -999.2500
 1730.0000     6.4537  -999.2500
 1730.5000     6.4537  -999.2500
 1731.0000     6.4538  -999.2500
 1731.5000     6.4538  -999.2500
 1732.0000     6.4533  -999.2500
 1732.5000     6.4406  -999.2500
 1733.0000     6.4450  -999.2500
 1733.5000     6.4666  -999.2500
 1734.0000     6.4877  -999.2500
 1734.5000     6.4973  -999.2500
 1735.0000     6.5165  -999.2500
 1735.5000     6.5297  -999.2500
 1736.0000     6.4434  -999.2500
 1736.5000     6.4310  -999.2500
 1737.0000     6.4395  -999.2500
 1737.5000     6.4295  -999.2500
 1738.0000     6.4235  -999.2500
 1738.5000     6.4224  -999.2500
 1739.0000     6.4214  -999.2500
 1739.5000     6.4203  -999.2500
 1740.0000     6.4193  -999.2500
 1740.5000     6.4183  -999.2500
 1741.0000     6.4172  -999.2500
 1741.5000     6.4162  -999.2500
 1742.0000     6.4152  -999.2500
 1742.5000     6.4179  -999.2500
 1743.0000     6.4370  -999.2500
 1743.5000     6.4360  -999.2500
 1744.0000     6.4248  -999.2500
 1744.5000     6.4368  -999.2500
 1745.0000     6.4493  -999.2500
 1745.5000     6.4618  -999.2500
 1746.0000     6.4610  -999.2500
 1746.5000     6.4579  -999.2500
 1747.0000     6.4546  -999.2500
 1747.5000     6.4585  -999.2500
 1748.0000     6.4656  -999.2500
 1748.5000     6.4728  -999.2500
 1749.0000     6.4719  -999.2500
 1749.5000     6.4381  -999.2500
 1750.0000     6.4316  -999.2500
 1750.5000     6.4288  -999.2500
 1751.0000     6.4262  -999.2500
 1751.5000     6.4257  -999.2500
 1752.0000     6.4316  -999.2500
 1752.5000     6.4374  -999.2500
 1753.0000     6.4432  -999.2500
 1753.5000     6.4503  -999.2500
 1754.0000     6.4770  -999.2500
 1754.5000     6.4924  -999.2500
 1755.0000     6.4740  -999.2500
 1755.5000     6.4634  -999.2500
 1756.0000     6.4652  -999.2500
 1756.5000     6.5039  -999.2500
 1757.0000     6.4816  -999.2500
 1757.5000     6.4490  -999.2500
 1758.0000     6.4439  -999.2500
 1758.5000     6.4438  -999.2500
 1759.0000     6.4439  -999.2500
 1759.5000     6.4439  -999.2500
 1760.0000     6.4439  -999.2500
 1760.5000     6.4439  -999.2500
 1761.0000     6.4439  -999.2500
 1761.5000     6.4439  -999.2500
 1762.0000     6.4437  -999.2500
 1762.5000     6.4505  -999.2500
 1763.0000     6.4531  -999.2500
 1763.5000     6.4498  -999.2500
 1764.0000     6.4466  -999.2500
 1764.5000     6.4433  -999.2500
 1765.0000     6.4400  -999.2500
 1765.5000     6.4368  -999.2500
 1766.0000     6.4345  -999.2500
 1766.5000     6.4376  -999.2500
 1767.0000     6.4406  -999.2500
 1767.5000     6.4441  -999.2500
 1768.0000     6.4639  -999.2500
 1768.5000     6.4640  -999.2500
 1769.0000     6.4479  -999.2500
 1769.5000     6.4359  -999.2500
 1770.0000     6.4480  -999.2500
 1770.5000     6.4619  -999.2500
 1771.0000     6.4734  -999.2500
 1771.5000     6.4728  -999.2500
 1772.0000     6.4673  -999.2500
 1772.5000     6.4619  -999.2500
 1773.0000     6.4564  -999.2500
 1773.5000     6.4538  -999.2500
 1774.0000     6.4538  -999.2500
 1774.5000     6.4538  -999.2500
 1775.0000     6.4536  -999.2500
 1775.5000     6.4531  -999.2500
 1776.0000     6.4576  -999.2500
 1776.5000     6.4542  -999.2500
 1777.0000     6.4854  -999.2500
 1777.5000     6.4815  -999.2500
 1778.0000     6.4476  -999.2500
 1778.5000     6.4647  -999.2500
 1779.0000     6.4698  -999.2500
 1779.5000     6.4623  -999.2500
 1780.0000     6.4548  -999.2500
 1780.5000     6.4495  -999.2500
 1781.0000     6.4446  -999.2500
 1781.5000     6.4438  -999.2500
 1782.0000     6.4440  -999.2500
 1782.5000     6.4514  -999.2500
 1783.0000     6.4637  -999.2500
 1783.5000     6.4462  -999.2500
 1784.0000     6.4189  -999.2500
 1784.5000     6.4144  -999.2500
 1785.0000     6.4143  -999.2500
 1785.5000     6.4144  -999.2500
 1786.0000     6.4144  -999.2500
 1786.5000     6.4144  -999.2500
 1787.0000     6.4144  -999.2500
 1787.5000     6.4144  -999.2500
 1788.0000     6.4144  -999.2500
 1788.5000     6.4144  -999.2500
 1789.0000     6.4144  -999.2500
 1789.5000     6.4144  -999.2500
 1790.0000     6.4144  -999.2500
 1790.5000     6.4144  -999.2500
 1791.0000     6.4144  -999.2500
 1791.5000     6.4144  -999.2500
 1792.0000     6.4144  -999.2500
 1792.5000     6.4142  -999.2500
 1793.0000     6.4061  -999.2500
 1793.5000     6.4099  -999.2500
 1794.0000     6.4306  -999.2500
 1794.5000     6.4511  -999.2500
 1795.0000     6.4683  -999.2500
 1795.5000     6.4799  -999.2500
 1796.0000     6.4556  -999.2500
 1796.5000     6.4492  -999.2500
 1797.0000     6.4864  -999.2500
 1797.5000     6.4959  -999.2500
 1798.0000     6.4739  -999.2500
 1798.5000     6.4732  -999.2500
 1799.0000     6.4700  -999.2500
 1799.5000     6.4826  -999.2500
 1800.0000     6.4744  -999.2500
 1800.5000     6.4925  -999.2500
 1801.0000     6.4755  -999.2500
 1801.5000     6.4650  -999.2500
 1802.0000     6.4721  -999.2500
 1802.5000     6.4784  -999.2500
 1803.0000     6.4797  -999.2500
 1803.5000     6.4645  -999.2500
 1804.0000     6.4534  -999.2500
 1804.5000     6.4537  -999.2500
 1805.0000     6.4537  -999.2500
 1805.5000     6.4539  -999.2500
 1806.0000     6.4598  -999.2500
 1806.5000     6.4656  -999.2500
 1807.0000     6.4715  -999.2500
 1807.5000     6.4610  -999.2500
 1808.0000     6.4463  -999.2500
 1808.5000     6.4650  -999.2500
 1809.0000     6.4689  -999.2500
 1809.5000     6.4726  -999.2500
 1810.0000     6.4547  -999.2500
 1810.5000     6.4527  -999.2500
 1811.0000     6.4641  -999.2500
 1811.5000     6.4535  -999.2500
 1812.0000     6.4368  -999.2500
 1812.5000     6.4418  -999.2500
 1813.0000     6.4551  -999.2500
 1813.5000     6.4691  -999.2500
 1814.0000     6.4831  -999.2500
 1814.5000     6.4929  -999.2500
 1815.0000     6.5035  -999.2500
 1815.5000     6.5230  -999.2500
 1816.0000     6.5388  -999.2500
 1816.5000     6.5799  -999.2500
 1817.0000     6.4958  -999.2500
 1817.5000     6.4921  -999.2500
 1818.0000     6.4932  -999.2500
 1818.5000     6.4931  -999.2500
 1819.0000     6.4931  -999.2500
 1819.5000     6.4931  -999.2500
 1820.0000     6.4931  -999.2500
 1820.5000     6.4931  -999.2500
 1821.0000     6.4932  -999.2500
 1821.5000     6.4931  -999.2500
 1822.0000     6.4893  -999.2500
