~VERSION INFORMATION
 VERS.                2.0:   CWLS LOG ASCII STANDARD - VERSION 2.0
 WRAP.                 NO:   ONE LINE PER DEPTH STEP
~WELL INFORMATION
#MNEM.UNIT      DATA TYPE    INFORMATION
#----------   ------------   ------------------------------
 STRT.F           50.0000:   START DEPTH
 STOP.F         1561.5000:   STOP DEPTH
 STEP.F            0.5000:   STEP LENGTH
 NULL.          -999.2500:   NO VALUE
 COMP. FENIX & SCISSON INC:   COMPANY
 WELL.  72 SH 3 STX #72-3:   WELL
 FLD .             TEAPOT:   FIELD
 LOC .       S3 T38N R78W:   LOCATION
 CNTY.            NATRONA:   COUNTY
 STAT.            WYOMING:   STATE
 CTRY. UNITED STATES OF AMERICA:   COUNTRY
 SRVC.           BIRDWELL:   SERVICE COMPANY
 DATE.        31-JUL-1979:   LOGDATE
 API .       490251078600:   API NUMBER
~CURVE INFORMATION
#MNEM.UNIT       API CODE    CURVE DESCRIPTION
#----------   ------------   ------------------------------
 DEPT.F                  :   
 CALD.IN     45 280 60 00:   CALIPER FROM DENSITY LOG
 GRD .GAPI   45 310 01 00:   GAMMA RAY FROM DENSITY LOG
 RHOB.G/C3   45 350 01 00:   BULK DENSITY
 CORR.G/C3   45 356 01 00:   DENSITY CORRECTION
 DPHI.DEC    45 890 12 00:   DENSITY POROSITY SANDSTONE
 GR  .GAPI   81 310 01 00:   GAMMA RAY
~PARAMETER INFORMATION
#MNEM.UNIT          VALUE    DESCRIPTION
#----------   ------------   ------------------------------
 PD  .                 GL:   PERMANENT DATUM
 EPD .F              5165:   ELEVATION PERMANENT DATUM
 LMF .                 KB:   LOG MEASURED FROM
 DAPD.F                10:   FEET ABOVE PERMANENT DATUM
 DMF .                 KB:   DRILLING MEASURED FROM
 EKB .F              5175:   KELLING BUSHING
 EGL .F              5165:   GROUND LEVEL
 DATE.            7-31-79:   RUN DATE
 RUN .                  1:   RUN NUMBER
 DD  .F              1564:   DEPTH DRILLER
 DL  .F              1560:   DEPTH LOGGER
 BLI .F              1560:   BOTTOM LOG INTERVAL
 TLI .F               700:   TOP LOG INTERVAL
 CS  .IN            9.625:   CASING SIZE
 CBD .F               691:   CASING BOTTOM DRILLER
 CBL .F               680:   CASING BOTTOM LOGGER
 BS  .IN            7.875:   BIT SIZE
 BSD .F              1564:   BIT SIZE AT DEPTH
 DFT .                OIL:   DRILLING FLUID TYPE
 BHT .F                92:   BOTTOM HOLE TEMPERATURE
 TCS .HRS               2:   TIME CURCULATED STOPPED
 MRT .F                92:   MAXIMUM RECORDED TEMPERATURE
 LUN .               3029:   LOGGING UNIT NUMBER
 LUL .                CPR:   LOGGING UNIT LOCATION
 ENGI.             MILLER:   RECORDING ENGINEER
 WITN.           DINSMORE:   WITNESSED BY
 CLNT.            A2DTECH:   CLIENT CODE
 ORIG.       2", 5" PRINT:   ORIGIN OF DATA
 UWI .       490251078600:   UNIQUE WELL ID
 DICO. A2D Technologies, Inc.:   DIGITIZING COMPANY
~OTHER INFORMATION
~A   DEPT     CALD        GRD       RHOB       CORR       DPHI          GR  
# ...
  726.0000     9.6249    93.6985     2.5248     0.0385     0.0127    83.6126
  726.5000     9.6361    93.4902     2.5261     0.0342     0.0099    85.0016
  727.0000     9.6473    89.5268     2.5117     0.0246     0.0238    86.4217
  727.5000     9.6584    86.7219     2.4970     0.0151     0.0295    86.2441
  728.0000     9.6696    84.7897     2.4940     0.0054     0.0298    82.5373
  728.5000     9.6808    88.6403     2.4991    -0.0004     0.0261    77.8543
  729.0000     9.6920    90.1439     2.5042    -0.0010     0.0235    72.9204
  729.5000     9.7031    89.4344     2.5038    -0.0010     0.0252    71.3378
  730.0000     9.7143    89.5229     2.4988     0.0022     0.0270    74.6024
  730.5000     9.7255    95.0275     2.5002     0.0099     0.0207    79.1974
  731.0000     9.7367   100.5638     2.5112     0.0177     0.0192    83.7881
  731.5000     9.7481   103.5594     2.5230     0.0256     0.0119    87.1750
  732.0000     9.7585   101.1875     2.5379     0.0289     0.0054    86.2445
  732.5000     9.7334    96.8542     2.5394     0.0277     0.0026    84.4981
  733.0000     9.7048    92.9382     2.5358     0.0240     0.0038    82.7611
  733.5000     9.7113    91.8979     2.5358     0.0214     0.0053    80.6231
  734.0000     9.7266    91.1326     2.5428     0.0360     0.0078    78.2130
  734.5000     9.7429    94.2236     2.5182     0.0254     0.0227    77.7387
  735.0000     9.7620    97.3007     2.4954     0.0134     0.0274    78.7721
  735.5000     9.7812    96.0688     2.4953     0.0202     0.0269    79.8364
  736.0000     9.8004    94.9173     2.4981     0.0326     0.0259    82.1319
  736.5000     9.8199    94.3808     2.5006     0.0446     0.0250    85.3351
  737.0000     9.8384    95.5176     2.4980     0.0430     0.0254    90.3590
  737.5000     9.8158    96.6363     2.4941     0.0377     0.0268    89.2700
  738.0000     9.7913    97.7386     2.5004     0.0325     0.0224    86.7765
  738.5000     9.7669    97.8934     2.5219     0.0272     0.0122    84.3962
  739.0000     9.7425    96.5467     2.5215     0.0220     0.0160    82.7582
  739.5000     9.7184    95.2202     2.5049     0.0237     0.0172    84.5221
  740.0000     9.7049    93.8916     2.5117     0.0247     0.0157    86.2001
  740.5000     9.7370    92.5846     2.5195     0.0157     0.0174    87.8769
  741.0000     9.7681    92.6189     2.4974     0.0064     0.0266    89.6484
  741.5000     9.7991    94.5837     2.4784     0.0026     0.0358    87.6538
  742.0000     9.8301    96.4926     2.4594     0.0372     0.0439    84.7901
  742.5000     9.8605    97.4613     2.4564     0.0901     0.0502    81.9069
  743.0000     9.8767    93.3603     2.4562     0.1437     0.0502    79.1291
  743.5000     9.8103    90.4326     2.4592     0.1975     0.0323    77.4443
  744.0000     9.7427    89.0677     2.5028     0.2162     0.0160    75.7477
  744.5000     9.6791    90.4053     2.5160     0.1191     0.0346    74.7047
  745.0000     9.6477    91.5880     2.5015     0.0241     0.0335    74.8757
  745.5000     9.6178    91.1845     2.4919     0.0053     0.0251    75.5877
  746.0000     9.5880    91.3112     2.4892     0.0000     0.0213    77.9201
  746.5000     9.5581    93.6948     2.5140     0.0056     0.0205    80.8060
  747.0000     9.5281    93.5057     2.5077     0.0108     0.0206    84.3415
  747.5000     9.4982    94.3587     2.5110     0.0161     0.0149    85.7724
  748.0000     9.4680    97.9317     2.5226     0.0213     0.0086    86.5772
  748.5000     9.4593    94.9259     2.5340     0.0250     0.0055    90.9147
  749.0000     9.4493    93.1528     2.5445     0.0222     0.0046    87.9213
  749.5000     9.4384    92.8404     2.5386     0.0166     0.0063    86.2923
  750.0000     9.4276    94.4734     2.5304     0.0110     0.0091    90.7169
  750.5000     9.4167    97.8348     2.5249     0.0079     0.0106    88.2453
  751.0000     9.4059   100.5633     2.5300     0.0122     0.0092    85.0809
  751.5000     9.3950    99.0924     2.5346     0.0160     0.0078    81.8965
  752.0000     9.3842    96.6085     2.5293     0.0170     0.0089    78.6988
  752.5000     9.3856    94.1243     2.5213     0.0132     0.0138    77.0936
  753.0000     9.3993    91.6369     2.5098     0.0057     0.0188    78.9731
  753.5000     9.4129    90.6972     2.4996    -0.0011     0.0237    81.5486
  754.0000     9.4266    91.7035     2.5095     0.0047     0.0242    84.1840
  754.5000     9.4402    92.9773     2.5294     0.0129     0.0113    85.4857
  755.0000     9.4539    93.2913     2.5438     0.0170     0.0052    84.8001
  755.5000     9.4676    90.3117     2.5343     0.0131     0.0039    84.0568
  756.0000     9.4812    87.2809     2.5164     0.0092     0.0135    85.5537
  756.5000     9.4949    86.1437     2.5160     0.0190     0.0182    88.8628
  757.0000     9.5086    88.7454     2.5305     0.0393     0.0077    92.1380
  757.5000     9.5222    92.6271     2.5451     0.0449     0.0002    95.4312
  758.0000     9.5359    97.1370     2.5509     0.0367     0.0038    97.0685
  758.5000     9.5495    98.5047     2.5368     0.0275     0.0110    93.7902
  759.0000     9.5586    96.9711     2.5202     0.0183     0.0181    91.6104
  759.5000     9.5558    95.0808     2.5037     0.0092     0.0245    89.4178
  760.0000     9.5532    94.0457     2.4934     0.0010     0.0222    88.3376
  760.5000     9.5506    95.9352     2.5010     0.0022     0.0193    91.2408
  761.0000     9.5481    98.1216     2.5130     0.0047     0.0190    90.0422
  761.5000     9.5455    98.2044     2.5161     0.0072     0.0218    88.6183
  762.0000     9.5429    94.3763     2.5029     0.0098     0.0250    87.4599
  762.5000     9.5404    90.0254     2.4947     0.0122     0.0196    88.3967
  763.0000     9.5310    89.1238     2.5035     0.0148     0.0213    89.4012
  763.5000     9.5148    89.5453     2.5136     0.0180     0.0185    90.4750
  764.0000     9.4987    89.9944     2.5235     0.0141     0.0143    88.9529
  764.5000     9.4825    90.5454     2.5244     0.0086     0.0118    86.7917
  765.0000     9.4663    91.9404     2.5140     0.0030     0.0166    84.5965
  765.5000     9.4503    93.3543     2.5034    -0.0024     0.0206    82.4803
  766.0000     9.4437    94.7641     2.4972    -0.0011     0.0218    81.1408
  766.5000     9.4615    95.6807     2.5180     0.0125     0.0112    85.8284
  767.0000     9.4790    92.6411     2.5420     0.0275     0.0014    82.9521
  767.5000     9.4964    89.5387     2.5634     0.0428    -0.0057    78.6411
  768.0000     9.5141    88.7175     2.5621     0.0399    -0.0020    74.5622
  768.5000     9.5035    90.1677     2.5473     0.0300     0.0027    74.4082
  769.0000     9.4724    91.6146     2.5324     0.0200     0.0073    76.7944
  769.5000     9.4413    93.0667     2.5176     0.0100     0.0126    79.0996
  770.0000     9.4102    94.5025     2.5027     0.0000     0.0191    81.4059
  770.5000     9.3791    90.7109     2.4910    -0.0042     0.0256    83.7681
  771.0000     9.3478    85.0052     2.5046     0.0038     0.0259    84.1593
  771.5000     9.3279    84.3328     2.5185     0.0118     0.0178    84.3935
  772.0000     9.3125    84.2909     2.5326     0.0191     0.0107    89.1069
  772.5000     9.2970    84.2484     2.5353     0.0133     0.0079    93.8325
  773.0000     9.2816    84.1983     2.5112     0.0051     0.0246    93.5384
  773.5000     9.2662    84.6016     2.4983     0.0014     0.0250    90.4346
  774.0000     9.2664    88.5199     2.5104     0.0056     0.0190    85.8251
  774.5000     9.2821    92.4850     2.5151     0.0099     0.0177    81.0699
  775.0000     9.2978    96.4419     2.5060     0.0140     0.0199    79.7378
  775.5000     9.3135    99.1139     2.5041     0.0155     0.0199    83.8811
  776.0000     9.3293   100.5067     2.5157     0.0098     0.0176    88.4341
  776.5000     9.3450   101.9089     2.5189     0.0070     0.0152    99.5973
  777.0000     9.3607   103.2705     2.5132     0.0126     0.0168    96.2871
  777.5000     9.3764   102.4949     2.5124     0.0239     0.0135    92.8295
