~VERSION INFORMATION
 VERS.                2.0:   CWLS LOG ASCII STANDARD - VERSION 2.0
 WRAP.                 NO:   ONE LINE PER DEPTH STEP
~WELL INFORMATION
#MNEM.UNIT      DATA TYPE    INFORMATION
#----------   ------------   ------------------------------
 STRT.F           88.0000:   START DEPTH
 STOP.F          991.0000:   STOP DEPTH
 STEP.F            0.5000:   STEP LENGTH
 NULL.          -999.2500:   NO VALUE
 COMP. US NAVY /INTEX OIL CO.:   COMPANY
 WELL.    NPR #3 #S-11 63:   WELL
 FLD .             TEAPOT:   FIELD
 LOC .      S11 T38N R78W:   LOCATION
 CNTY.            NATRONA:   COUNTY
 STAT.            WYOMING:   STATE
 CTRY. UNITED STATES OF AMERICA:   COUNTRY
 SRVC.       Schlumberger:   SERVICE COMPANY
 DATE.        24-JUL-1964:   LOGDATE
 API .       490250636200:   API NUMBER
~CURVE INFORMATION
#MNEM.UNIT       API CODE    CURVE DESCRIPTION
#----------   ------------   ------------------------------
 DEPT.F                  :   
 SPR .MV     05 010 01 00:   SPONTANEOUS POTENTIAL FROM RES.
 ASN .OHMM   05 041 16 00:   AMPLIFIED SHORT NORMAL 16"
 ILD .OHMM   05 120 46 00:   INDUCTION LOG DEEP
 CILD.MMHO   05 110 46 00:   CONDUCTIVITY INDUCTION LOG DEEP
 CALS.IN     60 280 50 00:   CALIPER FROM SONIC LOG
 DT  .US/F   60 520 33 00:   INTERVAL TRANSIT TIME
 GR  .GAPI   30 310 01 00:   GAMMA RAY
~PARAMETER INFORMATION
#MNEM.UNIT          VALUE    DESCRIPTION
#----------   ------------   ------------------------------
 PD  .                 GL:   PERMANENT DATUM
 LMF .                 KB:   LOG MEASURED FROM
 DAPD.F                 5:   FEET ABOVE PERMANENT DATUM
 DMF .                 KB:   DRILLING MEASURED FROM
 EKB .F              5914:   KELLING BUSHING
 DATE.          7-24-1964:   RUN DATE
 RUN .                  1:   RUN NUMBER
 DD  .F               990:   DEPTH DRILLER
 DL  .F               992:   DEPTH LOGGER
 BLI .F               991:   BOTTOM LOG INTERVAL
 TLI .F               990:   TOP LOG INTERVAL
 CS  .IN            8.625:   CASING SIZE
 CBD .F                15:   CASING BOTTOM DRILLER
 BS  .IN             6.75:   BIT SIZE
 BSD .F               990:   BIT SIZE AT DEPTH
 DFT .            GEL OIL:   DRILLING FLUID TYPE
 DFD .                9.2:   DRILLING FLUID DENSITY
 DFV .                 47:   DRILLING FLUID VISCOSITY
 MSS .            MUD PIT:   MUD SAMPLE SOURCE
 RMS .OHMM           1.24:   RESISTIVITY MUD SAMPLE
 MST .F                75:   MUD SAMPLE TEMPERATURE
 RMF .OHMM           .801:   RESISTIVITY MUD FILTRATE SAMPLE
 MFST.F                80:   MUD FILTRATE SAMPLE TEMPERATURE
 MFSS.                 FP:   MUD FILTRATE SAMPLE SOURCE
 RMB .OHMM           1.09:   RESISTIVITY MUD AT BHT
 BHT .F                85:   BOTTOM HOLE TEMPERATURE
 TCS .HRS              .5:   TIME CURCULATED STOPPED
 MRT .F                85:   MAXIMUM RECORDED TEMPERATURE
 LUN .               2572:   LOGGING UNIT NUMBER
 LUL .                 MC:   LOGGING UNIT LOCATION
 ENGI.             BOWLER:   RECORDING ENGINEER
 WITN.          JORGENSEN:   WITNESSED BY
 CLNT.            A2DTECH:   CLIENT CODE
 ORIG.      2" & 5" PRINT:   ORIGIN OF DATA
 UWI .       490250636200:   UNIQUE WELL ID
 DICO. A2D Technologies, Inc.:   DIGITIZING COMPANY
~OTHER INFORMATION
~A   DEPT      SPR          ASN        ILD      CILD      CALS         DT         GR   
# ...
  588.5000   -31.3166     8.7153     6.3988   142.4745     6.8246   104.3848    99.1538
  589.0000   -31.3138     8.4759     6.2500   146.1769     6.7964   104.9039   100.4460
  589.5000   -31.3110     8.2496     6.1756   148.3940     6.7828   105.6909   103.6079
  590.0000   -31.1628     8.0360     6.1806   149.8508     6.8127   107.1329   107.9216
  590.5000   -31.1599     7.9375     6.3988   149.7811     6.8279   107.8754   100.6879
  591.0000   -31.1564     7.9680     6.5476   148.2985     6.8578   108.1716    87.3544
  591.5000   -31.0083     8.0584     6.7708   146.0247     6.8586   108.0200    80.8062
  592.0000   -31.0054     8.2537     6.9196   144.5032     6.8594   107.2536    80.8613
  592.5000   -30.8573     8.5990     6.9940   141.4892     6.8603   105.3347    85.1656
  593.0000   -30.8544     8.8393     6.9940   138.4751     6.8755   103.8433    85.6949
  593.5000   -30.8516     8.9297     6.9940   136.2073     6.8765   102.6498    87.0571
  594.0000   -30.8488     8.9751     6.9940   133.1933     6.8774   101.8286    88.8514
  594.5000   -30.8460     8.9755     6.9940   132.4179     6.8782   101.4542    91.9091
  595.0000   -30.8430     8.9611     6.9940   131.6417     6.8790   101.3026    99.9705
  595.5000   -30.8396     8.9615     6.9940   130.8603     6.8654   101.2260    93.7988
  596.0000   -30.8368     8.9620     6.9940   130.0850     6.8376   101.2239    96.3620
  596.5000   -30.8340     8.9624     6.9940   130.0560     6.8385   101.2217    97.5691
  597.0000   -30.8311     8.9328     7.0685   130.0270     6.8681   101.2196    91.6994
  597.5000   -30.8283     8.9333     7.0697   129.9981     6.8833   101.2236    88.2385
  598.0000   -30.8255     8.9637     7.1429   129.9691     6.8553   101.5876    81.7656
  598.5000   -30.8227     9.0242     7.1429   129.9401     6.8114    99.3512    77.8529
  599.0000   -30.8197     9.1012     7.1429   129.9806     6.7994    98.0087    75.4456
  599.5000   -30.8163     9.1451     7.2173   130.6284     6.8004    97.5598    78.0096
  600.0000   -30.7657     9.1445     7.2228   130.5496     6.7868    97.5577    92.1692
  600.5000   -30.5216     9.1336     7.2569   129.9347     6.7861    97.4075    93.8288
  601.0000   -30.6659     9.0568     7.2948   129.3198     6.7854    98.0013    97.0784
  601.5000   -30.6641     8.9524     7.2963   129.0335     6.7846   101.1272    92.3331
  602.0000   -30.6627     8.9079     7.2977   129.0116     6.7839   103.0093    98.6629
  602.5000   -30.6613     8.9836     7.2992   128.9898     6.7831   102.6880   101.0770
  603.0000   -30.8052     9.0741     7.3006   128.9680     6.7824   102.4632    97.4669
  603.5000   -30.8038     9.1497     7.3021   128.9461     6.7816   102.3125    96.1161
  604.0000   -30.8023     9.2102     7.3036   128.9243     6.7809   102.3110    95.9336
  604.5000   -30.8006     9.1808     7.3053   128.9024     6.7801   102.3840   100.0284
  605.0000   -30.7992     9.1364     7.3068   128.8806     6.7794   102.5315   104.8653
  605.5000   -30.7978     9.0771     7.3082   128.8582     6.7786   102.7535   102.9120
  606.0000   -30.7964     9.0459     7.3097   128.8315     6.7779   103.1988    96.2900
  606.5000   -30.7949     8.9884     7.2364   128.8096     6.7771   103.5713    92.8306
  607.0000   -30.7935     8.9739     7.2382   128.7878     6.7764   103.7171    91.6303
  607.5000   -30.7921     9.0196     7.2396   128.7659     6.7757   103.3430    89.9781
  608.0000   -30.6453     8.9902     7.0923   129.4958     6.7749   102.9693    88.1754
  608.5000   -30.6439     8.9158     7.0937   129.4685     6.7748   102.7444    86.5233
  609.0000   -30.4968     8.9012     7.0208   130.1929     6.7749   102.5941    83.0639
  609.5000   -30.4954     8.9170     7.0226   130.1711     6.7319   102.5926    80.0564
  610.0000   -30.4940     8.9625     7.0241   130.8955     6.6743   102.6656    86.8379
  610.5000   -30.3472     8.9481     7.0255   131.6199     6.8042   102.8131    84.7329
  611.0000   -30.3458     8.8430     7.0270   132.3389     6.8476   103.0351    85.7927
  611.5000   -30.1990     8.7844     7.0284   132.3171     6.8765   103.2566    86.0984
  612.0000   -30.1976     8.9051     7.0299   132.2952     6.9055   103.4786    83.2415
  612.5000   -30.3415     8.8007     7.0313   133.0251     6.9056   103.7750    82.6424
  613.0000   -30.3401     8.6963     7.0328   133.7495     6.9058   103.9228    87.6179
  613.5000   -30.1933     8.6218     7.0342   134.4740     6.8915   104.0699    92.7429
  614.0000   -30.1916     8.6975     7.0357   135.1984     6.8917   104.1430    90.0365
  614.5000   -30.1902     8.7581     7.0375   135.9174     6.8774   104.2904    85.9748
  615.0000   -30.1888     8.7886     6.9642   136.6418     6.8631   104.3634    86.8829
  615.5000   -30.1873     8.7592     6.8912   136.6194     6.8489   104.5106    92.0078
  616.0000   -30.1859     8.5499     6.8183   136.5926     6.8490   104.4347    93.9702
  616.5000   -30.1845     8.5679     6.8201   137.3225     6.8492   104.1354    92.6192
  617.0000   -30.1831     8.6788     6.8215   137.2952     6.8781   103.7616    87.0514
  617.5000   -30.1817     8.8517     6.7485   137.2734     6.8783   103.4624    86.4256
  618.0000   -30.1803     9.0772     6.7500   137.9978     6.8784   105.8379    90.0725
  618.5000   -30.1788     9.0328     6.7515   137.9760     6.8785   123.1914    93.0890
  619.0000   -30.1771     8.8684     6.6785   137.9541     6.8931   114.9990    97.7622
  619.5000   -30.1756     8.7641     6.5315   139.4248     6.9076   127.5069    99.2727
  620.0000   -30.1742     8.6147     6.4586   140.8955     6.8136   112.0922    99.4278
  620.5000   -30.1728     8.5404     6.4600   142.4403     6.7206   107.6235   100.0347
  621.0000   -30.1714     8.4510     6.3867   143.8369     6.8072   118.6418   101.3946
  621.5000   -30.1700     8.3914     6.3885   146.0484     6.8650   110.7476    98.2364
  622.0000   -30.0232     8.3322     6.3900   146.0266     6.8940   108.7902   100.8012
  622.5000   -30.0218     8.3779     6.4658   144.5122     6.9085   106.3512    95.6022
  623.0000   -30.0077     8.4235     6.5417   142.9978     6.9086   104.7861    92.8062
  623.5000   -29.8733     8.4990     6.6920   140.7372     6.9088   104.6357    92.0506
  624.0000   -29.7265     8.5746     6.7679   138.4765     6.8946   104.6342    89.2463
  624.5000   -29.7251     8.6951     6.9184   136.9621     6.8802   104.2605    86.6670
  625.0000   -29.7237     8.8306     7.0687   134.7015     6.8516   103.4400    87.8011
  625.5000   -29.7222     8.9662     7.0701   133.8581     6.8229   102.7684    89.6880
  626.0000   -29.7208     9.0417     7.2204   131.6673     6.8231   102.6109    84.5732
  626.5000   -29.5741     9.1172     7.2219   131.6454     6.8664   102.5418    85.9331
  627.0000   -29.5726     9.1628     7.2233   130.8773     6.9098   102.1680    94.2207
  627.5000   -29.5712     9.1784     7.1503   130.1092     6.9244   101.5709    97.0866
  628.0000   -29.5698     9.1640     7.0774   130.0874     6.9245   100.8249    98.8984
  628.5000   -29.5680     9.1047     7.0789   130.0655     6.9247   100.6749    94.0836
  629.0000   -29.5666     9.0604     7.0804   130.7954     6.9248   102.8324    90.1724
  629.5000   -29.5652     9.0010     7.0821   131.5144     6.9249   104.3207    94.2432
  630.0000   -29.4184     8.9416     7.0836   131.4925     6.9251   104.6265    91.0850
  630.5000   -29.4170     8.8822     7.0850   133.0374     6.8963   104.8382    88.9811
  631.0000   -29.4156     8.8078     7.0117   134.4339     6.8677   105.2835    91.9976
  631.5000   -29.4142     8.7185     6.9388   136.6509     6.8534   107.0691    95.4660
  632.0000   -29.4128     8.6291     6.7918   138.8624     6.8680   115.4820    99.2355
  632.5000   -29.2660     8.5377     6.7932   140.3385     6.9114   104.3112    93.0653
  633.0000   -29.2645     8.4480     6.6459   143.3018     6.9404   104.3097    94.8770
  633.5000   -29.2628     8.3311     6.5704   145.5188     6.9693   104.3115    95.3322
