~VERSION INFORMATION
 VERS.                2.0:   CWLS LOG ASCII STANDARD - VERSION 2.0
 WRAP.                 NO:   ONE LINE PER DEPTH STEP
~WELL INFORMATION
#MNEM.UNIT      DATA TYPE    INFORMATION
#----------   ------------   ------------------------------
 STRT.F           20.0000:   START DEPTH
 STOP.F          500.0000:   STOP DEPTH
 STEP.F            0.5000:   STEP LENGTH
 NULL.          -999.2500:   NO VALUE
 COMP.    FENIX & SCISSON:   COMPANY
 WELL. RES 3 TEAPOT DOM #81SX10-10:   WELL
 FLD .             TEAPOT:   FIELD
 LOC .      S10 T38N R78W:   LOCATION
 CNTY.            NATRONA:   COUNTY
 STAT.            WYOMING:   STATE
 CTRY. UNITED STATES OF AMERICA:   COUNTRY
 SRVC.           BIRDWELL:   SERVICE COMPANY
 DATE.        22-NOV-1978:   LOGDATE
 API .       490251075100:   API NUMBER
~CURVE INFORMATION
#MNEM.UNIT       API CODE    CURVE DESCRIPTION
#----------   ------------   ------------------------------
 DEPT.F                  :   
 ILD .OHMM   05 120 46 00:   INDUCTION LOG DEEP
 SN  .OHMM   05 040 16 00:   SHORT NORMAL 16"
 SPR .MV     05 010 01 00:   SPONTANEOUS POTENTIAL FROM RES.
 CALD.IN     45 280 60 00:   CALIPER FROM DENSITY LOG
 CORR.G/C3   45 356 01 00:   DENSITY CORRECTION
 DPHI.DEC    45 890 10 00:   DENSITY POROSITY LIMESTONE
 GRD .GAPI   45 310 01 00:   GAMMA RAY FROM DENSITY LOG
 RHOB.G/C3   45 350 01 00:   BULK DENSITY
~PARAMETER INFORMATION
#MNEM.UNIT          VALUE    DESCRIPTION
#----------   ------------   ------------------------------
 PD  .                 GL:   PERMANENT DATUM
 EPD .F              5129:   ELEVATION PERMANENT DATUM
 LMF .                 KB:   LOG MEASURED FROM
 DAPD.F                 4:   FEET ABOVE PERMANENT DATUM
 DMF .                 KB:   DRILLING MEASURED FROM
 EKB .F              5133:   KELLING BUSHING
 EGL .F              5129:   GROUND LEVEL
 DATE.        22-NOV-1978:   RUN DATE
 RUN .                  1:   RUN NUMBER
 DD  .F               500:   DEPTH DRILLER
 DL  .F               500:   DEPTH LOGGER
 BLI .F               500:   BOTTOM LOG INTERVAL
 TLI .F                20:   TOP LOG INTERVAL
 CS  .IN            8.625:   CASING SIZE
 CBD .F                40:   CASING BOTTOM DRILLER
 CBL .F                40:   CASING BOTTOM LOGGER
 BS  .IN            7.875:   BIT SIZE
 BSD .F               500:   BIT SIZE AT DEPTH
 DFT .                KCL:   DRILLING FLUID TYPE
 DFD .                8.7:   DRILLING FLUID DENSITY
 DFV .                 36:   DRILLING FLUID VISCOSITY
 DFPH.               11.2:   DRILLING FLUID PH
 DFL .                 94:   DRILLING FLUID LOSS
 MSS .            MUD PIT:   MUD SAMPLE SOURCE
 RMS .OHMM           0.28:   RESISTIVITY MUD SAMPLE
 MST .F                62:   MUD SAMPLE TEMPERATURE
 RMF .OHMM           0.24:   RESISTIVITY MUD FILTRATE SAMPLE
 MFST.F                66:   MUD FILTRATE SAMPLE TEMPERATURE
 RMC .OHMM           0.31:   RESISTIVITY MUD CAKE
 MCST.F                66:   MUD CAKE SAMPLE TEMPERATURE
 MFSS.               MEAS:   MUD FILTRATE SAMPLE SOURCE
 MCSS.               MEAS:   MUD CAKE SAMPLE SOURCE
 RMB .OHMM            0.3:   RESISTIVITY MUD AT BHT
 BHT .F                58:   BOTTOM HOLE TEMPERATURE
 TCS .HRS               1:   TIME CURCULATED STOPPED
 MRT .F                58:   MAXIMUM RECORDED TEMPERATURE
 LUN .               3029:   LOGGING UNIT NUMBER
 LUL .               CASP:   LOGGING UNIT LOCATION
 ENGI.           REYNOLDS:   RECORDING ENGINEER
 WITN.              AMEND:   WITNESSED BY
 CLNT.            A2DTECH:   CLIENT CODE
 ORIG.           5" PRINT:   ORIGIN OF DATA
 UWI .       490251075100:   UNIQUE WELL ID
 DICO. A2D Technologies, Inc.:   DIGITIZING COMPANY
~OTHER INFORMATION
~A   DEPT      ILD         SN        SPR       CALD       CORR       DPHI         GRD      RHOB   
# ...
  344.0000    18.3519    18.2910   -34.4296     7.6545    -0.0023     0.2040    78.2309     2.3397
  344.5000    18.3670    18.2896   -34.7798     7.6693     0.0028     0.1845    76.1319     2.3554
  345.0000    18.4672    18.2884   -35.0378     7.6906     0.0073     0.1650    73.1334     2.3787
  345.5000    18.3977    18.2871   -35.3785     7.6990     0.0103     0.1518    71.0125     2.3982
  346.0000    18.3264    18.2856   -35.8161     7.6988     0.0104     0.1329    71.9340     2.4222
  346.5000    18.1923    18.1247   -36.7009     7.6986     0.0074     0.1183    74.4828     2.4519
  347.0000    17.9358    17.9066   -37.3049     7.6985     0.0029     0.1164    78.3808     2.4844
  347.5000    17.8065    17.8633   -37.9089     7.6984     0.0089     0.1188    81.5292     2.4949
  348.0000    17.8001    17.7806   -38.0631     7.6982     0.0329     0.1290    81.8291     2.4776
  348.5000    17.4277    17.6565   -38.2173     7.6981     0.0359     0.1632    78.5307     2.4055
  349.0000    17.3002    17.4118   -37.9228     7.6982     0.0329     0.1992    76.8816     2.3619
  349.5000    17.2945    17.2903   -36.7277     7.7127     0.0269     0.2016    77.7811     2.3536
  350.0000    17.2553    17.2892   -36.1673     7.7276     0.0269     0.2001    79.3441     2.3521
  350.5000    17.0348    17.1980   -36.8832     7.6677     0.0316     0.2016    79.7317     2.3521
  351.0000    16.8139    16.9939   -37.1845     7.6826     0.0315     0.2031    80.3328     2.3513
  351.5000    16.4487    16.6964   -36.8861     7.6826     0.0390     0.2001    79.7345     2.3708
  352.0000    15.9972    16.5799   -36.1379     7.6826     0.0555     0.1727    81.5354     2.3926
  352.5000    15.8854    16.5788   -35.2224     7.6826     0.0585     0.1643    81.5368     2.4039
  353.0000    15.9019    16.5777   -34.4920     7.6826     0.0521     0.1748    79.6752     2.3971
  353.5000    16.0349    16.7731   -34.6434     7.6976     0.0435     0.1817    76.2926     2.3836
  354.0000    16.3471    16.8070   -34.9447     7.6976     0.0390     0.1847    75.0942     2.3776
  354.5000    16.4675    16.6896   -35.5458     7.6976     0.0450     0.1775    77.3449     2.3888
  355.0000    16.6885    16.5515   -36.1470     7.6976     0.0558     0.1705    78.3958     2.3963
  355.5000    16.6871    16.4573   -36.4568     7.6976     0.0750     0.1672    76.7484     2.4053
  356.0000    16.6236    16.2120   -36.7499     7.7126     0.0930     0.1642    76.1497     2.4106
  356.5000    16.4551    16.0049   -36.4515     7.7126     0.1035     0.1660    76.9011     2.4009
  357.0000    16.3402    16.0038   -36.0032     7.7126     0.0792     0.1771    78.5597     2.3813
  357.5000    16.0830    16.0025   -35.1051     7.7126     0.0631     0.1867    79.1532     2.3663
  358.0000    15.8908    16.0014   -34.2070     7.7126     0.0556     0.1906    78.1051     2.3617
  358.5000    15.8899    16.0005   -33.9085     7.7126     0.0526     0.1918    75.4079     2.3632
  359.0000    15.8887    15.9993   -34.3828     7.7126     0.0527     0.1933    73.7601     2.3670
  359.5000    15.6687    15.9981   -35.4110     7.7126     0.0542     0.1941    74.8114     2.3722
  360.0000    15.5594    15.9971   -35.7123     7.7108     0.0542     0.1890    77.2116     2.3767
  360.5000    15.4508    15.6665   -35.4139     7.6976     0.0512     0.1803    77.9626     2.3843
  361.0000    15.4496    15.5333   -34.3659     7.6976     0.0467     0.1806    76.3149     2.3895
  361.5000    15.2225    15.2358   -33.9080     7.3683     0.0438     0.1806    74.3676     2.3699
  362.0000    15.0734    15.0449   -35.5962     7.3234     0.0438     0.1896    77.3675     2.3602
  362.5000    15.0238    14.7811   -37.5190     7.3084     0.0438     0.2013    79.3180     2.3542
  363.0000    14.7135    14.6063   -38.1199     7.3234     0.0498     0.2025    80.3689     2.3519
  363.5000    14.6108    14.3099   -38.1216     7.3255     0.0573     0.2022    80.9700     2.3534
  364.0000    14.2099    14.1117   -37.5233     7.3533     0.0618     0.2012    76.7738     2.3541
  364.5000    14.0718    13.8729   -36.9251     7.3982     0.0453     0.1994    66.2805     2.3571
  365.0000    13.8193    13.5347   -36.6267     7.4581     0.0423     0.1970    65.2824     2.3609
  365.5000    13.6391    13.2551   -36.7784     7.5180     0.0439     0.1940    69.9554     2.3639
  366.0000    13.4394    13.0262   -37.0641     7.5778     0.0424     0.1913    77.5295     2.3654
  366.5000    13.2532    12.8014   -37.5309     7.5928     0.0349     0.1928    80.0796     2.3639
  367.0000    13.1608    12.8897   -37.8322     7.6377     0.0275     0.1937    82.4798     2.3706
  367.5000    13.1599    12.9106   -37.9835     7.6387     0.0170     0.1889    83.9805     2.3811
  368.0000    13.0680    13.0066   -37.9850     7.6527     0.0140     0.1830    80.3840     2.3901
  368.5000    13.0670    13.1581   -37.8293     7.6377     0.0170     0.1747    77.6868     2.3976
  369.0000    13.0662    13.1572   -37.5384     7.6377     0.0215     0.1711    75.8891     2.4029
  369.5000    13.0620    13.2478   -37.5397     7.6377     0.0215     0.1687    74.6872     2.4021
  370.0000    12.8843    13.2469   -37.5414     7.6377     0.0186     0.1681    75.8923     2.4021
  370.5000    12.8674    13.2460   -37.9926     7.6527     0.0111     0.1681    79.3420     2.4043
  371.0000    12.7936    13.2450   -38.7437     7.6583     0.0081     0.1678    77.3944     2.4088
  371.5000    12.7043    13.1526   -39.3553     7.6826     0.0083     0.1672    75.7466     2.4081
  372.0000    12.7033    13.1314   -39.9463     7.6976     0.0126     0.1632    85.1937     2.4141
  372.5000    12.7026    13.0554   -39.9477     7.6976     0.0141     0.1551    86.3945     2.4246
  373.0000    12.7015    12.7901   -39.8681     7.6976     0.0172     0.1527    86.5458     2.4291
  373.5000    12.4266    12.5972   -39.3506     7.6976     0.0170     0.1554    85.4978     2.4336
  374.0000    12.3523    12.4384   -39.0525     7.6377     0.0127     0.1539    79.8024     2.4351
  374.5000    12.1909    12.2662   -39.0540     7.6228     0.0082     0.1575    80.2536     2.4261
  375.0000    12.0127    12.1806   -39.4053     7.6078     0.0067     0.1563    81.1545     2.4230
  375.5000    11.9659    12.0956   -40.4065     7.6078     0.0082     0.1548    81.0060     2.4260
  376.0000    11.8231    12.0947   -40.8578     7.6078     0.0128     0.1529    83.3223     2.4305
  376.5000    11.7630    12.0939   -41.0567     7.6228     0.0113     0.1505    84.9073     2.4230
  377.0000    11.7622    12.0929   -41.1601     7.6288     0.0083     0.1586    85.3585     2.4148
  377.5000    11.7613    12.0921   -40.4198     7.6377     0.0038     0.1661    84.7602     2.4110
  378.0000    11.7605    11.8931   -39.9640     7.6377     0.0098     0.1625    82.7645     2.4170
  378.5000    11.8575    11.7597   -39.9658     7.6377     0.0218     0.1514    89.1112     2.4267
  379.0000    11.9232    11.7589   -40.4170     7.6377     0.0263     0.1517    93.1606     2.4312
  379.5000    11.9223    11.7580   -40.8046     7.6377     0.0308     0.1517    93.0117     2.4305
  380.0000    12.0046    11.8390   -41.1695     7.6527     0.0323     0.1522    90.6345     2.4237
  380.5000    11.9206    11.8383   -41.1710     7.6504     0.0353     0.1570    84.3196     2.4207
  381.0000    11.9199    11.9198   -41.1677     7.6377     0.0413     0.1552    79.9732     2.4230
  381.5000    12.0020    11.9190   -40.5745     7.6527     0.0474     0.1543    78.9248     2.4290
  382.0000    12.0011    11.8759   -40.1262     7.6377     0.0623     0.1540    82.8486     2.4305
  382.5000    12.0002    11.8348   -39.9773     7.6377     0.0564     0.1541    84.6251     2.4199
  383.0000    11.9994    11.7524   -39.9791     7.6377     0.0474     0.1612    83.7270     2.4132
  383.5000    11.9734    11.7515   -39.9805     7.6377     0.0444     0.1663    86.4274     2.4108
  384.0000    11.9149    11.7508   -40.1319     7.6377     0.0624     0.1696    90.6267     2.4229
