~VERSION INFORMATION
 VERS.                2.0:   CWLS LOG ASCII STANDARD - VERSION 2.0
 WRAP.                 NO:   ONE LINE PER DEPTH STEP
~WELL INFORMATION
#MNEM.UNIT      DATA TYPE    INFORMATION
#----------   ------------   ------------------------------
 STRT.F           15.0000:   START DEPTH
 STOP.F          620.0000:   STOP DEPTH
 STEP.F            0.5000:   STEP LENGTH
 NULL.          -999.2500:   NO VALUE
 COMP.       F D SERV INC:   COMPANY
 WELL. NAVAL PETROLEUM RESERVE 3 SX-1 #87-1-10:   WELL
 FLD .             TEAPOT:   FIELD
 LOC .      S10 T38N R78W:   LOCATION
 CNTY.            NATRONA:   COUNTY
 STAT.            WYOMING:   STATE
 CTRY. UNITED STATES OF AMERICA:   COUNTRY
 SRVC.     Atlas Wireline:   SERVICE COMPANY
 DATE.        02-JAN-1991:   LOGDATE
 API .       490252247100:   API NUMBER
~CURVE INFORMATION
#MNEM.UNIT       API CODE    CURVE DESCRIPTION
#----------   ------------   ------------------------------
 DEPT.F                  :   
 GRR .GAPI   07 310 01 00:   GAMMA RAY
 RILD.OHMM   07 120 46 00:   INDUCTION LOG DEEP RESISTIVITY
 RILM.OHMM   07 120 44 00:   INDUCTION LOG MEDIUM RESISTIVITY
~PARAMETER INFORMATION
#MNEM.UNIT          VALUE    DESCRIPTION
#----------   ------------   ------------------------------
 PD  .                 GL:   PERMANENT DATUM
 EPD .F              5239:   ELEVATION PERMANENT DATUM
 LMF .                 KB:   LOG MEASURED FROM
 DAPD.F                10:   FEET ABOVE PERMANENT DATUM
 DMF .                 KB:   DRILLING MEASURED FROM
 EKB .F              5249:   KELLING BUSHING
 EDF .F              5248:   DRILLING FLOOR
 EGL .F              5239:   GROUND LEVEL
 DATE.        02-JAN-1991:   RUN DATE
 RUN .                  1:   RUN NUMBER
 DD  .F               630:   DEPTH DRILLER
 DL  .F               630:   DEPTH LOGGER
 BLI .F               628:   BOTTOM LOG INTERVAL
 CS  .IN            9.625:   CASING SIZE
 CBD .F                40:   CASING BOTTOM DRILLER
 CBL .F                50:   CASING BOTTOM LOGGER
 BS  .IN            8.625:   BIT SIZE
 BSD .F               630:   BIT SIZE AT DEPTH
 DFT .                AIR:   DRILLING FLUID TYPE
 LUN .            HL 6274:   LOGGING UNIT NUMBER
 LUL .             CASPER:   LOGGING UNIT LOCATION
 ENGI.       P. RASMUSSEN:   RECORDING ENGINEER
 WITN.          G. STRONG:   WITNESSED BY
 CLNT.            A2DTECH:   CLIENT CODE
 ORIG.           5" PRINT:   ORIGIN OF DATA
 UWI .       490252247100:   UNIQUE WELL ID
 DICO. A2D Technologies, Inc.:   DIGITIZING COMPANY
~OTHER INFORMATION
~A   DEPT       GRR      RILD       RILM   
# ...
  197.0000   138.0415     7.3168     7.2654
  197.5000   136.5415     7.4170     7.3709
  198.0000   133.5446     7.4669     7.5165
  198.5000   130.8471     7.5712     7.5155
  199.0000   126.9520     7.6204     7.6194
  199.5000   126.0219     7.7247     7.7243
  200.0000   126.3473     7.8526     7.7233
  200.5000   132.9601     7.8526     7.7544
  201.0000   134.0528     7.9072     7.7882
  201.5000   135.0016     7.9072     7.8276
  202.0000   135.8933     7.9621     7.9359
  202.5000   137.9782     7.9621     7.9899
  203.0000   138.8677     7.9621     8.0443
  203.5000   138.9411     8.0732     7.9875
  204.0000   133.7605     8.1293     7.9622
  204.5000   130.1257     8.1293     7.9302
  205.0000   130.7468     8.0732     7.9292
  205.5000   132.8339     8.0732     7.9278
  206.0000   134.6216     8.0732     8.0375
  206.5000   136.4093     8.0175     8.0363
  207.0000   138.1970     7.9621     8.0351
  207.5000   139.6853     7.9621     8.0341
  208.0000   138.4790     7.9072     8.0329
  208.5000   138.4990     7.9072     8.0318
  209.0000   141.4534     7.9072     8.0308
  209.5000   143.5405     7.9621     8.0296
  210.0000   142.9330     7.9621     8.0283
  210.5000   136.0380     7.9621     8.0272
  211.0000   135.7299     7.9621     8.0262
  211.5000   136.9188     8.0175     8.0811
  212.0000   136.9101     8.0732     8.1361
  212.5000   133.8323     8.1858     8.2481
  213.0000   130.3037     8.2999     8.3619
  213.5000   125.2051     8.4742     8.4773
  214.0000   121.6036     8.6537     8.7189
  214.5000   120.9983     8.9133     9.0193
  215.0000   126.0772     9.2725     9.3356
  215.5000   127.8671     9.5329     9.5301
  216.0000   127.2255     9.7330     9.7290
  216.5000   129.6647     9.9374     9.9314
  217.0000   131.7288    10.1460    10.1384
  217.5000   133.5165    10.4309    10.2784
  218.0000   129.6156    10.6499    10.5654
  218.5000   127.5110    10.8815    10.7163
  219.0000   126.6041    11.1017    11.0099
  219.5000   125.9966    11.2566    11.1622
  220.0000   125.9879    11.2566    11.3163
  220.5000   125.3802    11.2566    11.3144
  221.0000   124.4713    11.2566    11.2348
  221.5000   122.6661    11.2566    11.1558
  222.0000   119.9628    11.2566    11.0774
  222.5000   117.5589    11.1789    10.9996
  223.0000   118.1512    11.1017    10.8823
  223.5000   118.7413    11.1017    10.8390
  224.0000   119.3293    11.0251    10.6208
  224.5000   119.9193    10.8735    10.5462
  225.0000   120.5093    10.7984    10.3998
  225.5000   121.6961    10.7239    10.3984
  226.0000   119.8909    10.5764    10.3253
  226.5000   118.0858    10.4290    10.2527
  227.0000   117.4783    10.2771    10.2514
  227.5000   116.2720    10.2165    10.2500
  228.0000   117.4609    10.2165    10.2485
  228.5000   119.2486    10.2165    10.2469
  229.0000   118.5948    10.2165    10.1047
  229.5000   117.4326    10.2165     9.9644
  230.0000   116.8250    10.2165     9.8944
  230.5000   116.2175    10.2875     9.8249
  231.0000   115.9094    10.2951     9.7558
  231.5000   115.3019    10.3589     9.6872
  232.0000   114.6944    10.2165     9.6511
  232.5000   114.3863    10.1460     9.5655
  233.0000   116.5988     9.9374     9.4757
  233.5000   120.6541     9.8007     9.4173
  234.0000   125.1364     9.6659     9.2867
  234.5000   123.3313     9.5992     9.2214
  235.0000   121.8256     9.4671     9.1565
  235.5000   121.5174     9.4018     9.1553
  236.0000   122.4069     9.4018     9.0910
  236.5000   123.2964     9.2725     9.0270
  237.0000   123.2874     9.1449     8.9635
  237.5000   122.0792     9.1449     8.9003
  238.0000   121.1723     9.0818     8.8991
  238.5000   120.5648     9.0191     8.8365
  239.0000   119.9573     8.9569     8.7744
  239.5000   119.0503     8.8951     8.7127
  240.0000   119.3410     8.8337     8.7115
  240.5000   120.8293     8.7727     8.6503
  241.0000   118.9561     8.7727     8.6491
  241.5000   117.8157     8.7122     8.6479
  242.0000   116.9088     8.7122     8.6465
  242.5000   116.6007     8.7122     8.6454
  243.0000   117.1929     8.7122     8.6442
  243.5000   117.7830     8.6521     8.6430
  244.0000   116.2751     8.6521     8.5231
  244.5000   115.6676     8.6521     8.4048
  245.0000   116.6168     8.6521     8.2882
  245.5000   119.8396     8.6521     8.1162
  246.0000   121.0285     8.6521     7.9489
  246.5000   120.7204     8.4157     7.8384
  247.0000   120.7117     8.1858     7.7296
  247.5000   121.3018     7.9585     7.5698
  248.0000   123.9877     7.6912     7.4647
  248.5000   126.9730     7.3781     7.3104
  249.0000   127.2637     7.1766     7.2089
  249.5000   126.6540     7.0290     7.1583
  250.0000   124.2500     6.9323     7.1079
  250.5000   121.8529     7.0107     7.0880
  251.0000   123.6464     7.0842     7.0169
  251.5000   122.7453     7.1576     6.9578
  252.0000   120.9460     7.2310     7.3013
  252.5000   120.0449     7.3456     7.4016
  253.0000   118.7884     7.3425     7.5059
  253.5000   118.2420     7.3527     7.6062
  254.0000   119.4366     7.4405     7.7107
  254.5000   121.2302     7.5416     7.7087
  255.0000   124.2213     7.5385     7.7611
  255.5000   126.6136     7.6409     7.9219
  256.0000   126.6107     7.7448     7.9968
  256.5000   125.4102     7.7960     8.1016
  257.0000   126.0379     7.8475     8.1393
  257.5000   126.9006     7.8442     8.1376
  258.0000   127.7959     7.8415     8.1356
  258.5000   126.2960     7.8936     8.1340
  259.0000   124.1973     7.8907     8.1323
  259.5000   122.9968     7.8880     8.1307
  260.0000   124.7903     7.8854     8.1291
  260.5000   126.8832     7.8827     8.1274
  261.0000   124.7126     7.8794     8.1258
  261.5000   124.1828     7.8768     8.1241
  262.0000   126.8738     7.8741     8.1221
  262.5000   127.7698     7.8718     8.1205
  263.0000   128.0663     7.8688     8.0072
  263.5000   128.6615     7.8663     7.9504
  264.0000   127.7604     7.8635     7.8940
  264.5000   126.5579     7.8609     7.8924
  265.0000   125.6188     7.8581     7.8908
  265.5000   125.0564     7.8550     7.8892
  266.0000   125.3536     7.8527     7.8876
  266.5000   126.5475     7.8497     7.8313
  267.0000   127.7430     7.8470     7.7757
  267.5000   128.9377     7.8446     7.7205
  268.0000   130.1317     7.8418     7.6657
  268.5000   131.9311     7.8391     7.6113
  269.0000   133.7187     7.7824     7.5573
  269.5000   131.3198     7.7792     7.5558
  270.0000   128.9217     7.7766     7.5542
  270.5000   126.5236     7.7203     7.6052
  271.0000   125.0237     7.6645     7.6033
  271.5000   124.7214     7.6091     7.5493
  272.0000   124.7185     7.5020     7.4958
  272.5000   124.7255     7.3454     7.4426
  273.0000   125.4072     7.1904     7.3388
  273.5000   127.7031     7.0273     7.2365
  274.0000   128.2997     6.7527     7.0329
  274.5000   124.7033     6.5209     6.7496
  275.0000   122.3052     6.2970     6.4738
  275.5000   121.1046     6.1230     6.2958
  276.0000   121.0778     5.9539     6.1227
  276.5000   121.6976     5.7894     5.9543
  277.0000   122.6447     5.7874     5.9531
  277.5000   123.1881     5.7855     5.9519
  278.0000   130.0714     5.9459     6.0337
  278.5000   132.4637     6.1107     6.1165
  279.0000   129.7662     6.2459     6.2067
  279.5000   125.2723     6.4091     6.3290
  280.0000   126.1676     6.5414     6.4607
  280.5000   128.8952     6.6763     6.6407
  281.0000   131.2509     6.8141     6.7319
  281.5000   133.0444     7.0030     6.8241
  282.0000   132.4427     7.1475     6.8707
  282.5000   130.0446     7.1947     7.0127
  283.0000   126.7483     7.1917     7.0600
  283.5000   124.6496     7.1892     7.1076
  284.0000   122.5509     7.1868     7.1058
  284.5000   121.9491     7.1349     7.1044
  285.0000   122.8437     7.0833     7.1029
  285.5000   124.0384     6.9836     7.0525
  286.0000   126.1313     6.9331     7.0025
  286.5000   127.3260     6.8349     6.8960
  287.0000   126.4249     6.6923     6.6683
  287.5000   126.4220     6.5074     6.5300
