~VERSION INFORMATION
 VERS.                2.0:   CWLS LOG ASCII STANDARD - VERSION 2.0
 WRAP.                 NO:   ONE LINE PER DEPTH STEP
~WELL INFORMATION
#MNEM.UNIT      DATA TYPE    INFORMATION
#----------   ------------   ------------------------------
 STRT.F           33.0000:   START DEPTH
 STOP.F          560.0000:   STOP DEPTH
 STEP.F            0.5000:   STEP LENGTH
 NULL.          -999.2500:   NO VALUE
 COMP. BROWN JOHN E&C INC:   COMPANY
 WELL.        SX 85 #25-3:   WELL
 FLD .             TEAPOT:   FIELD
 LOC .       S3 T38N R78W:   LOCATION
 CNTY.            NATRONA:   COUNTY
 STAT.            WYOMING:   STATE
 CTRY. UNITED STATES OF AMERICA:   COUNTRY
 SRVC.       Schlumberger:   SERVICE COMPANY
 DATE.        23-SEP-1980:   LOGDATE
 API .       490251130600:   API NUMBER
~CURVE INFORMATION
#MNEM.UNIT       API CODE    CURVE DESCRIPTION
#----------   ------------   ------------------------------
 DEPT.F                  :   
 ILD .OHMM   07 120 46 00:   INDUCTION LOG DEEP
 ILM .OHMM   07 120 44 00:   INDUCTION LOG MEDIUM
 DPHI.DEC    45 890 12 00:   DENSITY POROSITY SANDSTONE
 RHOB.G/C3   45 350 01 00:   BULK DENSITY
 DRHO.G/C3   45 356 01 00:   DENSITY CORRECTION
 CALD.IN     45 280 60 00:   CALIPER
 GRD .GAPI   45 310 01 00:   GAMMA RAY FROM DENSITY LOG
~PARAMETER INFORMATION
#MNEM.UNIT          VALUE    DESCRIPTION
#----------   ------------   ------------------------------
 PD  .                 GL:   PERMANENT DATUM
 EPD .F              5144:   ELEVATION PERMANENT DATUM
 LMF .                 KB:   LOG MEASURED FROM
 DAPD.F                10:   FEET ABOVE PERMANENT DATUM
 DMF .                 KB:   DRILLING MEASURED FROM
 EKB .F              5154:   KELLING BUSHING
 EDF .F              5153:   DRILLING FLOOR
 EGL .F              5144:   GROUND LEVEL
 DATE.            9-23-90:   RUN DATE
 RUN .                  1:   RUN NUMBER
 DD  .F               564:   DEPTH DRILLER
 DL  .F               565:   DEPTH LOGGER
 BLI .F               559:   BOTTOM LOG INTERVAL
 TLI .F                40:   TOP LOG INTERVAL
 CS  .IN            8.625:   CASING SIZE
 CBD .F                50:   CASING BOTTOM DRILLER
 CBL .F                50:   CASING BOTTOM LOGGER
 BS  .IN            7.875:   BIT SIZE
 BSD .F               564:   BIT SIZE AT DEPTH
 DFT .                AIR:   DRILLING FLUID TYPE
 TCS .HRS            1900:   TIME CURCULATED STOPPED
 TLAB.HRS            2000:   TIME LOGGER AT BOTTOM
 LUN .               5882:   LOGGING UNIT NUMBER
 LUL .               CODY:   LOGGING UNIT LOCATION
 ENGI.          M. FISHER:   RECORDING ENGINEER
 WITN.          G. STRONG:   WITNESSED BY
 CLNT.            A2DTECH:   CLIENT CODE
 ORIG.        2" 5" PRINT:   ORIGIN OF DATA
 UWI .       490251130600:   UNIQUE WELL ID
 DICO. A2D Technologies, Inc.:   DIGITIZING COMPANY
~OTHER INFORMATION
~A   DEPT      ILD        ILM       DPHI       RHOB       DRHO       CALD         GRD  
# ...
  124.0000     7.9548     7.8976     0.1213     2.4437    -0.0086     7.8556   139.5952
  124.5000     7.9930     8.0050     0.1180     2.4512    -0.0075     7.8571   140.3755
  125.0000     8.1365     8.1143     0.1146     2.4586    -0.0064     7.8587   146.8492
  125.5000     8.3173     8.2250     0.1111     2.4660    -0.0053     7.8602   146.4701
  126.0000     8.5170     8.3368     0.1076     2.4734    -0.0041     7.8625   139.0479
  126.5000     8.6846     8.5146     0.1044     2.4795    -0.0038     7.8664   130.9182
  127.0000     8.9142     8.8117     0.1020     2.4816    -0.0038     7.8704   126.7567
  127.5000     9.1502     9.1188     0.1000     2.4839    -0.0038     7.8743   127.4703
  128.0000     9.3926     9.4861     0.1012     2.4838    -0.0037     7.8783   128.9067
  128.5000     9.5759     9.3524     0.1035     2.4803    -0.0037     7.8808   130.3553
  129.0000     9.4379     9.1971     0.1058     2.4768    -0.0051     7.8782   132.7763
  129.5000     9.3099     8.9781     0.1072     2.4732    -0.0057     7.8757   136.5323
  130.0000     9.1846     9.0917     0.1072     2.4722    -0.0049     7.8732   140.3345
  130.5000     9.0566     9.3986     0.1072     2.4731    -0.0039     7.8707   140.3065
  131.0000     9.0427     9.3136     0.1072     2.4740    -0.0028     7.8682   138.6245
  131.5000     9.0293     9.1675     0.1068     2.4749    -0.0018     7.8657   134.7155
  132.0000     9.0156     9.0237     0.1050     2.4759    -0.0007     7.8632   132.3603
  132.5000     9.0018     8.8821     0.1032     2.4785     0.0003     7.8607   131.8617
  133.0000     8.9881     8.8083     0.1031     2.4799     0.0014     7.8582   134.0088
  133.5000     8.9739     8.8967     0.1029     2.4799     0.0024     7.8557   136.6351
  134.0000     9.0195     9.0261     0.1015     2.4849     0.0033     7.8532   139.2956
  134.5000     9.0711     9.1574     0.0966     2.4927     0.0019     7.8507   138.1127
  135.0000     9.1229     9.2896     0.0961     2.4936     0.0006     7.8482   136.3674
  135.5000     9.1751     9.3986     0.0969     2.4929    -0.0008     7.8456   134.6201
  136.0000     9.2260     9.4861     0.0978     2.4907    -0.0021     7.8431   133.2117
  136.5000     9.3164     9.4268     0.1008     2.4844    -0.0034     7.8417   134.1950
  137.0000     9.4052     9.3785     0.1051     2.4767    -0.0048     7.8470   135.1167
  137.5000     9.4861     9.3306     0.1098     2.4689    -0.0061     7.8521   135.0247
  138.0000     9.3878     9.2828     0.1137     2.4646    -0.0075     7.8572   134.8871
  138.5000     9.2992     9.2353     0.1093     2.4701    -0.0088     7.8615   134.7553
  139.0000     9.2111     9.1881     0.1063     2.4755    -0.0086     7.8626   134.2122
  139.5000     9.1242     9.1409     0.1032     2.4809    -0.0083     7.8637   131.1337
  140.0000     9.0566     9.1803     0.1004     2.4833    -0.0081     7.8649   129.1370
  140.5000     9.1115     9.2199     0.1021     2.4802    -0.0079     7.8660   128.1669
  141.0000     9.1657     9.2598     0.1037     2.4773    -0.0068     7.8672   129.2407
  141.5000     9.2260     9.3128     0.1043     2.4775    -0.0049     7.8684   130.2676
  142.0000     9.1409     9.2139     0.1026     2.4804    -0.0030     7.8695   130.5748
  142.5000     9.1220     8.8926     0.1008     2.4829    -0.0010     7.8707   130.8509
  143.0000     9.1014     8.9235     0.1013     2.4821     0.0009     7.8718   131.0752
  143.5000     9.0809     8.9588     0.1020     2.4813     0.0000     7.8730   130.1967
  144.0000     9.0604     8.9943     0.1026     2.4806    -0.0015     7.8741   129.2854
  144.5000     9.0399     9.0299     0.1032     2.4798    -0.0030     7.8753   128.4145
  145.0000     9.0195     9.0657     0.1045     2.4775    -0.0046     7.8764   129.6626
  145.5000     8.9992     9.1016     0.1058     2.4752    -0.0061     7.8776   132.4541
  146.0000     8.9789     9.1377     0.1064     2.4730    -0.0078     7.8787   134.6230
  146.5000     8.9586     9.1739     0.1051     2.4769    -0.0051     7.8799   134.5973
  147.0000     8.9384     9.2260     0.1027     2.4812    -0.0015     7.8811   132.9486
  147.5000     8.9182     9.1985     0.1003     2.4848     0.0023     7.8804   131.3279
  148.0000     8.8982     9.1502     0.0986     2.4868     0.0062     7.8792   129.6681
  148.5000     8.8904     9.1021     0.0998     2.4849     0.0084     7.8780   130.2383
  149.0000     8.8903     9.0543     0.1010     2.4828     0.0055     7.8768   131.9664
  149.5000     8.8903     9.0067     0.1022     2.4807     0.0023     7.8756   133.7919
  150.0000     8.8903     8.9594     0.1026     2.4790    -0.0010     7.8744   135.1509
  150.5000     8.8903     8.9123     0.1019     2.4811    -0.0043     7.8732   136.3153
  151.0000     8.8904     8.8656     0.1013     2.4828    -0.0076     7.8720   136.1699
  151.5000     8.8905     8.8186     0.1011     2.4813    -0.0086     7.8708   134.6130
  152.0000     8.8921     8.8084     0.1021     2.4798    -0.0100     7.8696   133.0561
  152.5000     8.8204     8.8083     0.1030     2.4795    -0.0119     7.8684   131.5059
  153.0000     8.7329     8.8083     0.1020     2.4831    -0.0110     7.8672   130.3088
  153.5000     8.6462     8.7735     0.1004     2.4867    -0.0091     7.8660   131.4286
  154.0000     8.5668     8.7321     0.0967     2.4902    -0.0071     7.8648   132.5624
  154.5000     8.5668     8.6909     0.0939     2.4939    -0.0052     7.8636   133.4677
  155.0000     8.6466     8.6466     0.0936     2.4931    -0.0037     7.8624   132.4964
  155.5000     8.7462     8.7220     0.0962     2.4904    -0.0029     7.8612   129.8440
  156.0000     8.8743     8.8055     0.0988     2.4875    -0.0021     7.8623   127.1946
  156.5000     8.9952     8.8901     0.0963     2.4906    -0.0026     7.8635   128.0546
  157.0000     9.1177     8.9234     0.0936     2.4957    -0.0042     7.8648   129.9428
  157.5000     9.1577     8.9566     0.0908     2.5001    -0.0057     7.8660   130.0387
  158.0000     9.1783     8.9901     0.0941     2.4970    -0.0049     7.8672   129.1953
  158.5000     9.1991     9.0238     0.0976     2.4890    -0.0039     7.8685   128.0078
  159.0000     9.2198     9.0576     0.0984     2.4869    -0.0029     7.8697   129.3204
  159.5000     9.2406     9.0915     0.1002     2.4859    -0.0031     7.8710   131.0518
  160.0000     9.2615     9.1409     0.1005     2.4853    -0.0034     7.8722   132.2856
  160.5000     9.2823     9.1130     0.1001     2.4850    -0.0036     7.8734   131.6382
  161.0000     9.3108     9.0623     0.0974     2.4879    -0.0009     7.8747   130.8499
  161.5000     9.2891     9.0120     0.0936     2.4941     0.0019     7.8759   130.0278
  162.0000     9.2510     8.9734     0.0896     2.5002     0.0049     7.8771   129.5313
  162.5000     9.2130     9.0514     0.0905     2.4995     0.0090     7.8784   132.3293
  163.0000     9.1751     9.1159     0.0954     2.4932     0.0132     7.8796   133.5163
  163.5000     9.1409     9.1819     0.0995     2.4868     0.0171     7.8811   131.9715
  164.0000     9.0069     9.2259     0.1025     2.4811     0.0134     7.8643   130.0423
  164.5000     8.8858     9.0257     0.1047     2.4766     0.0093     7.8388   129.7766
  165.0000     8.7664     8.8751     0.1068     2.4716     0.0052     7.8230   131.1466
  165.5000     8.6466     8.7270     0.1100     2.4665     0.0012     7.8652   131.9350
  166.0000     8.5930     8.5815     0.1112     2.4685    -0.0021     7.8871   132.7022
  166.5000     8.5030     8.4384     0.1092     2.4724    -0.0034     7.8746   133.1209
  167.0000     8.4141     8.3299     0.1074     2.4760    -0.0047     7.8679   133.5282
  167.5000     8.3260     8.2514     0.1056     2.4759    -0.0052     7.8613   133.7127
  168.0000     8.2372     8.2522     0.1040     2.4802    -0.0056     7.8626   133.7865
  168.5000     8.1745     8.2546     0.0993     2.4865    -0.0060     7.8644   136.5132
  169.0000     8.2516     8.2540     0.0956     2.4929    -0.0064     7.8662   137.0694
