~VERSION INFORMATION
 VERS.                2.0:   CWLS LOG ASCII STANDARD - VERSION 2.0
 WRAP.                 NO:   ONE LINE PER DEPTH STEP
~WELL INFORMATION
#MNEM.UNIT      DATA TYPE    INFORMATION
#----------   ------------   ------------------------------
 STRT.F            0.0000:   START DEPTH
 STOP.F          964.0000:   STOP DEPTH
 STEP.F            0.5000:   STEP LENGTH
 NULL.          -999.2500:   NO VALUE
 COMP. LAWRENCE/ALLISON INC:   COMPANY
 WELL.  NPR 3 #58-16-SX-2:   WELL
 FLD .           NPR NO.3:   FIELD
 LOC .       S2 T38N R78W:   LOCATION
 CNTY.            NATRONA:   COUNTY
 STAT.            WYOMING:   STATE
 CTRY. UNITED STATES OF AMERICA:   COUNTRY
 SRVC.           Gearhart:   SERVICE COMPANY
 DATE.        07-MAY-1987:   LOGDATE
 API .       490251113700:   API NUMBER
~CURVE INFORMATION
#MNEM.UNIT       API CODE    CURVE DESCRIPTION
#----------   ------------   ------------------------------
 DEPT.F                  :   
 GRR .GAPI   07 310 01 00:   GAMMA RAY FROM RES. LOG.
 RILD.OHMM   07 120 46 00:   INDUCTION LOG DEEP RESISTIVITY
 RILM.OHMM   07 120 44 00:   INDUCTION LOG MEDIUM RESISTIVITY
~PARAMETER INFORMATION
#MNEM.UNIT          VALUE    DESCRIPTION
#----------   ------------   ------------------------------
 PD  .                 GL:   PERMANENT DATUM
 EPD .F              5173:   ELEVATION PERMANENT DATUM
 LMF .                 GL:   LOG MEASURED FROM
 DMF .                 GL:   DRILLING MEASURED FROM
 EGL .F              5173:   GROUND LEVEL
 DATE.           5-7-1987:   RUN DATE
 RUN .                  1:   RUN NUMBER
 DD  .F               971:   DEPTH DRILLER
 DL  .F               971:   DEPTH LOGGER
 BLI .F               963:   BOTTOM LOG INTERVAL
 TLI .F                37:   TOP LOG INTERVAL
 CS  .IN            8.625:   CASING SIZE
 CBD .F                44:   CASING BOTTOM DRILLER
 CBL .F                37:   CASING BOTTOM LOGGER
 BS  .IN            7.875:   BIT SIZE
 BSD .F               971:   BIT SIZE AT DEPTH
 TCS .HRS            2100:   TIME CURCULATED STOPPED
 TLAB.HRS            2338:   TIME LOGGER AT BOTTOM
 MRT .F                80:   MAXIMUM RECORDED TEMPERATURE
 LUN .               7597:   LOGGING UNIT NUMBER
 LUL .           GILLETTE:   LOGGING UNIT LOCATION
 ENGI.         WEATHERMON:   RECORDING ENGINEER
 WITN. STRONG/TAYLOR/LOWE:   WITNESSED BY
 CLNT.            A2DTECH:   CLIENT CODE
 ORIG.           5" PRINT:   ORIGIN OF DATA
 UWI .       490251113700:   UNIQUE WELL ID
 DICO. A2D Technologies, Inc.:   DIGITIZING COMPANY
~OTHER INFORMATION
~A    DEPT      GRR      RILD       RILM   
# ...
   91.0000   100.5456     5.9391     5.6874
   91.5000   102.2273     5.8686     5.6513
   92.0000   104.3631     5.7990     5.6154
   92.5000   106.5044     5.7301     5.5485
   93.0000   108.6419     5.6621     5.4718
   93.5000   110.8182     5.5950     5.3961
   94.0000   111.0985     5.5534     5.3215
   94.5000   107.1022     5.5778     5.2471
   95.0000   103.1226     5.5956     5.2645
   95.5000   101.7416     5.6135     5.2828
   96.0000   101.2735     5.6313     5.3009
   96.5000   101.9273     5.6494     5.3190
   97.0000   103.5918     5.6651     5.3370
   97.5000   106.6367     5.6900     5.3650
   98.0000   109.6514     5.7147     5.4043
   98.5000   112.5075     5.7396     5.4442
   99.0000   111.2518     5.7646     5.4845
   99.5000   108.9471     5.7679     5.5252
  100.0000   106.5188     5.7680     5.5534
  100.5000   106.5606     5.7128     5.5102
  101.0000   108.7648     5.6764     5.4712
  101.5000   110.9800     5.6403     5.4324
  102.0000   112.1799     5.6045     5.3940
  102.5000   112.1611     5.5688     5.3558
  103.0000   109.6816     5.5334     5.3178
  103.5000   107.1866     5.4982     5.2804
  104.0000   104.7013     5.4632     5.2474
  104.5000   102.2160     5.4286     5.2618
  105.0000    99.7390     5.3981     5.2748
  105.5000    97.2420     5.4220     5.2881
  106.0000    96.3483     5.4435     5.3012
  106.5000    96.6867     5.4650     5.3145
  107.0000    96.4024     5.4866     5.3278
  107.5000    94.8227     5.5083     5.3411
  108.0000    93.2569     5.5301     5.3518
  108.5000    91.6968     5.5520     5.3602
  109.0000    90.4649     5.5740     5.3687
  109.5000    91.8458     5.5960     5.3772
  110.0000    94.6964     5.6182     5.3857
  110.5000    97.5072     5.6403     5.3942
  111.0000    99.8551     5.6609     5.4063
  111.5000    99.7975     5.6693     5.4214
  112.0000    99.7956     5.6780     5.4365
  112.5000   100.2485     5.6867     5.4517
  113.0000   102.8114     5.6954     5.4669
  113.5000   105.3626     5.7041     5.4821
  114.0000   106.1849     5.7129     5.4974
  114.5000   106.0056     5.7216     5.5128
  115.0000   105.2759     5.7303     5.5282
  115.5000   104.2576     5.7391     5.5438
  116.0000   103.5335     5.7479     5.5533
  116.5000   105.2982     5.7566     5.5123
  117.0000   107.5767     5.7657     5.4822
  117.5000   107.9073     5.7675     5.4523
  118.0000   107.2558     5.7675     5.4226
  118.5000   107.1672     5.7675     5.3977
  119.0000   109.2924     5.7676     5.3981
  119.5000   111.1172     5.7668     5.3984
  120.0000   110.0146     5.8143     5.4352
  120.5000   108.5998     5.8968     5.5000
  121.0000   107.4469     5.9801     5.5655
  121.5000   107.0949     6.0647     5.6318
  122.0000   106.6119     6.1504     5.6986
  122.5000   104.0835     6.2537     5.8210
  123.0000   101.9622     6.4304     5.9604
  123.5000   104.0340     6.6121     6.1032
  124.0000   106.1224     6.8002     6.2509
  124.5000   107.8455     6.8685     6.3792
  125.0000   106.0130     6.9081     6.5839
  125.5000   104.9662     6.9474     6.7096
  126.0000   107.1012     6.9869     6.6767
  126.5000   110.2824     7.0341     6.6533
  127.0000   113.5057     6.9488     6.6300
  127.5000   114.0544     6.8446     6.6068
  128.0000   112.4498     6.7414     6.5839
  128.5000   110.8871     6.6400     6.4584
  129.0000   110.8897     6.5219     6.3319
  129.5000   111.9750     6.5959     6.2967
  130.0000   113.4122     6.6877     6.2617
  130.5000   114.8316     6.7808     6.2214
  131.0000   114.7239     6.8751     6.3597
  131.5000   114.5027     6.9683     6.5316
  132.0000   116.9538     7.1397     6.7090
  132.5000   121.6546     7.3056     6.8912
  133.0000   125.1842     7.5001     7.0782
  133.5000   123.6860     7.6939     7.2703
  134.0000   121.2054     7.8927     7.4676
  134.5000   118.6671     8.0967     7.6703
  135.0000   117.6914     8.3391     7.9546
  135.5000   117.1044     8.2294     7.9095
  136.0000   114.7470     8.1009     7.8395
  136.5000   111.9443     7.9580     7.7702
  137.0000   110.2888     7.7980     7.6711
  137.5000   109.3589     7.6413     7.4167
  138.0000   108.4308     7.4877     7.1740
  138.5000   107.6568     7.3372     6.9386
  139.0000   110.1091     7.1897     6.7109
  139.5000   112.7053     7.1205     6.4908
  140.0000   114.0638     7.0645     6.4002
  140.5000   114.7238     7.0345     6.3306
  141.0000   115.3825     7.1073     6.2799
  141.5000   116.0352     7.1203     6.4593
  142.0000   114.8300     7.1333     6.6049
  142.5000   110.4833     7.1465     6.7734
  143.0000   106.2538     7.1588     6.7085
  143.5000   103.0091     7.1689     6.6128
  144.0000   104.2967     6.9730     6.5186
  144.5000   107.0985     6.8235     6.4257
  145.0000   109.9015     6.6767     6.3341
  145.5000   110.9546     6.5335     6.2438
  146.0000   111.1719     6.4556     6.1622
  146.5000   112.1852     6.4454     6.1290
  147.0000   113.2800     6.4352     6.0985
  147.5000   114.0050     6.4251     6.0682
  148.0000   113.5842     6.4149     6.0468
  148.5000   113.1887     6.4048     6.1212
  149.0000   112.7863     6.3947     6.1795
  149.5000   112.5435     6.3846     6.2208
  150.0000   114.3396     6.3745     6.1884
  150.5000   116.1034     6.3644     6.1590
  151.0000   117.8530     6.3544     6.1298
  151.5000   119.4640     6.3444     6.1008
  152.0000   117.9454     6.3246     6.0718
  152.5000   115.8716     6.2960     6.0463
  153.0000   113.7401     6.2676     6.0467
  153.5000   113.7141     6.2390     6.0439
  154.0000   117.2612     6.2195     6.0357
  154.5000   120.8293     6.2094     6.0276
  155.0000   124.0171     6.1996     6.0194
  155.5000   123.4137     6.1898     6.0112
  156.0000   120.6851     6.1800     6.0030
  156.5000   117.9409     6.1702     5.9944
  157.0000   116.5688     6.1375     5.9589
  157.5000   115.4992     6.0043     5.8776
  158.0000   116.2092     5.8739     5.6603
  158.5000   119.3654     5.7463     5.4484
  159.0000   122.5039     5.6216     5.2475
  159.5000   125.2483     5.5012     5.2213
  160.0000   124.2579     5.4681     5.1972
  160.5000   122.0686     5.4357     5.1726
  161.0000   119.8926     5.4035     5.1480
  161.5000   118.5714     5.3714     5.1236
  162.0000   119.0326     5.3396     5.1004
  162.5000   119.4981     5.2970     5.1367
  163.0000   119.9632     5.3420     5.1717
  163.5000   120.4427     5.4117     5.2070
  164.0000   119.9081     5.4824     5.2425
  164.5000   118.7791     5.5540     5.2782
  165.0000   117.6323     5.6266     5.3142
  165.5000   116.5807     5.6999     5.3473
  166.0000   117.1567     5.7675     5.3805
  166.5000   117.7103     5.7488     5.4113
  167.0000   117.0456     5.7318     5.4423
  167.5000   116.9777     5.7132     5.4735
  168.0000   118.1777     5.7524     5.5064
  168.5000   120.0918     5.7958     5.5499
  169.0000   122.0206     5.8395     5.5942
  169.5000   122.1724     5.8835     5.6387
  170.0000   121.4780     5.9279     5.6840
  170.5000   120.7629     5.9726     5.7137
  171.0000   120.0478     6.0176     5.7132
  171.5000   119.3738     6.0620     5.7133
  172.0000   119.0985     6.1051     5.7127
  172.5000   119.6596     6.1485     5.7544
  173.0000   120.1959     6.1922     5.8279
  173.5000   120.7293     6.2363     5.9023
  174.0000   121.2816     6.2806     5.9887
  174.5000   120.9473     6.3252     6.0845
  175.0000   120.2329     6.3702     6.1814
  175.5000   118.4989     6.4155     6.2799
  176.0000   116.6283     6.4606     6.1433
  176.5000   115.2739     6.2790     5.9583
  177.0000   115.6762     6.0628     5.7789
  177.5000   118.7314     5.8540     5.4987
  178.0000   121.5251     5.6595     5.1688
  178.5000   120.4446     5.2240     4.8596
  179.0000   119.0760     4.9577     4.5965
  179.5000   118.0844     4.9130     4.4890
  180.0000   120.8117     4.8648     4.4562
  180.5000   124.2421     4.9680     4.4259
  181.0000   127.1794     5.1281     4.5532
  181.5000   124.7593     5.2933     4.8555
