~VERSION INFORMATION
 VERS.                2.0:   CWLS LOG ASCII STANDARD - VERSION 2.0
 WRAP.                 NO:   ONE LINE PER DEPTH STEP
~WELL INFORMATION
#MNEM.UNIT      DATA TYPE    INFORMATION
#----------   ------------   ------------------------------
 STRT.F          714.0000:   START DEPTH
 STOP.F         1640.0000:   STOP DEPTH
 STEP.F            0.5000:   STEP LENGTH
 NULL.          -999.2500:   NO VALUE
 COMP. BROWN JOHN E&C INC:   COMPANY
 WELL. NPR 3 STX-15 #83-15:   WELL
 FLD .             TEAPOT:   FIELD
 LOC .      S15 T38N R78W:   LOCATION
 CNTY.            NATRONA:   COUNTY
 STAT.            WYOMING:   STATE
 CTRY. UNITED STATES OF AMERICA:   COUNTRY
 SRVC.            Unknown:   SERVICE COMPANY
 DATE.        30-AUG-1991:   LOGDATE
 API .       490251111300:   API NUMBER
~CURVE INFORMATION
#MNEM.UNIT       API CODE    CURVE DESCRIPTION
#----------   ------------   ------------------------------
 DEPT.F                  :   
 TGAS.UNITS  91 830 01 00:   TOTAL GAS FROM HOTWIRE
 C1  .VF     91 831 01 00:   METHANE
 C2  .VF     91 832 01 00:   ETHANE
 C3  .VF     91 833 01 00:   PROPANE
 C4  .VF     91 834 01 00:   BUTANE
 ROP .MIN/FT 91 810 01 00:   RAT OF DRILLING PENETRATION
~PARAMETER INFORMATION
#MNEM.UNIT          VALUE    DESCRIPTION
#----------   ------------   ------------------------------
 EKB .F              5265:   KELLING BUSHING
 EGL .F              5255:   GROUND LEVEL
 DATE.            5-30-91:   RUN DATE
 DD  .F              1626:   DEPTH DRILLER
 TCS .HRS            1200:   TIME CURCULATED STOPPED
 TLAB.HRS            1815:   TIME LOGGER AT BOTTOM
 ENGI.               HUSK:   RECORDING ENGINEER
 WITN.              TOWER:   WITNESSED BY
 CLNT.            A2DTECH:   CLIENT CODE
 ORIG.           5" PRINT:   ORIGIN OF DATA
 UWI .       490251111300:   UNIQUE WELL ID
 DICO. A2D Technologies, Inc.:   DIGITIZING COMPANY
~OTHER INFORMATION
~A   DEPT     TGAS         C1         C2         C3         C4          ROP 
# ...
  922.0000   746.3831   504.8148  -999.2500     7.7484     5.0183     0.8046
  922.5000   745.6763   503.3832  -999.2500     7.7323     4.9493     0.8053
  923.0000   744.9694   501.9516  -999.2500     7.7161     4.8803     0.8061
  923.5000   744.2626   500.5199  -999.2500     7.7000     4.8113     0.8068
  924.0000   743.5558   499.0883  -999.2500     7.6839     4.7423     0.8076
  924.5000   742.8491   497.6567  -999.2500     7.6678     4.6733     0.8083
  925.0000   742.1423   496.2251  -999.2500     7.6516     4.6092     0.8062
  925.5000   741.4355   494.7935  -999.2500     7.6355     4.5576     0.7995
  926.0000   740.7286   493.3618  -999.2500     7.6194     4.5058     0.7929
  926.5000   740.0219   491.9302  -999.2500     7.6033     4.4539     0.7862
  927.0000   739.3151   490.4986  -999.2500     7.5871     4.4021     0.7837
  927.5000   738.6083   489.0670  -999.2500     7.5710     4.3502     0.7837
  928.0000   737.9015   487.6353  -999.2500     7.5549     4.2984     0.7837
  928.5000   737.1946   486.2032  -999.2500     7.5388     4.2465     0.7837
  929.0000   736.4879   484.7695  -999.2500     7.5226     4.1947     0.7837
  929.5000   735.7811   483.3470  -999.2500     7.5065     4.1428     0.7837
  930.0000   735.0743   482.2624  -999.2500     7.4904     4.0910     0.7837
  930.5000   734.3675   481.1908  -999.2500     7.4742     4.0392     0.7837
  931.0000   733.6606   480.1175  -999.2500     7.4581     3.9873     0.7837
  931.5000   732.9539   479.0438  -999.2500     7.4419     3.9355     0.7837
  932.0000   732.2471   477.9701  -999.2500     7.4323     3.8836     0.7837
  932.5000   731.5403   476.8964  -999.2500     7.4240     3.8318     0.7837
  933.0000   730.8335   475.8227  -999.2500     7.4157     3.7799     0.7837
  933.5000   730.1267   474.7489  -999.2500     7.4074     3.7281     0.7837
  934.0000   729.4199   473.6752  -999.2500     7.3991     3.6762     0.7837
  934.5000   728.7131   472.6015  -999.2500     7.3909     3.6244     0.7837
  935.0000   728.0063   471.5278  -999.2500     7.3826     3.5726     0.7837
  935.5000   727.2995   470.4541  -999.2500     7.3743     3.5207     0.7837
  936.0000   726.5927   469.3803  -999.2500     7.3660     3.4689     0.7837
  936.5000   725.8859   468.3066  -999.2500     7.3577     3.4170     0.7837
  937.0000   725.1791   467.2329  -999.2500     7.3495     3.3652     0.7837
  937.5000   724.4723   466.1592  -999.2500     7.3412     3.3133     0.7837
  938.0000   723.7655   465.0855  -999.2500     7.3329     3.2615     0.7837
  938.5000   723.0587   464.0117  -999.2500     7.3246     3.2096     0.7837
  939.0000   722.3519   462.9380  -999.2500     7.3163     3.1578     0.7837
  939.5000   721.6451   461.8643  -999.2500     7.3081     3.1060     0.7837
  940.0000   720.9383   460.7906  -999.2500     7.2998     3.0541     0.7837
  940.5000   720.2315   459.7169  -999.2500     7.2915     3.0023     0.7837
  941.0000   719.5247   458.6432  -999.2500     7.2832     2.9504     0.7837
  941.5000   718.8179   457.5694  -999.2500     7.2749     2.8986     0.7837
  942.0000   718.1111   456.4957  -999.2500     7.2666     2.8467     0.7837
  942.5000   717.4043   455.4221  -999.2500     7.2584     2.7949     0.7837
  943.0000   716.6975   454.3490  -999.2500     7.2501     2.7430     0.7837
  943.5000   715.9907   453.2786  -999.2500     7.2418     2.6912     0.7837
  944.0000   715.2839   452.0118  -999.2500     7.2335     2.6393     0.7837
  944.5000   714.5771   450.3552  -999.2500     7.2252     2.5875     0.7837
  945.0000   713.8703   448.7017  -999.2500     7.2169     2.5357     0.7836
  945.5000   713.1635   447.0497  -999.2500     7.2087     2.4838     0.7853
  946.0000   712.4567   445.3978  -999.2500     7.2005     2.4320     0.7871
  946.5000   711.7498   443.7456  -999.2500     7.1950     2.3801     0.7889
  947.0000   711.0417   442.0954  -999.2500     7.1951     2.3283     0.7907
  947.5000   710.3359   440.4395  -999.2500     7.1951     2.2764     0.7925
  948.0000   709.7098   439.0796  -999.2500     7.1951     2.2246     0.7943
  948.5000   709.5326   437.9126  -999.2500     7.1951     2.1729     0.7961
  949.0000   709.3458   436.7517  -999.2500     7.1951     2.1232     0.7979
  949.5000   709.1575   435.5914  -999.2500     7.1951     2.0741     0.7997
  950.0000   708.9692   434.4306  -999.2500     7.1951     2.0266     0.8015
  950.5000   708.7810   433.2698  -999.2500     7.1951     1.9792     0.8033
  951.0000   708.5927   432.1090  -999.2500     7.1951     1.9319     0.8051
  951.5000   708.4044   430.9483  -999.2500     7.1951     1.8845     0.8069
  952.0000   708.2161   429.7875  -999.2500     7.1951     1.8372     0.8087
  952.5000   708.0279   428.6267  -999.2500     7.1951     1.7898     0.8083
  953.0000   707.8396   427.4659  -999.2500     7.1951     1.7425     0.8077
  953.5000   707.6513   426.3051  -999.2500     7.1951     1.6952     0.8071
  954.0000   707.4630   425.1444  -999.2500     7.1951     1.6478     0.8065
  954.5000   707.2748   423.9836  -999.2500     7.1951     1.6005     0.8059
  955.0000   707.0865   422.8228  -999.2500     7.1951     1.5531     0.8054
  955.5000   706.8982   421.6620  -999.2500     7.1951     1.5057     0.8048
  956.0000   706.7099   420.5013  -999.2500     7.1962     1.4582     0.8042
  956.5000   706.5217   419.3405  -999.2500     7.2014     1.4112     0.8037
  957.0000   706.3334   418.1797  -999.2500     7.2064     1.3889     0.8031
  957.5000   706.1451   417.0176  -999.2500     7.2114     1.4623     0.8025
  958.0000   705.9568   415.8582  -999.2500     7.2164     1.5333     0.8019
  958.5000   705.7685   414.7042  -999.2500     7.2214     1.6040     0.8014
  959.0000   705.5803   414.4568  -999.2500     7.2264     1.6747     0.8008
  959.5000   705.3920   415.1929  -999.2500     7.2314     1.7455     0.8002
  960.0000   705.2037   415.9212  -999.2500     7.2364     1.8162     0.7997
  960.5000   705.0154   416.6538  -999.2500     7.2414     1.8869     0.7991
  961.0000   704.8271   417.3859  -999.2500     7.2464     1.9577     0.7985
  961.5000   704.6389   418.1170  -999.2500     7.2515     2.0284     0.7979
  962.0000   704.4506   418.8467  -999.2500     7.2565     2.0991     0.7973
  962.5000   704.2623   419.1761  -999.2500     7.2614     2.1699     0.7968
  963.0000   704.0740   419.0557  -999.2500     7.2664     2.2409     0.7962
  963.5000   703.8857   418.9386  -999.2500     7.2715     2.3119     0.7960
  964.0000   703.6974   418.8200  -999.2500     7.2765     2.3633     0.7958
  964.5000   703.5092   418.7019  -999.2500     7.2815     2.2562     0.7956
  965.0000   703.3209   418.5838  -999.2500     7.2865     2.1468     0.7954
  965.5000   703.1326   418.4657  -999.2500     7.2915     2.0381     0.7952
  966.0000   702.9443   418.3476  -999.2500     7.2965     1.9293     0.7950
  966.5000   702.7560   418.2295  -999.2500     7.3015     1.8750     0.7948
  967.0000   702.5678   418.1114  -999.2500     7.3065     1.8750     0.7946
  967.5000   702.3795   417.9932  -999.2500     7.3115     1.8749     0.7944
  968.0000   702.1912   417.8751  -999.2500     7.3165     1.8750     0.7942
  968.5000   702.0029   417.7570  -999.2500     7.3215     1.8750     0.7940
  969.0000   701.8147   417.6389  -999.2500     7.3265     1.8750     0.7938
  969.5000   701.6264   417.5208  -999.2500     7.3315     1.8750     0.7936
  970.0000   701.4381   417.4026  -999.2500     7.3365     1.8750     0.7934
  970.5000   701.2498   417.2845  -999.2500     7.3415     1.8750     0.7932
  971.0000   701.0615   417.1664  -999.2500     7.3465     1.8750     0.7930
  971.5000   700.8733   417.0483  -999.2500     7.3515     1.8750     0.7928
  972.0000   700.6850   416.9302  -999.2500     7.3565     1.8750     0.7926
  972.5000   700.4967   416.8120  -999.2500     7.3615     1.8750     0.7924
  973.0000   700.3085   416.6921  -999.2500     7.3665     1.8750     0.7922
  973.5000   700.1207   416.6062  -999.2500     7.3715     1.8750     0.7920
