~VERSION INFORMATION
 VERS.                2.0:   CWLS LOG ASCII STANDARD - VERSION 2.0
 WRAP.                 NO:   ONE LINE PER DEPTH STEP
~WELL INFORMATION
#MNEM.UNIT      DATA TYPE    INFORMATION
#----------   ------------   ------------------------------
 STRT.F           38.0000:   START DEPTH
 STOP.F          517.0000:   STOP DEPTH
 STEP.F            0.5000:   STEP LENGTH
 NULL.          -999.2500:   NO VALUE
 COMP. FENIX & SCISSON U.S. NAVY:   COMPANY
 WELL.     NPR 3 #88 S -3:   WELL
 FLD .             TEAPOT:   FIELD
 LOC .       S3 T38N R78W:   LOCATION
 CNTY.            NATRONA:   COUNTY
 STAT.            WYOMING:   STATE
 CTRY. UNITED STATES OF AMERICA:   COUNTRY
 SRVC.              Welex:   SERVICE COMPANY
 DATE.        10-APR-1977:   LOGDATE
 API .       490251033000:   API NUMBER
~CURVE INFORMATION
#MNEM.UNIT       API CODE    CURVE DESCRIPTION
#----------   ------------   ------------------------------
 DEPT.F                  :   
 GRD .GAPI   45 310 01 00:   GAMMA RAY FROM DENSITY LOG
 CALD.IN     45 280 60 00:   CALIPER FROM DENSITY LOG
 CORR.G/C3   45 356 01 00:   DENSITY CORRECTION
 RHOB.G/C3   45 350 01 00:   BULK DENSITY
 DPHI.DEC    45 890 12 00:   DENSITY POROSITY SANDSTONE
 SPR .MV     07 010 01 00:   SPONTANEOUS POTENTIAL
 ILD .OHMM   07 120 46 00:   INDUCTION LOG DEEP
 ILM .OHMM   07 120 44 00:   INDUCTION LOG MEDIUM
 SGRD.OHMM   07 221 05 00:   SHALLOW SHORT GUARD RESISTIVITY
~PARAMETER INFORMATION
#MNEM.UNIT          VALUE    DESCRIPTION
#----------   ------------   ------------------------------
 PD  .                 GL:   PERMANENT DATUM
 EPD .F              5120:   ELEVATION PERMANENT DATUM
 LMF .                 GL:   LOG MEASURED FROM
 DMF .                 GL:   DRILLING MEASURED FROM
 EGL .F              5120:   GROUND LEVEL
 DATE.        10-APR-1977:   RUN DATE
 RUN .                  1:   RUN NUMBER
 DD  .F               520:   DEPTH DRILLER
 DL  .F               519:   DEPTH LOGGER
 BLI .F               517:   BOTTOM LOG INTERVAL
 TLI .F                40:   TOP LOG INTERVAL
 CS  .IN            8.625:   CASING SIZE
 CBD .F                40:   CASING BOTTOM DRILLER
 CBL .F                42:   CASING BOTTOM LOGGER
 BS  .IN            7.875:   BIT SIZE
 BSD .F               520:   BIT SIZE AT DEPTH
 DFT .           KCL- GEL:   DRILLING FLUID TYPE
 DFD .                8.8:   DRILLING FLUID DENSITY
 DFV .                 38:   DRILLING FLUID VISCOSITY
 DFPH.                8.0:   DRILLING FLUID PH
 DFL .                6.4:   DRILLING FLUID LOSS
 MSS .            MUD PIT:   MUD SAMPLE SOURCE
 RMS .OHMM            .28:   RESISTIVITY MUD SAMPLE
 MST .F                55:   MUD SAMPLE TEMPERATURE
 RMF .OHMM            .23:   RESISTIVITY MUD FILTRATE SAMPLE
 MFST.F                55:   MUD FILTRATE SAMPLE TEMPERATURE
 RMC .OHMM            .32:   RESISTIVITY MUD CAKE
 MCST.F                55:   MUD CAKE SAMPLE TEMPERATURE
 MFSS.               MEAS:   MUD FILTRATE SAMPLE SOURCE
 MCSS.               MEAS:   MUD CAKE SAMPLE SOURCE
 RMB .OHMM            .24:   RESISTIVITY MUD AT BHT
 BHT .F                65:   BOTTOM HOLE TEMPERATURE
 TCS .HRS            0300:   TIME CURCULATED STOPPED
 MRT .F                65:   MAXIMUM RECORDED TEMPERATURE
 LUN .               0716:   LOGGING UNIT NUMBER
 LUL .             VERNAL:   LOGGING UNIT LOCATION
 ENGI.        E. CALLAHAN:   RECORDING ENGINEER
 WITN.            R. LYON:   WITNESSED BY
 CLNT.            A2DTECH:   CLIENT CODE
 ORIG.           5" PRINT:   ORIGIN OF DATA
 UWI .       490251033000:   UNIQUE WELL ID
 DICO. A2D Technologies, Inc.:   DIGITIZING COMPANY
~OTHER INFORMATION
~A   DEPT       GRD        CALD     CORR         RHOB     DPHI        SPR        ILD        ILM       SGRD   
# ...
  220.5000   118.8071     7.9145     0.0216     2.4845     0.1001   -34.6536     7.9990     8.3656    12.9786
  221.0000   118.8205     7.9157     0.0202     2.4902     0.0969   -34.6687     8.0499     8.3011    12.9688
  221.5000   118.5358     7.9020     0.0158     2.4876     0.1036   -34.8373     8.0996     8.2861    12.9590
  222.0000   116.9098     7.9032     0.0114     2.4715     0.1160   -34.8522     8.0912     8.1724    12.5930
  222.5000   115.1348     7.8895     0.0040     2.4321     0.1234   -35.0177     8.0845     8.1095    12.0679
  223.0000   113.2108     7.8907    -0.0064     2.4164     0.1308   -35.1832     8.0217     8.0470    12.0588
  223.5000   112.1810     7.8918    -0.0138     2.3969     0.1445   -35.1981     7.8492     7.9296    11.9659
  224.0000   112.4924     7.8781    -0.0122     2.3849     0.1571   -35.2130     7.6270     7.8685    11.8737
  224.5000   114.2942     7.8942    -0.0046     2.3790     0.1610   -35.3785     7.2577     7.6463    11.5384
  225.0000   115.6488     7.8805    -0.0015     2.3888     0.1583   -35.3934     6.9063     7.3275    11.3644
  225.5000   114.7680     7.8817    -0.0029     2.3904     0.1576   -35.4083     6.6641     6.9732    11.1248
  226.0000   114.6324     7.8829    -0.0028     2.3814     0.1606   -35.5738     6.3858     6.7292    10.5133
  226.5000   115.8380     7.8841    -0.0027     2.3709     0.1666   -35.5887     6.0766     6.3593    10.0049
  227.0000   117.3417     7.8853    -0.0026     2.3530     0.1734   -35.6036     5.6588     6.0097     9.6548
  227.5000   118.1002     7.8865    -0.0010     2.3350     0.1835   -35.6185     5.0520     5.5232     9.1880
  228.0000   118.4117     7.9026    -0.0009     2.3177     0.1931   -35.7840     4.5418     5.1116     8.3855
  228.5000   118.2760     7.9038    -0.0008     2.2960     0.2057   -35.7989     4.0831     4.6977     7.6530
  229.0000   117.8423     7.9199    -0.0007     2.2780     0.2174   -35.9644     3.6624     4.2280     6.9360
  229.5000   117.7067     7.9211    -0.0020     2.2601     0.2274   -35.9793     3.2503     3.7265     6.0709
  230.0000   120.1045     7.9223    -0.0094     2.2413     0.2414   -35.9942     2.9456     3.2845     5.2036
  230.5000   119.5218     7.9385    -0.0138     2.2279     0.2510   -36.0091     2.7070     2.9935     4.1599
  231.0000   118.3429     7.9397    -0.0122     2.2362     0.2479   -35.7228     2.5939     2.7684     3.7701
  231.5000   117.3131     7.9410     0.0014     2.2663     0.2317   -35.5871     2.6282     2.6217     3.4408
  232.0000   117.7736     7.9422     0.0180     2.3377     0.1752   -35.4514     2.7573     2.7889     3.5602
  232.5000   119.8734     7.9433     0.0271     2.3918     0.1437   -35.2936     2.8928     3.1594     4.1007
  233.0000   120.3339     7.9296     0.0317     2.4355     0.1313   -35.0294     2.9930     3.4565     7.8706
  233.5000   119.6021     7.9307     0.0348     2.4566     0.1154   -34.8937     3.1621     3.9158     6.9308
  234.0000   118.4232     7.9319     0.0349     2.4701     0.1094   -34.9123     3.4352     4.5934     7.9921
  234.5000   116.7972     7.9332     0.0320     2.4747     0.1055   -34.9272     4.3203     5.1507    10.1619
  235.0000   115.9164     7.9194     0.0261     2.4763     0.1051   -34.9421     4.9627     5.6672    10.2988
  235.5000   114.8866     7.9206     0.0202     2.4718     0.1078   -35.1076     5.3166     5.9313    10.2890
  236.0000   114.1548     7.9218     0.0158     2.4583     0.1123   -35.4237     5.5392     6.1371    10.1388
  236.5000   114.7643     7.9155     0.0129     2.4479     0.1192   -35.5892     5.7310     6.3071     9.9215
  237.0000   115.0758     7.9093     0.0115     2.4419     0.1222   -35.7547     5.9307     6.3464     9.7767
  237.5000   114.9401     7.9104     0.0071     2.4390     0.1245   -35.9202     6.0920     6.3848     9.5670
  238.0000   115.6986     7.9116     0.0012     2.4360     0.1272   -35.9351     6.1296     6.3799     9.7618
  238.5000   116.3082     7.9129    -0.0017     2.4278     0.1296   -35.7957     6.0817     6.4209     9.9606
  239.0000   116.1725     7.9141    -0.0046     2.4226     0.1338   -35.8143     5.9916     6.3703    10.0947
  239.5000   115.4407     7.9152    -0.0059     2.4151     0.1398   -35.9798     5.7815     6.2773    10.2984
  240.0000   114.4109     7.9165    -0.0043     2.4077     0.1464   -35.8404     5.5016     6.0577    10.5081
  240.5000   113.3810     7.9251    -0.0027     2.4047     0.1484   -35.8590     5.2718     5.6849    10.4271
  241.0000   112.9473     7.9338     0.0019     2.4048     0.1472   -35.7233     5.0165     5.3724     8.6918
  241.5000   112.9607     7.9349     0.0080     2.4071     0.1445   -35.7382     4.8745     5.0771     6.9484
  242.0000   113.7192     7.9212     0.0141     2.4161     0.1364   -35.6024     4.8031     4.8995     5.9525
  242.5000   114.9249     7.9223     0.0202     2.4297     0.1270   -35.4668     4.7657     4.8930     7.8109
  243.0000   116.1305     7.9235     0.0233     2.4485     0.1237   -35.4819     4.7618     5.0304     8.3159
  243.5000   117.0381     7.9248     0.0249     2.4403     0.1234   -35.4970     4.8247     5.1334     7.4434
  244.0000   117.6476     7.9260     0.0235     2.4434     0.1219   -35.3609     4.8884     5.2033     6.4110
  244.5000   117.6609     7.9271     0.0191     2.4675     0.1143   -35.3765     5.0225     5.3440     9.5323
  245.0000   116.4821     7.9285     0.0147     2.4660     0.1131   -35.2401     5.1964     5.4590     9.4571
  245.5000   116.1974     7.9297     0.0088     2.4578     0.1155   -35.1044     5.3763     5.6409     9.1261
  246.0000   117.4030     7.9309     0.0089     2.4631     0.1137   -35.1230     5.6013     5.8404     8.8085
  246.5000   118.1616     7.9321     0.0090     2.4669     0.1122   -35.1379     5.8358     6.1282    10.7721
  247.0000   117.7278     7.9332     0.0091     2.4730     0.1109   -35.1528     6.1240     6.3368    11.3814
  247.5000   116.2509     7.9344     0.0092     2.4738     0.1106   -35.0171     6.2504     6.6025    11.6966
  248.0000   115.3701     7.9356     0.0108     2.4716     0.1109   -35.0320     6.4301     6.8793    12.0160
  248.5000   115.6815     7.9368     0.0109     2.4694     0.1112   -35.0469     6.7039     7.1180    12.1755
  249.0000   116.5891     7.9380     0.0125     2.4687     0.1112   -34.9075     7.0141     7.2126    12.2537
  249.5000   117.9438     7.9243     0.0126     2.4718     0.1117   -34.9261     7.1565     7.2070    12.2421
  250.0000   119.4475     7.9254     0.0127     2.4748     0.1132   -34.7867     7.2211     7.1515    12.2092
  250.5000   119.9121     7.9266     0.0116     2.4561     0.1198   -34.9592     7.4509     7.3159    12.1349
  251.0000   122.3130     7.9278     0.0115     2.4441     0.1249   -34.9772     7.4446     7.3930    11.9552
  251.5000   124.4159     7.9290     0.0102     2.4329     0.1270   -34.9952     7.3308     7.2793    11.5344
  252.0000   125.6245     7.9302     0.0103     2.4262     0.1275   -35.0131     7.0722     7.1276    11.1284
  252.5000   126.3861     7.9314     0.0090     2.4293     0.1275   -35.0311     6.8777     6.9743    10.8118
  253.0000   127.1477     7.9325     0.0076     2.4331     0.1281   -35.0491     6.7768     6.8230    10.6518
  253.5000   128.0583     7.9337     0.0063     2.4272     0.1296   -34.9164     6.5838     6.6299    10.6414
  254.0000   128.3728     7.9349     0.0035     2.4185     0.1350   -34.7831     6.3974     6.4873    10.5572
  254.5000   127.7931     7.9361     0.0006     2.4156     0.1401   -34.6506     6.2163     6.2598    10.4009
  255.0000   127.2134     7.9373    -0.0037     2.4145     0.1418   -34.3679     5.9983     6.0403    10.3186
  255.5000   126.4846     7.9236    -0.0111     2.4063     0.1484   -34.0844     5.7478     5.7881    10.3086
  256.0000   126.7991     7.9248    -0.0169     2.3951     0.1550   -33.9518     5.4315     5.4315    10.0854
  256.5000   127.2626     7.9260    -0.0168     2.3891     0.1565   -33.8193     5.3146     5.3147     8.7642
