~VERSION INFORMATION
 VERS.                2.0:   CWLS LOG ASCII STANDARD - VERSION 2.0
 WRAP.                 NO:   ONE LINE PER DEPTH STEP
~WELL INFORMATION
#MNEM.UNIT      DATA TYPE    INFORMATION
#----------   ------------   ------------------------------
 STRT.F           46.0000:   START DEPTH
 STOP.F          457.0000:   STOP DEPTH
 STEP.F            0.5000:   STEP LENGTH
 NULL.          -999.2500:   NO VALUE
 COMP. BROWN JOHN E&C INC:   COMPANY
 WELL. NPR 3 X10 #54-52-10:   WELL
 FLD .             TEAPOT:   FIELD
 LOC .      S10 T38N R78W:   LOCATION
 CNTY.            NATRONA:   COUNTY
 STAT.            WYOMING:   STATE
 CTRY. UNITED STATES OF AMERICA:   COUNTRY
 SRVC.       Schlumberger:   SERVICE COMPANY
 DATE.        27-SEP-1990:   LOGDATE
 API .       490251131700:   API NUMBER
~CURVE INFORMATION
#MNEM.UNIT       API CODE    CURVE DESCRIPTION
#----------   ------------   ------------------------------
 DEPT.F                  :   
 GRR .GAPI   07 310 01 00:   GAMMA RAY
 ILD .OHMM   07 120 46 00:   INDUCTION LOG DEEP
 ILM .OHMM   07 120 44 00:   INDUCTION LOG MEDIUM
~PARAMETER INFORMATION
#MNEM.UNIT          VALUE    DESCRIPTION
#----------   ------------   ------------------------------
 PD  .                 GL:   PERMANENT DATUM
 EPD .F              5190:   ELEVATION PERMANENT DATUM
 LMF .                 KB:   LOG MEASURED FROM
 DAPD.F              10.0:   FEET ABOVE PERMANENT DATUM
 DMF .                 KB:   DRILLING MEASURED FROM
 EKB .F              5200:   KELLING BUSHING
 EDF .F              5199:   DRILLING FLOOR
 EGL .F              5190:   GROUND LEVEL
 DATE.        27-SEP-1990:   RUN DATE
 RUN .                  1:   RUN NUMBER
 DD  .F               460:   DEPTH DRILLER
 DL  .F               463:   DEPTH LOGGER
 BLI .F               467:   BOTTOM LOG INTERVAL
 TLI .F                48:   TOP LOG INTERVAL
 CS  .IN            8.625:   CASING SIZE
 CBD .F                48:   CASING BOTTOM DRILLER
 CBL .F                62:   CASING BOTTOM LOGGER
 BS  .IN            7.875:   BIT SIZE
 BSD .F               460:   BIT SIZE AT DEPTH
 DFT .                AIR:   DRILLING FLUID TYPE
 TCS .HRS            1900:   TIME CURCULATED STOPPED
 TLAB.HRS            1618:   TIME LOGGER AT BOTTOM
 LUN .               6882:   LOGGING UNIT NUMBER
 LUL .               CODY:   LOGGING UNIT LOCATION
 ENGI.        MICK FISHER:   RECORDING ENGINEER
 WITN.       GARRY STRONG:   WITNESSED BY
 CLNT.            A2DTECH:   CLIENT CODE
 ORIG.           5" PRINT:   ORIGIN OF DATA
 UWI .       490251131700:   UNIQUE WELL ID
 DICO. A2D Technologies, Inc.:   DIGITIZING COMPANY
~OTHER INFORMATION
~A   DEPT       GRR       ILD        ILM   
   46.0000    89.9516  -999.2500  -999.2500
   46.5000    99.3734  -999.2500  -999.2500
   47.0000   113.8766  -999.2500  -999.2500
   47.5000   129.6648  -999.2500  -999.2500
   48.0000   134.5060  -999.2500  -999.2500
   48.5000   135.1250  -999.2500  -999.2500
   49.0000   135.0837  -999.2500  -999.2500
   49.5000   137.1898  -999.2500  -999.2500
   50.0000   140.5135  -999.2500  -999.2500
   50.5000   139.8918  -999.2500  -999.2500
   51.0000   137.4493  -999.2500  -999.2500
   51.5000   135.9171  -999.2500  -999.2500
   52.0000   136.5095  1560.0000    17.1314
   52.5000   138.9427     8.6078    13.6190
   53.0000   143.1533     6.5525     8.0413
   53.5000   145.5665     6.4611     7.1884
   54.0000   143.7309     6.6439    91.1215
   54.5000   136.7360     7.2792   749.3105
   55.0000   132.4725     8.2325   957.1472
   55.5000   130.0299     8.9104   249.6216
   56.0000   134.5916     9.2917    13.2805
   56.5000   140.5510     7.6361     8.0859
   57.0000   145.4602     7.6223     7.1274
   57.5000   144.5351     6.9738     6.9779
   58.0000   142.6995     6.9247     6.9282
   58.5000   141.7744     7.3227     7.3767
   59.0000   140.5457     7.5301     7.5317
   59.5000   139.9241     7.5823     7.5831
   60.0000   140.2529     7.6885     7.5812
   60.5000   141.7121     7.8045     7.7408
   61.0000   142.3080     7.9611     7.9031
   61.5000   138.0408     8.1292     8.0129
   62.0000   134.9913     8.3010     8.1242
   62.5000   134.3197     8.4764     8.2949
   63.0000   135.5689     8.6555     8.4692
   63.5000   133.8987     8.7830     8.6467
   64.0000   130.6801     9.0884     8.8903
   64.5000   129.4515     9.2806     9.0138
   65.0000   130.6508     9.5431     9.2037
   65.5000   133.0641     9.6770     9.4626
   66.0000   135.4773     9.8815     9.6614
   66.5000   136.6768    10.0902     9.8687
   67.0000   133.5004    10.2316    10.1419
   67.5000   127.8963    10.4479    10.2833
   68.0000   122.2922    10.5205    10.5726
   68.5000   120.8340    10.7428    10.8705
   69.0000   120.8194    10.9696    11.1774
   69.5000   120.8042    11.2015    11.4919
   70.0000   123.2143    11.4382    11.5702
   70.5000   125.6276    11.5985    11.6491
   71.0000   125.6129    11.6791    11.7286
   71.5000   123.1703    11.6781    11.7256
   72.0000   120.4243    11.6774    11.7232
   72.5000   121.3201    11.5952    11.6391
   73.0000   122.5514    11.5136    11.4750
   73.5000   124.3220    11.4326    11.3132
   74.0000   125.2178    11.2729    11.1531
   74.5000   124.2926    11.1935    11.0729
   75.0000   123.0640    11.0373    10.8160
   75.5000   120.9249    10.8833    10.2483
   76.0000   119.0893    10.7314    10.1043
   76.5000   117.5041    10.6559    10.5349
   77.0000   116.6284    10.6552    10.6818
   77.5000   120.2556    10.5800    10.5307
   78.0000   127.8282    10.5793    10.5285
   78.5000   132.6694    10.6530    10.6874
   79.0000   135.0863    10.7271    10.8985
   79.5000   126.2668    10.9536    11.2844
   80.0000   121.6191    11.1071    11.4417
   80.5000   121.0781    11.0174    11.0454
   81.0000   124.0947    10.7238    10.8137
   81.5000   126.5080    10.5005    10.4355
   82.0000   127.7073    10.2818    10.0782
   82.5000   128.9066    10.1383    10.0761
   83.0000   129.1958     9.9968    10.0741
   83.5000   126.1035     9.9264    10.0018
   84.0000   121.5752     9.7877     9.9301
   84.5000   118.2221     9.7189     9.8588
   85.0000   117.2970     9.6505     9.8545
   85.5000   118.7998     9.6498     9.7856
   86.0000   121.5165     9.5819     9.7154
   86.5000   124.2333     9.5145     9.7134
   87.0000   124.2185     9.4476     9.6437
   87.5000   124.2033     9.3810     9.5745
   88.0000   124.7963     9.3149     9.3737
   88.5000   125.3849     9.2494     9.3064
   89.0000   126.2807     9.1843     9.1107
   89.5000   126.5696     9.1197     8.8574
   90.0000   126.2514     9.0555     8.8556
   90.5000   121.3728     8.9918     8.8538
   91.0000   119.5448     8.9911     8.8520
   91.5000   120.1340     8.9905     8.9124
   92.0000   120.1193     8.9272     9.0362
   92.5000   119.4977     8.9266     9.0973
   93.0000   120.0900     8.9260     9.0955
   93.5000   121.2893     8.9254     9.0937
   94.0000   124.6130     8.9874     9.0284
   94.5000   125.8123     8.9867     9.0266
   95.0000   120.0277     8.9861     9.0247
   95.5000   117.8886     8.9228     8.9573
   96.0000   120.6053     8.8601     8.8332
   96.5000   127.2674     8.7364     8.5876
   97.0000   129.9842     8.4830     8.3488
   97.5000   129.0591     8.1451     8.0039
   98.0000   127.1907     7.9199     7.4614
   98.5000   126.9016     7.8093     7.2539
   99.0000   124.1556     7.7544     7.2524
   99.5000   119.8920     7.6998     7.3528
  100.0000   117.4502     7.6993     7.4799
  100.5000   117.4316     7.6988     7.7754
  101.0000   121.0559     7.6981     7.6679
  101.5000   125.3335     7.6976     7.6685
  102.0000   127.0905     7.7511     7.6690
  102.5000   124.6405     7.8050     7.6696
  103.0000   123.7169     7.8045     7.6701
  103.5000   125.8193     7.8614     7.6706
  104.0000   129.4436     7.9133     7.6711
  104.5000   130.9439     7.9127     7.7799
  105.0000   130.6221     7.9676     7.8351
  105.5000   130.6040     8.0292     7.8356
  106.0000   132.7071     8.1423     7.8912
  106.5000   134.2114     8.1423     8.0030
  107.0000   132.9754     8.1423     8.1163
  107.5000   131.7438     8.3150     8.1797
  108.0000   131.1192     8.3733     8.3480
  108.5000   131.4052     8.5509     8.5257
  109.0000   133.0196     8.7321     8.6465
  109.5000   136.5248     8.7934     8.7689
  110.0000   138.3282     8.6109     8.7695
  110.5000   138.6185     8.4913     8.6482
  111.0000   135.2581     8.4321     8.5885
  111.5000   132.8125     8.4321     8.4108
  112.0000   131.2775     8.4321     8.3525
  112.5000   131.5883     8.4321     8.3532
  113.0000   133.9693     8.3733     8.3538
  113.5000   133.9516     8.3733     8.3544
  114.0000   130.8991     8.3741     8.3549
  114.5000   126.9362     8.4321     8.3590
  115.0000   124.7941     8.5509     8.5335
  115.5000   125.3839     8.6109     8.5940
  116.0000   126.2764     8.7321     8.6550
  116.5000   124.1299     8.6109     8.7162
  117.0000   121.6844     8.5509     8.5956
  117.5000   122.5772     8.3733     8.4177
  118.0000   127.7190     8.2478     8.3013
  118.5000   131.0397     8.1423     8.1294
  119.0000   129.5047     8.0856     8.0170
  119.5000   127.0592     7.9177     7.9060
  120.0000   125.1392     7.9177     7.9067
  120.5000   125.5021     7.9177     7.7973
  121.0000   127.9124     7.9177     7.7978
  121.5000   130.3227     7.9177     7.7983
  122.0000   131.2200     7.8625     7.7989
  122.5000   131.8094     7.6993     7.7451
  123.0000   127.2350     7.5395     7.6915
  123.5000   124.7891     7.3315     7.5323
  124.0000   126.2893     7.1793     7.2738
  124.5000   126.2673     7.0291     7.0735
  125.0000   125.6427     6.8842     6.8307
  125.5000   124.7146     6.8363     6.6892
  126.0000   126.2145     6.7886     6.6898
  126.5000   128.3217     6.7413     6.6902
  127.0000   124.9088     6.7413     6.6907
  127.5000   120.3909     6.7413     6.6911
  128.0000   120.0698     6.7886     6.7386
  128.5000   123.6941     6.8444     6.8820
  129.0000   125.8009     7.0795     6.9795
  129.5000   126.0912     7.2296     7.0785
  130.0000   126.0294     7.3315     7.2800
  130.5000   126.0536     7.4869     7.4871
  131.0000   127.2480     7.6993     7.5932
  131.5000   128.1364     7.6993     7.7007
  132.0000   128.4267     7.6993     7.7013
  132.5000   129.0117     7.6456     7.7018
  133.0000   129.3020     7.6456     7.7024
  133.5000   129.5878     7.6456     7.7030
  134.0000   128.0484     7.4869     7.7035
  134.5000   128.0308     7.4347     7.6501
  135.0000   129.5306     7.3298     7.4918
  135.5000   130.7270     7.2296     7.4401
  136.0000   131.9189     7.1292     7.2819
  136.5000   132.8118     7.0795     7.0360
