~VERSION INFORMATION
 VERS.                2.0:   CWLS LOG ASCII STANDARD - VERSION 2.0
 WRAP.                 NO:   ONE LINE PER DEPTH STEP
~WELL INFORMATION
#MNEM.UNIT      DATA TYPE    INFORMATION
#----------   ------------   ------------------------------
 STRT.F           34.0000:   START DEPTH
 STOP.F          514.0000:   STOP DEPTH
 STEP.F            0.5000:   STEP LENGTH
 NULL.          -999.2500:   NO VALUE
 COMP. FENIX & SCISSON INC:   COMPANY
 WELL. NPR 3 #41 SX 10-10:   WELL
 FLD .             TEAPOT:   FIELD
 LOC .      S10 T38N R78W:   LOCATION
 CNTY.            NATRONA:   COUNTY
 STAT.            WYOMING:   STATE
 CTRY. UNITED STATES OF AMERICA:   COUNTRY
 SRVC.           BIRDWELL:   SERVICE COMPANY
 DATE.        25-JUN-1978:   LOGDATE
 API .       490251065200:   API NUMBER
~CURVE INFORMATION
#MNEM.UNIT       API CODE    CURVE DESCRIPTION
#----------   ------------   ------------------------------
 DEPT.F                  :   
 SPR .MV     07 010 01 00:   SPONTANEOUS POTENTIAL
 ILD .OHMM   07 120 46 00:   INDUCTION LOG DEEP
 SN  .OHMM   07 040 16 00:   SHORT NORMAL 16"
 CALD.IN     45 280 60 00:   CALIPER FROM DENSITY LOG
 GRD .GAPI   45 310 01 00:   GAMMA RAY FROM DENSITY LOG
 CORR.G/C3   45 356 01 00:   DENSITY CORRECTION
 DPHI.DEC    45 890 12 00:   DENSITY POROSITY SANDSTONE
 DEN .G/C3   45 350 01 00:   COMPENSATED BULK DENSTIY
 GRN .GAPI   35 310 01 00:   GAMMA RAY
 NEUT.NAPI   35 330 01 00:   NEUTRON
~PARAMETER INFORMATION
#MNEM.UNIT          VALUE    DESCRIPTION
#----------   ------------   ------------------------------
 PD  .                 GL:   PERMANENT DATUM
 EPD .F              5235:   ELEVATION PERMANENT DATUM
 LMF .                 KB:   LOG MEASURED FROM
 DAPD.F                 4:   FEET ABOVE PERMANENT DATUM
 DMF .                 KB:   DRILLING MEASURED FROM
 EKB .F              5239:   KELLING BUSHING
 EGL .F              5235:   GROUND LEVEL
 DATE.        25-JUN-1978:   RUN DATE
 RUN .                  1:   RUN NUMBER
 DD  .F               510:   DEPTH DRILLER
 DL  .F               514:   DEPTH LOGGER
 BLI .F               514:   BOTTOM LOG INTERVAL
 TLI .F                30:   TOP LOG INTERVAL
 CS  .IN            8.625:   CASING SIZE
 CBD .F                40:   CASING BOTTOM DRILLER
 CBL .F                40:   CASING BOTTOM LOGGER
 BS  .IN            7.875:   BIT SIZE
 BSD .F               510:   BIT SIZE AT DEPTH
 DFT .                KCL:   DRILLING FLUID TYPE
 DFD .                8.6:   DRILLING FLUID DENSITY
 DFV .                 31:   DRILLING FLUID VISCOSITY
 DFPH.                9.5:   DRILLING FLUID PH
 DFL .                 17:   DRILLING FLUID LOSS
 MSS .           FLOWLINE:   MUD SAMPLE SOURCE
 RMS .OHMM             .5:   RESISTIVITY MUD SAMPLE
 MST .F                74:   MUD SAMPLE TEMPERATURE
 RMF .OHMM            .54:   RESISTIVITY MUD FILTRATE SAMPLE
 MFST.F                72:   MUD FILTRATE SAMPLE TEMPERATURE
 RMC .OHMM            1.0:   RESISTIVITY MUD CAKE
 MCST.F                66:   MUD CAKE SAMPLE TEMPERATURE
 MFSS.               MEAS:   MUD FILTRATE SAMPLE SOURCE
 MCSS.               MEAS:   MUD CAKE SAMPLE SOURCE
 BHT .F                74:   BOTTOM HOLE TEMPERATURE
 TCS .HRS            0100:   TIME CURCULATED STOPPED
 MRT .F                74:   MAXIMUM RECORDED TEMPERATURE
 LUN .               2958:   LOGGING UNIT NUMBER
 LUL .               CASP:   LOGGING UNIT LOCATION
 ENGI.           REYNOLDS:   RECORDING ENGINEER
 CLNT.            A2DTECH:   CLIENT CODE
 ORIG.           5" PRINT:   ORIGIN OF DATA
 UWI .       490251065200:   UNIQUE WELL ID
 DICO. A2D Technologies, Inc.:   DIGITIZING COMPANY
~OTHER INFORMATION
~A   DEPT      SPR        ILD         SN       CALD        GRD       CORR       DPHI        DEN        GRN       NEUT   
# ...
  369.0000   -59.2692    15.7213    13.4658     9.6713    76.0637     0.0564     0.1953     2.3496    38.0631  1444.9174
  369.5000   -59.2737    15.6065    13.4594     9.6559    77.2614     0.0518     0.1859     2.3707    37.5288  1447.5946
  370.0000   -59.2786    15.4926    13.4531     9.6556    79.0641     0.0502     0.1758     2.3842    37.6087  1447.5676
  370.5000   -59.2827    15.3795    13.3540     9.6552    79.5113     0.0486     0.1715     2.3970    41.6674  1445.5577
  371.0000   -59.2824    15.2673    13.3421     9.6549    77.6903     0.0501     0.1709     2.4068    42.0423  1435.3463
  371.5000   -59.2808    15.1558    13.2348     9.6547    77.2309     0.0515     0.1697     2.4083    38.6570  1438.0228
  372.0000   -59.2792    15.0450    13.1502     9.6393    78.7320     0.0529     0.1719     2.4090    36.7006  1458.2667
  372.5000   -59.2776    14.8309    13.0534     9.6239    80.0823     0.0544     0.1770     2.4030    36.0225  1471.7540
  373.0000   -59.2760    14.7227    13.0472     9.6235    80.2277     0.0528     0.1782     2.4000    37.9759  1478.4911
  373.5000   -59.2721    14.7167    12.9511     9.6232    79.1488     0.0512     0.1752     2.3985    40.1549  1478.4583
  374.0000   -59.5630    14.5085    12.8557     9.6078    77.0424     0.0466     0.1692     2.4001    40.4542  1462.2158
  374.5000   -59.3986    14.4026    12.7610     9.6075    75.8286     0.0421     0.1568     2.4106    40.5275  1439.2166
  375.0000   -59.2370    14.2975    12.6670     9.6073    75.6724     0.0390     0.1541     2.4264    40.6764  1457.8792
  375.5000   -59.3797    14.0953    12.4870     9.5918    75.8145     0.0374     0.1586     2.4361    43.5321  1472.9479
  376.0000   -59.3662    13.9924    12.3095     9.5915    76.9473     0.0373     0.1641     2.4316    46.0119  1482.3745
  376.5000   -59.5062    13.7945    12.2187     9.6064    81.0771     0.0357     0.1704     2.4226    45.6345  1501.2672
  377.0000   -59.4926    13.6937    12.1275     9.6212    82.2766     0.0342     0.1698     2.4136    43.6781  1503.9501
  377.5000   -59.6327    13.7833    12.1217     9.6662    82.7237     0.0326     0.1734     2.4106    41.5714  1502.5659
  378.0000   -59.6100    13.7763    12.1160     9.6659    78.9440     0.0325     0.1710     2.4114    39.0013  1503.8918
  378.5000   -59.5085    13.7707    12.1103     9.6504    75.6186     0.0325     0.1722     2.4084    35.0071  1506.5676
  379.0000   -59.4071    13.6702    12.0211     9.6048    76.9671     0.0354     0.1647     2.4084    32.9956  1512.0806
  379.5000   -59.3056    13.5704    12.0154     9.5592    78.1666     0.0398     0.1602     2.4197    34.3471  1520.0284
  380.0000   -59.2742    13.4714    12.0097     9.5891    79.5169     0.0397     0.1672     2.4249    35.3231  1506.4822
  380.5000   -59.4169    13.4659    12.0040     9.6198    80.2638     0.0396     0.1744     2.4144    36.1487  1494.2937
  381.0000   -59.2526    13.2754    11.9983     9.6641    80.0614     0.0351     0.1717     2.4099    38.3277  1499.6729
  381.5000   -59.0909    13.1781    11.9098     9.7278    78.5886     0.0290     0.1536     2.4107    41.1082  1502.3558
  382.0000   -58.6174    13.0824    11.8208     9.7691    77.9781     0.0274     0.1578     2.4287    43.3624  1500.9717
  382.5000   -58.1616    13.0710    11.7338     9.7688    77.8201     0.0289     0.1591     2.4423    43.5113  1502.2968
  383.0000   -58.1508    12.9814    11.7282     9.7837    78.1146     0.0333     0.1711     2.4378    42.4351  1509.2090
  383.5000   -58.2908    12.9750    11.6418     9.8891    80.2172     0.0392     0.1738     2.4254    40.1245  1515.7578
  384.0000   -58.4308    12.9698    11.6363    10.0101    81.1168     0.0361     0.1642     2.4047    39.4464  1502.2114
  384.5000   -58.5708    12.8751    11.6308    10.1150    79.9012     0.0301     0.1512     2.4273    42.3021  1483.2662
  385.0000   -58.5573    12.8699    11.6253     9.8429    78.2349     0.0232     0.1455     2.4385    44.1803  1475.1318
  385.5000   -58.5465    12.8647    11.6198     9.8275    78.9910     0.0180     0.1446     2.4483    44.6300  1469.7002
  386.0000   -58.5357    12.8594    11.6143    10.0235    82.4420     0.0133     0.1551     2.4528    44.7038  1483.1874
  386.5000   -58.5249    12.8542    11.6895     9.7508    82.8891     0.0118     0.1579     2.4496    44.8526  1525.0530
  387.0000   -58.3632    12.8490    11.6837     9.9670    82.8802     0.0117     0.1639     2.4318    44.5975  1507.4592
  387.5000   -58.3522    12.8438    11.5965    10.0377    83.6272     0.0116     0.1621     2.4228    40.7519  1504.7297
  388.0000   -58.3389    12.8385    11.6715    10.2036    83.6139     0.0130     0.1666     2.4191    40.2618  1503.3461
  388.5000   -58.3281    12.8321    11.6660     9.2819    83.0077     0.0130     0.1693     2.4198    42.0644  1511.4280
  389.0000   -58.3173    12.9172    11.6605     8.9794    82.0956     0.0144     0.1748     2.4176    42.8149  1524.9152
  389.5000   -58.3064    12.9107    11.6550     8.9943    81.0326     0.0158     0.1730     2.4092    42.5126  1551.9160
  390.0000   -58.2956    12.9964    11.7317     8.8731    79.9696     0.0172     0.1721     2.4078    41.3082  1561.3557
  390.5000   -58.1313    12.9898    11.7248     8.6764    78.6048     0.0202     0.1703     2.4078    42.7353  1538.3500
  391.0000   -58.2740    13.0760    11.8007     8.6006    78.7468     0.0216     0.1642     2.4093    43.7865  1534.1356
  391.5000   -58.2605    13.0694    11.9594     8.5701    78.7397     0.0215     0.1633     2.4169    44.6982  1553.1622
  392.0000   -58.2497    13.1550    12.0466     8.5698    78.7325     0.0244     0.1637     2.4229    45.2869  1553.1351
  392.5000   -58.3899    13.1495    12.1988     8.6147    78.7253     0.0244     0.1646     2.4229    44.1576  1558.5085
  393.0000   -58.3786    13.1441    12.2776     8.6447    77.1774     0.0258     0.1640     2.4214    43.4047  1566.5970
  393.5000   -58.2145    13.1386    12.2704     8.6747    76.2959     0.0242     0.1561     2.4221    45.2829  1551.6993
  394.0000   -58.2037    13.0416    12.2646     8.6895    77.7970     0.0241     0.1495     2.4297    43.8525  1544.9163
  394.5000   -58.1929    12.9464    12.2588     8.6891    79.5998     0.0226     0.1483     2.4409    46.1070  1554.3495
  395.0000   -58.0312    12.7633    12.2530     8.7039    81.4026     0.0225     0.1525     2.4470    44.1503  1578.6476
  395.5000   -58.0204    12.6701    12.2472     8.7036    83.5279     0.0194     0.1565     2.4458    47.6827  1578.6212
  396.0000   -57.8561    12.5776    12.2414     8.7033    84.1032     0.0163     0.1456     2.4380    48.1324  1575.5321
  396.5000   -57.8452    12.4858    12.2356     8.6879    84.0942     0.0133     0.1426     2.4410    43.9200  1544.7783
  397.0000   -57.6836    12.3947    12.2297     8.6725    83.9362     0.0101     0.1438     2.4522    43.3922  1540.7047
  397.5000   -57.6728    12.3042    12.2226     8.6873    83.9291     0.0041     0.1435     2.4553    43.7667  1567.6989
  398.0000   -57.6620    12.2144    12.2168     8.6567    83.0169    -0.0005     0.1543     2.4561    46.9231  1589.2942
  398.5000   -57.8020    12.2094    12.1268     8.6262    83.6113    -0.0035     0.1647     2.4463    48.1999  1606.8356
  399.0000   -57.6376    12.3016    12.1211     8.5051    84.3582    -0.0036     0.1752     2.4283    48.4992  1623.0255
  399.5000   -57.6268    12.5420    12.1154     8.4595    85.5577    -0.0022     0.1820     2.4090    48.8736  1644.6208
  400.0000   -57.3143    12.8887    12.2074     8.5196    85.7014     0.0007     0.2024     2.3977    49.4737  1645.9459
  400.5000   -57.2332    12.8827    12.2823     8.5214    84.7647     0.0123     0.2180     2.3609    46.8443  1623.8237
  401.0000   -57.1180    13.8961    12.3510     8.6848    83.1406     0.0306     0.2331     2.3466    44.9664  1606.6976
  401.5000   -56.8627    14.9345    12.6017     8.7750    78.6171     0.0456     0.2340     2.3210    42.2615  1585.0498
  402.0000   -56.7119    16.1666    12.9486     8.7898    73.3396     0.0573     0.2331     2.3029    41.8869  1560.8108
