~VERSION INFORMATION
 VERS.                2.0:   CWLS LOG ASCII STANDARD - VERSION 2.0
 WRAP.                 NO:   ONE LINE PER DEPTH STEP
~WELL INFORMATION
#MNEM.UNIT      DATA TYPE    INFORMATION
#----------   ------------   ------------------------------
 STRT.F           36.0000:   START DEPTH
 STOP.F          518.0000:   STOP DEPTH
 STEP.F            0.5000:   STEP LENGTH
 NULL.          -999.2500:   NO VALUE
 COMP.    FENIX & SCISSON:   COMPANY
 WELL.        NPR #57S-10:   WELL
 FLD .             TEAPOT:   FIELD
 LOC .      S10 T38N R78W:   LOCATION
 CNTY.            NATRONA:   COUNTY
 STAT.            WYOMING:   STATE
 CTRY. UNITED STATES OF AMERICA:   COUNTRY
 SRVC.              Welex:   SERVICE COMPANY
 DATE.        11-MAR-1977:   LOGDATE
 API .       490251029100:   API NUMBER
~CURVE INFORMATION
#MNEM.UNIT       API CODE    CURVE DESCRIPTION
#----------   ------------   ------------------------------
 DEPT.F                  :   
 SPR .MV     07 010 01 00:   SPONTANEOUS POTENTIAL
 ILD .OHMM   07 120 46 00:   INDUCTION LOG DEEP
 ILM .OHMM   07 120 44 00:   INDUCTION LOG MEDIUM
 SGUR.OHMM   07 220 01 00:   SHORT GUARD RESISITIVITY
 CORR.G/C3   45 356 01 00:   DENSITY CORRECTION
 CALD.IN     45 280 60 00:   CALIPER
 GRD .GAPI   45 310 01 00:   GAMMA RAY FROM DENSITY LOG
 RHOB.G/C3   45 350 01 00:   BULK DENSITY
 DPOR.DEC    45 890 12 00:   DENSITY POROSITY SANDSTONE
~PARAMETER INFORMATION
#MNEM.UNIT          VALUE    DESCRIPTION
#----------   ------------   ------------------------------
 PD  .                 GL:   PERMANENT DATUM
 EPD .F              5244:   ELEVATION PERMANENT DATUM
 LMF .                 GL:   LOG MEASURED FROM
 DMF .                 GL:   DRILLING MEASURED FROM
 EGL .F              5244:   GROUND LEVEL
 DATE.          3-11-1977:   RUN DATE
 RUN .                  1:   RUN NUMBER
 DD  .F               530:   DEPTH DRILLER
 DL  .F               522:   DEPTH LOGGER
 BLI .F               520:   BOTTOM LOG INTERVAL
 TLI .F                35:   TOP LOG INTERVAL
 CS  .IN            8.625:   CASING SIZE
 CBD .F                40:   CASING BOTTOM DRILLER
 CBL .F                44:   CASING BOTTOM LOGGER
 BS  .IN            7.875:   BIT SIZE
 BSD .F               530:   BIT SIZE AT DEPTH
 DFT .            KCL MUD:   DRILLING FLUID TYPE
 DFD .                8.8:   DRILLING FLUID DENSITY
 DFV .                  8:   DRILLING FLUID VISCOSITY
 DFPH.                 10:   DRILLING FLUID PH
 DFL .               12.4:   DRILLING FLUID LOSS
 MSS .           FLOWLINE:   MUD SAMPLE SOURCE
 RMS .OHMM           .398:   RESISTIVITY MUD SAMPLE
 MST .F                50:   MUD SAMPLE TEMPERATURE
 RMF .OHMM           .276:   RESISTIVITY MUD FILTRATE SAMPLE
 MFST.F                60:   MUD FILTRATE SAMPLE TEMPERATURE
 RMC .OHMM            .42:   RESISTIVITY MUD CAKE
 MCST.F                60:   MUD CAKE SAMPLE TEMPERATURE
 MFSS.           MEASURED:   MUD FILTRATE SAMPLE SOURCE
 RMB .OHMM            .31:   RESISTIVITY MUD AT BHT
 BHT .F                64:   BOTTOM HOLE TEMPERATURE
 TCS .HRS             2.5:   TIME CURCULATED STOPPED
 MRT .F                64:   MAXIMUM RECORDED TEMPERATURE
 LUN .               8611:   LOGGING UNIT NUMBER
 LUL .           GILLETTE:   LOGGING UNIT LOCATION
 ENGI.               DOAK:   RECORDING ENGINEER
 WITN.         STUEBINGER:   WITNESSED BY
 CLNT.            A2DTECH:   CLIENT CODE
 ORIG.      2" & 5" PRINT:   ORIGIN OF DATA
 UWI .       490251029100:   UNIQUE WELL ID
 DICO. A2D Technologies, Inc.:   DIGITIZING COMPANY
~OTHER INFORMATION
~A   DEPT      SPR        ILD        ILM       SGUR        CORR        CALD      GRD       RHOB       DPOR   
# ...
   72.5000   -53.5305     7.6109    10.8095    12.2756     0.0282     8.0020   115.6908     2.4317     0.1218
   73.0000   -52.7841     7.5224    10.7793    12.0631     0.0294     8.0020   118.2419     2.4381     0.1198
   73.5000   -52.0382     7.4624    10.7492    12.2725     0.0306     8.0020   120.7803     2.4446     0.1178
   74.0000   -51.2927     7.4032    10.7192    11.5143     0.0318     8.0020   123.3118     2.4510     0.1158
   74.5000   -50.5469     7.3445    10.6988    11.5469     0.0329     8.0020   124.4552     2.4573     0.1134
   75.0000   -49.7994     7.2689    10.7563    11.5824     0.0341     8.0020   122.8219     2.4637     0.1092
   75.5000   -49.0397     7.3026    10.8016    11.6182     0.0352     8.0020   121.6852     2.4700     0.1051
   76.0000   -48.9682     7.3510    10.8470    11.6540     0.0378     8.0020   120.9753     2.4762     0.1010
   76.5000   -49.0411     7.3996    10.8927    11.6899     0.0425     8.0020   124.4686     2.4820     0.0966
   77.0000   -49.1174     7.4486    10.9385    11.7290     0.0471     8.0020   121.9551     2.4948     0.0914
   77.5000   -49.1922     7.5861    10.9845    11.7290     0.0518     8.0020   119.4765     2.5086     0.0844
   78.0000   -49.2668     7.8107    11.2622    11.8173     0.0565     8.0020   117.0208     2.5225     0.0751
   78.5000   -49.3415     8.0419    12.1147    11.9141     0.0611     8.0020   114.7675     2.5340     0.0691
   79.0000   -49.4181     8.3447    14.1510    12.0573     0.0631     8.0020   114.7188     2.5322     0.0707
   79.5000   -49.5065     8.2902    16.1853    11.9832     0.0613     8.0020   117.5773     2.5220     0.0768
   80.0000   -48.9335     8.2164    13.2507    11.8456     0.0595     8.0020   119.9184     2.5115     0.0828
   80.5000   -48.2325     8.1433    10.7592    11.7290     0.0576     8.0020   119.6210     2.5011     0.0887
   81.0000   -48.0324     8.0708    10.4817    11.8179     0.0558     8.0020   118.7757     2.4907     0.0930
   81.5000   -47.9292     7.9990    10.3175    11.8961     0.0539     8.0020   118.0055     2.4804     0.0968
   82.0000   -47.9909     7.9280    10.1609    11.9469     0.0521     7.9964   119.3743     2.4740     0.1007
   82.5000   -48.0814     7.8186    10.0051    11.3805     0.0503     7.9902   121.2563     2.4686     0.1045
   83.0000   -48.1721     7.6810     9.8485    11.0980     0.0484     7.9839   122.2763     2.4631     0.1084
   83.5000   -48.2612     7.5457     9.9108    11.2469     0.0466     7.9777   120.8742     2.4577     0.1110
   84.0000   -48.2603     7.4128     9.9784    11.4053     0.0448     7.9715   122.2087     2.4544     0.1118
   84.5000   -48.1343     7.2823    10.0458    11.5644     0.0430     7.9653   123.6747     2.4591     0.1106
   85.0000   -48.0113     7.2023    10.1136    11.7258     0.0425     7.9590   122.2708     2.4643     0.1079
   85.5000   -47.9444     7.3563    10.1817    11.8919     0.0438     7.9528   123.2335     2.4695     0.1052
   86.0000   -48.0925     7.4716    10.2504    12.0559     0.0452     7.9467   124.4003     2.4714     0.1026
   86.5000   -48.2355     7.5410    10.3195    11.4117     0.0465     7.9441   125.1599     2.4663     0.1053
   87.0000   -48.3691     7.5246    10.3890    11.5412     0.0478     7.9518   123.7537     2.4613     0.1089
   87.5000   -48.4935     7.5121    10.4591    11.7041     0.0492     7.9592   122.4113     2.4564     0.1095
   88.0000   -48.6176     7.4997    10.5296    11.8374     0.0505     7.9666   121.0820     2.4543     0.1070
   88.5000   -48.7418     7.4875    10.6000    11.5130     0.0518     7.9741   119.7535     2.4608     0.1087
   89.0000   -48.8661     7.4752    10.4909    11.2472     0.0532     7.9817   118.4280     2.4613     0.1106
   89.5000   -48.9903     7.4630    10.3838    11.0004     0.0545     7.9719   117.0911     2.4585     0.1110
   90.0000   -49.1146     7.4509    10.2777    11.5261     0.0558     7.9605   116.2777     2.4583     0.1093
   90.5000   -49.2389     7.4387    10.2175    12.0573     0.0572     7.9491   116.5062     2.4617     0.1073
   91.0000   -49.3644     7.4265    10.3758    11.6096     0.0580     7.9377   118.5533     2.4677     0.1038
   91.5000   -49.4937     7.4144    10.4902    11.2016     0.0584     7.9263   120.6975     2.4850     0.0978
   92.0000   -49.3020     7.4023    10.6000    11.3787     0.0587     7.9147   122.8391     2.5050     0.0893
   92.5000   -49.0682     7.3902    10.4919    11.5573     0.0590     7.9030   124.9759     2.5092     0.0819
   93.0000   -48.8341     7.3781    10.3885    11.7386     0.0594     7.9246   127.1241     2.5039     0.0846
   93.5000   -48.7277     7.3661    10.2862    11.8374     0.0597     7.9496   128.3283     2.4985     0.0883
   94.0000   -48.8080     7.3540    10.1849    11.6945     0.0600     7.9747   127.8315     2.4932     0.0906
   94.5000   -48.8828     7.3420    10.0846    11.5262     0.0604     7.9997   125.6578     2.4966     0.0872
   95.0000   -49.0300     7.3300    10.0307    11.1595     0.0607     8.0213   125.7708     2.5013     0.0842
   95.5000   -49.2061     7.3180    10.0307    10.8967     0.0610     8.0119   127.2451     2.5052     0.0855
   96.0000   -49.3761     7.3061    10.0307    10.9717     0.0614     8.0023   128.6729     2.4979     0.0869
   96.5000   -49.2853     7.2941    10.0307    11.0312     0.0617     7.9930   129.2647     2.4907     0.0910
   97.0000   -48.3383     7.2824    10.0307    11.0984     0.0615     7.9836   127.4541     2.4836     0.0956
   97.5000   -47.4294     7.2699    10.0307    11.0044     0.0608     7.9743   125.5068     2.4764     0.0992
   98.0000   -46.5215     7.2874    10.0307    10.8984     0.0601     7.9649   123.4711     2.4693     0.1025
   98.5000   -45.6002     7.3085    10.0307    10.7929     0.0594     7.9556   124.2542     2.4650     0.1057
   99.0000   -45.2310     7.3296    10.0305    10.6980     0.0587     7.9462   125.4994     2.4611     0.1090
   99.5000   -44.9996     7.3908    10.0294    11.0724     0.0579     7.9369   126.7486     2.4553     0.1122
  100.0000   -45.0665     7.4703    10.0307    11.4318     0.0521     7.9275   127.4538     2.4478     0.1157
  100.5000   -45.2403     7.5507    10.2709    11.8008     0.0457     7.9182   124.1672     2.4403     0.1176
  101.0000   -45.4176     7.6320    10.5946    11.9200     0.0392     7.9090   126.2492     2.4337     0.1203
  101.5000   -45.5954     7.7142    10.9812    12.0117     0.0328     7.9048   129.2430     2.4368     0.1217
  102.0000   -45.7741     7.7972    11.0996    12.0530     0.0263     7.9146   129.0882     2.4340     0.1202
  102.5000   -45.9199     7.8812    11.0988    11.9881     0.0202     7.9239   127.6400     2.4290     0.1212
  103.0000   -45.6864     7.9660    11.1970    11.9514     0.0215     7.9332   126.2324     2.4247     0.1239
  103.5000   -45.4501     8.0414    11.5296    12.1208     0.0236     7.9425   124.8600     2.4256     0.1261
  104.0000   -45.0423     8.0238    11.8207    12.2812     0.0258     7.9518   124.3891     2.4254     0.1258
  104.5000   -44.4311     8.0064    11.6545    12.3785     0.0280     7.9611   123.8436     2.4318     0.1234
  105.0000   -43.8231     7.9890    11.4907    12.1652     0.0301     7.9704   121.3746     2.4398     0.1191
  105.5000   -43.2123     7.9715    11.2145    11.9916     0.0322     7.9798   118.3182     2.4507     0.1138
  106.0000   -42.6063     7.8343    10.8342    11.8204     0.0344     7.9891   116.0671     2.4612     0.1079
  106.5000   -42.1970     7.6865    10.4667    11.6517     0.0365     7.9984   116.5079     2.4717     0.1020
  107.0000   -42.3995     7.5414    10.1888    11.4854     0.0376     8.0077   118.9600     2.4815     0.0998
  107.5000   -42.5896     7.3991    10.0955    11.3215     0.0365     8.0170   121.1480     2.4763     0.1009
  108.0000   -42.7316     7.2596    10.0030    11.1502     0.0355     8.0264   119.2269     2.4695     0.1024
  108.5000   -42.2065     7.1318     9.9114    10.9805     0.0344     8.0356   120.2087     2.4665     0.1039
