~VERSION INFORMATION
 VERS.                2.0:   CWLS LOG ASCII STANDARD - VERSION 2.0
 WRAP.                 NO:   ONE LINE PER DEPTH STEP
~WELL INFORMATION
#MNEM.UNIT      DATA TYPE    INFORMATION
#----------   ------------   ------------------------------
 STRT.F            0.0000:   START DEPTH
 STOP.F          860.0000:   STOP DEPTH
 STEP.F            0.5000:   STEP LENGTH
 NULL.          -999.2500:   NO VALUE
 COMP.          U.S. NAVY:   COMPANY
 WELL. NPR #3 TEAPOT DOME #28S-35:   WELL
 FLD .             TEAPOT:   FIELD
 LOC .      S35 T39N R78W:   LOCATION
 CNTY.            NATRONA:   COUNTY
 STAT.            WYOMING:   STATE
 CTRY. UNITED STATES OF AMERICA:   COUNTRY
 SRVC.       Schlumberger:   SERVICE COMPANY
 DATE.        10-NOV-1958:   LOGDATE
 API .       490250649800:   API NUMBER
~CURVE INFORMATION
#MNEM.UNIT       API CODE    CURVE DESCRIPTION
#----------   ------------   ------------------------------
 DEPT.F                  :   
 SPR .MV     01 010 01 00:   SPONTANEOUS POTENTIAL FROM RES.
 ASN .OHMM   01 041 16 00:   AMPLIFIED SHORT NORMAL 16"
 LT18.OHMM   01 070 18 00:   LATERAL 18'
 LN  .OHMM   01 060 64 00:   LONG NORMAL 64"
 GRN .CPS    35 310 30 00:   GAMMA RAY
 NEUT.CPS    35 330 30 00:   NEUTRON
 MCAL.IN     15 280 01 00:   CALIPER FROM MICRO LOG
~PARAMETER INFORMATION
#MNEM.UNIT          VALUE    DESCRIPTION
#----------   ------------   ------------------------------
 LMF .                 KB:   LOG MEASURED FROM
 DMF .                 KB:   DRILLING MEASURED FROM
 EKB .F              5113:   KELLING BUSHING
 EGL .F              5103:   GROUND LEVEL
 DATE.         11-10-1958:   RUN DATE
 RUN .                  1:   RUN NUMBER
 DD  .F               860:   DEPTH DRILLER
 DL  .F               861:   DEPTH LOGGER
 BLI .F               860:   BOTTOM LOG INTERVAL
 TLI .F                90:   TOP LOG INTERVAL
 CBD .F                34:   CASING BOTTOM DRILLER
 BS  .IN             6.75:   BIT SIZE
 BSD .F               860:   BIT SIZE AT DEPTH
 DFT .          OIL ADDED:   DRILLING FLUID TYPE
 DFD .                 10:   DRILLING FLUID DENSITY
 DFV .                 20:   DRILLING FLUID VISCOSITY
 DFPH.                7.5:   DRILLING FLUID PH
 DFL .                4.2:   DRILLING FLUID LOSS
 RMS .OHMM              2:   RESISTIVITY MUD SAMPLE
 MST .F                62:   MUD SAMPLE TEMPERATURE
 RMF .OHMM            1.4:   RESISTIVITY MUD FILTRATE SAMPLE
 MFST.F                72:   MUD FILTRATE SAMPLE TEMPERATURE
 RMC .OHMM            1.9:   RESISTIVITY MUD CAKE
 MCST.F                72:   MUD CAKE SAMPLE TEMPERATURE
 MFSS.                  M:   MUD FILTRATE SAMPLE SOURCE
 MCSS.                  M:   MUD CAKE SAMPLE SOURCE
 RMB .OHMM            1.7:   RESISTIVITY MUD AT BHT
 BHT .F                72:   BOTTOM HOLE TEMPERATURE
 TCS .HRS               1:   TIME CURCULATED STOPPED
 MRT .F                72:   MAXIMUM RECORDED TEMPERATURE
 LUN .               2754:   LOGGING UNIT NUMBER
 LUL .                 NC:   LOGGING UNIT LOCATION
 ENGI.             QUINBY:   RECORDING ENGINEER
 WITN.             MARTIN:   WITNESSED BY
 CLNT.            A2DTECH:   CLIENT CODE
 ORIG.     1", 2.5" PRINT:   ORIGIN OF DATA
 UWI .       490250649800:   UNIQUE WELL ID
 DICO. A2D Technologies, Inc.:   DIGITIZING COMPANY
~OTHER INFORMATION
~A    DEPT     SPR        ASN       LT18         LN          GRN     NEUT       MCAL   
# ...
  591.5000   -24.0747     6.3353     5.4486     4.6746     7.8655   394.2155     7.1562
  592.0000   -24.3359     6.3362     5.4540     4.5434     7.7632   394.2270     7.1563
  592.5000   -24.5992     6.3372     5.4595     4.6841     7.7020   398.7556     7.1564
  593.0000   -24.5889     6.3028     5.3297     4.7033     7.6614   404.1771     7.1566
  593.5000   -24.3079     6.1345     5.1205     4.8295     7.6598   413.3499     7.1840
  594.0000   -24.0268     5.8044     4.8010     4.8342     7.7038   394.2742     7.0428
  594.5000   -24.2892     5.3381     4.4009     4.8390     7.5809   388.1776     6.9310
  595.0000   -24.8233     4.8851     4.2711     4.8437     7.7050   390.4792     6.7969
  595.5000   -25.9009     4.7210     4.1405     4.9844     7.6644   401.9425     6.8547
  596.0000   -25.0615     4.5568     4.1466     5.1250     7.7755   411.1154     6.9934
  596.5000   -24.7952     4.4258     4.1519     5.2656     8.0570   414.1804     7.0209
  597.0000   -25.0576     4.5561     4.1573     5.2124     7.8722   417.3982     7.0108
  597.5000   -25.0476     4.7642     4.2977     5.1393     8.5771   423.3644     6.9392
  598.0000   -25.5824     4.8892     4.4382     5.0770     8.7103   404.4431     6.8991
  598.5000   -25.5720     5.0153     4.4435     5.1488     8.5009   398.9556     6.8849
  599.0000   -25.4909     5.3226     4.4488     5.1535     8.1811   406.5004     6.8850
  599.5000   -25.2001     5.6479     4.4541     5.1592     8.3903   416.5378     6.9125
  600.0000   -24.6838     6.0644     4.4595     5.1613     8.4950   405.5276     6.9397
  600.5000   -24.4032     6.5402     4.5411     5.1606     8.1823   389.0283     6.9395
  601.0000   -24.1875     6.8643     4.5905     5.1589     7.9745   391.9816     6.9393
  601.5000   -24.1889     7.0803     4.5884     5.0865     8.0627   413.1238     6.9391
  602.0000   -24.4622     7.2422     4.5864     5.1549     8.0263   416.5811     6.9115
  602.5000   -24.1916     7.3770     4.7196     5.4242     8.2880   404.4507     6.9112
  603.0000   -24.1286     7.4038     4.7176     5.4223     8.2161   393.4174     6.9109
  603.5000   -24.7379     7.4008     4.7155     5.4203     7.9420   396.9408     6.9107
  604.0000   -24.7392     7.3719     4.7135     5.5542     8.0561   416.3373     6.9104
  604.5000   -24.7405     7.3219     4.7115     5.6882     8.0224   408.3727     6.9209
  605.0000   -24.7418     7.2522     4.7095     5.6861     7.7741   401.3570     6.9481
  605.5000   -24.7763     7.1219     4.7074     5.6841     7.6993   403.6550     6.7720
  606.0000   -25.3932     6.8827     4.8406     5.8180     7.7380   397.1893     6.3799
  606.5000   -25.9049     6.7549     4.8385     5.7975     7.5945   397.9604     6.1883
  607.0000   -26.1060     6.6703     4.8364     5.5154     7.8627   398.9756     6.6821
  607.5000   -26.2183     6.5364     4.9692     5.3691     8.0691   405.8235     6.8620
  608.0000   -27.0543     6.3740     5.1024     5.0870     7.9872   403.6928     6.9869
  608.5000   -26.7753     6.1575     5.2358     4.9929     8.2348   407.7946     7.0689
  609.0000   -26.1114     5.8059     5.3689     5.3224     8.4001   419.6509     7.1386
  609.5000   -25.5695     5.5084     5.2316     5.4647     8.4163   428.4382     7.1407
  610.0000   -25.2989     5.1027     4.9594     5.7428     8.2982   427.3930     7.0583
  610.5000   -25.8439     4.8322     4.6872     5.7996     8.2369   421.4142     7.0435
  611.0000   -25.3016     4.9136     4.4347     5.9334     8.3404   418.6734     7.0432
  611.5000   -25.0313     4.9714     4.1816     5.9311     8.7733   412.3291     7.0296
  612.0000   -24.4746     5.1604     3.9286     5.9292     9.0827   405.7098     6.9745
  612.5000   -24.2187     5.5788     3.7331     5.9272     8.9802   410.6334     6.9604
  613.0000   -24.2201     6.1594     4.0010     5.9252     8.8160   418.7348     6.9328
  613.5000   -24.4932     6.4700     4.4044     5.9232     8.5282   423.6283     6.8772
  614.0000   -24.7663     6.6566     4.6729     5.7772     8.1993   413.9241     6.7945
  614.5000   -25.0394     6.8521     5.0762     5.6309     8.1586   399.2888     6.6717
  615.0000   -25.3125     6.9798     5.3445     5.5095     8.1797   396.1662     6.6876
  615.5000   -25.7364     7.1467     5.4777     5.6766     8.3252   406.8639     6.9505
  616.0000   -26.1307     7.2886     5.4757     5.8188     8.5720   411.5121     7.0976
  616.5000   -26.4037     7.3964     5.4736     5.9114     8.3565   419.8580     7.1221
  617.0000   -26.9485     7.6124     5.4716     5.9674     8.0731   417.5752     7.1218
  617.5000   -27.2216     7.8013     5.4696     6.1096     8.0381   401.5498     7.0906
  618.0000   -27.2229     7.8551     5.4675     6.3125     8.4187   400.7928     7.0237
  618.5000   -27.4959     7.9089     5.4656     6.4463     8.5333   409.9631     6.9686
  619.0000   -27.7690     7.9086     5.5185     6.4440     8.4309   425.2401     6.7787
  619.5000   -27.7704     7.9084     5.5966     6.4420     8.7308   413.0321     6.6175
  620.0000   -27.7717     7.9081     5.7298     6.5759     8.7820   411.3593     6.8469
  620.5000   -27.7731     7.9026     5.8624     6.5739     8.7825   423.7358     6.9286
  621.0000   -27.4094     7.8736     5.9959     6.4361     8.7830   431.3781     6.9557
  621.5000   -27.2323     7.8176     5.9936     6.4341     8.6768   411.5354     6.9554
  622.0000   -26.9619     7.7887     5.9917     6.4321     8.0192   413.0699     6.9278
  622.5000   -26.9633     7.7716     6.1249     6.4300     8.1083   410.7870     6.9275
  623.0000   -27.2367     7.7441     6.2580     6.4280     8.2909   406.2138     6.9546
  623.5000   -26.9660     7.6324     6.2561     6.4260     8.0931   394.7693     7.0363
  624.0000   -26.6958     7.6086     6.3946     6.4239     7.7411   394.7156     7.0907
  624.5000   -26.6971     7.6624     6.5224     6.4218     7.7934   389.4400     7.0631
  625.0000   -26.9702     7.6621     6.5428     6.4198     8.0150   381.0494     7.0082
  625.5000   -27.7867     7.6078     6.6536     6.4178     8.1172   397.3460     6.9806
  626.0000   -28.3315     7.3913     6.5162     6.4158     8.2969   409.3130     6.9803
  626.5000   -28.3329     7.1749     6.5142     6.4133     8.4699   402.4493     6.9800
  627.0000   -28.2790     6.9854     6.3770     6.2755     8.3566   405.5721     6.9797
  627.5000   -28.0637     6.7086     6.2399     6.0018     8.4309   403.3033     6.9521
  628.0000   -28.0652     6.5427     6.0288     5.9998     8.5020   386.0728     6.9246
  628.5000   -28.4520     6.3704     5.8300     5.9978     8.4144   386.9648     6.9243
  629.0000   -28.7445     6.2276     5.8281     5.9958     8.3055   398.6401     6.9240
  629.5000   -29.0371     6.5929     5.9612     5.8580     8.4624   405.5486     6.9237
  630.0000   -29.1578     6.7406     5.9593     5.5797     8.1335   394.8675     6.8961
  630.5000   -28.8874     6.7171     6.2276     5.2976     7.9692   406.7216     6.9232
  631.0000   -28.6170     6.5519     6.2256     5.3297     8.0521   427.4990     6.9229
  631.5000   -28.3465     6.2719     6.2236     5.6078     8.0999   424.1776     6.9226
  632.0000   -28.3479     5.6854     5.9370     5.7500     7.7442   413.0085     6.9224
  632.5000   -28.0775     5.4418     5.5123     5.8461     8.0124   413.2297     6.9221
  633.0000   -28.0616     5.6037     5.2716     5.8985     8.3836   414.7632     6.9218
  633.5000   -27.8083     5.6846     5.2696     5.9776     8.4297   411.6880     6.9216
  634.0000   -27.8097     5.8465     5.4030     6.1114     8.2611   403.2664     6.9213
  634.5000   -27.8112     6.3057     5.4007     5.9731     8.2203   399.7006     6.9210
  635.0000   -27.8125     6.7108     5.4572     5.9711     8.2332   397.9970     6.9207
  635.5000   -28.2001     6.9009     5.6669     5.8333     7.9331   400.5889     6.9205
  636.0000   -29.1702     6.9564     5.8000     5.5596     7.8903   389.0355     6.9202
  636.5000   -29.6005     7.0118     5.9331     5.4217     8.0165   381.3473     6.9199
