~VERSION INFORMATION
 VERS.                2.0:   CWLS LOG ASCII STANDARD - VERSION 2.0
 WRAP.                 NO:   ONE LINE PER DEPTH STEP
~WELL INFORMATION
#MNEM.UNIT      DATA TYPE    INFORMATION
#----------   ------------   ------------------------------
 STRT.F           33.0000:   START DEPTH
 STOP.F          560.0000:   STOP DEPTH
 STEP.F            0.5000:   STEP LENGTH
 NULL.          -999.2500:   NO VALUE
 COMP. BROWN JOHN E&C INC:   COMPANY
 WELL.        SX 85 #25-3:   WELL
 FLD .             TEAPOT:   FIELD
 LOC .       S3 T38N R78W:   LOCATION
 CNTY.            NATRONA:   COUNTY
 STAT.            WYOMING:   STATE
 CTRY. UNITED STATES OF AMERICA:   COUNTRY
 SRVC.       Schlumberger:   SERVICE COMPANY
 DATE.        23-SEP-1980:   LOGDATE
 API .       490251130600:   API NUMBER
~CURVE INFORMATION
#MNEM.UNIT       API CODE    CURVE DESCRIPTION
#----------   ------------   ------------------------------
 DEPT.F                  :   
 ILD .OHMM   07 120 46 00:   INDUCTION LOG DEEP
 ILM .OHMM   07 120 44 00:   INDUCTION LOG MEDIUM
 DPHI.DEC    45 890 12 00:   DENSITY POROSITY SANDSTONE
 RHOB.G/C3   45 350 01 00:   BULK DENSITY
 DRHO.G/C3   45 356 01 00:   DENSITY CORRECTION
 CALD.IN     45 280 60 00:   CALIPER
 GRD .GAPI   45 310 01 00:   GAMMA RAY FROM DENSITY LOG
~PARAMETER INFORMATION
#MNEM.UNIT          VALUE    DESCRIPTION
#----------   ------------   ------------------------------
 PD  .                 GL:   PERMANENT DATUM
 EPD .F              5144:   ELEVATION PERMANENT DATUM
 LMF .                 KB:   LOG MEASURED FROM
 DAPD.F                10:   FEET ABOVE PERMANENT DATUM
 DMF .                 KB:   DRILLING MEASURED FROM
 EKB .F              5154:   KELLING BUSHING
 EDF .F              5153:   DRILLING FLOOR
 EGL .F              5144:   GROUND LEVEL
 DATE.            9-23-90:   RUN DATE
 RUN .                  1:   RUN NUMBER
 DD  .F               564:   DEPTH DRILLER
 DL  .F               565:   DEPTH LOGGER
 BLI .F               559:   BOTTOM LOG INTERVAL
 TLI .F                40:   TOP LOG INTERVAL
 CS  .IN            8.625:   CASING SIZE
 CBD .F                50:   CASING BOTTOM DRILLER
 CBL .F                50:   CASING BOTTOM LOGGER
 BS  .IN            7.875:   BIT SIZE
 BSD .F               564:   BIT SIZE AT DEPTH
 DFT .                AIR:   DRILLING FLUID TYPE
 TCS .HRS            1900:   TIME CURCULATED STOPPED
 TLAB.HRS            2000:   TIME LOGGER AT BOTTOM
 LUN .               5882:   LOGGING UNIT NUMBER
 LUL .               CODY:   LOGGING UNIT LOCATION
 ENGI.          M. FISHER:   RECORDING ENGINEER
 WITN.          G. STRONG:   WITNESSED BY
 CLNT.            A2DTECH:   CLIENT CODE
 ORIG.        2" 5" PRINT:   ORIGIN OF DATA
 UWI .       490251130600:   UNIQUE WELL ID
 DICO. A2D Technologies, Inc.:   DIGITIZING COMPANY
~OTHER INFORMATION
~A   DEPT      ILD        ILM       DPHI       RHOB       DRHO       CALD         GRD  
# ...
  351.5000     6.4018     5.9235     0.1235     2.4407     0.0034     7.8478   145.3505
  352.0000     6.2257     5.2425     0.1548     2.3351     0.0046     7.8503   154.0782
  352.5000     6.0803     5.0988     0.1676     2.2597     0.0054     7.8528   156.9606
  353.0000     6.1215     5.9687     0.1639     2.2786     0.0058     7.8553   150.4153
  353.5000     6.3008     6.4518     0.1349     2.3740     0.0061     7.8578   139.3377
  354.0000     6.5632     7.0787     0.1061     2.4713     0.0062     7.8603   130.9566
  354.5000     7.4121     8.0505     0.0791     2.5182     0.0042     7.8597   127.8924
  355.0000     8.4607     9.0661     0.0730     2.5280     0.0022     7.8575   127.0802
  355.5000     9.7535     9.9094     0.0758     2.5261     0.0002     7.8553   126.2589
  356.0000    10.5897    10.4932     0.0799     2.5203    -0.0018     7.8530   125.4485
  356.5000    11.4174    11.3062     0.0835     2.5143    -0.0028     7.8508   125.7058
  357.0000    11.2113    11.1171     0.0826     2.5142    -0.0036     7.8486   127.7876
  357.5000    11.0361    10.8773     0.0817     2.5145    -0.0043     7.8464   128.6764
  358.0000    10.8636    10.6426     0.0820     2.5148    -0.0035     7.8441   128.0238
  358.5000    10.8028    10.5039     0.0827     2.5152    -0.0021     7.8418   126.8856
  359.0000    10.7937    11.3358     0.0808     2.5181    -0.0007     7.8441   126.0220
  359.5000    11.9028    12.2165     0.0789     2.5211     0.0007     7.8489   125.3610
  360.0000    12.7344    13.1656     0.0811     2.5200     0.0022     7.8538   118.4177
  360.5000    13.6295    14.1885     0.0878     2.5052     0.0000     7.8587   110.5962
  361.0000    14.5498    15.3582     0.1015     2.4917    -0.0007     7.8636   101.3686
  361.5000    15.4517    16.3814     0.1220     2.4221    -0.0014     7.8685    91.6859
  362.0000    16.6421    17.5421     0.1425     2.3480    -0.0021     7.8733    85.2716
  362.5000    19.1867    18.7800     0.1629     2.2864    -0.0027     7.8779    84.6465
  363.0000    21.4603    20.1006     0.1723     2.2500    -0.0020     7.8682    85.4416
  363.5000    23.7480    23.1373     0.1698     2.2577    -0.0006     7.8751    87.7544
  364.0000    25.3980    26.5884     0.1758     2.2481     0.0007     7.8990    85.2623
  364.5000    26.6240    30.2188     0.1913     2.1899     0.0015     7.9232    77.6083
  365.0000    27.3350    30.4880     0.2061     2.1216     0.0022     7.9473    69.9128
  365.5000    28.0714    30.1595     0.2100     2.1041     0.0029     7.9714    65.2342
  366.0000    28.8276    29.9282     0.2064     2.1200     0.0037     7.9956    67.4365
  366.5000    29.6041    29.9282     0.2001     2.1395     0.0042     8.0196    70.4055
  367.0000    30.4016    31.9337     0.2018     2.1391     0.0026     8.0222    73.1493
  367.5000    31.0582    31.4055     0.2033     2.1315     0.0010     8.0225    75.0591
  368.0000    31.7508    30.5275     0.1993     2.1391    -0.0005     8.0234    76.6663
  368.5000    32.4588    30.2068     0.1919     2.1667    -0.0016     8.0218    77.3655
  369.0000    33.1395    33.7722     0.1866     2.1922    -0.0006     8.0552    77.3867
  369.5000    34.1294    36.6075     0.1875     2.1944     0.0003     8.0894    77.3270
  370.0000    35.0914    40.6328     0.1987     2.1692     0.0013     8.1082    75.5140
  370.5000    36.0806    40.3978     0.2203     2.0615     0.0022     8.1176    72.9047
  371.0000    37.0979    40.0671     0.2403     1.9745     0.0026     8.1182    70.6308
  371.5000    38.1434    39.7392     0.2519     1.9339     0.0029     8.0962    72.6451
  372.0000    39.2255    39.4139     0.2532     1.9727     0.0034     8.0750    74.7284
  372.5000    39.8973    39.1544     0.2307     2.0310     0.0057     8.0538    75.2354
  373.0000    40.5965    40.2767     0.2153     2.0820     0.0080     8.0327    74.1906
  373.5000    41.4870    41.4120     0.2128     2.0981     0.0103     8.0114    74.1367
  374.0000    42.4026    43.1603     0.2190     2.0781     0.0080     8.0031    74.0493
  374.5000    43.3356    44.5079     0.2237     2.0538     0.0049     8.0056    73.4408
  375.0000    44.5721    45.6550     0.2254     2.0456     0.0019     8.0082    72.8306
  375.5000    44.2384    46.6917     0.2301     2.0316    -0.0012     8.0108    72.2135
  376.0000    43.7706    43.6783     0.2349     2.0167    -0.0027     8.0135    72.1057
  376.5000    43.3020    40.1091     0.2375     2.0019    -0.0039     8.0161    73.8913
  377.0000    42.8416    39.1544     0.2247     2.0410    -0.0047     8.0187    77.4108
  377.5000    42.1441    39.1544     0.2102     2.0968    -0.0041     8.0218    82.6739
  378.0000    41.1028    39.5189     0.2039     2.1261    -0.0029     7.9998    86.1137
  378.5000    40.0873    38.5782     0.2114     2.1077    -0.0001     7.9688    87.1148
  379.0000    39.1520    37.6773     0.2118     2.0968     0.0028     7.9372    85.7173
  379.5000    38.4086    37.0370     0.2036     2.1226     0.0056     7.9057    82.8111
  380.0000    38.3309    36.7862     0.1949     2.1581     0.0085     7.8739    79.9352
  380.5000    38.2481    36.5551     0.1863     2.1934     0.0112     7.8618    78.2416
  381.0000    38.1661    36.2980     0.1801     2.2165     0.0102     7.8763    81.0768
  381.5000    38.0810    35.8405     0.1808     2.2171     0.0089     7.8918    84.0124
  382.0000    36.0419    34.7071     0.1868     2.1968     0.0073     7.9073    86.2727
  382.5000    34.0354    33.6095     0.1925     2.1667     0.0052     7.9215    87.0738
  383.0000    32.1406    32.5467     0.1925     2.1773     0.0030     7.9107    87.1148
  383.5000    30.3513    31.5175     0.1853     2.1967     0.0008     7.8951    85.8180
  384.0000    28.6616    30.4880     0.1773     2.2252     0.0003     7.8809    83.7923
  384.5000    27.0660    27.7978     0.1693     2.2535     0.0003     7.8862    82.2265
  385.0000    26.2871    25.4755     0.1613     2.2854     0.0003     7.8917    85.7642
  385.5000    25.8044    24.1749     0.1503     2.3246    -0.0002     7.8971    89.2921
  386.0000    25.0204    23.7222     0.1478     2.3349    -0.0030     7.9014    91.0255
  386.5000    23.9703    23.2797     0.1535     2.3199    -0.0057     7.8978    89.5362
  387.0000    23.6568    23.0567     0.1584     2.3052    -0.0084     7.8941    88.2869
  387.5000    23.5204    22.9820     0.1603     2.2965    -0.0105     7.8905    88.4815
  388.0000    23.5679    22.9048     0.1559     2.3047    -0.0105     7.8868    88.6012
  388.5000    23.6266    22.8760     0.1517     2.3238    -0.0059     7.8831    91.0715
  389.0000    23.6854    22.8760     0.1475     2.3435    -0.0013     7.8813    94.0044
  389.5000    23.7390    22.8758     0.1456     2.3479    -0.0005     7.8813    96.8010
  390.0000    23.6053    22.8761     0.1478     2.3314     0.0000     7.8813    98.7137
  390.5000    23.5216    22.8997     0.1559     2.3082    -0.0018     7.8813    94.5527
  391.0000    23.5973    22.9262     0.1641     2.2852    -0.0035     7.8813    91.1693
  391.5000    23.6564    22.9526     0.1662     2.2684    -0.0053     7.8813    90.6032
  392.0000    23.7155    22.9791     0.1635     2.2788    -0.0071     7.8813    92.4944
  392.5000    23.7745    23.0056     0.1588     2.2965    -0.0088     7.8813    93.8526
  393.0000    23.8335    23.0322     0.1562     2.3110    -0.0076     7.8813    93.2217
  393.5000    23.8930    23.0586     0.1555     2.3118    -0.0061     7.8813    93.1161
  394.0000    23.9601    23.0841     0.1573     2.3055    -0.0047     7.8813    94.0678
  394.5000    23.8470    23.1340     0.1590     2.2992    -0.0032     7.8813    94.7502
  395.0000    23.7170    23.1861     0.1578     2.3043    -0.0017     7.8813    94.5948
  395.5000    23.5869    23.2382     0.1554     2.3118    -0.0002     7.8813    93.2995
  396.0000    23.4576    23.3037     0.1547     2.3163     0.0012     7.8814    91.9926
  396.5000    23.3290    23.1490     0.1582     2.3023    -0.0009     7.8782    90.7150
