~VERSION INFORMATION
 VERS.                2.0:   CWLS LOG ASCII STANDARD - VERSION 2.0
 WRAP.                 NO:   ONE LINE PER DEPTH STEP
~WELL INFORMATION
#MNEM.UNIT      DATA TYPE    INFORMATION
#----------   ------------   ------------------------------
 STRT.F            0.0000:   START DEPTH
 STOP.F         2720.0000:   STOP DEPTH
 STEP.F            0.5000:   STEP LENGTH
 NULL.          -999.2500:   NO VALUE
 COMP. DEPARTMENT OF ENERGY:   COMPANY
 WELL.       NPR-3 #410-A:   WELL
 FLD . TEAPOT NAVAL RESERVE:   FIELD
 LOC .      S20 T39N R78W:   LOCATION
 CNTY.            NATRONA:   COUNTY
 STAT.            WYOMING:   STATE
 CTRY. UNITED STATES OF AMERICA:   COUNTRY
 SRVC.      NL McCullough:   SERVICE COMPANY
 DATE.        26-JUL-1965:   LOGDATE
 API .       490251144500:   API NUMBER
~CURVE INFORMATION
#MNEM.UNIT       API CODE    CURVE DESCRIPTION
#----------   ------------   ------------------------------
 DEPT.F                  :   
 GR  .GAPI   30 310 01 00:   GAMMA RAY
 CALI.IN     30 280 01 00:   CALIPER
~PARAMETER INFORMATION
#MNEM.UNIT          VALUE    DESCRIPTION
#----------   ------------   ------------------------------
 PD  .                 GL:   PERMANENT DATUM
 LMF .                 GL:   LOG MEASURED FROM
 DATE.            7-16-65:   RUN DATE
 RUN .                  1:   RUN NUMBER
 DD  .F              2720:   DEPTH DRILLER
 TLI .F              2100:   TOP LOG INTERVAL
 CS  .IN            6.875:   CASING SIZE
 DFT .              WATER:   DRILLING FLUID TYPE
 ENGI. FITZSIMMONE/COWLTHORPE:   RECORDING ENGINEER
 WITN.             HUDSON:   WITNESSED BY
 CLNT.            A2DTECH:   CLIENT CODE
 ORIG.           5" PRINT:   ORIGIN OF DATA
 UWI .       490251144500:   UNIQUE WELL ID
 DICO. A2D Technologies, Inc.:   DIGITIZING COMPANY
~OTHER INFORMATION
~A    DEPT      GR         CALI 
# ...
 2065.5000  -999.2500     5.9493
 2066.0000  -999.2500     5.9429
 2066.5000  -999.2500     5.9367
 2067.0000  -999.2500     5.9305
 2067.5000  -999.2500     5.9243
 2068.0000  -999.2500     5.9182
 2068.5000  -999.2500     5.9118
 2069.0000  -999.2500     5.9244
 2069.5000  -999.2500     5.9471
 2070.0000  -999.2500     5.9611
 2070.5000  -999.2500     5.9767
 2071.0000  -999.2500     5.9925
 2071.5000  -999.2500     6.0084
 2072.0000  -999.2500     6.0033
 2072.5000  -999.2500     5.9954
 2073.0000  -999.2500     5.9876
 2073.5000  -999.2500     5.9798
 2074.0000  -999.2500     5.9716
 2074.5000  -999.2500     5.9753
 2075.0000  -999.2500     5.9827
 2075.5000  -999.2500     5.9902
 2076.0000  -999.2500     5.9995
 2076.5000  -999.2500     6.0087
 2077.0000  -999.2500     6.0177
 2077.5000  -999.2500     6.0272
 2078.0000  -999.2500     6.0129
 2078.5000  -999.2500     5.9870
 2079.0000  -999.2500     5.9606
 2079.5000  -999.2500     5.9511
 2080.0000  -999.2500     5.9060
 2080.5000  -999.2500     5.8524
 2081.0000  -999.2500     5.9009
 2081.5000  -999.2500     5.9598
 2082.0000  -999.2500     5.9648
 2082.5000  -999.2500     5.9566
 2083.0000  -999.2500     5.9482
 2083.5000  -999.2500     5.9399
 2084.0000  -999.2500     5.9316
 2084.5000  -999.2500     5.9233
 2085.0000  -999.2500     5.9151
 2085.5000  -999.2500     5.9123
 2086.0000  -999.2500     5.9205
 2086.5000  -999.2500     5.9286
 2087.0000  -999.2500     5.9367
 2087.5000  -999.2500     5.9447
 2088.0000  -999.2500     5.9464
 2088.5000  -999.2500     5.9370
 2089.0000  -999.2500     5.9278
 2089.5000  -999.2500     5.9185
 2090.0000  -999.2500     5.9092
 2090.5000  -999.2500     5.8999
 2091.0000  -999.2500     5.8906
 2091.5000  -999.2500     5.8926
 2092.0000  -999.2500     5.8971
 2092.5000  -999.2500     5.9016
 2093.0000  -999.2500     5.9060
 2093.5000  -999.2500     5.9105
 2094.0000  -999.2500     5.9150
 2094.5000  -999.2500     5.9194
 2095.0000  -999.2500     5.9239
 2095.5000  -999.2500     5.9282
 2096.0000  -999.2500     5.9444
 2096.5000  -999.2500     5.9654
 2097.0000  -999.2500     5.9865
 2097.5000  -999.2500     6.0078
 2098.0000  -999.2500     5.9994
 2098.5000  -999.2500     5.9869
 2099.0000  -999.2500     5.9746
 2099.5000  -999.2500     5.9519
 2100.0000    48.3068     5.9234
 2100.5000    46.5139     5.9176
 2101.0000    47.2513     5.9322
 2101.5000    49.7946     5.9474
 2102.0000    53.0124     5.9467
 2102.5000    53.1970     5.9428
 2103.0000    52.2796     5.9389
 2103.5000    51.8518     5.9351
 2104.0000    51.8399     5.9311
 2104.5000    52.6025     5.9310
 2105.0000    53.6577     5.9329
 2105.5000    54.0011     5.9349
 2106.0000    55.5168     5.9368
 2106.5000    55.2400     5.9388
 2107.0000    55.9805     5.9408
 2107.5000    60.2701     5.9427
 2108.0000    55.7288     5.9447
 2108.5000    50.8358     5.9467
 2109.0000    49.7460     5.9486
 2109.5000    46.3018     5.9454
 2110.0000    48.2479     5.9344
 2110.5000    51.0805     5.9234
 2111.0000    53.0285     5.9119
 2111.5000    54.1004     5.9183
 2112.0000    53.0754     5.9298
 2112.5000    51.8623     5.9414
 2113.0000    52.3915     5.9527
 2113.5000    54.9398     5.9659
 2114.0000    55.3190     5.9570
 2114.5000    56.5321     5.9836
 2115.0000    54.2104     6.0083
 2115.5000    53.2449     6.0326
 2116.0000    55.4673     6.0388
 2116.5000    54.5891     5.9978
 2117.0000    50.9017     5.9568
 2117.5000    51.0005     5.9595
 2118.0000    51.8392     5.9717
 2118.5000    51.5193     5.9841
 2119.0000    53.9183     5.9899
 2119.5000    57.2896     5.9900
 2120.0000    60.1490     5.9900
 2120.5000    60.4572     5.9900
 2121.0000    58.8604     5.9900
 2121.5000    57.3298     5.9900
 2122.0000    57.5989     5.9900
 2122.5000    58.8899     5.9900
 2123.0000    56.9941     5.9900
 2123.5000    53.8215     5.9900
 2124.0000    55.4796     5.9901
 2124.5000    57.3182     5.9895
 2125.0000    49.8969     5.9698
 2125.5000    48.3222     5.9505
 2126.0000    52.2543     5.9586
 2126.5000    58.2176     5.9681
 2127.0000    60.1453     5.9562
 2127.5000    62.8643     5.9371
 2128.0000    63.9119     5.9397
 2128.5000    59.3725     5.9555
 2129.0000    58.6885     5.9695
 2129.5000    55.7799     5.9664
 2130.0000    52.1747     5.9630
 2130.5000    52.8939     5.9598
 2131.0000    53.9206     5.9565
 2131.5000    56.9521     5.9532
 2132.0000    60.3190     5.9499
 2132.5000    60.3144     5.9498
 2133.0000    57.4394     5.9498
 2133.5000    54.5754     5.9498
 2134.0000    51.0155     5.9498
 2134.5000    51.4163     5.9505
 2135.0000    51.8265     5.9566
 2135.5000    49.5316     5.9628
 2136.0000    47.5642     5.9693
 2136.5000    46.3801     5.9554
 2137.0000    47.0833     5.9379
 2137.5000    44.4106     5.9464
 2138.0000    40.3882     5.9778
 2138.5000    40.6874     5.9731
 2139.0000    44.6862     5.9461
 2139.5000    51.7930     5.9184
 2140.0000    58.4453     5.8907
 2140.5000    57.4227     5.8912
 2141.0000    56.9432     5.8946
 2141.5000    56.2598     5.8979
 2142.0000    53.4505     5.9012
 2142.5000    54.5825     5.9045
 2143.0000    54.4688     5.9076
 2143.5000    54.7027     5.9054
 2144.0000    57.1404     5.8820
 2144.5000    49.0858     5.8804
 2145.0000    49.8778     5.9271
 2145.5000    50.7945     5.8827
 2146.0000    51.3605     5.8565
 2146.5000    53.1177     5.8765
 2147.0000    54.4707     5.8958
 2147.5000    47.4055     5.9062
 2148.0000    47.9168     5.8923
 2148.5000    49.5536     5.8950
 2149.0000    54.1179     5.9042
 2149.5000    58.0862     5.9046
 2150.0000    58.4944     5.8924
 2150.5000    56.9164     5.8926
 2151.0000    56.0426     5.8968
 2151.5000    50.2014     5.9011
 2152.0000    46.9002     5.9054
 2152.5000    44.1690     5.9094
 2153.0000    43.7643     5.9066
 2153.5000    46.0083     5.9036
 2154.0000    47.5839     5.9006
 2154.5000    47.8977     5.8975
 2155.0000    48.7469     5.8945
 2155.5000    46.7311     5.8915
 2156.0000    43.7541     5.8895
 2156.5000    42.3884     5.8896
 2157.0000    44.0615     5.8896
 2157.5000    45.0274     5.8895
 2158.0000    47.3897     5.8894
 2158.5000    51.7769     5.8963
 2159.0000    58.4016     5.9042
 2159.5000    58.6712     5.9095
 2160.0000    55.9326     5.8906
 2160.5000    53.1390     5.8706
 2161.0000    53.1864     5.8848
 2161.5000    56.0001     5.9014
 2162.0000    58.1520     5.9175
 2162.5000    55.8794     5.9250
 2163.0000    55.1442     5.9003
 2163.5000    57.3410     5.8763
 2164.0000    59.6888     5.8684
 2164.5000    61.0788     5.8662
 2165.0000    62.0120     5.8641
 2165.5000    64.1081     5.8620
 2166.0000    67.2073     5.8598
 2166.5000    70.3148     5.8577
 2167.0000    71.2421     5.8556
 2167.5000    65.4014     5.8534
 2168.0000    60.4398     5.8513
 2168.5000    57.4536     5.8493
 2169.0000    55.0042     5.8494
 2169.5000    56.1379     5.8494
 2170.0000    61.7827     5.8494
 2170.5000    67.2508     5.8494
 2171.0000    68.8539     5.8494
 2171.5000    70.0626     5.8494
 2172.0000    73.5646     5.8494
 2172.5000    73.4920     5.8494
 2173.0000    72.0503     5.8494
 2173.5000    72.8881     5.8494
 2174.0000    73.8711     5.8494
 2174.5000    78.7533     5.8489
 2175.0000    78.8343     5.8695
 2175.5000    75.8107     5.8950
 2176.0000    76.7782     5.9212
 2176.5000    73.2549     5.9199
 2177.0000    69.8370     5.9055
 2177.5000    68.0852     5.8901
 2178.0000    66.3120     5.9011
 2178.5000    64.2004     5.9173
 2179.0000    61.9346     5.9337
 2179.5000    61.8199     5.9491
 2180.0000    65.5065     5.9414
 2180.5000    66.8063     5.9327
 2181.0000    65.2996     5.9241
 2181.5000    62.8410     5.9156
 2182.0000    61.7726     5.9108
 2182.5000    60.2488     5.9152
 2183.0000    54.1172     5.9195
 2183.5000    53.7963     5.9237
 2184.0000    51.5629     5.9281
 2184.5000    50.5440     5.9277
 2185.0000    49.5075     5.9246
 2185.5000    50.1214     5.9214
 2186.0000    49.8986     5.9182
 2186.5000    48.5023     5.9149
