~VERSION INFORMATION
 VERS.                2.0:   CWLS LOG ASCII STANDARD - VERSION 2.0
 WRAP.                 NO:   ONE LINE PER DEPTH STEP
~WELL INFORMATION
#MNEM.UNIT      DATA TYPE    INFORMATION
#----------   ------------   ------------------------------
 STRT.F           28.0000:   START DEPTH
 STOP.F          636.0000:   STOP DEPTH
 STEP.F            0.5000:   STEP LENGTH
 NULL.          -999.2500:   NO VALUE
 COMP. FENIX & SCISSON INC:   COMPANY
 WELL.    NPR-3 #12S14-14:   WELL
 FLD .             TEAPOT:   FIELD
 LOC .      S14 T38N R78W:   LOCATION
 CNTY.            NATRONA:   COUNTY
 STAT.            WYOMING:   STATE
 CTRY. UNITED STATES OF AMERICA:   COUNTRY
 SRVC.           BIRDWELL:   SERVICE COMPANY
 DATE.        21-JUN-1978:   LOGDATE
 API .       490251065000:   API NUMBER
~CURVE INFORMATION
#MNEM.UNIT       API CODE    CURVE DESCRIPTION
#----------   ------------   ------------------------------
 DEPT.F                  :   
 SPR .MV     07 010 01 00:   SPONTANEOUS POTENTIAL
 ILD .OHMM   07 120 46 00:   INDUCTION LOG DEEP
 SN  .OHMM   07 040 16 00:   SHORT NORMAL 16"
 GRD .GAPI   45 310 01 00:   GAMMA RAY FROM DENSITY LOG
 CORR.G/C3   45 356 01 00:   DENSITY CORRECTION
 DEN .G/C3   45 350 01 00:   COMPENSATED BULK DENSTIY
 DPHI.DEC    45 890 12 00:   DENSITY POROSITY SANDSTONE
~PARAMETER INFORMATION
#MNEM.UNIT          VALUE    DESCRIPTION
#----------   ------------   ------------------------------
 PD  .                 GL:   PERMANENT DATUM
 EPD .F              5237:   ELEVATION PERMANENT DATUM
 LMF .                 KB:   LOG MEASURED FROM
 DMF .                 KB:   DRILLING MEASURED FROM
 EKB .F              5241:   KELLING BUSHING
 EGL .F              5237:   GROUND LEVEL
 DATE.        21-JUN-1978:   RUN DATE
 RUN .                  1:   RUN NUMBER
 DD  .F               637:   DEPTH DRILLER
 DL  .F               642:   DEPTH LOGGER
 BLI .F               636:   BOTTOM LOG INTERVAL
 TLI .F                40:   TOP LOG INTERVAL
 CS  .IN            8.625:   CASING SIZE
 CBD .F                40:   CASING BOTTOM DRILLER
 CBL .F                40:   CASING BOTTOM LOGGER
 BS  .IN            7.875:   BIT SIZE
 BSD .F               637:   BIT SIZE AT DEPTH
 DFT .                KCL:   DRILLING FLUID TYPE
 DFD .                8.7:   DRILLING FLUID DENSITY
 DFV .                 32:   DRILLING FLUID VISCOSITY
 DFPH.                 10:   DRILLING FLUID PH
 MSS .           FLOWLINE:   MUD SAMPLE SOURCE
 RMS .OHMM            .18:   RESISTIVITY MUD SAMPLE
 MST .F                84:   MUD SAMPLE TEMPERATURE
 RMF .OHMM            .17:   RESISTIVITY MUD FILTRATE SAMPLE
 MFST.F                72:   MUD FILTRATE SAMPLE TEMPERATURE
 RMC .OHMM            .28:   RESISTIVITY MUD CAKE
 MCST.F                82:   MUD CAKE SAMPLE TEMPERATURE
 MFSS.               MEAS:   MUD FILTRATE SAMPLE SOURCE
 MCSS.               MEAS:   MUD CAKE SAMPLE SOURCE
 BHT .F                72:   BOTTOM HOLE TEMPERATURE
 TCS .HRS            0230:   TIME CURCULATED STOPPED
 MRT .F                72:   MAXIMUM RECORDED TEMPERATURE
 LUN .               2958:   LOGGING UNIT NUMBER
 LUL .               CASP:   LOGGING UNIT LOCATION
 ENGI.             MILLER:   RECORDING ENGINEER
 WITN.           MCGINLEY:   WITNESSED BY
 CLNT.            A2DTECH:   CLIENT CODE
 ORIG.           5" PRINT:   ORIGIN OF DATA
 UWI .       490251065000:   UNIQUE WELL ID
 DICO. A2D Technologies, Inc.:   DIGITIZING COMPANY
~OTHER INFORMATION
~A   DEPT      SPR        ILD         SN        GRD       CORR        DEN       DPHI   
   28.0000  -999.2500  -999.2500  -999.2500  -999.2500  -999.2500  -999.2500  -999.2500
   28.5000  -999.2500  -999.2500  -999.2500    56.6347  -999.2500  -999.2500  -999.2500
   29.0000  -999.2500  -999.2500  -999.2500    56.6234  -999.2500  -999.2500  -999.2500
   29.5000  -999.2500  -999.2500  -999.2500    56.6144  -999.2500  -999.2500  -999.2500
   30.0000  -999.2500  -999.2500  -999.2500    56.6054  -999.2500  -999.2500  -999.2500
   30.5000  -999.2500  -999.2500  -999.2500    52.3922  -999.2500  -999.2500  -999.2500
   31.0000  -999.2500  -999.2500  -999.2500    49.6827  -999.2500  -999.2500  -999.2500
   31.5000  -999.2500  -999.2500  -999.2500    53.5754  -999.2500  -999.2500  -999.2500
   32.0000  -999.2500  -999.2500  -999.2500    57.1699  -999.2500  -999.2500  -999.2500
   32.5000  -999.2500  -999.2500  -999.2500    58.8126  -999.2500  -999.2500  -999.2500
   33.0000  -999.2500  -999.2500  -999.2500    59.8546  -999.2500  -999.2500  -999.2500
   33.5000  -999.2500  -999.2500  -999.2500    60.5963  -999.2500  -999.2500  -999.2500
   34.0000  -999.2500  -999.2500  -999.2500    59.0858  -999.2500  -999.2500  -999.2500
   34.5000  -999.2500  -999.2500  -999.2500    58.7765  -999.2500  -999.2500  -999.2500
   35.0000  -999.2500  -999.2500  -999.2500    58.6173  -999.2500  -999.2500  -999.2500
   35.5000  -999.2500  -999.2500  -999.2500    57.8576  -999.2500  -999.2500  -999.2500
   36.0000  -999.2500  -999.2500  -999.2500    56.9477  -999.2500  -999.2500  -999.2500
   36.5000  -999.2500  -999.2500  -999.2500    56.3380  -999.2500  -999.2500  -999.2500
   37.0000  -999.2500  -999.2500  -999.2500    56.7795  -999.2500  -999.2500  -999.2500
   37.5000  -999.2500  -999.2500  -999.2500    57.9717  -999.2500  -999.2500  -999.2500
   38.0000  -999.2500  -999.2500  -999.2500    58.2629  -999.2500  -999.2500  -999.2500
   38.5000  -999.2500  -999.2500  -999.2500    58.5542  -999.2500  -999.2500  -999.2500
   39.0000  -999.2500  -999.2500  -999.2500    57.3440  -999.2500  -999.2500  -999.2500
   39.5000  -999.2500  -999.2500  -999.2500    55.9836  -999.2500  -999.2500  -999.2500
   40.0000  -999.2500  -999.2500  -999.2500    57.0257  -999.2500  -999.2500  -999.2500
   40.5000  -999.2500  -999.2500  -999.2500    57.9198    -0.4525     2.1980     0.3217
   41.0000  -999.2500  -999.2500  -999.2500    56.4070    -0.3971     2.1980     0.3262
   41.5000  -999.2500  -999.2500  -999.2500    55.0467    -0.3568     2.1980     0.3268
   42.0000  -999.2500  -999.2500  -999.2500    53.3860    -0.3074     2.1980     0.3269
   42.5000  -999.2500  -999.2500  -999.2500    52.9265    -0.1937     2.1979     0.3269
   43.0000  -999.2500  -999.2500  -999.2500    56.0707    -0.0082     2.1979     0.3072
   43.5000  -999.2500  -999.2500  -999.2500    64.6202     0.0098     2.3760     0.2255
   44.0000  -999.2500  -999.2500  -999.2500    71.2178     0.0037     2.3805     0.1844
   44.5000  -999.2500  -999.2500  -999.2500    74.6622     0.0021     2.3812     0.1772
   45.0000  -999.2500  -999.2500  -999.2500    77.3559     0.0021     2.3835     0.1748
   45.5000  -999.2500  -999.2500  -999.2500    79.5992     0.0020     2.3894     0.1700
   46.0000   -55.9386     2.2211     0.8231    80.9438     0.0020     2.3797     0.1664
   46.5000   -51.5957     5.4838     3.6013    80.3319     0.0034     2.3782     0.1757
   47.0000   -50.5363    18.9799     4.0518    79.7223     0.0033     2.3826     0.1742
   47.5000   -50.2233    33.6581     4.5587    79.7132     0.0063     2.3893     0.1700
   48.0000   -50.2087    14.9310     4.8537    80.6051     0.0062     2.3908     0.1664
   48.5000   -50.1941     9.3266     5.2036    80.2958     0.0047     2.3923     0.1638
   49.0000   -50.1791     4.3369     5.4671    79.8363     0.0046     2.3990     0.1617
   49.5000   -50.1614     4.2079     5.7000    79.2267     0.0045     2.3997     0.1605
   50.0000   -50.1468     4.3292     5.8674    79.3701     0.0075     2.4064     0.1584
   50.5000   -50.1323     4.4532     5.9300    78.7590     0.0119     2.4132     0.1560
   51.0000   -50.0364     4.6125     5.9927    77.9992     0.0149     2.4139     0.1545
   51.5000   -49.8692     4.6566     6.0354    77.8401     0.0193     2.4161     0.1521
   52.0000   -50.0054     4.7895     6.1645    79.6329     0.0207     2.4153     0.1515
   52.5000   -49.9833     4.8587     6.2101    80.5270     0.0236     2.4131     0.1548
   53.0000   -49.9656     4.9289     6.2130    79.6148     0.0221     2.4130     0.1557
   53.5000   -50.1018     4.9315     6.2161    79.3055     0.0205     2.4146     0.1557
   54.0000   -50.0797     4.9684     6.2190    79.4466     0.0160     2.4192     0.1520
   54.5000   -50.2122     5.0055     6.0953    80.7890     0.0099     2.4243     0.1485
   55.0000   -50.3438     5.0429     6.0555    81.5330     0.0066     2.4279     0.1448
   55.5000   -50.3255     5.0806     5.9351    79.2687     0.0007     2.4294     0.1407
   56.0000   -50.3078     5.0834     5.8964    78.6613    -0.0021     2.4238     0.1451
   56.5000   -50.2900     5.0862     5.8184    80.0014    -0.0053     2.4134     0.1533
   57.0000   -50.2720     5.0895     5.7415    81.4939    -0.0083     2.3977     0.1584
   57.5000   -50.2541     5.0923     5.6273    83.1365    -0.0084     2.3893     0.1651
   58.0000   -50.2370     5.0951     5.5906    84.6290    -0.0085     2.3829     0.1678
   58.5000   -50.2149     5.0978     5.5549    85.0727    -0.0085     2.3952     0.1690
   59.0000   -50.1972     5.1006     5.4821    84.9113    -0.0101     2.4009     0.1642
   59.5000   -50.3334     5.1387     5.4469    82.9503    -0.0101     2.4006     0.1606
   60.0000   -50.3112     5.1055     5.5252    82.4931    -0.0117     2.3955     0.1681
   60.5000   -50.5925     5.1443     5.6046    84.8842    -0.0102     2.3925     0.1660
   61.0000   -50.5748     5.1471     5.6485    85.7784    -0.0103     2.3895     0.1666
   61.5000   -50.5571     5.1856     5.7322    82.1635    -0.0089     2.3947     0.1654
   62.0000   -50.3899     5.2243     5.8170    83.3557    -0.0059     2.4051     0.1582
   62.5000   -50.2227     5.2633     5.9344    87.1004    -0.0045     2.4059     0.1549
   63.0000   -50.3589     5.4135     6.1032    85.1394    -0.0031     2.4036     0.1546
   63.5000   -50.3368     5.3422     6.2337    81.2265    -0.0016     2.4081     0.1594
   64.0000   -50.3191     5.4195     6.2798    80.6192    -0.0017     2.4200     0.1508
   64.5000   -50.6004     5.4600     6.4584    81.6589    -0.0032     2.4275     0.1469
   65.0000   -51.1806     5.4636     6.4615    81.9525    -0.0048     2.4185     0.1451
   65.5000   -51.6114     5.4283     6.5543    79.9893    -0.0049     2.4177     0.1490
   66.0000   -51.8984     5.4696     6.6028    79.2295    -0.0094     2.4244     0.1499
   66.5000   -52.1738     5.4342     6.6059    79.3729    -0.0110     2.4311     0.1415
   67.0000   -52.1561     5.4379     6.6091    79.3616    -0.0125     2.4229     0.1385
   67.5000   -52.7319     5.4408     6.5667    76.1994    -0.0126     2.3997     0.1490
   68.0000   -52.7142     5.4438     6.4799    75.7422    -0.0111     2.3981     0.1598
   68.5000   -52.6965     5.4467     6.3939    76.9344    -0.0079     2.4004     0.1595
   69.0000   -52.6788     5.4497     6.3097    77.3758    -0.0053     2.3973     0.1607
   69.5000   -52.8106     5.4526     6.2635    76.9141    -0.0053     2.3913     0.1643
   70.0000   -53.0962     5.4556     6.1017    76.0360    -0.0069     2.3748     0.1697
   70.5000   -52.9246     5.4586     5.9796    73.2968    -0.0114     2.3628     0.1754
   71.0000   -53.0608     5.3867     5.8198    71.6046    -0.0178     2.3344     0.1829
   71.5000   -53.0387     5.3138     5.6259    71.1171    -0.0295     2.3014     0.2003
   72.0000   -53.0210     5.0208     5.3634    70.8649    -0.0296     2.2325     0.2266
   72.5000   -53.3023     4.7149     5.0780    70.8559    -0.0250     2.1786     0.2569
   73.0000   -53.4385     4.2998     4.6449    71.3514    -0.0191     2.1322     0.2874
