~VERSION INFORMATION
 VERS.                2.0:   CWLS LOG ASCII STANDARD - VERSION 2.0
 WRAP.                 NO:   ONE LINE PER DEPTH STEP
~WELL INFORMATION
#MNEM.UNIT      DATA TYPE    INFORMATION
#----------   ------------   ------------------------------
 STRT.F            0.0000:   START DEPTH
 STOP.F         2838.0000:   STOP DEPTH
 STEP.F            0.5000:   STEP LENGTH
 NULL.          -999.2500:   NO VALUE
 COMP. INTEX OIL CO U S NAVY:   COMPANY
 WELL. NAVAL PETROLEUM RESERVE 3 29 #NPR #3 (204A29)-29:   WELL
 FLD .                N/A:   FIELD
 LOC .      S29 T39N R78W:   LOCATION
 CNTY.            NATRONA:   COUNTY
 STAT.            WYOMING:   STATE
 CTRY. UNITED STATES OF AMERICA:   COUNTRY
 SRVC.      NL McCullough:   SERVICE COMPANY
 DATE.        24-JUN-1965:   LOGDATE
 API .       490251021700:   API NUMBER
~CURVE INFORMATION
#MNEM.UNIT       API CODE    CURVE DESCRIPTION
#----------   ------------   ------------------------------
 DEPT.F                  :   
 GR  .GAPI   30 310 01 00:   GAMMA RAY
 HD  .IN     70 280 01 00:   DAIMETER
~PARAMETER INFORMATION
#MNEM.UNIT          VALUE    DESCRIPTION
#----------   ------------   ------------------------------
 PD  .                 GL:   PERMANENT DATUM
 LMF .                 GL:   LOG MEASURED FROM
 EDF .F              5016:   DRILLING FLOOR
 DATE.        24-JUN-1965:   RUN DATE
 RUN .                  1:   RUN NUMBER
 DD  .F              2838:   DEPTH DRILLER
 DL  .F              2838:   DEPTH LOGGER
 BLI .F              2836:   BOTTOM LOG INTERVAL
 TLI .F              2400:   TOP LOG INTERVAL
 CS  .IN            6.625:   CASING SIZE
 CBD .F              2820:   CASING BOTTOM DRILLER
 BSD .F              2838:   BIT SIZE AT DEPTH
 LUN .               1497:   LOGGING UNIT NUMBER
 ENGI.         COWLTHORPE:   RECORDING ENGINEER
 WITN.         MR. HUDSON:   WITNESSED BY
 CLNT.            A2DTECH:   CLIENT CODE
 ORIG.           5" PRINT:   ORIGIN OF DATA
 UWI .       490251021700:   UNIQUE WELL ID
 DICO. A2D Technologies, Inc.:   DIGITIZING COMPANY
~OTHER INFORMATION
~A    DEPT      GR           HD 
# ...
 2187.0000  -999.2500     6.6747
 2187.5000  -999.2500     6.6747
 2188.0000  -999.2500     6.6747
 2188.5000  -999.2500     6.6747
 2189.0000  -999.2500     6.6596
 2189.5000  -999.2500     6.6747
 2190.0000  -999.2500     6.6596
 2190.5000  -999.2500     6.6596
 2191.0000  -999.2500     6.6654
 2191.5000  -999.2500     6.6747
 2192.0000  -999.2500     6.6747
 2192.5000  -999.2500     6.6747
 2193.0000  -999.2500     6.6747
 2193.5000  -999.2500     6.6747
 2194.0000  -999.2500     6.6747
 2194.5000  -999.2500     6.6747
 2195.0000  -999.2500     6.6747
 2195.5000  -999.2500     6.6747
 2196.0000  -999.2500     6.6747
 2196.5000  -999.2500     6.6747
 2197.0000  -999.2500     6.6898
 2197.5000  -999.2500     6.7048
 2198.0000  -999.2500     6.7048
 2198.5000  -999.2500     6.7048
 2199.0000  -999.2500     6.7199
 2199.5000  -999.2500     6.7199
 2200.0000  -999.2500     6.7129
 2200.5000  -999.2500     6.7048
 2201.0000  -999.2500     6.6747
 2201.5000  -999.2500     6.6747
 2202.0000  -999.2500     6.6898
 2202.5000  -999.2500     6.6903
 2203.0000  -999.2500     6.6898
 2203.5000  -999.2500     6.6747
 2204.0000  -999.2500     6.6747
 2204.5000  -999.2500     6.6747
 2205.0000  -999.2500     6.6747
 2205.5000  -999.2500     6.6747
 2206.0000  -999.2500     6.6747
 2206.5000  -999.2500     6.6898
 2207.0000  -999.2500     6.6898
 2207.5000  -999.2500     6.7048
 2208.0000  -999.2500     6.7048
 2208.5000  -999.2500     6.7048
 2209.0000  -999.2500     6.7199
 2209.5000  -999.2500     6.7349
 2210.0000  -999.2500     6.7349
 2210.5000  -999.2500     6.7349
 2211.0000  -999.2500     6.7349
 2211.5000  -999.2500     6.7349
 2212.0000  -999.2500     6.7349
 2212.5000  -999.2500     6.7199
 2213.0000  -999.2500     6.7199
 2213.5000  -999.2500     6.7048
 2214.0000  -999.2500     6.6898
 2214.5000  -999.2500     6.6294
 2215.0000  -999.2500     6.5823
 2215.5000  -999.2500     6.5693
 2216.0000  -999.2500     6.5693
 2216.5000  -999.2500     6.5693
 2217.0000  -999.2500     6.5693
 2217.5000  -999.2500     6.5693
 2218.0000  -999.2500     6.5843
 2218.5000  -999.2500     6.5843
 2219.0000  -999.2500     6.5865
 2219.5000  -999.2500     6.5994
 2220.0000  -999.2500     6.6145
 2220.5000  -999.2500     6.6145
 2221.0000  -999.2500     6.6145
 2221.5000  -999.2500     6.6145
 2222.0000  -999.2500     6.6145
 2222.5000  -999.2500     6.6142
 2223.0000  -999.2500     6.5994
 2223.5000  -999.2500     6.5843
 2224.0000  -999.2500     6.5843
 2224.5000  -999.2500     6.5843
 2225.0000  -999.2500     6.5843
 2225.5000  -999.2500     6.5843
 2226.0000  -999.2500     6.5843
 2226.5000  -999.2500     6.5843
 2227.0000  -999.2500     6.5843
 2227.5000  -999.2500     6.5843
 2228.0000  -999.2500     6.5843
 2228.5000  -999.2500     6.5693
 2229.0000  -999.2500     6.5693
 2229.5000  -999.2500     6.5693
 2230.0000  -999.2500     6.5843
 2230.5000  -999.2500     6.5994
 2231.0000  -999.2500     6.5994
 2231.5000  -999.2500     6.5994
 2232.0000  -999.2500     6.6145
 2232.5000  -999.2500     6.6145
 2233.0000  -999.2500     6.6145
 2233.5000  -999.2500     6.5994
 2234.0000  -999.2500     6.5994
 2234.5000  -999.2500     6.5843
 2235.0000  -999.2500     6.5843
 2235.5000  -999.2500     6.5843
 2236.0000  -999.2500     6.5693
 2236.5000  -999.2500     6.5693
 2237.0000  -999.2500     6.5693
 2237.5000  -999.2500     6.5693
 2238.0000  -999.2500     6.5542
 2238.5000  -999.2500     6.5542
 2239.0000  -999.2500     6.5542
 2239.5000  -999.2500     6.5392
 2240.0000  -999.2500     6.5542
 2240.5000  -999.2500     6.5542
 2241.0000  -999.2500     6.5542
 2241.5000  -999.2500     6.5693
 2242.0000  -999.2500     6.5693
 2242.5000  -999.2500     6.5693
 2243.0000  -999.2500     6.5693
 2243.5000  -999.2500     6.5994
 2244.0000  -999.2500     6.6145
 2244.5000  -999.2500     6.6898
 2245.0000  -999.2500     6.8102
 2245.5000  -999.2500     6.8253
 2246.0000  -999.2500     6.8255
 2246.5000  -999.2500     6.8253
 2247.0000  -999.2500     6.8253
 2247.5000  -999.2500     6.8102
 2248.0000  -999.2500     6.7952
 2248.5000  -999.2500     6.7801
 2249.0000  -999.2500     6.7651
 2249.5000  -999.2500     6.7651
 2250.0000  -999.2500     6.7651
 2250.5000  -999.2500     6.7651
 2251.0000  -999.2500     6.7651
 2251.5000  -999.2500     6.7659
 2252.0000  -999.2500     6.7750
 2252.5000  -999.2500     6.7801
 2253.0000  -999.2500     6.7801
 2253.5000  -999.2500     6.7500
 2254.0000  -999.2500     6.7036
 2254.5000  -999.2500     6.6596
 2255.0000  -999.2500     6.6446
 2255.5000  -999.2500     6.6446
 2256.0000  -999.2500     6.6295
 2256.5000  -999.2500     6.6145
 2257.0000  -999.2500     6.6145
 2257.5000  -999.2500     6.6145
 2258.0000  -999.2500     6.6119
 2258.5000  -999.2500     6.6145
 2259.0000  -999.2500     6.6145
 2259.5000  -999.2500     6.6145
 2260.0000  -999.2500     6.6145
 2260.5000  -999.2500     6.6145
 2261.0000  -999.2500     6.6145
 2261.5000  -999.2500     6.6145
 2262.0000  -999.2500     6.6145
 2262.5000  -999.2500     6.6145
 2263.0000  -999.2500     6.6145
 2263.5000  -999.2500     6.6145
 2264.0000  -999.2500     6.6145
 2264.5000  -999.2500     6.6145
 2265.0000  -999.2500     6.6145
 2265.5000  -999.2500     6.6145
 2266.0000  -999.2500     6.6145
 2266.5000  -999.2500     6.6295
 2267.0000  -999.2500     6.6295
 2267.5000  -999.2500     6.6295
 2268.0000  -999.2500     6.6295
 2268.5000  -999.2500     6.6295
 2269.0000  -999.2500     6.6145
 2269.5000  -999.2500     6.6295
 2270.0000  -999.2500     6.6596
 2270.5000  -999.2500     6.6747
 2271.0000  -999.2500     6.7048
 2271.5000  -999.2500     6.7349
 2272.0000  -999.2500     6.7500
 2272.5000  -999.2500     6.7651
 2273.0000  -999.2500     6.7651
 2273.5000  -999.2500     6.7651
 2274.0000  -999.2500     6.7651
 2274.5000  -999.2500     6.7651
 2275.0000  -999.2500     6.7651
 2275.5000  -999.2500     6.7335
 2276.0000  -999.2500     6.7048
 2276.5000  -999.2500     6.6898
 2277.0000  -999.2500     6.6747
 2277.5000  -999.2500     6.6747
 2278.0000  -999.2500     6.6747
 2278.5000  -999.2500     6.6747
 2279.0000  -999.2500     6.6747
 2279.5000  -999.2500     6.6747
 2280.0000  -999.2500     6.6747
 2280.5000  -999.2500     6.6747
 2281.0000  -999.2500     6.6747
 2281.5000  -999.2500     6.6747
 2282.0000  -999.2500     6.6596
 2282.5000  -999.2500     6.6596
 2283.0000  -999.2500     6.6446
 2283.5000  -999.2500     6.6446
 2284.0000  -999.2500     6.6446
 2284.5000  -999.2500     6.6446
 2285.0000  -999.2500     6.6446
 2285.5000  -999.2500     6.6446
 2286.0000  -999.2500     6.6446
 2286.5000  -999.2500     6.6446
 2287.0000  -999.2500     6.6295
 2287.5000  -999.2500     6.6446
 2288.0000  -999.2500     6.6295
 2288.5000  -999.2500     6.6288
 2289.0000  -999.2500     6.6271
 2289.5000  -999.2500     6.6253
 2290.0000  -999.2500     6.6235
 2290.5000  -999.2500     6.6218
 2291.0000  -999.2500     6.6200
 2291.5000  -999.2500     6.6182
 2292.0000  -999.2500     6.6164
 2292.5000  -999.2500     6.6145
 2293.0000  -999.2500     6.6145
 2293.5000  -999.2500     6.6145
 2294.0000  -999.2500     6.5994
 2294.5000  -999.2500     6.5994
 2295.0000  -999.2500     6.5994
 2295.5000  -999.2500     6.5994
 2296.0000  -999.2500     6.5994
 2296.5000  -999.2500     6.5994
 2297.0000  -999.2500     6.5994
 2297.5000  -999.2500     6.5994
 2298.0000  -999.2500     6.5843
 2298.5000  -999.2500     6.5843
 2299.0000  -999.2500     6.5693
 2299.5000  -999.2500     6.5542
 2300.0000  -999.2500     6.5392
 2300.5000  -999.2500     6.5241
 2301.0000  -999.2500     6.5241
 2301.5000  -999.2500     6.5090
 2302.0000  -999.2500     6.4940
 2302.5000  -999.2500     6.4937
 2303.0000  -999.2500     6.4935
 2303.5000  -999.2500     6.4933
 2304.0000  -999.2500     6.4930
 2304.5000  -999.2500     6.4928
 2305.0000  -999.2500     6.4925
 2305.5000  -999.2500     6.4923
 2306.0000  -999.2500     6.4771
 2306.5000  -999.2500     6.4604
 2307.0000  -999.2500     6.4467
 2307.5000  -999.2500     6.4465
 2308.0000  -999.2500     6.4313
