~VERSION INFORMATION
 VERS.                2.0:   CWLS LOG ASCII STANDARD - VERSION 2.0
 WRAP.                 NO:   ONE LINE PER DEPTH STEP
~WELL INFORMATION
#MNEM.UNIT      DATA TYPE    INFORMATION
#----------   ------------   ------------------------------
 STRT.F            6.0000:   START DEPTH
 STOP.F         2600.0000:   STOP DEPTH
 STEP.F            0.5000:   STEP LENGTH
 NULL.          -999.2500:   NO VALUE
 COMP. FENIX & SCISSON INC:   COMPANY
 WELL.   NPR 3 SH #17 -34:   WELL
 FLD .             TEAPOT:   FIELD
 LOC .      S34 T39N R78W:   LOCATION
 CNTY.            NATRONA:   COUNTY
 STAT.            WYOMING:   STATE
 CTRY. UNITED STATES OF AMERICA:   COUNTRY
 SRVC.            Unknown:   SERVICE COMPANY
 DATE.        21-MAR-1978:   LOGDATE
 API .       490251060600:   API NUMBER
~CURVE INFORMATION
#MNEM.UNIT       API CODE    CURVE DESCRIPTION
#----------   ------------   ------------------------------
 DEPT.F                  :   
 NPHI.DEC    42 890 03 00:   NEUTRON POROSITY SANDSTONE
 CALD.IN     45 280 60 00:   CALIPER FROM DENSITY LOG
 GRD .GAPI   45 310 01 00:   GAMMA RAY FROM DENSITY LOG
 CORR.G/C3   45 356 01 00:   DENSITY CORRECTION
 RHOB.G/C3   45 350 01 00:   BULK DENSITY
 DPHI.DEC    45 890 12 00:   DENSITY POROSITY SANDSTONE
~PARAMETER INFORMATION
#MNEM.UNIT          VALUE    DESCRIPTION
#----------   ------------   ------------------------------
 PD  .                 GL:   PERMANENT DATUM
 EPD .F              5150:   ELEVATION PERMANENT DATUM
 LMF .                 KB:   LOG MEASURED FROM
 DMF .                 KB:   DRILLING MEASURED FROM
 EKB .F              5160:   KELLING BUSHING
 EGL .F              5150:   GROUND LEVEL
 DATE.          3-21-1978:   RUN DATE
 RUN .                  1:   RUN NUMBER
 DD  .F              2612:   DEPTH DRILLER
 DL  .F              2592:   DEPTH LOGGER
 BLI .F              2590:   BOTTOM LOG INTERVAL
 TLI .F                20:   TOP LOG INTERVAL
 CS  .IN            9.625:   CASING SIZE
 CBD .F               710:   CASING BOTTOM DRILLER
 CBL .F               710:   CASING BOTTOM LOGGER
 BS  .IN            8.625:   BIT SIZE
 BSD .F              2612:   BIT SIZE AT DEPTH
 DFT .           AIR MIST:   DRILLING FLUID TYPE
 BHT .F               110:   BOTTOM HOLE TEMPERATURE
 TCS .HRS               2:   TIME CURCULATED STOPPED
 MRT .F               110:   MAXIMUM RECORDED TEMPERATURE
 LUN .               2958:   LOGGING UNIT NUMBER
 LUL .               CASP:   LOGGING UNIT LOCATION
 ENGI.            POINTER:   RECORDING ENGINEER
 WITN.           MCGINLEY:   WITNESSED BY
 CLNT.            A2DTECH:   CLIENT CODE
 ORIG.      2" , 5" PRINT:   ORIGIN OF DATA
 UWI .       490251060600:   UNIQUE WELL ID
 DICO. A2D Technologies, Inc.:   DIGITIZING COMPANY
~OTHER INFORMATION
~A    DEPT      NPHI     CALD        GRD       CORR       RHOB       DPHI   
# ...
 1566.0000  -999.2500     9.0457   101.6937     0.1735     2.5187     0.0772
 1566.5000  -999.2500     9.0457   101.2598     0.1746     2.5295     0.0753
 1567.0000  -999.2500     9.0457   100.7933     0.1731     2.5373     0.0780
 1567.5000  -999.2500     9.0457   100.3118     0.1719     2.5250     0.0826
 1568.0000  -999.2500     9.0457    98.4112     0.1630     2.5190     0.0896
 1568.5000  -999.2500     9.0457   100.2820     0.1674     2.4976     0.0928
 1569.0000  -999.2500     9.0457   106.0053     0.1781     2.4971     0.0908
 1569.5000  -999.2500     9.0457   103.8263     0.1889     2.5012     0.0871
 1570.0000  -999.2500     9.0457   100.1128     0.1892     2.5080     0.0840
 1570.5000  -999.2500     9.0457    99.6857     0.1764     2.5061     0.0957
 1571.0000  -999.2500     9.0457   100.5435     0.1701     2.4983     0.0965
 1571.5000  -999.2500     9.0457   100.7288     0.1683     2.5022     0.0960
 1572.0000  -999.2500     9.0457    99.4470     0.1667     2.5071     0.0916
 1572.5000  -999.2500     9.0457    98.1917     0.1659     2.5040     0.0946
 1573.0000  -999.2500     9.0457    98.9764     0.1702     2.4986     0.0985
 1573.5000  -999.2500     9.0457    99.2184     0.1744     2.4951     0.0996
 1574.0000  -999.2500     9.0457    99.9443     0.1757     2.5073     0.0947
 1574.5000  -999.2500     9.0457   102.8680     0.1693     2.5138     0.0906
 1575.0000  -999.2500     9.0457   105.7861     0.1630     2.5164     0.0868
 1575.5000  -999.2500     9.0457   106.1327     0.1593     2.5066     0.0852
 1576.0000  -999.2500     9.0457   104.9393     0.1563     2.5137     0.0836
 1576.5000  -999.2500     9.0457   103.4875     0.1534     2.5250     0.0819
 1577.0000  -999.2500     9.0457   100.0658     0.1504     2.5173     0.0802
 1577.5000  -999.2500     9.0457    96.5733     0.1475     2.5204     0.0802
 1578.0000  -999.2500     9.0457    95.5747     0.1446     2.5230     0.0804
 1578.5000  -999.2500     9.0457    95.8764     0.1416     2.5230     0.0821
 1579.0000  -999.2500     9.0457    96.5563     0.1371     2.5230     0.0841
 1579.5000  -999.2500     9.0457    96.9505     0.1271     2.5233     0.0856
 1580.0000  -999.2500     9.0457    96.9631     0.1173     2.5140     0.0871
 1580.5000  -999.2500     9.0457    97.2422     0.1114     2.5032     0.0885
 1581.0000  -999.2500     9.0457    98.5857     0.1114     2.4990     0.0899
 1581.5000  -999.2500     9.0457   102.4001     0.1114     2.5006     0.0915
 1582.0000  -999.2500     9.0457   105.9807     0.1114     2.5026     0.0932
 1582.5000  -999.2500     9.0457   104.7234     0.1120     2.5021     0.0922
 1583.0000  -999.2500     9.0457   101.5695     0.1137     2.4996     0.0912
 1583.5000  -999.2500     9.0457   100.4359     0.1153     2.4971     0.0910
 1584.0000  -999.2500     9.0457    99.5756     0.1170     2.4945     0.0908
 1584.5000  -999.2500     9.0457    99.9084     0.1186     2.4982     0.0907
 1585.0000  -999.2500     9.0457   101.1712     0.1203     2.5027     0.0905
 1585.5000  -999.2500     9.0457   101.5622     0.1238     2.5009     0.0898
 1586.0000  -999.2500     9.0457   100.3356     0.1322     2.5053     0.0886
 1586.5000  -999.2500     9.0457    99.8651     0.1403     2.5155     0.0876
 1587.0000  -999.2500     9.0457   100.8684     0.1485     2.5205     0.0864
 1587.5000  -999.2500     9.0457   100.8258     0.1570     2.5256     0.0829
 1588.0000  -999.2500     9.0457   100.2459     0.1589     2.5249     0.0794
 1588.5000  -999.2500     9.0457    99.9547     0.1605     2.5220     0.0778
 1589.0000  -999.2500     9.0457   100.1769     0.1596     2.5236     0.0781
 1589.5000  -999.2500     9.0457   100.3398     0.1561     2.5250     0.0784
 1590.0000  -999.2500     9.0457   100.2151     0.1526     2.5239     0.0805
 1590.5000  -999.2500     9.0457    98.7068     0.1495     2.5226     0.0853
 1591.0000  -999.2500     9.0457    96.5119     0.1505     2.5177     0.0900
 1591.5000  -999.2500     9.0457    96.4802     0.1516     2.5082     0.0900
 1592.0000  -999.2500     9.0457    97.5102     0.1526     2.5012     0.0855
 1592.5000  -999.2500     9.0457   101.0607     0.1499     2.5141     0.0817
 1593.0000  -999.2500     9.0457   106.0312     0.1420     2.5174     0.0828
 1593.5000  -999.2500     9.0457   106.7977     0.1364     2.5169     0.0839
 1594.0000  -999.2500     9.0457   103.6045     0.1363     2.5159     0.0850
 1594.5000  -999.2500     9.0457   101.5810     0.1374     2.5119     0.0854
 1595.0000  -999.2500     9.0457   101.9629     0.1385     2.5125     0.0856
 1595.5000  -999.2500     9.0457   102.3068     0.1397     2.5128     0.0834
 1596.0000  -999.2500     9.0457   101.8673     0.1408     2.5159     0.0820
 1596.5000  -999.2500     9.0457   100.5853     0.1419     2.5175     0.0832
 1597.0000  -999.2500     9.0457    99.7234     0.1430     2.5168     0.0819
 1597.5000  -999.2500     9.0457   101.7442     0.1442     2.5159     0.0803
 1598.0000  -999.2500     9.0457   104.9895     0.1452     2.5190     0.0791
 1598.5000  -999.2500     9.0457   105.1365     0.1408     2.5230     0.0818
 1599.0000  -999.2500     9.0457   105.8066     0.1376     2.5217     0.0860
 1599.5000  -999.2500     9.0457   106.2567     0.1389     2.5155     0.0876
 1600.0000  -999.2500     9.0457   106.1728     0.1401     2.5099     0.0867
 1600.5000  -999.2500     9.0461   104.4565     0.1413     2.5168     0.0859
 1601.0000  -999.2500     9.0465   102.0161     0.1425     2.5149     0.0865
 1601.5000  -999.2500     9.0470   101.2023     0.1432     2.5115     0.0882
 1602.0000  -999.2500     9.0474   103.0087     0.1423     2.5103     0.0850
 1602.5000  -999.2500     9.0479   103.6645     0.1414     2.5158     0.0835
 1603.0000  -999.2500     9.0483   103.3638     0.1406     2.5151     0.0882
 1603.5000  -999.2500     9.0487   103.0115     0.1397     2.5143     0.0900
 1604.0000  -999.2500     9.0492   102.7150     0.1399     2.5012     0.0883
 1604.5000  -999.2500     9.0496   102.7221     0.1413     2.5055     0.0840
 1605.0000  -999.2500     9.0500   102.6437     0.1427     2.5129     0.0810
 1605.5000  -999.2500     9.0505   102.1553     0.1441     2.5205     0.0805
 1606.0000  -999.2500     9.0509   101.9150     0.1451     2.5255     0.0800
 1606.5000  -999.2500     9.0513   103.5929     0.1432     2.5266     0.0796
 1607.0000  -999.2500     9.0518   105.3946     0.1414     2.5258     0.0791
 1607.5000  -999.2500     9.0522   106.4674     0.1395     2.5251     0.0786
 1608.0000  -999.2500     9.0527   106.8040     0.1376     2.5243     0.0794
 1608.5000  -999.2500     9.0531   107.0893     0.1379     2.5236     0.0804
 1609.0000  -999.2500     9.0535   107.3370     0.1385     2.5232     0.0784
 1609.5000  -999.2500     9.0540   106.1414     0.1391     2.5243     0.0760
 1610.0000  -999.2500     9.0544   104.6937     0.1397     2.5262     0.0746
 1610.5000  -999.2500     9.0548   103.4726     0.1403     2.5290     0.0732
 1611.0000  -999.2500     9.0553   103.7815     0.1409     2.5318     0.0747
 1611.5000  -999.2500     9.0557   105.4703     0.1418     2.5296     0.0785
 1612.0000  -999.2500     9.0561   107.6304     0.1443     2.5241     0.0823
 1612.5000  -999.2500     9.0566   106.2659     0.1465     2.5219     0.0836
 1613.0000  -999.2500     9.0570   103.7484     0.1568     2.5162     0.0811
 1613.5000  -999.2500     9.0574   102.9445     0.1651     2.5198     0.0837
 1614.0000  -999.2500     9.0579   103.0453     0.1639     2.5192     0.0888
 1614.5000  -999.2500     9.0583   103.2234     0.1627     2.5139     0.0857
 1615.0000  -999.2500     9.0588   102.0783     0.1753     2.5085     0.0796
 1615.5000  -999.2500     9.0592    97.5876     0.1893     2.5156     0.0716
 1616.0000  -999.2500     9.0596    97.4555     0.1931     2.5284     0.0658
 1616.5000  -999.2500     9.0601   103.5872     0.1883     2.5426     0.0723
 1617.0000  -999.2500     9.0605   103.2471     0.1776     2.5379     0.0749
 1617.5000  -999.2500     9.0609   101.6398     0.1789     2.5297     0.0788
