~VERSION INFORMATION
 VERS.                2.0:   CWLS LOG ASCII STANDARD - VERSION 2.0
 WRAP.                 NO:   ONE LINE PER DEPTH STEP
~WELL INFORMATION
#MNEM.UNIT      DATA TYPE    INFORMATION
#----------   ------------   ------------------------------
 STRT.F           46.0000:   START DEPTH
 STOP.F          490.0000:   STOP DEPTH
 STEP.F            0.5000:   STEP LENGTH
 NULL.          -999.2500:   NO VALUE
 COMP.    FENIX & SCISSON:   COMPANY
 WELL.        NPR #55-S-3:   WELL
 FLD .              NPR 3:   FIELD
 LOC .       S3 T38N R78W:   LOCATION
 CNTY.            NATRONA:   COUNTY
 STAT.            WYOMING:   STATE
 CTRY. UNITED STATES OF AMERICA:   COUNTRY
 SRVC.      Dresser Atlas:   SERVICE COMPANY
 DATE.        12-MAR-1977:   LOGDATE
 API .       490251028700:   API NUMBER
~CURVE INFORMATION
#MNEM.UNIT       API CODE    CURVE DESCRIPTION
#----------   ------------   ------------------------------
 DEPT.F                  :   
 SPR .MV     07 010 01 00:   SPONTANEOUS POTENTIAL
 ILM .OHMM   07 120 44 00:   INDUCTION LOG MEDIUM
 ILD .OHMM   07 120 46 00:   INDUCTION LOG DEEP
 SFL .OHMM   07 220 01 00:   SHALLOW FOCUSED LOG RESISTIVITY
 CALD.IN     45 280 60 00:   CALIPER FROM DENSITY LOG
 GRD .GAPI   45 310 01 00:   GAMMA RAY FROM DENSITY LOG
 CORR.G/C3   45 356 01 00:   DENSITY CORRECTION
 DPHI.DEC    45 890 12 00:   DENSITY POROSITY SANDSTONE
 RHOB.G/C3   45 350 01 00:   BULK DENSITY
~PARAMETER INFORMATION
#MNEM.UNIT          VALUE    DESCRIPTION
#----------   ------------   ------------------------------
 PD  .                 GL:   PERMANENT DATUM
 EPD .F              5169:   ELEVATION PERMANENT DATUM
 LMF .                 GL:   LOG MEASURED FROM
 DMF .                 GL:   DRILLING MEASURED FROM
 EGL .F              5169:   GROUND LEVEL
 DATE.        12-MAR-1977:   RUN DATE
 RUN .                  1:   RUN NUMBER
 DD  .F               498:   DEPTH DRILLER
 DL  .F               492:   DEPTH LOGGER
 BLI .F               490:   BOTTOM LOG INTERVAL
 TLI .F               046:   TOP LOG INTERVAL
 CS  .IN            8.625:   CASING SIZE
 CBD .F                40:   CASING BOTTOM DRILLER
 CBL .F               046:   CASING BOTTOM LOGGER
 BS  .IN            7.875:   BIT SIZE
 BSD .F               498:   BIT SIZE AT DEPTH
 DFT .           CHEM GEL:   DRILLING FLUID TYPE
 DFD .                8.7:   DRILLING FLUID DENSITY
 DFV .                 35:   DRILLING FLUID VISCOSITY
 DFPH.                8.0:   DRILLING FLUID PH
 DFL .                7.2:   DRILLING FLUID LOSS
 MSS .           FLOWLINE:   MUD SAMPLE SOURCE
 RMS .OHMM            .35:   RESISTIVITY MUD SAMPLE
 MST .F                60:   MUD SAMPLE TEMPERATURE
 RMF .OHMM             .3:   RESISTIVITY MUD FILTRATE SAMPLE
 MFST.F                60:   MUD FILTRATE SAMPLE TEMPERATURE
 RMC .OHMM            .73:   RESISTIVITY MUD CAKE
 MCST.F                60:   MUD CAKE SAMPLE TEMPERATURE
 MFSS.               MEAS:   MUD FILTRATE SAMPLE SOURCE
 MCSS.               MEAS:   MUD CAKE SAMPLE SOURCE
 RMB .OHMM            .33:   RESISTIVITY MUD AT BHT
 BHT .F                63:   BOTTOM HOLE TEMPERATURE
 TCS .HRS            1400:   TIME CURCULATED STOPPED
 MRT .F                63:   MAXIMUM RECORDED TEMPERATURE
 LUN .               6134:   LOGGING UNIT NUMBER
 LUL .              GLTTE:   LOGGING UNIT LOCATION
 ENGI.              NOYER:   RECORDING ENGINEER
 WITN.         STUEBINGER:   WITNESSED BY
 CLNT.            A2DTECH:   CLIENT CODE
 ORIG.           5" PRINT:   ORIGIN OF DATA
 UWI .       490251028700:   UNIQUE WELL ID
 DICO. A2D Technologies, Inc.:   DIGITIZING COMPANY
~OTHER INFORMATION
~A   DEPT      SPR        ILM        ILD        SFL       CALD        GRD       CORR         DPHI       RHOB 
# ...
  338.0000   -49.8207    16.5833    16.1680    17.0585     7.7877    86.4185     0.0214     0.0998     2.4928
  338.5000   -49.6781    15.9271    15.4030    16.5913     7.7895    85.8387     0.0215     0.1298     2.4441
  339.0000   -49.3702    15.2823    14.6742    16.9371     7.7913    84.8118     0.0216     0.1388     2.4260
  339.5000   -48.9460    14.5627    14.1746    17.2890     7.7931    84.0829     0.0199     0.1354     2.4285
  340.0000   -48.9532    14.0696    13.7868    17.4071     7.7948    83.5030     0.0158     0.1441     2.4126
  340.5000   -48.6592    13.5941    13.3174    17.5249     7.7966    82.9232     0.0173     0.1453     2.4104
  341.0000   -48.5185    13.3170    13.0431    17.5224     7.8132    82.0453     0.0219     0.1330     2.4135
  341.5000   -48.5257    13.1300    12.9523    17.5196     7.8150    81.4655     0.0295     0.1330     2.4286
  342.0000   -48.5330    13.0473    12.8622    17.6387     7.8168    80.7571     0.0326     0.1351     2.4136
  342.5000   -48.5404    12.9592    12.7728    17.6364     7.8185    79.5620     0.0341     0.1282     2.4385
  343.0000   -48.5492    13.0508    12.6770    17.4622     7.8203    78.0839     0.0387     0.1197     2.4439
  343.5000   -48.5564    12.9627    12.3368    17.2237     7.8072    80.1907     0.0280     0.1236     2.4371
  344.0000   -48.7133    12.7869    12.0828    17.1060     7.8239    77.2263     0.0223     0.1296     2.4169
  344.5000   -49.0200    12.6130    12.0820    16.6411     7.8256    80.8194     0.0284     0.1221     2.4350
  345.0000   -49.1769    12.4417    11.9979    16.1885     7.8125    83.0711     0.0285     0.1230     2.4531
  345.5000   -49.3338    12.2726    11.9971    15.7483     7.8143    83.9816     0.0286     0.1197     2.4554
  346.0000   -49.3413    12.1057    11.9963    15.3203     7.8161    84.8880     0.0286     0.1139     2.4570
  346.5000   -49.1985    12.1078    11.9955    15.1110     7.8179    83.5106     0.0287     0.1124     2.4774
  347.0000   -49.3573    12.0256    11.9947    15.2168     7.8196    86.2659     0.0258     0.1127     2.4705
  347.5000   -49.9633    12.0276    11.9937    15.4296     7.8214    84.6429     0.0229     0.1161     2.4623
  348.0000   -50.2699    12.0292    11.9497    16.1953     7.8232    85.1062     0.0229     0.1194     2.4561
  348.5000   -50.5765    11.9480    11.9505    16.5356     7.8253    86.1658     0.0230     0.1245     2.4385
  349.0000   -50.7395    11.9496    11.9513    16.1975     7.8268    85.5859     0.0276     0.1207     2.4506
  349.5000   -51.3413    11.7876    11.8698    15.4340     7.8286    84.4100     0.0292     0.1114     2.4785
  350.0000   -51.4969    11.6248    11.8708    14.8082     7.8304    87.5559     0.0352     0.1021     2.5027
  350.5000   -51.5030    11.5969    11.6280    14.7070     7.8321    91.2936     0.0354     0.0958     2.5026
  351.0000   -51.2106    11.5691    11.5487    14.7082     7.8341    89.8123     0.0355     0.1078     2.4839
  351.5000   -50.9170    11.4742    11.5495    14.6077     7.8507    88.3338     0.0312     0.0966     2.5058
  352.0000   -50.7716    11.5566    11.5502    14.7102     7.8372    86.8504     0.0282     0.1094     2.4731
  352.5000   -50.6277    11.5590    11.6311    15.0245     7.8543    86.4232     0.0180     0.1225     2.4433
  353.0000   -50.4850    11.8040    11.8757    15.3351     7.8412    89.4248     0.0181     0.1252     2.4385
  353.5000   -50.1915    12.1372    12.1252    15.3361     7.8430    88.0655     0.0107     0.1319     2.4167
  354.0000   -50.0476    12.4798    12.2948    15.3372     7.8597    85.7020     0.0124     0.1407     2.3992
  354.5000   -49.6057    12.7438    12.4667    15.7680     7.8615    84.5291     0.0172     0.1316     2.4208
  355.0000   -49.4604    12.9237    12.5539    16.6653     7.8633    84.0834     0.0247     0.1337     2.4144
  355.5000   -49.3164    13.0159    12.6468    16.6768     7.8650    81.1023     0.0249     0.1364     2.4130
  356.0000   -49.3236    13.0186    12.8188    16.0898     7.8515    81.6603     0.0250     0.1268     2.4355
  356.5000   -49.3294    13.0217    12.9085    15.6639     7.8240    86.8166     0.0221     0.1253     2.4333
  357.0000   -49.3353    12.9340    12.8203    15.9930     7.8104    82.1878     0.0193     0.1315     2.4206
  357.5000   -49.4921    12.5846    12.6452    16.4423     7.8127    82.3995     0.0180     0.1378     2.4049
  358.0000   -49.6476    12.5871    12.3015    16.2177     7.8145    85.3940     0.0181     0.1402     2.4017
  358.5000   -49.9527    12.5029    11.8846    15.4530     7.8162    86.5662     0.0198     0.1339     2.4193
  359.0000   -49.9585    12.4165    11.5370    14.9293     7.8329    85.3858     0.0231     0.1254     2.4381
  359.5000   -50.1140    12.2513    11.0164    14.6240     7.8496    86.5902     0.0261     0.1184     2.4623
  360.0000   -50.4192    12.1694    10.7168    14.5243     7.8360    87.1982     0.0245     0.1086     2.4894
  360.5000   -50.7470    12.0054    10.4254    14.3261     7.8229    87.8376     0.0204     0.1029     2.4924
  361.0000   -51.1807    11.8430    10.2830    14.1302     7.8252    89.0102     0.0238     0.1073     2.4805
  361.5000   -51.3361    11.5224    10.1425    13.8413     7.8270    86.6376     0.0267     0.1097     2.4737
  362.0000   -51.0425    11.2883    10.0734    13.4651     7.8436    88.9450     0.0268     0.0989     2.5016
  362.5000   -50.7489    11.0526    10.0742    13.2812     7.8603    90.2382     0.0207     0.1094     2.4851
  363.0000   -50.4552    10.9850    10.1447    13.0096     7.8319    88.8703     0.0129     0.1154     2.4634
  363.5000   -50.0045    10.9877    10.4297    12.9208     7.8341    86.0222     0.0093     0.1192     2.4499
  364.0000   -49.1209    11.2979    10.8719    12.5697     7.8206    84.3127     0.0154     0.1240     2.4409
  364.5000   -48.5279    12.0252    11.5702    12.3124     7.8228    85.5604     0.0177     0.1159     2.4545
  365.0000   -47.4858    12.4504    12.2343    12.3988     7.8246    86.7511     0.0218     0.1135     2.4611
  365.5000   -45.9945    13.7176    13.3790    12.9245     7.8264    84.3133     0.0294     0.1171     2.4546
  366.0000   -45.1021    15.1706    14.7388    14.9437     7.8282    74.9265     0.0356     0.1212     2.4370
  366.5000   -44.2097    17.0019    16.9241    17.8436     7.8300    67.6155     0.0162     0.1419     2.3674
  367.0000   -43.4521    19.1248    20.1165    23.9098     7.8317    65.2579     0.0224     0.2035     2.3148
  367.5000   -42.8753    23.5346    23.0992    32.6316     7.8335    64.1278     0.0285     0.2041     2.3149
  368.0000   -43.0308    27.7851    27.0797    36.1975     7.8353    67.1223     0.0347     0.1848     2.3458
  368.5000   -43.0366    31.4711    32.5595    36.1999     7.8371    68.9226     0.0228     0.1536     2.3947
  369.0000   -43.1921    34.2223    36.2026    35.9524     7.8240    65.8049     0.0230     0.1518     2.4000
  369.5000   -43.1978    36.1511    37.2196    43.0312     7.8109    64.3235     0.0411     0.1349     2.4212
  370.0000   -43.0539    36.1584    36.2074    62.4767     7.7974    66.7229     0.0652     0.0996     2.5424
  370.5000   -43.0599    34.2207    27.8482   115.5976     7.7996    68.3742     0.0594     0.0325     2.6026
  371.0000   -43.0669    32.8376    26.5351    59.1442     7.8014    70.1744     0.0640     0.0613     2.5599
  371.5000   -43.0727    31.9489    25.9925    40.4483     7.7879    73.0180     0.0657     0.1504     2.4488
  372.0000   -43.0784    31.0842    25.6379    30.0536     7.7901    74.3711     0.0673     0.1994     2.3664
  372.5000   -43.2339    30.4180    25.1136    28.6365     7.7919    75.5753     0.0645     0.2033     2.3142
  373.0000   -43.6888    29.2232    25.1153    28.8370     7.7937    73.6498     0.0407     0.2069     2.3064
  373.5000   -44.1512    28.4323    24.6017    30.1040     7.7955    73.2117     0.0228     0.2053     2.3140
  374.0000   -44.3006    27.4723    24.2657    33.5762     7.7972    75.6110     0.0184     0.2002     2.3110
