~VERSION INFORMATION
 VERS.                2.0:   CWLS LOG ASCII STANDARD - VERSION 2.0
 WRAP.                 NO:   ONE LINE PER DEPTH STEP
~WELL INFORMATION
#MNEM.UNIT      DATA TYPE    INFORMATION
#----------   ------------   ------------------------------
 STRT.F           92.0000:   START DEPTH
 STOP.F          810.0000:   STOP DEPTH
 STEP.F            0.5000:   STEP LENGTH
 NULL.          -999.2500:   NO VALUE
 COMP. U S NAVY/INTEX OIL CO:   COMPANY
 WELL. NPR #3 #86 S 34-34:   WELL
 FLD .        EAST TEAPOT:   FIELD
 LOC .      S34 T39N R78W:   LOCATION
 CNTY.            NATRONA:   COUNTY
 STAT.            WYOMING:   STATE
 CTRY. UNITED STATES OF AMERICA:   COUNTRY
 SRVC. Schlumberger Well Surveying Corp:   SERVICE COMPANY
 DATE.        22-JUL-1962:   LOGDATE
 API .       490250652900:   API NUMBER
~CURVE INFORMATION
#MNEM.UNIT       API CODE    CURVE DESCRIPTION
#----------   ------------   ------------------------------
 DEPT.F                  :   
 GR  .GAPI   30 310 01 00:   GAMMA RAY
 SPR .MV     05 010 01 00:   SPONTANEOUS POTENTIAL FROM RES.
 CILD.MMHO   05 110 46 00:   CONDUCTIVITY INDUCTION LOG DEEP
 ASN .OHMM   05 041 16 00:   AMPLIFIED SHORT NORMAL 16"
 ILD .OHMM   05 120 46 00:   INDUCTION LOG DEEP
 CALM.IN     15 280 01 00:   CALIPER FROM MICRO LOG
~PARAMETER INFORMATION
#MNEM.UNIT          VALUE    DESCRIPTION
#----------   ------------   ------------------------------
 PD  .                 GL:   PERMANENT DATUM
 EPD .F              5094:   ELEVATION PERMANENT DATUM
 LMF .                 KB:   LOG MEASURED FROM
 DAPD.F                 5:   FEET ABOVE PERMANENT DATUM
 DMF .                 KB:   DRILLING MEASURED FROM
 EKB .F              5099:   KELLING BUSHING
 EGL .F              5094:   GROUND LEVEL
 DATE.            7-22-62:   RUN DATE
 RUN .                  1:   RUN NUMBER
 DD  .F               810:   DEPTH DRILLER
 DL  .F               811:   DEPTH LOGGER
 BLI .F               810:   BOTTOM LOG INTERVAL
 TLI .F               100:   TOP LOG INTERVAL
 BS  .IN             6.75:   BIT SIZE
 BSD .F               810:   BIT SIZE AT DEPTH
 DFT .                GEL:   DRILLING FLUID TYPE
 DFD .               10.3:   DRILLING FLUID DENSITY
 DFV .                 43:   DRILLING FLUID VISCOSITY
 RMS .OHMM              4:   RESISTIVITY MUD SAMPLE
 MST .F                75:   MUD SAMPLE TEMPERATURE
 RMF .OHMM            2.9:   RESISTIVITY MUD FILTRATE SAMPLE
 MFST.F                75:   MUD FILTRATE SAMPLE TEMPERATURE
 RMC .OHMM            3.8:   RESISTIVITY MUD CAKE
 MCST.F                75:   MUD CAKE SAMPLE TEMPERATURE
 TCS .HRS               1:   TIME CURCULATED STOPPED
 LUN .               2503:   LOGGING UNIT NUMBER
 ENGI.           ELLERMAN:   RECORDING ENGINEER
 WITN.          JORGENSON:   WITNESSED BY
 CLNT.            A2DTECH:   CLIENT CODE
 ORIG.   1", 2", 5" PRINT:   ORIGIN OF DATA
 UWI .       490250652900:   UNIQUE WELL ID
 DICO. A2D Technologies, Inc.:   DIGITIZING COMPANY
~OTHER INFORMATION
~A   DEPT       GR        SPR       CILD        ASN        ILD       CALM   
# ...
  612.0000   111.3916   -29.2957   150.0519     7.0424     7.0146     6.8206
  612.5000   123.3059   -29.2941   150.0431     7.1387     7.1114     6.8186
  613.0000   124.5895   -29.3052   150.0604     7.2352     7.1137     6.8176
  613.5000   129.9442   -29.5939   149.4455     7.3317     7.1129     6.8307
  614.0000   137.8364   -29.8903   148.1506     7.4004     7.1158     6.8280
  614.5000   125.0455   -30.0634   146.8406     7.4368     7.1747     6.8191
  615.0000   143.1362   -29.7085   145.5348     7.4734     7.2332     6.8103
  615.5000   151.1902   -29.6392   144.2290     7.5099     7.2909     6.8017
  616.0000   143.5467   -29.9742   143.7999     7.5316     7.3039     6.7931
  616.5000   128.4340   -30.3043   145.1872     7.5379     7.2689     6.7845
  617.0000   132.5179   -30.6367   146.7025     7.5441     7.2343     6.7756
  617.5000   137.0808   -30.9478   148.2282     7.5423     7.1994     6.7794
  618.0000   127.0195   -30.9660   149.7516     7.4783     7.1646     6.7892
  618.5000   128.1347   -30.5145   151.0903     7.4138     7.1297     6.7991
  619.0000   123.1694   -29.9987   149.8224     7.3493     7.1029     6.8088
  619.5000   128.7915   -29.8118   148.4478     7.2843     7.0826     6.8155
  620.0000   123.7040   -30.0539   147.0733     7.2211     7.0626     6.8157
  620.5000   122.0576   -29.7709   145.8982     7.2850     7.0427     6.7975
  621.0000   139.7252   -29.3083   147.0820     7.2624     7.0214     6.7735
  621.5000   148.2313   -29.4041   154.9169     7.2221     6.9270     6.7493
  622.0000   138.2063   -29.5106   162.7518     7.1738     6.6874     6.7253
  622.5000   130.9666   -29.6157   170.5867     7.0267     6.4499     6.7010
  623.0000   149.3198   -29.7146   178.4216     6.6653     6.2111     6.6757
  623.5000   146.3900   -29.5495   183.8238     6.2495     5.9781     6.6318
  624.0000   143.7103   -29.8475   185.3522     5.9500     5.9393     6.5730
  624.5000   145.5838   -30.3293   186.8423     6.0578     5.9099     6.6500
  625.0000   140.0767   -30.8131   189.7427     5.8452     5.8796     6.7142
  625.5000   135.7956   -31.1645   193.6118     5.6921     5.8649     6.5812
  626.0000   132.6436   -30.9245   197.4809     6.0067     5.7888     6.4237
  626.5000   140.4819   -30.6656   201.3578     6.3346     5.7098     6.5893
  627.0000   138.3200   -30.4054   205.2340     6.1688     5.6310     6.7101
  627.5000   144.7882   -30.1313   208.2107     5.8972     5.5580     6.6945
  628.0000   157.3186   -29.5764   204.7959     5.6000     5.5765     6.6175
  628.5000   145.1237   -28.9830   201.4386     5.5135     5.5979     6.6350
  629.0000   138.3674   -28.4365   201.4965     5.8096     5.6188     6.6659
  629.5000   139.7172   -28.3182   202.1633     5.6621     5.6391     6.6743
  630.0000   119.1360   -28.2545   202.7908     5.5473     5.6618     6.6902
  630.5000   111.3369   -28.5921   197.2516     5.5880     5.7309     6.6789
  631.0000   121.5468   -29.0397   183.3230     6.3648     5.9267     6.6672
  631.5000   132.9076   -29.4819   169.3943     6.5701     6.2753     6.6559
  632.0000   118.8423   -29.3549   161.1482     6.6849     6.5832     6.6579
  632.5000   126.0376   -29.1919   156.2825     6.7547     6.7428     6.6776
  633.0000   116.0926   -29.0313   158.0353     6.7766     6.8060     6.6969
  633.5000   108.4485   -28.8668   165.6490     6.7670     6.6272     6.7031
  634.0000   117.9962   -28.6925   176.0955     6.7361     6.4308     6.6427
  634.5000   131.9781   -28.9076   186.5183     6.5977     6.2339     6.4289
  635.0000   129.4992   -29.1231   197.1190     6.2501     6.0387     6.2117
  635.5000   130.2290   -29.4214   201.9176     5.8757     5.8602     6.1445
  636.0000   121.9424   -30.1463   199.5707     5.7294     5.7201     6.3294
  636.5000   111.2966   -30.8722   196.8128     5.8010     5.5623     6.5111
  637.0000   112.3350   -31.1064   196.7729     5.7617     5.5828     6.6892
  637.5000   102.2772   -30.6535   196.7809     5.8667     5.7932     6.8106
  638.0000   108.8715   -29.8844   187.5450     6.2819     6.0214     6.8585
  638.5000   105.8214   -29.1220   175.2550     6.7270     6.3325     6.8631
  639.0000   104.6690   -28.4492   162.9650     7.0149     6.6463     6.8669
  639.5000   112.5478   -28.4644   152.0885     7.2406     6.9605     6.8707
  640.0000   126.8810   -28.5071   143.6007     7.4099     7.2734     6.8745
  640.5000   121.1161   -28.5697   140.1122     7.5694     7.5353     6.8714
  641.0000   112.5827   -28.6327   139.0351     7.6645     7.5294     6.8322
  641.5000   110.3988   -28.6958   138.2315     7.7608     7.5286     6.7937
  642.0000   103.0434   -28.7587   137.4279     7.8246     7.5286     6.7521
  642.5000   109.1178   -28.8211   136.6243     7.8355     7.5286     6.6355
  643.0000   105.9993   -28.8864   135.8208     7.8471     7.5286     6.5091
  643.5000   102.0579   -29.0263   135.0172     7.8580     7.5286     6.5039
  644.0000   106.5471   -29.1664   134.2136     7.8977     7.5286     6.5303
  644.5000   109.4522   -29.2904   133.4372     7.9426     7.5286     6.5577
  645.0000   107.5396   -29.2097   135.7108     7.9850     7.5286     6.5847
  645.5000   105.5643   -29.1253   137.9100     7.9576     7.5284     6.6069
  646.0000   118.0550   -29.0410   140.1093     7.9122     7.5279     6.5934
  646.5000   108.9337   -28.9547   141.4766     7.8397     7.5326     6.5545
  647.0000    97.7053   -28.9061   140.4320     7.7680     7.6265     6.4922
  647.5000    93.2494   -29.4002   138.6397     7.6993     7.7204     6.4632
  648.0000    93.3804   -29.8910   134.8093     7.6303     7.8139     6.4626
  648.5000    98.5730   -30.3225   130.9789     7.6975     7.9075     6.4701
  649.0000    95.6831   -30.2212   128.2451     7.8581     8.0004     6.4849
  649.5000   109.9964   -30.1148   129.2835     8.0696     8.0125     6.4988
  650.0000   105.2838   -30.0106   139.5166     8.2870     7.8451     6.5902
  650.5000   121.7304   -29.8592   149.9637     8.2869     7.2161     6.7100
  651.0000   131.1880   -29.3832   166.5775     8.1698     6.5201     6.8023
  651.5000   125.5747   -28.8999   183.2194     7.7049     5.8063     6.8154
  652.0000   104.8224   -28.7375   193.7787     6.9450     5.7263     6.8121
  652.5000    84.3224   -28.5259   188.3629     6.0440     6.0806     6.7879
  653.0000    73.7329   -28.2520   183.7798     6.2745     6.0749     6.7637
  653.5000    67.2452   -27.7296   182.4441     6.4747     6.0725     6.7618
  654.0000    76.2952   -27.2728   182.9246     6.3030     6.1018     6.7856
  654.5000    74.7696   -28.1754   182.2430     6.3450     6.1665     6.8095
  655.0000    73.4310   -28.9284   167.2737     8.1409     6.7170     6.8334
  655.5000    81.3489   -29.0667   146.5381     8.9804     7.4998     6.8563
  656.0000    87.8307   -29.2118   124.0914     9.4040     8.2942     6.8520
  656.5000   100.6061   -29.3576   112.3142     9.6654     9.1104     6.8457
  657.0000    98.6479   -29.5038   104.7186     9.8085     9.4890     6.8395
  657.5000    93.7965   -29.6506   104.9812     9.9142     9.5633     6.8334
  658.0000    88.8854   -29.7963   109.6631    10.0118     9.4448     6.8272
  658.5000    81.3884   -29.8931   109.8841    10.0753     9.2994     6.8211
  659.0000    69.3334   -29.7129   108.1650    10.2288     9.3647     6.8147
  659.5000    57.5437   -29.5375   104.7629    10.7675     9.5549     6.7994
  660.0000    41.2117   -29.3571    97.7155    11.2804     9.9121     6.7842
  660.5000    22.8169   -29.5141    90.6681    12.0682    10.7378     6.7507
  661.0000    20.7073   -29.8202    83.6206    12.8830    11.7810     6.6704
  661.5000    22.5973   -31.2367    76.5732    13.7369    12.8712     6.5430
  662.0000    25.2203   -33.3832    69.0550    15.2284    14.0301     6.3916
  662.5000    23.9999   -36.0420    63.6293    17.6633    15.5556     6.3587
  663.0000    24.7924   -39.1529    57.8152    20.4982    17.0732     6.3800
  663.5000    25.1830   -42.1355    52.0010    21.6555    18.5950     6.4090
