~VERSION INFORMATION
 VERS.                2.0:   CWLS LOG ASCII STANDARD - VERSION 2.0
 WRAP.                 NO:   ONE LINE PER DEPTH STEP
~WELL INFORMATION
#MNEM.UNIT      DATA TYPE    INFORMATION
#----------   ------------   ------------------------------
 STRT.F           20.0000:   START DEPTH
 STOP.F          610.0000:   STOP DEPTH
 STEP.F            0.5000:   STEP LENGTH
 NULL.          -999.2500:   NO VALUE
 COMP. LAWRENCE/ALLISON INC:   COMPANY
 WELL.    44-55 SX #10-10:   WELL
 FLD .             TEAPOT:   FIELD
 LOC .      S10 T38N R78W:   LOCATION
 CNTY.            NATRONA:   COUNTY
 STAT.            WYOMING:   STATE
 CTRY. UNITED STATES OF AMERICA:   COUNTRY
 SRVC.            Unknown:   SERVICE COMPANY
 DATE.        29-AUG-1984:   LOGDATE
 API .       490251098300:   API NUMBER
~CURVE INFORMATION
#MNEM.UNIT       API CODE    CURVE DESCRIPTION
#----------   ------------   ------------------------------
 DEPT.F                  :   
 AC  .US/F   60 520 00 00:   ACOUSTIC SONIC
 SPR .MV     07 010 01 00:   SPONTANEOUS POTENTIAL
 RILD.OHMM   07 120 46 00:   INDUCTION LOG DEEP RESISTIVITY
 RILM.OHMM   07 120 44 00:   INDUCTION LOG MEDIUM RESISTIVITY
 RFOC.OHMM   07 220 04 00:   RESISTIVITY FOCUSED LOG
 GRD .GAPI   45 310 01 00:   GAMMA RAY FROM DENSITY LOG
 CALD.IN     45 280 60 00:   CALIPER
 DEN .G/C3   45 350 01 00:   COMPENSATED BULK DENSTIY
 CNC .DEC    42 890 03 00:   NEUTRON POROSITY SANDSTONE
 PORD.DEC    45 890 12 00:   DENSITY POROSITY SANDSTONE
 CORR.G/C3   45 356 01 00:   DENSITY CORRECTION
~PARAMETER INFORMATION
#MNEM.UNIT          VALUE    DESCRIPTION
#----------   ------------   ------------------------------
 PD  .                 GL:   PERMANENT DATUM
 EPD .F              5247:   ELEVATION PERMANENT DATUM
 LMF .                 KB:   LOG MEASURED FROM
 DAPD.F                13:   FEET ABOVE PERMANENT DATUM
 DMF .                 KB:   DRILLING MEASURED FROM
 EKB .F              5260:   KELLING BUSHING
 EGL .F              5247:   GROUND LEVEL
 DATE.        29-AUG-1984:   RUN DATE
 RUN .                  1:   RUN NUMBER
 DD  .F               613:   DEPTH DRILLER
 DL  .F               607:   DEPTH LOGGER
 BLI .F               607:   BOTTOM LOG INTERVAL
 TLI .F                42:   TOP LOG INTERVAL
 CBL .F                42:   CASING BOTTOM LOGGER
 BS  .IN            7.875:   BIT SIZE
 BSD .F               613:   BIT SIZE AT DEPTH
 DFT .          KCL WATER:   DRILLING FLUID TYPE
 MSS .               TANK:   MUD SAMPLE SOURCE
 RMS .OHMM           .295:   RESISTIVITY MUD SAMPLE
 MST .F                75:   MUD SAMPLE TEMPERATURE
 TCS .HRS               3:   TIME CURCULATED STOPPED
 MRT .F               100:   MAXIMUM RECORDED TEMPERATURE
 LUN .               4082:   LOGGING UNIT NUMBER
 LUL .               ROOS:   LOGGING UNIT LOCATION
 ENGI.             MILLER:   RECORDING ENGINEER
 WITN.            JOHNSON:   WITNESSED BY
 CLNT.            A2DTECH:   CLIENT CODE
 ORIG.       2", 5" PRINT:   ORIGIN OF DATA
 UWI .       490251098300:   UNIQUE WELL ID
 DICO. A2D Technologies, Inc.:   DIGITIZING COMPANY
~OTHER INFORMATION
~A   DEPT       AC        SPR       RILD       RILM       RFOC         GRD      CALD        DEN        CNC       PORD       CORR   
# ...
  233.5000   117.5713   -45.7812     3.6043     3.2324     5.3580    97.2429     8.0015     2.4054     0.3909     0.1733    -0.0053
  234.0000   122.0144   -45.8265     3.2123     2.8339     4.7311    92.7635     8.0009     2.3743     0.3873     0.1967    -0.0015
  234.5000   127.1255   -45.8253     2.8630     2.5399     4.1301    88.2514     8.0004     2.3276     0.3843     0.2209     0.0099
  235.0000   131.0798   -45.7381     2.6632     2.5399     3.6054    86.8030     7.9999     2.2939     0.3895     0.2401     0.0493
  235.5000   132.1657   -45.3100     2.6164     2.6720     3.1474    86.2983     7.9993     2.2662     0.3727     0.2465     0.1018
  236.0000   128.6190   -44.8918     2.5705     2.8103     3.0246    86.1069     7.9988     2.2790     0.3776     0.2294     0.1347
  236.5000   124.6690   -44.8307     2.5634     2.9556     3.8738    86.8549     7.9983     2.3174     0.3859     0.1991     0.0870
  237.0000   121.4511   -44.8316     2.5871     3.1085     4.6591    89.0652     7.9974     2.3739     0.3960     0.1801     0.0476
  237.5000   119.1568   -44.8222     2.7981     3.3313     4.8366    91.4932     7.9960     2.3645     0.3885     0.1883     0.0252
  238.0000   117.0319   -44.6148     3.0875     3.7910     4.2401    93.9222     7.9947     2.3528     0.3552     0.1949     0.0074
  238.5000   113.6436   -44.4058     3.5059     4.3140     3.9124    95.9814     7.9934     2.3761     0.3220     0.1728    -0.0092
  239.0000   110.3755   -44.1983     3.9811     4.9092     4.8764    97.1488     7.9921     2.4146     0.3051     0.1509    -0.0096
  239.5000   108.0733   -43.9907     4.5207     5.5864     6.7312    98.3260     7.9908     2.4513     0.3022     0.1315    -0.0053
  240.0000   106.7962   -43.7889     5.1329     6.3572     7.6536    99.6086     7.9895     2.4732     0.3125     0.1217     0.0088
  240.5000   107.0769   -43.5861     5.6675     7.1766     7.2969    99.3496     7.9882     2.4933     0.3252     0.1116     0.0206
  241.0000   107.5133   -43.3868     6.0482     7.3098     7.0364    96.8608     7.9869     2.5018     0.3282     0.1084     0.0348
  241.5000   107.5683   -43.1877     6.4271     7.1364     6.7850    96.6409     7.9856     2.4988     0.3259     0.1098     0.0493
  242.0000   107.4371   -42.9884     6.7915     6.9796     6.6035    98.6986     7.9843     2.4929     0.3196     0.1120     0.0637
  242.5000   106.8942   -42.7888     6.5500     6.6269     6.7989    99.0915     7.9830     2.4922     0.3182     0.1113     0.0767
  243.0000   106.7166   -42.5905     6.3059     6.3084     7.0256    96.8135     7.9817     2.4962     0.3269     0.1096     0.0763
  243.5000   106.9425   -42.4506     6.0708     6.0066     7.2605    94.6573     7.9804     2.4973     0.3358     0.1107     0.0511
  244.0000   107.9321   -42.4903     5.8445     5.7192     7.5033    96.1960     7.9791     2.4874     0.3417     0.1169     0.0318
  244.5000   110.2169   -42.5261     5.6266     5.4456     7.6536    96.7689     7.9785     2.4674     0.3473     0.1285     0.0296
  245.0000   112.3183   -42.5617     5.4168     5.1851     6.5515    96.0194     7.9798     2.4479     0.3523     0.1405     0.0271
  245.5000   113.1447   -42.5977     5.2149     5.0860     5.8008    96.0271     7.9811     2.4279     0.3456     0.1496     0.0246
  246.0000   113.4032   -42.6312     5.0205     4.9866     5.3972    96.6650     7.9824     2.4267     0.3356     0.1481     0.0272
  246.5000   112.6115   -42.7646     4.9124     4.8891     5.7733    95.6429     7.9837     2.4399     0.3338     0.1422     0.0327
  247.0000   111.2365   -42.9358     4.8759     4.8781     5.9714    93.9978     7.9850     2.4508     0.3581     0.1364     0.0364
  247.5000   110.1198   -43.1094     4.8750     5.1963     5.9274    92.8408     7.9863     2.4619     0.3719     0.1293     0.0356
  248.0000   109.2708   -43.2833     5.1101     5.4189     5.9168    95.9125     7.9876     2.4736     0.3478     0.1220     0.0349
  248.5000   108.5785   -43.4380     5.3286     5.6510     6.5333    99.4589     7.9889     2.4838     0.3255     0.1168     0.0357
  249.0000   107.8862   -43.4107     5.5564     5.8931     6.9141    99.1660     7.9901     2.4822     0.3178     0.1171     0.0464
  249.5000   106.9822   -43.2879     5.7940     6.1455     6.8592    98.4574     7.9914     2.4823     0.3212     0.1176     0.0491
  250.0000   105.9055   -43.1706     6.0417     6.4087     7.1241    97.7029     7.9927     2.4938     0.3243     0.1128     0.0281
  250.5000   104.6801   -43.0465     6.3000     6.6832     7.3827   100.5180     7.9940     2.5055     0.3220     0.1039     0.0076
  251.0000   103.6394   -42.7723     6.5694     6.9694     7.6493   103.8329     7.9953     2.5167     0.3133     0.0972     0.0006
  251.5000   103.0295   -42.4735     6.8502     7.2679     7.9251   104.0250     7.9966     2.5107     0.3045     0.1002     0.0006
  252.0000   102.6247   -42.1719     7.1431     7.5792     8.2376    99.3922     7.9980     2.4986     0.3010     0.1093     0.0153
  252.5000   102.7745   -41.8645     7.4485     8.0577     8.2641    94.7892     7.9973     2.4909     0.3034     0.1140     0.0384
  253.0000   102.9408   -41.8197     7.7956     8.0270     8.2935    94.4461     7.9965     2.4968     0.3104     0.1079     0.0616
  253.5000   103.2235   -41.7692     7.7956     8.0882     8.3137    96.3677     7.9958     2.5050     0.3175     0.1044     0.0725
  254.0000   103.6311   -41.7173     7.6685     7.9770     8.2009    98.5329     7.9950     2.5060     0.3230     0.1096     0.0570
  254.5000   104.0120   -41.6627     7.5725     7.8791     8.1160    99.9353     7.9942     2.4867     0.3238     0.1205     0.0430
  255.0000   104.3513   -41.6502     7.4776     7.7823     8.0321    97.6090     7.9934     2.4662     0.3299     0.1315     0.0336
  255.5000   104.7838   -41.6498     7.3781     7.6867     7.9490    95.3007     7.9927     2.4511     0.3420     0.1356     0.0243
  256.0000   105.2162   -41.6496     7.2302     7.5924     7.8672    95.3233     7.9919     2.4538     0.3542     0.1333     0.0147
  256.5000   105.5938   -41.6444     7.0745     7.4994     7.7814    98.0483     7.9911     2.4585     0.3664     0.1302     0.0057
  257.0000   105.8433   -41.9174     6.9217     7.4075     7.6735   100.5786     7.9903     2.4632     0.3715     0.1276    -0.0036
  257.5000   106.0928   -42.2832     6.7294     7.3106     7.5667   100.5884     7.9896     2.4615     0.3633     0.1308    -0.0129
  258.0000   106.4504   -42.6529     6.5606     6.9878     7.4614   100.4928     7.9888     2.4557     0.3458     0.1346    -0.0220
  258.5000   106.9162   -43.0264     6.2473     6.6569     7.3582   102.5735     7.9880     2.4505     0.3358     0.1360    -0.0298
  259.0000   107.3819   -43.1474     5.9490     6.3419     7.2074   103.9231     7.9872     2.4624     0.3520     0.1268    -0.0179
  259.5000   108.1284   -43.2562     5.6649     6.0310     7.0214   102.0117     7.9864     2.4748     0.3789     0.1180     0.0061
  260.0000   109.1558   -43.3665     5.3944     5.6719     6.8382   100.5866     7.9857     2.4820     0.4058     0.1176     0.0298
  260.5000   110.1832   -43.4769     5.1368     5.3341     6.6102   103.7948     7.9849     2.4690     0.4111     0.1287     0.0499
  261.0000   111.1078   -43.5893     4.8781     5.0609     6.0448   107.0215     7.9841     2.4533     0.4038     0.1436     0.0540
  261.5000   111.1078   -43.6398     4.8884     5.0609     5.4254   104.8217     7.9833     2.4276     0.3959     0.1597     0.0589
  262.0000   109.9825   -43.5998     4.9072     5.1547     4.9186    97.2019     7.9826     2.4025     0.3688     0.1629     0.0518
  262.5000   108.6602   -43.0874     4.9232     5.3459     5.1691    89.5450     7.9818     2.4188     0.3418     0.1470     0.0376
  263.0000   107.3378   -42.6588     5.0874     5.6177     5.8026    89.5036     7.9810     2.4519     0.3282     0.1272     0.0362
  263.5000   106.0155   -42.2266     5.3507     5.9034     6.5118    98.8509     7.9802     2.4862     0.3150     0.1108     0.0412
