~VERSION INFORMATION
 VERS.                2.0:   CWLS LOG ASCII STANDARD - VERSION 2.0
 WRAP.                 NO:   ONE LINE PER DEPTH STEP
~WELL INFORMATION
#MNEM.UNIT      DATA TYPE    INFORMATION
#----------   ------------   ------------------------------
 STRT.F            0.0000:   START DEPTH
 STOP.F          547.0000:   STOP DEPTH
 STEP.F            0.1000:   STEP LENGTH
 NULL.          -999.2500:   NO VALUE
 COMP.       F D SERV INC:   COMPANY
 WELL.    87-5 SX 3 #87-3:   WELL
 FLD .             TEAPOT:   FIELD
 LOC .       S3 T38N R78W:   LOCATION
 CNTY.            NATRONA:   COUNTY
 STAT.            WYOMING:   STATE
 CTRY. UNITED STATES OF AMERICA:   COUNTRY
 SRVC.     Atlas Wireline:   SERVICE COMPANY
 DATE.        31-OCT-1992:   LOGDATE
 API .       490252254800:   API NUMBER
~CURVE INFORMATION
#MNEM.UNIT       API CODE    CURVE DESCRIPTION
#----------   ------------   ------------------------------
 DEPT.F                  :   
 GRR .GAPI   07 310 01 00:   GAMMA RAY
 RILD.OHMM   07 120 46 00:   INDUCTION LOG DEEP RESISTIVITY
 RILM.OHMM   07 120 44 00:   INDUCTION LOG MEDIUM RESISTIVITY
~PARAMETER INFORMATION
#MNEM.UNIT          VALUE    DESCRIPTION
#----------   ------------   ------------------------------
 PD  .                 GL:   PERMANENT DATUM
 EPD .F              5119:   ELEVATION PERMANENT DATUM
 LMF .                 KB:   LOG MEASURED FROM
 DAPD.F                10:   FEET ABOVE PERMANENT DATUM
 DMF .                 KB:   DRILLING MEASURED FROM
 EKB .F              5129:   KELLING BUSHING
 EDF .F              5128:   DRILLING FLOOR
 EGL .F              5119:   GROUND LEVEL
 DATE.        31-OCT-1992:   RUN DATE
 RUN .                  1:   RUN NUMBER
 DD  .F               568:   DEPTH DRILLER
 DL  .F               555:   DEPTH LOGGER
 BLI .F               547:   BOTTOM LOG INTERVAL
 TLI .F                71:   TOP LOG INTERVAL
 CS  .IN            8.625:   CASING SIZE
 CBD .F                70:   CASING BOTTOM DRILLER
 CBL .F                71:   CASING BOTTOM LOGGER
 BS  .IN            7.875:   BIT SIZE
 BSD .F               568:   BIT SIZE AT DEPTH
 DFT .           AIR FOAM:   DRILLING FLUID TYPE
 TCS .HRS               2:   TIME CURCULATED STOPPED
 MRT .F                64:   MAXIMUM RECORDED TEMPERATURE
 LUN .            HL-6274:   LOGGING UNIT NUMBER
 LUL .             CASPER:   LOGGING UNIT LOCATION
 ENGI.        P.RASHUSSEN:   RECORDING ENGINEER
 WITN.     BRUCE ANDERSON:   WITNESSED BY
 CLNT.            A2DTECH:   CLIENT CODE
 ORIG.           5" PRINT:   ORIGIN OF DATA
 UWI .       490252254800:   UNIQUE WELL ID
 DICO. A2D Technologies, Inc.:   DIGITIZING COMPANY
~OTHER INFORMATION
~A    DEPT      GRR      RILD       RILM   
# ...
  254.8000   142.4323     7.7868     7.9172
  254.9000   142.1772     7.7524     7.9072
  255.0000   141.9221     7.7071     7.8792
  255.1000   141.6350     7.6782     7.8329
  255.2000   141.0913     7.6780     7.7868
  255.3000   140.6157     7.6778     7.7415
  255.4000   140.2946     7.6776     7.7410
  255.5000   140.1790     7.6428     7.7039
  255.6000   140.0878     7.5982     7.6586
  255.7000   139.8745     7.5538     7.5947
  255.8000   140.1772     7.5096     7.5262
  255.9000   140.1766     7.4652     7.5226
  256.0000   140.1760     7.4650     7.4209
  256.1000   140.1754     7.4304     7.3842
  256.2000   140.1748     7.3870     7.3408
  256.3000   140.1228     7.3268     7.2977
  256.4000   139.8677     7.2587     7.2547
  256.5000   139.5659     7.2578     7.2120
  256.6000   139.3574     7.1577     7.1639
  256.7000   139.1022     7.0902     7.1275
  256.8000   138.7371     7.0329     7.0856
  256.9000   138.2275     6.9748     7.0246
  257.0000   137.7057     6.8937     6.9538
  257.1000   136.8309     6.8124     6.9128
  257.2000   135.7418     6.6742     6.8677
  257.3000   134.6373     6.6418     6.7615
  257.4000   133.9779     6.5546     6.6172
  257.5000   133.9353     6.4570     6.5012
  257.6000   134.4219     6.3819     6.4253
  257.7000   134.7028     6.3059     6.3463
  257.8000   134.9297     6.1800     6.2260
  257.9000   135.1836     6.1190     6.0626
  258.0000   135.3080     6.0251     5.9617
  258.1000   135.3074     5.9048     5.8567
  258.2000   135.3384     5.7770     5.6997
  258.3000   135.6097     5.6765     5.5149
  258.4000   135.3719     5.5650     5.4127
  258.5000   135.1168     5.5088     5.3245
  258.6000   134.8617     5.4026     5.2094
  258.7000   134.6066     5.3069     5.0888
  258.8000   134.2689     5.2283     4.9809
  258.9000   133.4816     5.1074     4.8940
  259.0000   133.2342     4.9763     4.8052
  259.1000   132.9790     4.8745     4.6986
  259.2000   132.5749     4.7431     4.5900
  259.3000   132.1653     4.6066     4.4837
  259.4000   131.9101     4.4663     4.3337
  259.5000   131.6550     4.3072     4.1273
  259.6000   131.3528     4.0925     4.0061
  259.7000   130.9371     3.9651     3.9150
  259.8000   130.4582     3.8602     3.8071
  259.9000   130.0886     3.7490     3.6599
  260.0000   129.8938     3.6198     3.5445
  260.1000   129.9005     3.4997     3.4915
  260.2000   130.1907     3.4129     3.4109
  260.3000   130.1882     3.3222     3.3322
  260.4000   130.1851     3.2403     3.2427
  260.5000   130.1821     3.1558     3.1806
  260.6000   130.2374     3.0709     3.1074
  260.7000   130.4796     2.9999     3.0358
  260.8000   130.1725     2.9268     2.9543
  260.9000   129.9612     2.8473     2.8368
  261.0000   129.7056     2.7775     2.7412
  261.1000   129.4501     2.7220     2.6893
  261.2000   129.1387     2.6747     2.7983
  261.3000   128.6404     2.6306     2.7658
  261.4000   128.6368     2.5990     2.7336
  261.5000   128.2216     2.5698     2.7016
  261.6000   127.7136     2.5400     2.6461
  261.7000   127.3099     2.5188     2.6088
  261.8000   127.0010     2.5041     2.5726
  261.9000   126.4953     2.4869     2.5487
  262.0000   126.1906     2.4574     2.5338
  262.1000   125.9842     2.4433     2.5189
  262.2000   125.5757     2.4402     2.5013
  262.3000   125.1697     2.4318     2.5011
  262.4000   124.8122     2.4231     2.5097
  262.5000   124.0516     2.4231     2.5183
  262.6000   123.5436     2.4230     2.5181
  262.7000   122.8340     2.4229     2.5179
  262.8000   122.3745     2.4229     2.5471
  262.9000   122.0195     2.4228     2.5648
  263.0000   121.5600     2.4286     2.5796
  263.1000   121.3019     2.4396     2.5944
  263.2000   121.0489     2.4399     2.6123
  263.3000   120.7933     2.4565     2.6430
  263.4000   120.6859     2.4803     2.6580
  263.5000   120.6829     2.5001     2.6856
  263.6000   120.7260     2.5147     2.7261
  263.7000   120.9802     2.5329     2.7738
  263.8000   121.2249     2.5625     2.8223
  263.9000   121.2777     2.5971     2.8728
  264.0000   121.7116     2.6359     2.9388
  264.1000   122.3715     2.6722     3.0214
  264.2000   123.0484     2.7180     3.1423
  264.3000   124.6039     2.7862     3.2914
  264.4000   127.0533     2.8674     3.4367
  264.5000   128.4097     2.9442     3.5408
  264.6000   129.4167     3.0351     3.6625
  264.7000   130.4237     3.1811     3.7584
  264.8000   131.4719     3.3239     3.8465
  264.9000   132.7798     3.4536     3.9451
  265.0000   133.7480     3.6126     4.0570
  265.1000   134.7551     3.7319     4.1559
  265.2000   136.0439     3.8098     4.2733
  265.3000   137.3762     3.9156     4.3797
  265.4000   138.3831     4.0196     4.4677
  265.5000   139.4384     4.1143     4.5554
  265.6000   139.4355     4.2062     4.6620
  265.7000   139.4325     4.2602     4.7768
  265.8000   139.2910     4.3511     4.8832
  265.9000   139.0355     4.4169     4.9978
  266.0000   138.7799     4.4821     5.1150
  266.1000   138.5097     4.5610     5.2348
  266.2000   138.5068     4.6445     5.3484
  266.3000   138.5038     4.7626     5.4142
  266.4000   138.6368     4.8663     5.4734
  266.5000   138.8012     5.0241     5.5370
  266.6000   138.8322     5.2029     5.6013
  266.7000   139.0984     5.3665     5.6664
  266.8000   139.3311     5.4883     5.7321
  266.9000   139.3961     5.5907     5.8034
  267.0000   139.7937     5.6836     5.8345
  267.1000   140.6308     5.7586     5.8930
  267.2000   141.6061     5.8449     5.9432
  267.3000   142.4186     5.9232     5.9661
  267.4000   142.8821     5.9687     5.9742
  267.5000   143.7483     6.0779     6.0492
  267.6000   144.6241     6.1119     6.0812
  267.7000   145.2984     6.1475     6.1162
  267.8000   145.8003     6.2040     6.1330
  267.9000   146.3457     6.2629     6.1438
  268.0000   146.3429     6.2929     6.1751
  268.1000   146.3399     6.2927     6.1746
  268.2000   146.3369     6.2925     6.2070
  268.3000   146.3338     6.3212     6.2427
  268.4000   146.3575     6.3362     6.2602
  268.5000   146.6310     6.3360     6.2709
  268.6000   146.6282     6.3431     6.3032
  268.7000   146.6252     6.3800     6.3027
  268.8000   146.7484     6.3798     6.3354
  268.9000   146.9978     6.4097     6.3460
  269.0000   147.2473     6.4242     6.3639
  269.1000   147.5232     6.4240     6.4006
  269.2000   147.7463     6.4238     6.4340
  269.3000   148.3453     6.4236     6.4334
  269.4000   148.4808     6.4234     6.4664
  269.5000   147.8270     6.4233     6.4776
  269.6000   146.8358     6.4466     6.4772
  269.7000   145.9875     6.4518     6.4767
  269.8000   145.5381     6.4227     6.4763
  269.9000   145.0301     6.4226     6.4758
  270.0000   144.5220     6.4224     6.4754
  270.1000   144.0844     6.3908     6.4495
  270.2000   143.8095     6.3535     6.4294
  270.3000   143.2379     6.3164     6.4187
  270.4000   142.5725     6.2886     6.3811
  270.5000   141.9818     6.2885     6.3389
  270.6000   141.5927     6.2883     6.3065
  270.7000   141.2691     6.2881     6.2939
  270.8000   140.7782     6.2637     6.2764
  270.9000   140.4882     6.2103     6.2301
  271.0000   140.0486     6.1380     6.1599
  271.1000   139.5405     6.0640     6.1188
  271.2000   139.2655     5.9459     6.0879
  271.3000   139.1314     5.8553     6.0292
  271.4000   138.6527     5.7764     5.9749
  271.5000   139.2560     5.6932     5.9311
  271.6000   139.2534     5.5942     5.8621
  271.7000   139.7456     5.4998     5.7839
  271.8000   140.5001     5.4294     5.7550
  271.9000   141.3178     5.4009     5.6998
  272.0000   142.3492     5.3475     5.6191
  272.1000   144.0936     5.3165     5.5215
  272.2000   145.3731     5.2973     5.4256
  272.3000   146.7223     5.2356     5.3168
  272.4000   147.9818     5.1697     5.2648
  272.5000   149.1199     5.1420     5.2036
  272.6000   149.8743     5.1120     5.1431
  272.7000   150.7522     5.0821     5.0833
  272.8000   151.1720     5.0524     5.0252
  272.9000   151.6740     5.0267     4.9908
