~VERSION INFORMATION
 VERS.                2.0:   CWLS LOG ASCII STANDARD - VERSION 2.0
 WRAP.                 NO:   ONE LINE PER DEPTH STEP
~WELL INFORMATION
#MNEM.UNIT      DATA TYPE    INFORMATION
#----------   ------------   ------------------------------
 STRT.F            3.0000:   START DEPTH
 STOP.F          604.0000:   STOP DEPTH
 STEP.F            0.5000:   STEP LENGTH
 NULL.          -999.2500:   NO VALUE
 COMP. BROWN JOHN E&C INC:   COMPANY
 WELL.    73-2 SX-3 #73-3:   WELL
 FLD .             TEAPOT:   FIELD
 LOC .       S3 T38N R78W:   LOCATION
 CNTY.            NATRONA:   COUNTY
 STAT.            WYOMING:   STATE
 CTRY. UNITED STATES OF AMERICA:   COUNTRY
 SRVC.     Atlas Wireline:   SERVICE COMPANY
 DATE.        13-APR-1992:   LOGDATE
 API .       490252251100:   API NUMBER
~CURVE INFORMATION
#MNEM.UNIT       API CODE    CURVE DESCRIPTION
#----------   ------------   ------------------------------
 DEPT.F                  :   
 GRR .GAPI   07 310 01 00:   GAMMA RAY
 RILD.OHMM   07 120 46 00:   INDUCTION LOG DEEP RESISTIVITY
 RILM.OHMM   07 120 44 00:   INDUCTION LOG MEDIUM RESISTIVITY
~PARAMETER INFORMATION
#MNEM.UNIT          VALUE    DESCRIPTION
#----------   ------------   ------------------------------
 PD  .                 GL:   PERMANENT DATUM
 EPD .F              5131:   ELEVATION PERMANENT DATUM
 LMF .                 KB:   LOG MEASURED FROM
 DAPD.F                 5:   FEET ABOVE PERMANENT DATUM
 DMF .                 KB:   DRILLING MEASURED FROM
 EKB .F              5136:   KELLING BUSHING
 EDF .F              5135:   DRILLING FLOOR
 EGL .F              5131:   GROUND LEVEL
 DATE.        13-APR-1992:   RUN DATE
 RUN .                  1:   RUN NUMBER
 DD  .F               610:   DEPTH DRILLER
 DL  .F               608:   DEPTH LOGGER
 BLI .F               605:   BOTTOM LOG INTERVAL
 TLI .F                 3:   TOP LOG INTERVAL
 CS  .IN            8.625:   CASING SIZE
 CBD .F                45:   CASING BOTTOM DRILLER
 CBL .F                50:   CASING BOTTOM LOGGER
 BS  .IN            7.875:   BIT SIZE
 BSD .F               610:   BIT SIZE AT DEPTH
 DFT .                AIR:   DRILLING FLUID TYPE
 LUN .           HL- 6272:   LOGGING UNIT NUMBER
 LUL .             CASPER:   LOGGING UNIT LOCATION
 ENGI.       P. RASHUSSEN:   RECORDING ENGINEER
 WITN.          G. STRONG:   WITNESSED BY
 CLNT.            A2DTECH:   CLIENT CODE
 ORIG.           5" PRINT:   ORIGIN OF DATA
 UWI .       490252251100:   UNIQUE WELL ID
 DICO. A2D Technologies, Inc.:   DIGITIZING COMPANY
~OTHER INFORMATION
~A    DEPT      GRR      RILD       RILM   
# ...
  276.0000   120.4758     8.6105     8.4690
  276.5000   120.4497     8.6068     8.5266
  277.0000   119.5170     8.6038     8.5845
  277.5000   116.7606     8.6619     8.6429
  278.0000   115.8278     8.7801     8.7017
  278.5000   120.6702     8.9013     8.8222
  279.0000   123.0861     9.1497     8.9445
  279.5000   123.9726     9.3404     9.1319
  280.0000   122.7352     9.5350     9.3887
  280.5000   120.8876     9.6667     9.6526
  281.0000   120.5654     9.7304     9.7863
  281.5000   120.5440     9.7952     9.7840
  282.0000   122.9504     9.7918     9.7821
  282.5000   126.2730     9.7884     9.8485
  283.0000   127.4732     9.7850     9.7778
  283.5000   125.9273     9.7809     9.8443
  284.0000   126.2104     9.8461     9.8422
  284.5000   127.7093     9.8428     9.8402
  285.0000   132.8556     9.9092     9.8382
  285.5000   133.4478     9.9753     9.8362
  286.0000   132.5099     9.9016     9.8341
  286.5000   131.8811     9.8982     9.9010
  287.0000   127.9029     9.8948     9.9683
  287.5000   126.3682     9.8914     9.9663
  288.0000   127.7566     9.8880     9.9642
  288.5000   132.4003     9.8846     9.9622
  289.0000   133.6004     9.8812     9.8906
  289.5000   133.8835     9.8777     9.8197
  290.0000   133.2495     9.8736     9.7491
  290.5000   132.3168     9.8702     9.7471
  291.0000   132.2959     9.7981     9.7451
  291.5000   132.2750     9.7947     9.7431
  292.0000   132.2541     9.7232     9.7411
  292.5000   132.2333     9.7199     9.7391
  293.0000   127.3492     9.7165     9.7371
  293.5000   127.3283     9.6456     9.6674
  294.0000   129.1792     9.4422     9.5313
  294.5000   130.9340     9.3080     9.3318
  295.0000   130.9079     8.9853     9.0098
  295.5000   133.0146     8.4930     8.4592
  296.0000   133.3029     7.9046     7.7508
  296.5000   131.7571     7.3061     7.3024
  297.0000   129.9125     6.5972     6.9286
  297.5000   129.5877     5.8155     6.2161
  298.0000   129.5668     5.0906     5.2927
  298.5000   134.4091     4.2732     4.3824
  299.0000   139.2515     3.5620     3.8639
  299.5000   137.7108     3.0321     3.3130
  300.0000   129.7857     2.7872     2.8606
  300.5000   126.1204     2.6906     2.5660
  301.0000   123.6709     2.7086     2.5830
  301.5000   119.7017     2.7650     2.6644
  302.0000   113.9087     2.9230     2.8161
  302.5000   113.2829     3.1891     3.1040
  303.0000   123.1482     3.6225     3.6688
  303.5000   138.1666     4.5396     4.5855
  304.0000   141.7962     5.3635     5.4579
  304.5000   142.0867     5.9094     6.1006
  305.0000   141.7604     6.5566     6.6775
  305.5000   141.4385     6.9276     6.9119
  306.0000   140.8127     7.0699     6.9575
  306.5000   140.1870     7.0135     6.9546
  307.0000   140.1691     6.9590     6.8312
  307.5000   140.4559     6.7147     6.6172
  308.0000   141.6530     6.1699     5.9981
  308.5000   144.0667     5.9084     5.3996
  309.0000   150.4740     5.6976     5.0333
  309.5000   152.5416     5.3889     4.8927
  310.0000   152.2153     5.0565     4.8906
  310.5000   149.7658     5.0524     4.8886
  311.0000   145.4925     5.0836     4.9551
  311.5000   137.8759     5.1509     5.0403
  312.0000   138.4659     5.3295     5.2172
  312.5000   140.2717     5.5143     5.4570
  313.0000   144.2052     5.7056     5.6485
  313.5000   149.9624     5.9448     5.9291
  314.0000   151.1647     6.1510     6.2671
  314.5000   147.1910     6.4612     6.5784
  315.0000   138.3585     6.8668     6.9051
  315.5000   132.2351     7.0064     7.1475
  316.0000   130.1160     6.9992     7.3469
  316.5000   134.0450     7.0439     7.3954
  317.0000   139.1943     7.1857     7.4441
  317.5000   144.6476     7.2316     7.4148
  318.0000   141.8941     7.1739     7.3601
  318.5000   138.8367     6.9705     7.2801
  319.0000   138.2109     6.7730     6.9785
  319.5000   140.3206     6.4446     6.4599
  320.0000   142.1310     5.8805     5.9798
  320.5000   142.7165     5.3253     5.5742
  321.0000   142.3946     5.2015     5.3061
  321.5000   142.9846     5.1732     5.2304
  322.0000   144.8025     5.3890     5.2649
  322.5000   144.7366     5.5371     5.3367
  323.0000   140.1909     5.7291     5.4856
  323.5000   137.4375     5.9278     5.7178
  324.0000   136.8117     6.1334     5.9600
  324.5000   138.9214     6.3461     6.2341
  325.0000   143.1589     6.5205     6.4301
  325.5000   145.2731     6.6997     6.6558
  326.0000   147.0744     6.8359     6.7939
  326.5000   148.8802     6.9264     6.8867
  327.0000   153.4216     6.9771     7.0296
  327.5000   153.4397     7.0614     7.0759
  328.0000   150.9542     7.1051     7.1226
  328.5000   148.7752     7.0978     7.1196
  329.0000   146.2554     7.0919     7.1167
  329.5000   143.6012     7.0861     7.0643
  330.0000   145.1031     7.0803     7.0610
  330.5000   146.6050     7.0745     7.0582
  331.0000   146.5871     7.0687     7.0553
  331.5000   145.6573     7.0629     7.0525
  332.0000   143.2078     7.0571     7.0492
  332.5000   142.5820     6.9980     6.9973
  333.0000   142.8726     6.8513     6.9454
  333.5000   144.0660     6.8444     6.9425
  334.0000   144.6565     6.8388     6.9883
  334.5000   146.1579     6.8332     6.9368
  335.0000   148.9057     6.8276     6.9340
  335.5000   153.1458     6.8220     6.8829
  336.0000   153.3945     6.6286     6.7846
  336.5000   155.5043     6.4408     6.6878
  337.0000   159.1338     6.2143     6.4557
  337.5000   160.0323     5.5917     5.6908
  338.0000   156.3625     4.9965     5.1768
  338.5000   151.4814     4.5592     4.6440
  339.0000   154.5030     4.5875     4.5296
  339.5000   156.3133     4.7135     4.6395
  340.0000   153.5553     4.9110     4.8024
  340.5000   149.2821     5.0843     4.9710
  341.0000   147.1366     5.2759     5.2179
  341.5000   145.5896     5.5164     5.4010
  342.0000   144.3323     5.3965     5.4747
  342.5000   143.1307     5.2436     5.2847
  343.0000   143.4131     5.0950     5.1370
  343.5000   144.0031     5.0908     5.1709
  344.0000   150.0643     5.1043     5.2050
  344.5000   155.2135     5.1181     5.2758
  345.0000   154.2838     5.2264     5.3853
  345.5000   150.6185     5.4119     5.5740
  346.0000   145.7374     5.6041     5.7295
  346.5000   142.6844     5.8332     5.8894
  347.0000   143.8779     5.9958     6.0962
  347.5000   145.0758     6.2061     6.3102
  348.0000   145.9777     6.4238     6.4862
  348.5000   146.5597     6.5121     6.5290
  349.0000   146.5410     6.4634     6.5263
  349.5000   145.3037     6.3712     6.4783
  350.0000   144.0744     6.2367     6.3858
  350.5000   144.6599     5.9369     6.0779
  351.0000   145.2543     5.5733     5.5860
  351.5000   143.1041     5.0174     5.2429
  352.0000   132.1439     4.9458     5.0778
  352.5000   131.8265     4.9438     5.0218
  353.0000   135.4514     5.0121     5.0542
  353.5000   140.2967     5.1540     5.1583
  354.0000   143.3182     5.3799     5.3387
  354.5000   143.6525     5.6742     5.6030
  355.0000   143.5862     5.7918     5.9632
  355.5000   142.9603     6.1218     6.2585
  356.0000   139.8871     6.6074     6.6144
  356.5000   135.6295     6.9839     6.9419
  357.0000   137.1692     7.2288     7.2350
  357.5000   137.7212     7.3787     7.3841
  358.0000   132.5315     7.5317     7.4838
  358.5000   131.6017     7.6344     7.5316
  359.0000   132.7995     7.6312     7.5801
  359.5000   137.0369     7.6281     7.5760
  360.0000   143.0979     7.6249     7.6244
  360.5000   144.3002     7.6218     7.6736
  361.0000   138.8066     7.6186     7.6694
  361.5000   132.4057     7.6155     7.6651
  362.0000   133.6035     7.5593     7.6609
  362.5000   136.6250     7.5474     7.5505
  363.0000   138.4307     7.4999     7.4417
  363.5000   139.6286     7.4968     7.3859
  364.0000   140.5224     7.4937     7.4335
  364.5000   141.1125     7.5959     7.5867
  365.0000   141.7023     7.7003     7.6892
  365.5000   141.3799     7.9141     7.9026
  366.0000   140.6646     8.0790     7.9536
  366.5000   138.9083     8.1322     8.0044
