~VERSION INFORMATION
 VERS.                2.0:   CWLS LOG ASCII STANDARD - VERSION 2.0
 WRAP.                 NO:   ONE LINE PER DEPTH STEP
~WELL INFORMATION
#MNEM.UNIT      DATA TYPE    INFORMATION
#----------   ------------   ------------------------------
 STRT.F           32.0000:   START DEPTH
 STOP.F          662.0000:   STOP DEPTH
 STEP.F            0.5000:   STEP LENGTH
 NULL.          -999.2500:   NO VALUE
 COMP.    FENIX & SCISSON:   COMPANY
 WELL.   NPR 67SX34 #3-34:   WELL
 FLD .             TEAPOT:   FIELD
 LOC .      S34 T39N R78W:   LOCATION
 CNTY.            NATRONA:   COUNTY
 STAT.            WYOMING:   STATE
 CTRY. UNITED STATES OF AMERICA:   COUNTRY
 SRVC.            Unknown:   SERVICE COMPANY
 DATE.        03-SEP-1978:   LOGDATE
 API .       490251070500:   API NUMBER
~CURVE INFORMATION
#MNEM.UNIT       API CODE    CURVE DESCRIPTION
#----------   ------------   ------------------------------
 DEPT.F                  :   
 ILD .OHMM   05 120 46 00:   INDUCTION LOG DEEP
 SN  .OHMM   05 040 00 00:   SHORT NORMAL
 SPR .MV     05 010 01 00:   SPONTANEOUS POTENTIAL FROM RES.
 CALD.IN     45 280 60 00:   CALIPER FROM DENSITY LOG
 DEN .G/C3   45 350 01 00:   COMPENSATED BULK DENSTIY
 DPHI.DEC    45 890 12 00:   DENSITY POROSITY SANDSTONE
 DRHO.G/C3   45 356 01 00:   DENSITY CORRECTION
 GRD .GAPI   45 310 01 00:   GAMMA RAY FROM DENSITY LOG
~PARAMETER INFORMATION
#MNEM.UNIT          VALUE    DESCRIPTION
#----------   ------------   ------------------------------
 PD  .                 GL:   PERMANENT DATUM
 EPD .F              5076:   ELEVATION PERMANENT DATUM
 LMF .                 KB:   LOG MEASURED FROM
 DAPD.F                 4:   FEET ABOVE PERMANENT DATUM
 DMF .                 KB:   DRILLING MEASURED FROM
 EKB .F              5080:   KELLING BUSHING
 EGL .F              5076:   GROUND LEVEL
 DATE.        03-SEP-1978:   RUN DATE
 RUN .                  1:   RUN NUMBER
 DD  .F               660:   DEPTH DRILLER
 DL  .F               662:   DEPTH LOGGER
 BLI .F               662:   BOTTOM LOG INTERVAL
 TLI .F                40:   TOP LOG INTERVAL
 CS  .IN            8.625:   CASING SIZE
 CBD .F                40:   CASING BOTTOM DRILLER
 BS  .IN            7.875:   BIT SIZE
 BSD .F               660:   BIT SIZE AT DEPTH
 DFT .                KCL:   DRILLING FLUID TYPE
 DFD .                9.0:   DRILLING FLUID DENSITY
 DFV .                 34:   DRILLING FLUID VISCOSITY
 MSS .           FLOWLINE:   MUD SAMPLE SOURCE
 RMS .OHMM            1.4:   RESISTIVITY MUD SAMPLE
 MST .F                65:   MUD SAMPLE TEMPERATURE
 RMF .OHMM            3.2:   RESISTIVITY MUD FILTRATE SAMPLE
 MFST.F                77:   MUD FILTRATE SAMPLE TEMPERATURE
 RMC .OHMM            2.1:   RESISTIVITY MUD CAKE
 MCST.F                78:   MUD CAKE SAMPLE TEMPERATURE
 MFSS.               MEAS:   MUD FILTRATE SAMPLE SOURCE
 TCS .HRS               1:   TIME CURCULATED STOPPED
 LUN .               3006:   LOGGING UNIT NUMBER
 LUL .               CASP:   LOGGING UNIT LOCATION
 ENGI.             MILLER:   RECORDING ENGINEER
 WITN.           MCGINLEY:   WITNESSED BY
 CLNT.            A2DTECH:   CLIENT CODE
 ORIG.        2" 5" PRINT:   ORIGIN OF DATA
 UWI .       490251070500:   UNIQUE WELL ID
 DICO. A2D Technologies, Inc.:   DIGITIZING COMPANY
~OTHER INFORMATION
~A   DEPT      ILD         SN        SPR       CALD        DEN       DPHI       DRHO         GRD  
# ...
   72.5000     8.3109     8.3280   -16.3233     7.5813     2.4309     0.1787     0.0512    74.8290
   73.0000     7.9732     7.8964   -17.9063     7.7519     2.4122     0.1745     0.0467    79.6009
   73.5000     7.7022     7.4718   -19.1064     7.8867     2.4115     0.1649     0.0572    81.0941
   74.0000     7.4921     7.1683   -19.4051     7.7357     2.4310     0.1593     0.0761    80.5002
   74.5000     7.1381     6.9729   -19.4015     7.7234     2.4377     0.1611     0.1066    81.2489
   75.0000     6.8955     6.6898   -19.2475     7.7538     2.4377     0.1587     0.1111    82.8912
   75.5000     6.7074     6.4181   -19.0943     7.6945     2.4377     0.1593     0.1156    85.1714
   76.0000     6.6153     6.3300   -19.2425     7.6353     2.4407     0.1590     0.1411    86.3248
   76.5000     6.5697     6.3300   -19.2389     7.6058     2.5307     0.1578     0.1456    85.8806
   77.0000     6.4348     6.3300   -19.2361     7.5913     2.4835     0.1613     0.0825    85.7345
   77.5000     6.3465     6.3739   -19.2325     7.5918     2.4429     0.1635     0.0404    85.8871
   78.0000     6.3465     6.4181   -19.5304     7.5923     2.4338     0.1542     0.0298    86.1881
   78.5000     6.3905     6.5074   -19.6779     7.5927     2.4338     0.1512     0.0328    85.4459
   79.0000     6.3905     6.5980   -19.8261     7.6081     2.4428     0.1497     0.0328    81.4249
   79.5000     6.5244     6.7362   -20.1233     7.7182     2.4533     0.1482     0.0313    80.0626
   80.0000     6.5728     6.7829   -20.4212     7.6538     2.4548     0.1560     0.0282    81.2817
   80.5000     6.7074     6.8299   -20.8695     7.5647     2.4518     0.1518     0.0252    82.3279
   81.0000     6.7540     6.9249   -20.8659     7.5204     2.4495     0.1506     0.0222    82.1817
   81.5000     6.8008     6.9729   -21.0141     7.4908     2.4495     0.1545     0.0206    82.3344
   82.0000     6.8480     7.0700   -21.0105     7.4763     2.4472     0.1551     0.0221    82.1876
   82.5000     6.9434     7.1190   -21.0070     7.4320     2.4465     0.1546     0.0251    82.0414
   83.0000     6.9916     7.1683   -21.0041     7.3878     2.4465     0.1534     0.0280    82.4922
   83.5000     7.0401     7.2180   -21.0012     7.3584     2.4464     0.1531     0.0280    82.0480
   84.0000     7.0889     7.2681   -21.1489     7.3290     2.4479     0.1553     0.0265    80.5606
   84.5000     7.1381     7.2696   -21.1459     7.2995     2.4472     0.1585     0.0204    79.0732
   85.0000     7.1876     7.3185   -21.2934     7.2552     2.4479     0.1615     0.0144    78.6289
   85.5000     7.2877     7.3185   -21.2898     7.2557     2.4344     0.1711     0.0084    78.6319
   86.0000     7.2877     7.3185   -21.4381     7.2711     2.4231     0.1756     0.0053    78.3368
   86.5000     7.2877     7.3185   -21.5850     7.2715     2.4163     0.1696     0.0068    78.6597
   87.0000     7.2877     7.3185   -21.7324     7.2869     2.4216     0.1648     0.0083    81.7710
   87.5000     7.2877     7.2681   -21.7293     7.3172     2.4298     0.1612     0.0098    84.9036
   88.0000     7.2877     7.2681   -21.5756     7.3475     2.4350     0.1612     0.0112    87.4393
   88.5000     7.2877     7.2681   -21.5727     7.3778     2.4373     0.1606     0.0097    82.3759
   89.0000     7.2796     7.2681   -21.7203     7.4230     2.4373     0.1591     0.0082    81.1858
   89.5000     7.1876     7.2681   -21.5669     7.4533     2.4395     0.1505     0.0066    81.1895
   90.0000     7.1876     7.2681   -21.5634     7.4856     2.4440     0.1477     0.0051    82.3846
   90.5000     7.1848     7.2180   -21.5605     7.5140     2.4522     0.1462     0.0051    84.7721
   91.0000     7.1381     7.2180   -21.4073     7.5443     2.4605     0.1409     0.0050    86.8614
   91.5000     7.1381     7.1683   -21.2540     7.6044     2.4665     0.1382     0.0050    86.2325
   92.0000     7.1381     7.1683   -21.2632     7.6496     2.4710     0.1418     0.0065    83.7317
   92.5000     7.1381     7.1190   -21.3987     7.6799     2.4687     0.1442     0.0050    77.7800
   93.0000     7.1381     7.1190   -21.5462     7.6953     2.4642     0.1457     0.0124    77.6331
   93.5000     7.1876     7.1190   -21.5426     7.6957     2.4604     0.1469     0.0259    78.6800
   94.0000     7.1876     7.1190   -21.5398     7.6663     2.4581     0.1475     0.0289    79.7261
   94.5000     7.1876     7.1190   -21.5368     7.6667     2.4551     0.1496     0.0214    79.1329
   95.0000     7.1876     7.1683   -21.6844     7.6373     2.4521     0.1550     0.0168    78.9861
   95.5000     7.1876     7.1683   -21.6808     7.6354     2.4491     0.1436     0.0198    79.4368
   96.0000     7.1876     7.1683   -21.6780     7.6233     2.4534     0.1409     0.0228    80.0358
   96.5000     7.1876     7.1683   -21.6751     7.6238     2.4633     0.1463     0.0242    79.4387
   97.0000     7.1876     7.1683   -21.5218     7.6392     2.4573     0.1493     0.0257    77.6095
   97.5000     7.1876     7.1683   -21.5183     7.6396     2.4528     0.1518     0.0257    76.6168
   98.0000     7.1381     7.1683   -21.5154     7.6400     2.4520     0.1523     0.0286    81.2405
   98.5000     7.1381     7.1683   -21.3622     7.6554     2.4520     0.1505     0.0286    82.5839
   99.0000     7.1876     7.1683   -21.2090     7.6708     2.4520     0.1473     0.0271    80.7992
   99.5000     7.1876     7.1683   -20.9053     7.6563     2.4550     0.1437     0.0241    79.4601
  100.0000     7.3383     7.1784   -20.7516     7.6418     2.4640     0.1407     0.0210    80.0591
  100.5000     7.3383     7.1683   -20.9010     7.6421     2.4647     0.1428     0.0193    81.2550
  101.0000     7.3383     7.1190   -20.8992     7.6424     2.4662     0.1458     0.0165    81.8540
  101.5000     7.3383     7.1190   -20.8977     7.6277     2.4647     0.1485     0.0165    82.1620
  102.0000     7.2877     7.0700   -20.7456     7.6281     2.4549     0.1506     0.0165    83.1038
  102.5000     7.2375     7.0700   -20.7442     7.6284     2.4534     0.1524     0.0179    84.5460
  103.0000     7.1876     7.0700   -20.7428     7.6287     2.4534     0.1533     0.0194    85.4430
  103.5000     7.1340     7.0213   -20.7386     7.6290     2.4526     0.1539     0.0224    85.5950
  104.0000     6.9916     6.9249   -20.5896     7.6143     2.4519     0.1542     0.0269    86.0449
  104.5000     6.9916     6.8772   -20.7385     7.5997     2.4511     0.1536     0.0299    85.7498
  105.0000     6.9434     6.7362   -20.7368     7.5403     2.4496     0.1530     0.0284    83.5172
  105.5000     6.8441     6.6898   -20.7353     7.4958     2.4504     0.1518     0.0269    81.7049
  106.0000     6.7540     6.6898   -20.7336     7.4364     2.4511     0.1539     0.0238    79.4998
  106.5000     6.6153     6.5978   -20.5818     7.3919     2.4526     0.1587     0.0208    77.2673
  107.0000     6.6153     6.5074   -20.4300     7.3624     2.4524     0.1638     0.0178    76.8223
  107.5000     6.5207     6.5074   -20.4286     7.3328     2.4331     0.1674     0.0133    77.1240
  108.0000     6.4348     6.5074   -20.2764     7.3332     2.4301     0.1656     0.0103    77.4250
  108.5000     6.4348     6.4626   -20.1246     7.3335     2.4338     0.1641     0.0118    79.0672
  109.0000     6.3905     6.4181   -19.8225     7.3338     2.4368     0.1611     0.0132    81.1565
  109.5000     6.4348     6.4181   -19.8210     7.3341     2.4390     0.1578     0.0132    85.6522
  110.0000     6.4348     6.4626   -19.8193     7.3493     2.4405     0.1590     0.0132    84.8888
  110.5000     6.4795     6.5074   -19.6675     7.3496     2.4398     0.1602     0.0102    83.5504
  111.0000     6.4795     6.5980   -19.6661     7.3648     2.4398     0.1605     0.0087    81.6159
  111.5000     6.5697     6.6898   -19.6646     7.3676     2.4405     0.1563     0.0057    81.3200
  112.0000     6.6612     6.7362   -19.5126     7.3953     2.4413     0.1521     0.0056    81.3236
  112.5000     6.7540     6.8812   -19.3608     7.4254     2.4465     0.1524     0.0055    81.3265
