~VERSION INFORMATION
 VERS.                2.0:   CWLS LOG ASCII STANDARD - VERSION 2.0
 WRAP.                 NO:   ONE LINE PER DEPTH STEP
~WELL INFORMATION
#MNEM.UNIT      DATA TYPE    INFORMATION
#----------   ------------   ------------------------------
 STRT.F           14.0000:   START DEPTH
 STOP.F          632.0000:   STOP DEPTH
 STEP.F            0.5000:   STEP LENGTH
 NULL.          -999.2500:   NO VALUE
 COMP. LAWRENCE/ALLISON INC:   COMPANY
 WELL.    17-61 SX #11-11:   WELL
 FLD .             TEAPOT:   FIELD
 LOC .      S11 T38N R78W:   LOCATION
 CNTY.            NATRONA:   COUNTY
 STAT.            WYOMING:   STATE
 CTRY. UNITED STATES OF AMERICA:   COUNTRY
 SRVC.           Gearhart:   SERVICE COMPANY
 DATE.        12-JUN-1986:   LOGDATE
 API .       490251109800:   API NUMBER
~CURVE INFORMATION
#MNEM.UNIT       API CODE    CURVE DESCRIPTION
#----------   ------------   ------------------------------
 DEPT.F                  :   
 GRR .GAPI   07 310 01 00:   GAMMA RAY FROM RES. LOG.
 ILM .OHMM   07 120 44 00:   INDUCTION LOG MEDIUM
 ILD .OHMM   07 120 46 00:   INDUCTION LOG DEEP
~PARAMETER INFORMATION
#MNEM.UNIT          VALUE    DESCRIPTION
#----------   ------------   ------------------------------
 PD  .                 GL:   PERMANENT DATUM
 EPD .F              5193:   ELEVATION PERMANENT DATUM
 LMF .                 KB:   LOG MEASURED FROM
 DAPD.F                 5:   FEET ABOVE PERMANENT DATUM
 DMF .                 KB:   DRILLING MEASURED FROM
 EKB .F              5198:   KELLING BUSHING
 EGL .F              5193:   GROUND LEVEL
 DATE.            6-12-86:   RUN DATE
 RUN .                  1:   RUN NUMBER
 DD  .F               648:   DEPTH DRILLER
 DL  .F               639:   DEPTH LOGGER
 BLI .F               632:   BOTTOM LOG INTERVAL
 TLI .F                15:   TOP LOG INTERVAL
 CS  .IN            8.625:   CASING SIZE
 CBD .F                42:   CASING BOTTOM DRILLER
 CBL .F                42:   CASING BOTTOM LOGGER
 BS  .IN             7.87:   BIT SIZE
 BSD .F               648:   BIT SIZE AT DEPTH
 DFT .               FOAM:   DRILLING FLUID TYPE
 MSS .               TANK:   MUD SAMPLE SOURCE
 RMS .OHMM           2.02:   RESISTIVITY MUD SAMPLE
 MST .F                65:   MUD SAMPLE TEMPERATURE
 RMB .OHMM           1.84:   RESISTIVITY MUD AT BHT
 BHT .F                72:   BOTTOM HOLE TEMPERATURE
 TCS .HRS            0830:   TIME CURCULATED STOPPED
 TLAB.HRS            1000:   TIME LOGGER AT BOTTOM
 MRT .F                72:   MAXIMUM RECORDED TEMPERATURE
 LUN .               7609:   LOGGING UNIT NUMBER
 LUL .           GILLETTE:   LOGGING UNIT LOCATION
 ENGI.              BAUER:   RECORDING ENGINEER
 WITN.             STRONG:   WITNESSED BY
 CLNT.            A2DTECH:   CLIENT CODE
 ORIG.       2", 5" PRINT:   ORIGIN OF DATA
 UWI .       490251109800:   UNIQUE WELL ID
 DICO. A2D Technologies, Inc.:   DIGITIZING COMPANY
~OTHER INFORMATION
~A   DEPT       GRR       ILM        ILD   
   14.0000    80.1217  -999.2500  -999.2500
   14.5000    80.1217  -999.2500  -999.2500
   15.0000    80.9079  -999.2500  -999.2500
   15.5000    82.0995  -999.2500  -999.2500
   16.0000    83.5901  -999.2500  -999.2500
   16.5000    85.1141  -999.2500  -999.2500
   17.0000    85.4021  -999.2500  -999.2500
   17.5000    85.4057  -999.2500  -999.2500
   18.0000    85.3253  -999.2500  -999.2500
   18.5000    82.8983  -999.2500  -999.2500
   19.0000    79.6650  -999.2500  -999.2500
   19.5000    76.4638  -999.2500  -999.2500
   20.0000    76.2780  -999.2500  -999.2500
   20.5000    79.3912  -999.2500  -999.2500
   21.0000    82.4208  -999.2500  -999.2500
   21.5000    85.0797  -999.2500  -999.2500
   22.0000    82.5770  -999.2500  -999.2500
   22.5000    78.2911  -999.2500  -999.2500
   23.0000    74.6903  -999.2500  -999.2500
   23.5000    75.6031  -999.2500  -999.2500
   24.0000    78.5140  -999.2500  -999.2500
   24.5000    80.4317  -999.2500  -999.2500
   25.0000    80.7644  -999.2500  -999.2500
   25.5000    79.9339  -999.2500  -999.2500
   26.0000    79.0838  -999.2500  -999.2500
   26.5000    79.9479  -999.2500  -999.2500
   27.0000    81.4314  -999.2500  -999.2500
   27.5000    82.8752  -999.2500  -999.2500
   28.0000    81.2670  -999.2500  -999.2500
   28.5000    79.4429  -999.2500  -999.2500
   29.0000    77.6134  -999.2500  -999.2500
   29.5000    76.5754  -999.2500  -999.2500
   30.0000    77.5383  -999.2500  -999.2500
   30.5000    78.8681  -999.2500  -999.2500
   31.0000    79.3258  -999.2500  -999.2500
   31.5000    78.7243  -999.2500  -999.2500
   32.0000    77.8877  -999.2500  -999.2500
   32.5000    75.7380  -999.2500  -999.2500
   33.0000    75.8720  -999.2500  -999.2500
   33.5000    76.7268  -999.2500  -999.2500
   34.0000    78.1341  -999.2500  -999.2500
   34.5000    80.5564  -999.2500  -999.2500
   35.0000    82.9703  -999.2500  -999.2500
   35.5000    85.4074  -999.2500  -999.2500
   36.0000    85.5046  -999.2500  -999.2500
   36.5000    83.9740  -999.2500  -999.2500
   37.0000    84.1759  -999.2500  -999.2500
   37.5000    84.6623  -999.2500  -999.2500
   38.0000    84.9850  -999.2500  -999.2500
   38.5000    82.2069  -999.2500  -999.2500
   39.0000    79.1018  -999.2500  -999.2500
   39.5000    76.3223  -999.2500  -999.2500
   40.0000    75.8608  -999.2500  -999.2500
   40.5000    75.9969  -999.2500  -999.2500
   41.0000    77.0713  -999.2500  -999.2500
   41.5000    80.4512  -999.2500  -999.2500
   42.0000    83.8114    55.1052     6.5500
   42.5000    85.4144    15.7160     4.9493
   43.0000    86.0370     9.1552     4.9032
   43.5000    89.1188     7.2512     5.0873
   44.0000    92.4922     5.6385     5.4035
   44.5000    95.8728     5.3833     6.3334
   45.0000    99.1395     5.7770     7.4348
   45.5000   100.9021     6.2227     8.2896
   46.0000   101.1223     6.7075     7.9834
   46.5000   101.3955     6.9920     7.4179
   47.0000   102.2409     6.8611     7.0315
   47.5000   105.7670     6.7709     6.8632
   48.0000   109.2432     6.6819     6.8980
   48.5000   112.7308     6.5940     6.9335
   49.0000   116.1939     6.5073     6.9691
   49.5000   116.0052     6.4891     7.0049
   50.0000   113.2272     6.6469     7.0409
   50.5000   110.5692     6.7786     7.1245
   51.0000   112.1763     6.9276     7.0834
   51.5000   115.0902     6.8952     7.0475
   52.0000   116.4190     6.8623     7.0118
   52.5000   111.4701     6.8297     6.9762
   53.0000   106.6160     6.7972     6.9408
   53.5000   103.3514     6.7648     6.9056
   54.0000   105.6572     6.7326     6.8706
   54.5000   110.5930     6.7006     6.8358
   55.0000   113.8121     6.6687     6.8011
   55.5000   117.0195     6.6369     6.7666
   56.0000   118.3070     6.6112     6.7323
   56.5000   115.7678     6.6110     6.6981
   57.0000   112.7225     6.6107     6.6735
   57.5000   112.6671     6.6736     6.8311
   58.0000   113.5115     6.7432     6.8766
   58.5000   114.3259     6.8140     6.9223
   59.0000   115.7410     6.8854     6.9684
   59.5000   117.3257     6.9576     7.0416
   60.0000   114.0551     7.0067     7.1452
   60.5000   110.4095     7.1123     7.2502
   61.0000   107.7942     7.2197     7.3569
   61.5000   109.6888     7.3287     7.4651
   62.0000   112.9014     7.4392     7.5749
   62.5000   114.1564     7.5515     7.6863
   63.0000   113.2776     7.6656     7.7993
   63.5000   113.9427     7.7811     7.9140
   64.0000   117.9780     7.8265     8.0308
   64.5000   121.3953     7.8430     8.0446
   65.0000   119.7594     7.8597     8.0444
   65.5000   114.9278     7.8762     8.0128
   66.0000   110.0851     7.8951     7.9584
   66.5000   107.1259     7.8271     7.9043
   67.0000   104.1185     7.7481     7.8506
   67.5000   103.7044     7.6695     7.7973
   68.0000   105.5539     7.5918     7.7444
   68.5000   106.9218     7.5149     7.6918
   69.0000   107.8242     7.4387     7.6396
   69.5000   108.4908     7.3633     7.5877
   70.0000   108.1912     7.2589     7.5352
   70.5000   107.7219     7.2734     7.5096
   71.0000   106.9321     7.2979     7.4835
   71.5000   107.1703     7.3224     7.4654
   72.0000   108.6082     7.3470     7.4826
   72.5000   110.5532     7.3717     7.4961
   73.0000   108.8639     7.3950     7.5096
   73.5000   106.4892     7.3277     7.5231
   74.0000   104.0540     7.3581     7.5367
   74.5000   103.2426     7.3752     7.5503
   75.0000   107.9024     7.3924     7.5639
   75.5000   112.3422     7.4096     7.5776
   76.0000   109.4007     7.4268     7.5912
   76.5000   105.1190     7.4440     7.6059
   77.0000   102.5917     7.4613     7.6297
   77.5000   103.5728     7.5469     7.6620
   78.0000   104.5852     7.5767     7.6945
   78.5000   104.9296     7.6067     7.7272
   79.0000   105.1937     7.6368     7.7599
   79.5000   108.1175     7.6670     7.7928
   80.0000   111.3265     7.6973     7.8259
   80.5000   110.6110     7.7277     7.8591
   81.0000   108.4054     7.7495     7.8955
   81.5000   107.9294     7.6804     7.8441
   82.0000   112.6494     7.6766     7.7728
   82.5000   117.2492     7.6781     7.7022
   83.0000   116.8894     7.5037     7.6006
   83.5000   105.8719     7.3827     7.4831
   84.0000   102.1837     7.2637     7.3675
   84.5000   106.0148     7.1469     7.2536
   85.0000   110.4452     7.0500     7.1416
   85.5000   113.7097     7.0161     7.1147
   86.0000   114.8031     6.9821     7.1032
   86.5000   113.6851     6.9482     7.0917
   87.0000   112.6177     6.9144     7.0802
   87.5000   112.1818     6.8809     7.0686
   88.0000   112.2128     6.8474     7.0591
   88.5000   110.6236     6.8143     7.0333
   89.0000   108.8061     6.7958     7.0056
   89.5000   107.5237     6.7752     6.9781
   90.0000   109.2756     6.7547     6.9506
   90.5000   110.9722     6.7362     6.9232
   91.0000   112.3121     6.7362     6.8959
   91.5000   112.7803     6.8396     6.8632
   92.0000   113.2432     6.9234     6.9972
   92.5000   113.6167     6.9970     7.1696
   93.0000   117.7047     7.1923     7.3462
   93.5000   120.3362     7.3869     7.5271
   94.0000   118.6026     7.5858     7.7125
   94.5000   115.7753     7.7899     7.9025
   95.0000   113.8656     7.9994     8.0971
   95.5000   115.4343     8.2146     8.2966
   96.0000   116.2332     8.3200     8.5880
   96.5000   115.5491     8.4561     8.4847
   97.0000   112.5572     8.5880     8.3101
   97.5000   110.6901     8.3274     8.1391
   98.0000   110.0997     8.1503     7.9716
   98.5000   108.4225     7.9762     7.8075
   99.0000   104.5802     7.8062     7.6469
   99.5000   100.7154     7.6399     7.4894
  100.0000    97.3105     7.4770     7.3351
  100.5000    99.0827     7.3177     7.1848
  101.0000   101.8071     7.1245     7.0582
  101.5000   104.2813     7.1358     7.0582
  102.0000   105.6664     7.1560     7.1659
  102.5000   105.3527     7.1755     7.2455
  103.0000   104.2167     7.1919     7.3260
  103.5000   103.3162     7.2998     7.4072
  104.0000   104.0802     7.4216     7.5449
  104.5000   105.9883     7.6719     7.8170
