~VERSION INFORMATION
 VERS.                2.0:   CWLS LOG ASCII STANDARD - VERSION 2.0
 WRAP.                 NO:   ONE LINE PER DEPTH STEP
~WELL INFORMATION
#MNEM.UNIT      DATA TYPE    INFORMATION
#----------   ------------   ------------------------------
 STRT.F            0.0000:   START DEPTH
 STOP.F         3994.5000:   STOP DEPTH
 STEP.F            0.5000:   STEP LENGTH
 NULL.          -999.2500:   NO VALUE
 COMP. LAWRENCE/ALLISON INC:   COMPANY
 WELL. STX 10 #36SHX10-10:   WELL
 FLD .         LOST HILLS:   FIELD
 LOC .      S10 T38N R78W:   LOCATION
 CNTY.            NATRONA:   COUNTY
 STAT.            WYOMING:   STATE
 CTRY. UNITED STATES OF AMERICA:   COUNTRY
 SRVC.              Welex:   SERVICE COMPANY
 DATE.        20-MAR-1980:   LOGDATE
 API .       490251095600:   API NUMBER
~CURVE INFORMATION
#MNEM.UNIT       API CODE    CURVE DESCRIPTION
#----------   ------------   ------------------------------
 DEPT.F                  :   
 GRD .GAPI   45 310 01 00:   GAMMA RAY FROM DENSITY LOG
 CALD.IN     45 280 60 00:   CALIPER
 RHOB.G/C3   45 350 01 00:   BULK DENSITY
 CORR.G/C3   45 356 01 00:   DENSITY CORRECTION
 DPHI.DEC    45 890 12 00:   DENSITY POROSITY SANDSTONE
 GR  .GAPI   81 310 01 00:   GAMMA RAY FROM CEMENT LOG
~PARAMETER INFORMATION
#MNEM.UNIT          VALUE    DESCRIPTION
#----------   ------------   ------------------------------
 PD  .                 GL:   PERMANENT DATUM
 EPD .F              5224:   ELEVATION PERMANENT DATUM
 LMF .                 KB:   LOG MEASURED FROM
 DAPD.F                10:   FEET ABOVE PERMANENT DATUM
 DMF .                 KB:   DRILLING MEASURED FROM
 EKB .F              5234:   KELLING BUSHING
 EGL .F              5224:   GROUND LEVEL
 DATE.            3-20-80:   RUN DATE
 RUN .                  1:   RUN NUMBER
 DD  .F              1000:   DEPTH DRILLER
 DL  .F               954:   DEPTH LOGGER
 BLI .F               952:   BOTTOM LOG INTERVAL
 TLI .F               654:   TOP LOG INTERVAL
 CS  .IN            9.625:   CASING SIZE
 BS  .IN             8.75:   BIT SIZE
 BSD .F              1000:   BIT SIZE AT DEPTH
 DFT .                OIL:   DRILLING FLUID TYPE
 TCS .HRS               2:   TIME CURCULATED STOPPED
 MRT .F                94:   MAXIMUM RECORDED TEMPERATURE
 ENGI.            TOTHILL:   RECORDING ENGINEER
 WITN.           DINSMORE:   WITNESSED BY
 CLNT.            A2DTECH:   CLIENT CODE
 ORIG.           5" PRINT:   ORIGIN OF DATA
 UWI .       490251095600:   UNIQUE WELL ID
 DICO. A2D Technologies, Inc.:   DIGITIZING COMPANY
~OTHER INFORMATION
~A    DEPT     GRD       CALD       RHOB       CORR       DPHI          GR  
# ...
  780.0000    74.8796     8.6490     2.5003     0.0437     0.0869  -999.2500
  780.5000    73.9090     8.6403     2.5151     0.0553     0.0770  -999.2500
  781.0000    72.7172     8.6320     2.5299     0.0685     0.0683  -999.2500
  781.5000    71.4972     8.6179     2.5254     0.0626     0.0709  -999.2500
  782.0000    70.8215     8.5880     2.5209     0.0524     0.0724  -999.2500
  782.5000    70.0138     8.5892     2.5336     0.0584     0.0668  -999.2500
  783.0000    69.2182     8.6296     2.5353     0.0622     0.0642  -999.2500
  783.5000    68.5840     8.6263     2.4983     0.0353     0.0866  -999.2500
  784.0000    68.7707     8.6239     2.4913     0.0249     0.0926  -999.2500
  784.5000    69.0319     8.6216     2.4991     0.0312     0.0850  -999.2500
  785.0000    69.2961     8.6193     2.5082     0.0405     0.0822  -999.2500
  785.5000    69.5592     8.6170     2.5064     0.0367     0.0830  -999.2500
  786.0000    69.7594     8.6147     2.5067     0.0320     0.0823  -999.2500
  786.5000    69.3968     8.6125     2.5167     0.0348     0.0760  -999.2500
  787.0000    69.0341     8.6102     2.5254     0.0374     0.0698  -999.2500
  787.5000    68.6695     8.6091     2.5357     0.0451     0.0659  -999.2500
  788.0000    68.3296     8.6091     2.5326     0.0525     0.0631  -999.2500
  788.5000    68.8800     8.6091     2.5397     0.0604     0.0602  -999.2500
  789.0000    69.4900     8.6091     2.5304     0.0525     0.0664  -999.2500
  789.5000    70.1027     8.6091     2.5215     0.0400     0.0763  -999.2500
  790.0000    70.6374     8.6091     2.5124     0.0309     0.0806  -999.2500
  790.5000    69.7276     8.6091     2.5038     0.0256     0.0837  -999.2500
  791.0000    68.7707     8.6091     2.4960     0.0199     0.0870  -999.2500
  791.5000    67.8204     8.6091     2.5043     0.0258     0.0823  -999.2500
  792.0000    66.8718     8.6091     2.5139     0.0383     0.0779  -999.2500
  792.5000    65.9205     8.6091     2.5029     0.0296     0.0830  -999.2500
  793.0000    64.9722     8.6091     2.4854     0.0142     0.0967  -999.2500
  793.5000    64.1118     8.6091     2.4717     0.0000     0.1041  -999.2500
  794.0000    64.1286     8.6091     2.4801     0.0057     0.0991  -999.2500
  794.5000    64.1037     8.6091     2.4864     0.0125     0.0954  -999.2500
  795.0000    65.3484     8.6091     2.4822     0.0098     0.0971  -999.2500
  795.5000    67.2843     8.6091     2.4750     0.0042     0.0994  -999.2500
  796.0000    69.2482     8.6091     2.4680    -0.0014     0.1082  -999.2500
  796.5000    71.2284     8.6091     2.4667    -0.0027     0.1016  -999.2500
  797.0000    72.0149     8.6091     2.4857     0.0180     0.0903  -999.2500
  797.5000    72.7262     8.6091     2.5046     0.0378     0.0804  -999.2500
  798.0000    73.4272     8.6091     2.5159     0.0482     0.0750  -999.2500
  798.5000    73.8254     8.6091     2.5147     0.0470     0.0796  -999.2500
  799.0000    73.1363     8.6091     2.5024     0.0351     0.0868  -999.2500
  799.5000    72.4774     8.6091     2.4899     0.0234     0.0934  -999.2500
  800.0000    71.8203     8.6091     2.4839     0.0161     0.0962  -999.2500
  800.5000    71.1626     8.6091     2.4778     0.0079     0.0993  -999.2500
  801.0000    70.5003     8.6091     2.4800     0.0076     0.0988  -999.2500
  801.5000    69.8258     8.6091     2.4804     0.0098     0.0978  -999.2500
  802.0000    69.8870     8.6091     2.4710     0.0075     0.1041  -999.2500
  802.5000    70.0732     8.6091     2.4615    -0.0005     0.1108  -999.2500
  803.0000    69.3041     8.6091     2.4520    -0.0046     0.1169  -999.2500
  803.5000    69.4984     8.6091     2.4527     0.0002     0.1113  -999.2500
  804.0000    70.6083     8.6092     2.4739     0.0189     0.1005  -999.2500
  804.5000    71.7279     8.6007     2.4898     0.0394     0.0898  -999.2500
  805.0000    72.8526     8.5850     2.5060     0.0549     0.0810  -999.2500
  805.5000    74.0204     8.5692     2.5096     0.0543     0.0844  -999.2500
  806.0000    73.6957     8.5526     2.4952     0.0441     0.0898  -999.2500
  806.5000    72.9620     8.5683     2.4889     0.0346     0.0942  -999.2500
  807.0000    72.4471     8.5931     2.5014     0.0460     0.0864  -999.2500
  807.5000    73.1909     8.6181     2.5047     0.0552     0.0838  -999.2500
  808.0000    74.1396     8.6443     2.5009     0.0579     0.0852  -999.2500
  808.5000    74.9279     8.6230     2.5021     0.0564     0.0856  -999.2500
  809.0000    75.6024     8.5899     2.5114     0.0621     0.0790  -999.2500
  809.5000    76.2722     8.5611     2.5203     0.0721     0.0750  -999.2500
  810.0000    76.9421     8.6427     2.5127     0.0704     0.0790  -999.2500
  810.5000    77.6156     8.7104     2.5002     0.0523     0.0849  -999.2500
  811.0000    78.3176     8.6717     2.4859     0.0345     0.0952  -999.2500
  811.5000    77.5647     8.6096     2.4706     0.0164     0.1050  -999.2500
  812.0000    76.4701     8.5479     2.4822     0.0244     0.1050  -999.2500
  812.5000    76.1094     8.5188     2.4954     0.0294     0.0882  -999.2500
  813.0000    77.4203     8.5432     2.4736     0.0073     0.1058  -999.2500
  813.5000    76.0803     8.5668     2.4646     0.0026     0.1023  -999.2500
  814.0000    76.7849     8.5906     2.4818     0.0127     0.0971  -999.2500
  814.5000    77.6999     8.6094     2.4908     0.0221     0.0918  -999.2500
  815.0000    78.1714     8.6029     2.4848     0.0132     0.0974  -999.2500
  815.5000    76.7466     8.5966     2.4765     0.0080     0.0998  -999.2500
  816.0000    75.3543     8.5903     2.4803     0.0080     0.0974  -999.2500
  816.5000    75.1129     8.5899     2.4765     0.0102     0.1006  -999.2500
  817.0000    75.7057     8.5912     2.4910     0.0237     0.0909  -999.2500
  817.5000    76.2987     8.5926     2.5060     0.0367     0.0835  -999.2500
  818.0000    76.5576     8.5940     2.5080     0.0399     0.0804  -999.2500
  818.5000    76.3608     8.5953     2.4971     0.0335     0.0872  -999.2500
  819.0000    76.6290     8.5967     2.4913     0.0292     0.0910  -999.2500
  819.5000    77.0650     8.5981     2.5034     0.0404     0.0819  -999.2500
  820.0000    77.5071     8.5994     2.5217     0.0511     0.0730  -999.2500
  820.5000    77.8055     8.6008     2.5120     0.0406     0.0806  -999.2500
  821.0000    77.1706     8.6021     2.5128     0.0441     0.0804  -999.2500
  821.5000    76.5436     8.6035     2.5201     0.0516     0.0742  -999.2500
  822.0000    76.6944     8.6049     2.5241     0.0554     0.0719  -999.2500
  822.5000    77.4309     8.6062     2.5072     0.0381     0.0816  -999.2500
  823.0000    77.3038     8.6076     2.4906     0.0225     0.0914  -999.2500
  823.5000    76.2169     8.6090     2.4914     0.0285     0.0882  -999.2500
  824.0000    75.4319     8.6064     2.5073     0.0364     0.0825  -999.2500
  824.5000    75.4452     8.6033     2.5127     0.0445     0.0794  -999.2500
  825.0000    75.4463     8.6001     2.5111     0.0456     0.0790  -999.2500
  825.5000    75.4734     8.5970     2.5026     0.0373     0.0851  -999.2500
  826.0000    75.5686     8.5939     2.4982     0.0360     0.0886  -999.2500
  826.5000    75.6629     8.5908     2.5233     0.0583     0.0715  -999.2500
  827.0000    75.7596     8.5893     2.5225     0.0585     0.0730  -999.2500
  827.5000    75.0150     8.5856     2.5147     0.0532     0.0760  -999.2500
  828.0000    74.0192     8.5785     2.5154     0.0479     0.0791  -999.2500
  828.5000    74.9088     8.5714     2.5026     0.0394     0.0836  -999.2500
  829.0000    74.4356     8.5642     2.4964     0.0295     0.0888  -999.2500
  829.5000    73.0652     8.5571     2.4910     0.0215     0.0898  -999.2500
  830.0000    73.0873     8.5499     2.5003     0.0204     0.0879  -999.2500
  830.5000    73.5098     8.5496     2.5010     0.0183     0.0862  -999.2500
  831.0000    73.9312     8.5544     2.5071     0.0221     0.0825  -999.2500
  831.5000    73.6425     8.5689     2.5073     0.0312     0.0802  -999.2500
