~VERSION INFORMATION
 VERS.                2.0:   CWLS LOG ASCII STANDARD - VERSION 2.0
 WRAP.                 NO:   ONE LINE PER DEPTH STEP
~WELL INFORMATION
#MNEM.UNIT      DATA TYPE    INFORMATION
#----------   ------------   ------------------------------
 STRT.F            8.0000:   START DEPTH
 STOP.F          513.0000:   STOP DEPTH
 STEP.F            0.5000:   STEP LENGTH
 NULL.          -999.2500:   NO VALUE
 COMP. LAWRENCE-ALLISON &AS:   COMPANY
 WELL. NPR 3 #51-63SX10UP3:   WELL
 FLD .             TEAPOT:   FIELD
 LOC .      S10 T38N R78W:   LOCATION
 CNTY.            NATRONA:   COUNTY
 STAT.            WYOMING:   STATE
 CTRY. UNITED STATES OF AMERICA:   COUNTRY
 SRVC.      Dresser Atlas:   SERVICE COMPANY
 DATE.        09-DEC-1984:   LOGDATE
 API .       490251099400:   API NUMBER
~CURVE INFORMATION
#MNEM.UNIT       API CODE    CURVE DESCRIPTION
#----------   ------------   ------------------------------
 DEPT.F                  :   
 RFOC.OHMM   07 220 01 00:   RESISTIVITY FOCUSED LOG
 RILD.OHMM   07 120 46 00:   INDUCTION LOG DEEP RESISTIVITY
 RILM.OHMM   07 120 44 00:   RESITIVITY LONG MEDIUM
 SPR .MV     07 010 01 00:   SPONTANEOUS POTENTIAL
 CALD.IN     45 280 60 00:   CALIPER FROM DENSITY LOG
 CORR.none               :   
 DEN .G/C3   45 350 01 00:   COMPENSATED BULK DENSTIY
 GRD .GAPI   45 310 01 00:   GAMMA RAY FROM DENSITY LOG
 PORD.DEC    45 890 12 00:   POROSITY DENSITY SANDSTONE
 CNC .DEC    42 890 03 00:   NEUTRON POROSITY SANDSTONE
~PARAMETER INFORMATION
#MNEM.UNIT          VALUE    DESCRIPTION
#----------   ------------   ------------------------------
 PD  .                 GL:   PERMANENT DATUM
 EPD .F              5162:   ELEVATION PERMANENT DATUM
 LMF .                 GL:   LOG MEASURED FROM
 DMF .                 GL:   DRILLING MEASURED FROM
 EGL .F              5162:   GROUND LEVEL
 DATE.        09-DEC-1984:   RUN DATE
 RUN .                  1:   RUN NUMBER
 DD  .F               510:   DEPTH DRILLER
 DL  .F               515:   DEPTH LOGGER
 BLI .F               513:   BOTTOM LOG INTERVAL
 TLI .F                20:   TOP LOG INTERVAL
 CS  .IN            8.625:   CASING SIZE
 CBD .F                20:   CASING BOTTOM DRILLER
 CBL .F                20:   CASING BOTTOM LOGGER
 BS  .IN            7.875:   BIT SIZE
 BSD .F               510:   BIT SIZE AT DEPTH
 DFT .          KCL-WATER:   DRILLING FLUID TYPE
 MSS .            MUDTANK:   MUD SAMPLE SOURCE
 RMS .OHMM           0.41:   RESISTIVITY MUD SAMPLE
 MST .F                45:   MUD SAMPLE TEMPERATURE
 RMF .OHMM           0.31:   RESISTIVITY MUD FILTRATE SAMPLE
 MFST.F                45:   MUD FILTRATE SAMPLE TEMPERATURE
 RMC .OHMM           0.51:   RESISTIVITY MUD CAKE
 MCST.F                45:   MUD CAKE SAMPLE TEMPERATURE
 MFSS.               CALC:   MUD FILTRATE SAMPLE SOURCE
 MCSS.               CALC:   MUD CAKE SAMPLE SOURCE
 RMB .OHMM           0.22:   RESISTIVITY MUD AT BHT
 BHT .F                85:   BOTTOM HOLE TEMPERATURE
 TCS .HRS               2:   TIME CURCULATED STOPPED
 MRT .F               100:   MAXIMUM RECORDED TEMPERATURE
 LUN .               6270:   LOGGING UNIT NUMBER
 LUL .                 FM:   LOGGING UNIT LOCATION
 ENGI.          E. GOVETT:   RECORDING ENGINEER
 WITN.              LUERS:   WITNESSED BY
 CLNT.            A2DTECH:   CLIENT CODE
 ORIG.           5" PRINT:   ORIGIN OF DATA
 UWI .       490251099400:   UNIQUE WELL ID
 DICO. A2D Technologies, Inc.:   DIGITIZING COMPANY
~OTHER INFORMATION
~A    DEPT    RFOC       RILD       RILM        SPR       CALD       CORR        DEN        GRD       PORD          CNC 
# ...
  242.5000    11.8864     8.4387    10.8699   -42.2063     8.0917     0.0046     2.4821    99.4661     0.1189     0.2698
  243.0000    11.8955     9.2419    10.9437   -41.7503     8.0908     0.0029     2.4752    98.4090     0.1233     0.2541
  243.5000    11.9028     9.7077    10.9504   -41.1431     8.0900     0.0058     2.4698    99.1835     0.1268     0.2471
  244.0000    11.9092     9.9864    10.9572   -40.6796     8.0892     0.0117     2.4660   100.2286     0.1280     0.2496
  244.5000    11.8331    10.2018    11.1949   -40.2159     8.0883     0.0191     2.4652   100.6514     0.1250     0.2583
  245.0000    11.7583    10.4220    11.3586   -39.6038     8.0873     0.0174     2.4720   100.6458     0.1223     0.2641
  245.5000    11.8495    10.7240    11.6051   -38.8732     8.1015     0.0096     2.4765   100.4910     0.1211     0.2671
  246.0000    11.9395    11.1227    12.0229   -38.1200     8.1006     0.0018     2.4711    99.5843     0.1260     0.2699
  246.5000    12.2836    11.6949    12.6301   -37.3667     8.1149    -0.0076     2.4648    96.8731     0.1302     0.2705
  247.0000    13.0847    12.7775    13.4538   -36.4649     8.1246    -0.0153     2.4566    92.5078     0.1336     0.2590
  247.5000    14.6330    14.4889    14.3311   -35.7117     8.1281    -0.0048     2.4505    83.9319     0.1376     0.2471
  248.0000    17.6101    16.7760    15.2686   -34.9585     8.1422     0.0284     2.4307    72.1982     0.1618     0.2365
  248.5000    22.0222    19.4240    16.1699   -34.5025     8.1562     0.0358     2.3692    56.1035     0.1901     0.2377
  249.0000    24.5206    22.1794    16.8880   -34.1950     8.1554     0.0417     2.3266    51.7382     0.2050     0.2493
  249.5000    23.8665    24.9756    17.3322   -34.0362     8.1696     0.0522     2.3357    49.4781     0.2062     0.2672
  250.0000    25.5681    28.5202    14.9873   -33.4960     8.1753     0.0596     2.4144    48.5714     0.1777     0.2554
  250.5000    37.2827    28.5378    14.5864   -32.9692     8.1906     0.0610     2.4707    51.5693     0.1221     0.2365
  251.0000    39.3077    28.3574    13.4245   -32.4424     8.2059     0.0503     2.4844    55.0191     0.1173     0.2329
  251.5000    31.8131    27.7888    14.0058   -31.9061     8.1960     0.0411     2.4258    58.1681     0.1310     0.2478
  252.0000    27.7010    25.9373    14.6103   -31.1481     8.1650     0.0334     2.3552    60.1384     0.1823     0.2594
  252.5000    24.5838    23.5449    15.1353   -30.3641     8.1340     0.0257     2.3076    58.1504     0.2181     0.2749
  253.0000    22.1592    21.0778    15.5705   -29.4862     8.1180     0.0196     2.2789    60.3248     0.2391     0.2849
  253.5000    21.6080    19.4016    15.7971   -28.8787     8.1021     0.0149     2.2723    63.7905     0.2424     0.2880
  254.0000    22.8577    18.4908    16.0271   -28.5685     8.1012     0.0285     2.2768    66.9938     0.2373     0.2856
  254.5000    21.3391    18.1201    16.4879   -28.4068     8.1003     0.0466     2.2912    70.2932     0.2309     0.2710
  255.0000    21.5012    18.1314    17.2238   -28.3937     8.1295     0.0587     2.3093    74.0437     0.2233     0.2628
  255.5000    22.1209    18.5254    18.2290   -28.5292     8.1597     0.0409     2.3268    75.2401     0.2127     0.2600
  256.0000    22.7586    19.1954    19.5160   -28.8166     8.1880     0.0190     2.3381    72.6726     0.2048     0.2646
  256.5000    23.0914    19.7492    20.3582   -29.2460     8.1869     0.0083     2.3411    70.7088     0.2012     0.2667
  257.0000    23.9227    20.4608    20.9437   -29.8272     8.2013     0.0022     2.3426    69.4970     0.2009     0.2643
  257.5000    26.5680    21.1980    21.2485   -30.5571     8.1550     0.0142     2.3463    70.8415     0.1985     0.2665
  258.0000    29.7117    22.1151    21.1128   -31.1461     8.1392     0.0323     2.3467    69.9304     0.1960     0.2744
  258.5000    32.5416    22.9119    20.9751   -31.4224     8.1231     0.0459     2.3272    67.5155     0.2043     0.2793
  259.0000    30.5424    23.7374    21.4318   -31.4061     8.1128     0.0549     2.3050    65.5517     0.2124     0.2671
  259.5000    28.5549    24.4222    22.2019   -31.5449     8.1062     0.0412     2.2881    64.0391     0.2308     0.2598
  260.0000    27.5964    24.7796    23.3216   -31.5285     8.1053     0.0287     2.2777    62.9674     0.2392     0.2571
  260.5000    27.0393    24.9679    24.4979   -31.5154     8.1045     0.0192     2.2724    63.5017     0.2425     0.2559
  261.0000    28.6075    24.9833    25.5551   -31.3537     8.1036     0.0075     2.2936    66.4163     0.2243     0.2544
  261.5000    31.1152    25.1733    26.6618   -31.1921     8.1178    -0.0017     2.3209    67.7630     0.2128     0.2538
  262.0000    34.5559    25.5753    27.6343   -31.1790     8.1216    -0.0109     2.3102    65.0452     0.2195     0.2557
  262.5000    37.0661    26.6783    28.4108   -30.8687     8.1310    -0.0186     2.2882    61.8784     0.2459     0.2573
  263.0000    35.3273    27.8037    28.8275   -30.7070     8.1659    -0.0217     2.2623    60.2154     0.2565     0.2587
  263.5000    33.9050    28.4075    28.6435   -30.5448     8.1751     0.0070     2.2509    61.1088     0.2596     0.2575
  264.0000    33.9258    28.6234    27.1089   -30.3834     8.1886     0.0191     2.2850    63.6563     0.2326     0.2505
  264.5000    35.1472    28.4424    25.6565   -30.2214     8.1875     0.0281     2.3153    65.7527     0.2150     0.2521
  265.0000    34.4274    27.8721    24.7937   -29.9084     8.1692     0.0342     2.3312    66.1972     0.2071     0.2597
  265.5000    33.7365    27.4997    24.1269   -29.5982     8.1556     0.0386     2.3279    65.4342     0.2132     0.2712
  266.0000    33.0766    27.3259    24.6488   -29.1393     8.1548     0.0369     2.3038    64.9742     0.2244     0.2755
  266.5000    32.1942    27.3469    26.2545   -28.6805     8.1688     0.0368     2.2885    64.6646     0.2326     0.2709
  267.0000    31.7644    27.1733    27.5786   -28.3702     8.1681     0.0368     2.2900    65.2712     0.2348     0.2670
  267.5000    31.3450    27.1907    28.1751   -27.9114     8.1670     0.0351     2.3029    66.4862     0.2291     0.2704
  268.0000    31.1470    27.0187    27.9953   -27.7497     8.1663     0.0244     2.3104    65.8388     0.2218     0.2774
  268.5000    32.2733    26.8395    26.2867   -27.7366     8.1654     0.0137     2.3157    64.9277     0.2160     0.2807
  269.0000    32.5134    26.2080    23.9925   -27.9435     8.1644     0.0075     2.3202    64.7707     0.2142     0.2795
  269.5000    30.3533    25.4298    21.9885   -28.0076     8.1635     0.0151     2.3278    67.7671     0.2114     0.2786
  270.0000    29.7445    24.7472    21.1018   -28.2917     8.1476     0.0305     2.3353    70.1642     0.2072     0.2764
  270.5000    28.9472    24.0829    20.3921   -28.4272     8.1316     0.0346     2.3231    70.9095     0.2111     0.2699
  271.0000    27.9705    23.5964    20.1188   -28.8566     8.1287     0.0193     2.3102    71.6503     0.2187     0.2606
  271.5000    26.9971    22.9665    20.2730   -29.1439     8.1148     0.0071     2.3025    72.6940     0.2236     0.2547
  272.0000    26.4948    22.5060    20.4255   -29.5733     8.1159    -0.0021     2.3195    74.4897     0.2179     0.2620
  272.5000    26.1491    22.0547    20.5792   -30.0060     8.1280    -0.0113     2.3409    76.4357     0.2006     0.2638
  273.0000    25.2713    21.7600    20.3062   -30.4387     8.1420     0.0023     2.3601    77.7975     0.1933     0.2538
  273.5000    24.5934    21.3270    18.6913   -30.7228     8.1506     0.0204     2.3540    76.7187     0.1887     0.2456
  274.0000    24.1007    21.0448    17.0856   -30.7097     8.1555     0.0157     2.3433    76.2587     0.1963     0.2389
  274.5000    23.9447    20.7670    16.1703   -30.6966     8.1696     0.0110     2.3387    77.7824     0.2015     0.2317
  275.0000    24.1302    20.4929    15.5182   -30.6835     8.1687     0.0049     2.3386    78.6717     0.2042     0.2250
  275.5000    24.1450    20.3634    14.6647   -30.6701     8.1677     0.0018     2.3432    75.4780     0.2030     0.2359
