~VERSION INFORMATION
 VERS.                2.0:   CWLS LOG ASCII STANDARD - VERSION 2.0
 WRAP.                 NO:   ONE LINE PER DEPTH STEP
~WELL INFORMATION
#MNEM.UNIT      DATA TYPE    INFORMATION
#----------   ------------   ------------------------------
 STRT.F           46.0000:   START DEPTH
 STOP.F          670.0000:   STOP DEPTH
 STEP.F            0.5000:   STEP LENGTH
 NULL.          -999.2500:   NO VALUE
 COMP. FENIX & SCISSON INC:   COMPANY
 WELL. TEAPOT #27 62SX 11WI-11:   WELL
 FLD .             TEAPOT:   FIELD
 LOC .      S11 T38N R78W:   LOCATION
 CNTY.            NATRONA:   COUNTY
 STAT.            WYOMING:   STATE
 CTRY. UNITED STATES OF AMERICA:   COUNTRY
 SRVC.      Dresser Atlas:   SERVICE COMPANY
 DATE.        27-JUL-1980:   LOGDATE
 API .       490251084000:   API NUMBER
~CURVE INFORMATION
#MNEM.UNIT       API CODE    CURVE DESCRIPTION
#----------   ------------   ------------------------------
 DEPT.F                  :   
 GRD .GAPI   45 310 01 00:   GAMMA RAY FROM DENSITY LOG
 RHOB.G/C3   45 350 01 00:   BULK DENSITY
 CORR.G/C3   45 356 01 00:   DENSITY CORRECTION
 CALD.IN     45 280 60 00:   CALIPER
 DPOR.DEC    45 890 12 00:   DENSITY POROSITY SANDSTONE
 SPR .MV     07 010 01 00:   SPONTANEOUS POTENTIAL
 SFL .OHMM   07 220 01 00:   SHALLOW FOCUSED LOG RESISTIVITY
 ILD .OHMM   07 120 46 00:   INDUCTION LOG DEEP
 ILM .OHMM   07 120 44 00:   INDUCTION LOG MEDIUM
~PARAMETER INFORMATION
#MNEM.UNIT          VALUE    DESCRIPTION
#----------   ------------   ------------------------------
 PD  .                 GL:   PERMANENT DATUM
 EPD .F              5186:   ELEVATION PERMANENT DATUM
 LMF .                 KB:   LOG MEASURED FROM
 DAPD.F                 5:   FEET ABOVE PERMANENT DATUM
 DMF .                 KB:   DRILLING MEASURED FROM
 EKB .F              5191:   KELLING BUSHING
 EGL .F              5186:   GROUND LEVEL
 DATE.            7-27-80:   RUN DATE
 RUN .                  1:   RUN NUMBER
 DD  .F               660:   DEPTH DRILLER
 DL  .F               663:   DEPTH LOGGER
 BLI .F               661:   BOTTOM LOG INTERVAL
 TLI .F                46:   TOP LOG INTERVAL
 BS  .IN            7.875:   BIT SIZE
 BSD .F               660:   BIT SIZE AT DEPTH
 DFT .           CHEM GEL:   DRILLING FLUID TYPE
 DFD .                9.5:   DRILLING FLUID DENSITY
 DFV .                 50:   DRILLING FLUID VISCOSITY
 DFPH.                 11:   DRILLING FLUID PH
 DFL .                  6:   DRILLING FLUID LOSS
 MSS .           FLOWLINE:   MUD SAMPLE SOURCE
 RMS .OHMM            .08:   RESISTIVITY MUD SAMPLE
 MST .F                70:   MUD SAMPLE TEMPERATURE
 RMC .OHMM            .08:   RESISTIVITY MUD CAKE
 MCST.F                70:   MUD CAKE SAMPLE TEMPERATURE
 MFSS.               MEAS:   MUD FILTRATE SAMPLE SOURCE
 MCSS.               MEAS:   MUD CAKE SAMPLE SOURCE
 RMB .OHMM            .06:   RESISTIVITY MUD AT BHT
 BHT .F                90:   BOTTOM HOLE TEMPERATURE
 TCS .HRS               5:   TIME CURCULATED STOPPED
 MRT .F                90:   MAXIMUM RECORDED TEMPERATURE
 LUN .               6145:   LOGGING UNIT NUMBER
 LUL .              GLTTE:   LOGGING UNIT LOCATION
 ENGI.              HENRY:   RECORDING ENGINEER
 WITN.              AMEND:   WITNESSED BY
 CLNT.            A2DTECH:   CLIENT CODE
 ORIG.       2", 5" PRINT:   ORIGIN OF DATA
 UWI .       490251084000:   UNIQUE WELL ID
 DICO. A2D Technologies, Inc.:   DIGITIZING COMPANY
~OTHER INFORMATION
~A   DEPT      GRD       RHOB       CORR       CALD       DPOR        SPR          SFL        ILD      ILM   
# ...
  265.0000   106.9163     2.5056     0.0098     8.5848     0.1064   -42.5230    10.3457     7.2343     7.7511
  265.5000   108.4863     2.5156     0.0132     8.5848     0.0987   -42.4817    10.3727     7.2212     7.7276
  266.0000   109.3138     2.5256     0.0168     8.5848     0.0926   -42.2455    10.4067     7.2082     7.7052
  266.5000   108.6479     2.5252     0.0177     8.5848     0.0930   -42.0098    10.3583     7.2024     7.6815
  267.0000   107.7266     2.5233     0.0181     8.5848     0.0956   -41.8914    10.2937     7.2023     7.5758
  267.5000   106.9956     2.5281     0.0185     8.5848     0.0921   -41.8035    10.2295     7.2023     7.4671
  268.0000   108.1798     2.5330     0.0188     8.5848     0.0876   -41.7424    10.2170     7.2023     7.3996
  268.5000   109.3883     2.5320     0.0192     8.5848     0.0879   -42.0215    10.2170     7.2023     7.3891
  269.0000   110.8350     2.5310     0.0195     8.5848     0.0883   -42.2987    10.2644     7.2023     7.3785
  269.5000   109.0684     2.5398     0.0205     8.5848     0.0845   -42.5740    10.3395     7.2023     7.3681
  270.0000   108.9740     2.5455     0.0210     8.5848     0.0807   -42.8589    10.4071     7.2023     7.3576
  270.5000   109.2200     2.5228     0.0165     8.5848     0.0922   -42.8646    10.3056     7.2023     7.3472
  271.0000   110.7630     2.5036     0.0145     8.5848     0.1075   -42.7918    10.1946     7.2023     7.3364
  271.5000   113.2087     2.4789     0.0128     8.5848     0.1186   -42.7295    10.1234     7.2023     7.3362
  272.0000   115.4848     2.4754     0.0119     8.5848     0.1205   -42.9899    10.1502     7.2023     7.3361
  272.5000   115.0520     2.5184     0.0177     8.5848     0.0947   -43.2678    10.1701     7.2022     7.3362
  273.0000   112.7194     2.5299     0.0212     8.5848     0.0901   -43.3982    10.1900     7.2023     7.3366
  273.5000   111.4319     2.5223     0.0199     8.5848     0.0924   -43.4990    10.2099     7.2014     7.3007
  274.0000   110.8832     2.5150     0.0179     8.5848     0.0975   -43.5997    10.2364     7.2507     7.2689
  274.5000   111.2653     2.5091     0.0159     8.5848     0.1024   -43.6998    10.2664     7.2900     7.4130
  275.0000   108.9996     2.5192     0.0155     8.5848     0.0949   -43.7115    10.2966     7.3296     7.5299
  275.5000   107.8669     2.5282     0.0156     8.5848     0.0900   -43.7072    10.4696     7.3694     7.6432
  276.0000   107.5681     2.5299     0.0153     8.5848     0.0903   -43.9196    10.7869     7.4172     7.7525
  276.5000   107.2935     2.5269     0.0093     8.5848     0.0914   -44.2094    10.9974     7.5145     7.7527
  277.0000   106.7197     2.5262     0.0082     8.5848     0.0932   -44.4895    10.9974     7.6131     7.7529
  277.5000   108.1648     2.5269     0.0091     8.5848     0.0932   -44.2920    10.9167     7.7130     7.7512
  278.0000   107.7394     2.5166     0.0103     8.5848     0.0991   -44.0601    10.5974     7.7525     7.9567
  278.5000   107.1021     2.5051     0.0118     8.5848     0.1056   -43.8069    10.7903     7.7240     8.1444
  279.0000   109.4964     2.5033     0.0132     8.5848     0.0946   -43.5523    11.3059     7.6962     8.2599
  279.5000   111.6467     2.5444     0.0182     8.5848     0.0835   -43.3301    11.7390     7.6815     8.3447
  280.0000   110.7756     2.5661     0.0234     8.5848     0.0751   -43.6033    11.2767     7.6815     8.2638
  280.5000   110.7306     2.5138     0.0209     8.5848     0.1052   -43.8859    10.6689     7.6815     8.1730
  281.0000   110.3939     2.5013     0.0182     8.5848     0.1060   -44.1667    10.4792     7.6114     8.0431
  281.5000   109.5999     2.5083     0.0165     8.5848     0.0979   -44.3439    10.3114     7.5360     8.0508
  282.0000   109.8471     2.5134     0.0120     8.5848     0.0901   -44.4755    10.3528     7.4613     8.0648
  282.5000   109.7833     2.5293     0.0016     8.5848     0.0892   -44.6056    10.4259     7.3874     8.0788
  283.0000   109.5702     2.5052    -0.0072     8.5848     0.1056   -44.7354    10.4995     7.3142     8.0929
  283.5000   110.2124     2.4864    -0.0096     8.5848     0.1155   -44.8656    10.6000     7.2422     8.1070
  284.0000   110.8594     2.4830    -0.0118     8.5848     0.1177   -44.9954    10.4836     7.1605     8.1175
  284.5000   110.7869     2.4899     0.0055     8.5848     0.1147   -45.1069    10.3062     7.0698     7.8813
  285.0000   108.4612     2.4698     0.0059     8.5848     0.1217   -45.1329    10.1319     6.9799     7.6990
  285.5000   108.5581     2.5061     0.0195     8.5848     0.1049   -45.1607     9.9604     6.8912     7.6813
  286.0000   112.3774     2.5112     0.0062     8.5848     0.1024   -45.1887     9.7929     6.8118     7.6815
  286.5000   115.1760     2.5029     0.0066     8.5848     0.1069   -45.2166     9.6301     6.7853     7.5630
  287.0000   116.2919     2.4970     0.0065     8.5848     0.1104   -45.2448     9.4701     6.7588     7.4039
  287.5000   116.5172     2.5036     0.0039     8.5848     0.1021   -45.2729     9.4050     6.7531     7.4039
  288.0000   114.6018     2.5448     0.0011     8.5848     0.0894   -45.2909     9.7104     6.8155     7.5999
  288.5000   112.2434     2.5726    -0.0064     8.5848     0.0755   -45.2276    10.1251     6.8973     7.6935
  289.0000   110.1796     2.5468    -0.0110     8.5848     0.0848   -45.1643    10.1525     6.9789     7.7217
  289.5000   107.9665     2.5290    -0.0078     8.5848     0.0911   -45.1013    10.1805     7.0613     7.7480
  290.0000   107.0728     2.5359     0.0055     8.5848     0.0881   -45.0383    10.2087     7.1442     7.8687
  290.5000   106.7564     2.5380     0.0065     8.5848     0.0844   -44.9751    10.2769     7.2245     8.0001
  291.0000   106.7440     2.5447     0.0039     8.5848     0.0815   -44.9092    10.3623     7.3056     8.1175
  291.5000   106.4850     2.5373     0.0035     8.5848     0.0867   -44.9817    10.4485     7.3877     8.1795
  292.0000   105.2422     2.5236     0.0035     8.5848     0.0912   -45.0743    10.5438     7.4724     8.2460
  292.5000   104.0095     2.5195     0.0035     8.5848     0.0916   -45.4534    10.6543     7.5416     8.3130
  293.0000   103.7020     2.5323     0.0073     8.5848     0.0902   -45.8731    10.6980     7.6126     8.3805
  293.5000   105.4275     2.5280     0.0115     8.5848     0.0892   -46.1152    10.6980     7.6845     8.4486
  294.0000   107.6800     2.5238     0.0154     8.5848     0.0928   -46.1651    10.8400     7.7525     8.5153
  294.5000   109.9406     2.5280     0.0194     8.5848     0.0916   -46.2156    10.9167     7.7212     8.5770
  295.0000   110.9720     2.5457     0.0237     8.5848     0.0807   -46.2648    10.9469     7.6850     8.6575
  295.5000   109.8440     2.5433     0.0236     8.5848     0.0832   -46.4587    10.9778     7.6491     8.6387
  296.0000   109.5323     2.5374     0.0236     8.5848     0.0870   -46.7693    10.9986     7.6132     8.6019
  296.5000   110.5208     2.5318     0.0247     8.5848     0.0896   -47.0741    10.7825     7.5776     8.5653
  297.0000   111.0629     2.5306     0.0263     8.5848     0.0880   -47.1735    10.4728     7.5415     8.5289
  297.5000   108.8887     2.5291     0.0270     8.5848     0.0899   -47.2638    10.3114     7.4921     8.4993
  298.0000   106.9312     2.5314     0.0287     8.5848     0.0884   -47.3552    10.4614     7.4419     8.4996
  298.5000   106.2695     2.5400     0.0336     8.5848     0.0850   -47.4470    10.6135     7.3923     8.4997
  299.0000   107.0130     2.5398     0.0314     8.5848     0.0824   -47.5172    10.7969     7.3429     8.4997
  299.5000   107.1400     2.5189     0.0239     8.5848     0.1000   -47.5763    10.5759     7.3361     8.4997
  300.0000   107.6187     2.5046     0.0165     8.5848     0.1022   -47.6348    10.3713     7.3360     8.4996
  300.5000   108.2731     2.4912     0.0090     8.5848     0.1096   -47.6770    10.3114     7.3360     8.4997
  301.0000   108.5913     2.4821     0.0035     8.5848     0.1172   -47.6768    10.4166     7.3357     8.4996
