~VERSION INFORMATION
 VERS.                2.0:   CWLS LOG ASCII STANDARD - VERSION 2.0
 WRAP.                 NO:   ONE LINE PER DEPTH STEP
~WELL INFORMATION
#MNEM.UNIT      DATA TYPE    INFORMATION
#----------   ------------   ------------------------------
 STRT.F           33.0000:   START DEPTH
 STOP.F          560.0000:   STOP DEPTH
 STEP.F            0.5000:   STEP LENGTH
 NULL.          -999.2500:   NO VALUE
 COMP. BROWN JOHN E&C INC:   COMPANY
 WELL.        SX 85 #25-3:   WELL
 FLD .             TEAPOT:   FIELD
 LOC .       S3 T38N R78W:   LOCATION
 CNTY.            NATRONA:   COUNTY
 STAT.            WYOMING:   STATE
 CTRY. UNITED STATES OF AMERICA:   COUNTRY
 SRVC.       Schlumberger:   SERVICE COMPANY
 DATE.        23-SEP-1980:   LOGDATE
 API .       490251130600:   API NUMBER
~CURVE INFORMATION
#MNEM.UNIT       API CODE    CURVE DESCRIPTION
#----------   ------------   ------------------------------
 DEPT.F                  :   
 ILD .OHMM   07 120 46 00:   INDUCTION LOG DEEP
 ILM .OHMM   07 120 44 00:   INDUCTION LOG MEDIUM
 DPHI.DEC    45 890 12 00:   DENSITY POROSITY SANDSTONE
 RHOB.G/C3   45 350 01 00:   BULK DENSITY
 DRHO.G/C3   45 356 01 00:   DENSITY CORRECTION
 CALD.IN     45 280 60 00:   CALIPER
 GRD .GAPI   45 310 01 00:   GAMMA RAY FROM DENSITY LOG
~PARAMETER INFORMATION
#MNEM.UNIT          VALUE    DESCRIPTION
#----------   ------------   ------------------------------
 PD  .                 GL:   PERMANENT DATUM
 EPD .F              5144:   ELEVATION PERMANENT DATUM
 LMF .                 KB:   LOG MEASURED FROM
 DAPD.F                10:   FEET ABOVE PERMANENT DATUM
 DMF .                 KB:   DRILLING MEASURED FROM
 EKB .F              5154:   KELLING BUSHING
 EDF .F              5153:   DRILLING FLOOR
 EGL .F              5144:   GROUND LEVEL
 DATE.            9-23-90:   RUN DATE
 RUN .                  1:   RUN NUMBER
 DD  .F               564:   DEPTH DRILLER
 DL  .F               565:   DEPTH LOGGER
 BLI .F               559:   BOTTOM LOG INTERVAL
 TLI .F                40:   TOP LOG INTERVAL
 CS  .IN            8.625:   CASING SIZE
 CBD .F                50:   CASING BOTTOM DRILLER
 CBL .F                50:   CASING BOTTOM LOGGER
 BS  .IN            7.875:   BIT SIZE
 BSD .F               564:   BIT SIZE AT DEPTH
 DFT .                AIR:   DRILLING FLUID TYPE
 TCS .HRS            1900:   TIME CURCULATED STOPPED
 TLAB.HRS            2000:   TIME LOGGER AT BOTTOM
 LUN .               5882:   LOGGING UNIT NUMBER
 LUL .               CODY:   LOGGING UNIT LOCATION
 ENGI.          M. FISHER:   RECORDING ENGINEER
 WITN.          G. STRONG:   WITNESSED BY
 CLNT.            A2DTECH:   CLIENT CODE
 ORIG.        2" 5" PRINT:   ORIGIN OF DATA
 UWI .       490251130600:   UNIQUE WELL ID
 DICO. A2D Technologies, Inc.:   DIGITIZING COMPANY
~OTHER INFORMATION
~A   DEPT      ILD        ILM       DPHI       RHOB       DRHO       CALD         GRD  
# ...
  488.0000    13.5939    13.5871     0.1174     2.4533    -0.0073     7.7570    97.7017
  488.5000    13.6371    13.6095     0.1161     2.4565    -0.0077     7.7595   100.1585
  489.0000    13.6804    13.6317     0.1179     2.4533    -0.0082     7.7706   103.5652
  489.5000    13.7237    13.6528     0.1195     2.4498    -0.0086     7.7859   107.0518
  490.0000    13.7800    13.6287     0.1210     2.4464    -0.0072     7.8013   107.6898
  490.5000    13.7058    13.6015     0.1217     2.4484    -0.0043     7.8175   107.1685
  491.0000    13.6013    13.5746     0.1158     2.4592    -0.0013     7.8116   106.6374
  491.5000    13.4974    13.5478     0.1090     2.4700     0.0016     7.7989   104.6952
  492.0000    13.3944    13.4826     0.1022     2.4807     0.0046     7.7860   101.6668
  492.5000    13.2921    13.2409     0.0992     2.4866     0.0065     7.7732    99.5934
  493.0000    13.1907    13.0035     0.0994     2.4859     0.0070     7.7604    99.6996
  493.5000    13.0749    12.7703     0.0999     2.4859     0.0075     7.7456   101.9304
  494.0000    12.9513    12.5547     0.0994     2.4859     0.0080     7.7310   104.1669
  494.5000    12.8289    12.4679     0.0984     2.4881     0.0083     7.7201   103.7626
  495.0000    12.7076    12.3865     0.0976     2.4899     0.0080     7.7203   102.9932
  495.5000    12.5875    12.3056     0.0998     2.4880     0.0075     7.7203   103.2871
  496.0000    12.5187    12.2253     0.1063     2.4793     0.0057     7.7203   106.1935
  496.5000    12.4692    12.1454     0.1129     2.4680     0.0011     7.7203   108.4782
  497.0000    12.4383    12.0956     0.1163     2.4607    -0.0009     7.7203   109.5464
  497.5000    12.5958    12.2805     0.1143     2.4617    -0.0013     7.7203   110.6359
  498.0000    12.7124    12.4177     0.1115     2.4663    -0.0017     7.7203   111.7226
  498.5000    12.8301    12.5563     0.1088     2.4713    -0.0007     7.7203   111.5303
  499.0000    12.9487    12.6964     0.1027     2.4862     0.0017     7.7203   109.8742
  499.5000    13.0678    12.8390     0.0922     2.5011     0.0041     7.7203   107.0544
  500.0000    13.1525    12.9099     0.0803     2.5163     0.0067     7.7203   104.3297
  500.5000    13.0010    12.7418     0.0815     2.5155     0.0060     7.7203   101.9196
  501.0000    12.8847    12.6299     0.0943     2.4984     0.0034     7.7198   101.7443
  501.5000    12.7695    12.5190     0.1045     2.4838     0.0008     7.7158   102.6437
  502.0000    12.6552    12.4090     0.1104     2.4713    -0.0017     7.7119   103.5601
  502.5000    12.5420    12.3001     0.1070     2.4711    -0.0018     7.7079   104.4691
  503.0000    12.4298    12.1921     0.1034     2.4785    -0.0018     7.7039   105.3790
  503.5000    12.3230    12.0850     0.1000     2.4840    -0.0009     7.7003   106.2230
  504.0000    12.1848    11.9789     0.1003     2.4839     0.0003     7.7017   107.2900
  504.5000    12.0532    11.8737     0.1003     2.4839     0.0016     7.7032   108.8177
  505.0000    11.9230    11.7694     0.1001     2.4839     0.0030     7.7047   110.4553
  505.5000    11.7943    11.6660     0.1006     2.4840     0.0017     7.7062   112.1463
  506.0000    11.6670    11.5636     0.1023     2.4816    -0.0004     7.7076   113.5093
  506.5000    11.5410    11.4620     0.1041     2.4785    -0.0017     7.7091   112.8333
  507.0000    11.4000    11.2926     0.1044     2.4790    -0.0006     7.7106   111.6543
  507.5000    11.1855    11.1049     0.1034     2.4809     0.0001     7.7120   110.4746
  508.0000    10.9750    10.9203     0.1024     2.4827    -0.0007     7.7135   109.2443
  508.5000    10.7684    10.7387     0.1013     2.4846    -0.0008     7.7150   110.6693
  509.0000    10.5658    10.5602     0.1003     2.4865    -0.0008     7.7164   113.3992
  509.5000    10.3672    10.3847     0.0993     2.4883    -0.0008     7.7179   116.9675
  510.0000    10.1710    10.2289     0.0990     2.4896    -0.0007     7.7194   119.0322
  510.5000     9.9804     9.8412     0.1001     2.4865    -0.0022     7.7203   119.8207
  511.0000     9.8077     9.5010     0.1013     2.4835    -0.0047     7.7203   119.8170
  511.5000     9.4538     9.1726     0.1025     2.4814    -0.0073     7.7203   118.4782
  512.0000     9.1154     8.8555     0.1037     2.4792    -0.0081     7.7203   116.2883
  512.5000     8.7007     8.5493     0.1049     2.4771    -0.0061     7.7203   114.0855
  513.0000     8.2566     7.6130     0.1060     2.4795    -0.0040     7.7213   114.0091
  513.5000     7.1559     6.6470     0.1082     2.4855    -0.0020     7.7228   117.9646
  514.0000     6.1523     5.8035     0.1152     2.4644    -0.0002     7.7243   123.9777
  514.5000     5.6888     5.0671     0.1317     2.4315     0.0015     7.7258   132.4401
  515.0000     5.7354     4.8559     0.1522     2.3883     0.0024     7.7273   139.9562
  515.5000     5.8039     5.0905     0.1738     2.3645     0.0027     7.7288   144.5776
  516.0000     5.8500     5.3922     0.1578     2.3861     0.0031     7.7302   139.9544
  516.5000     6.0971     5.9139     0.1298     2.4497     0.0028     7.7317   130.7423
  517.0000     6.5031     6.4861     0.1055     2.5029     0.0015     7.7332   122.7064
  517.5000     6.9375     7.1136     0.0975     2.5266     0.0003     7.7347   118.8851
  518.0000     7.6740     8.1544     0.0949     2.5403    -0.0009     7.7362   114.6302
  518.5000     8.7001     8.9952     0.0956     2.5378    -0.0022     7.7377   112.6896
  519.0000     9.6442     9.4328     0.0973     2.5311    -0.0016     7.7392   114.1089
  519.5000    10.1340     9.6824     0.0988     2.5244    -0.0009     7.7405   116.5455
  520.0000    10.1533     9.9048     0.0988     2.5258    -0.0002     7.7404   118.8709
  520.5000    10.1753    10.1324     0.0988     2.5269     0.0000     7.7404   120.1769
  521.0000    10.1973    10.3652     0.1003     2.5184    -0.0018     7.7404   119.6756
  521.5000    10.2193    10.5743     0.1028     2.5095    -0.0035     7.7404   120.2850
  522.0000    10.5801    10.7336     0.1053     2.5022    -0.0041     7.7404   122.1841
  522.5000    10.8311    10.8953     0.1041     2.5057    -0.0026     7.7391   121.7558
  523.0000    11.0288    11.0594     0.1012     2.5170    -0.0011     7.7378   119.1712
  523.5000    11.2302    11.2260     0.0983     2.5279     0.0012     7.7365   115.7823
  524.0000    11.4352    11.3952     0.0955     2.5388     0.0034     7.7352   113.3254
  524.5000    11.6288    11.5668     0.0943     2.5427     0.0057     7.7339   116.7743
  525.0000    11.8084    11.7411     0.0936     2.5462     0.0080     7.7326   120.1614
  525.5000    11.9907    11.9180     0.0929     2.5496     0.0085     7.7314   121.4056
  526.0000    12.1758    12.0973     0.0927     2.5530     0.0063     7.7301   117.2395
  526.5000    12.3638    12.2806     0.0944     2.5471     0.0044     7.7288   117.7755
  527.0000    12.5547    12.4311     0.0964     2.5379     0.0025     7.7275   119.1726
  527.5000    12.7214    12.5749     0.0983     2.5289     0.0006     7.7262   119.7686
  528.0000    12.8479    12.7198     0.1000     2.5210    -0.0008     7.7249   118.1711
  528.5000    12.9757    12.8665     0.1000     2.5217    -0.0003     7.7236   116.6270
  529.0000    13.1047    13.0149     0.1000     2.5215     0.0004     7.7224   116.5620
  529.5000    13.2350    13.1531     0.1000     2.5198     0.0011     7.7211   115.8069
  530.0000    13.3381    13.2569     0.1000     2.5181     0.0025     7.7199   114.5027
  530.5000    13.4289    13.3544     0.1004     2.5168     0.0044     7.7188   112.5451
  531.0000    13.5204    13.4525     0.1012     2.5163     0.0063     7.7177   111.8569
  531.5000    13.6120    13.5517     0.1019     2.5158     0.0045     7.7167   111.2287
  532.0000    13.6538    13.6519     0.1016     2.5153     0.0023     7.7156   111.0550
  532.5000    13.5169    13.5911     0.1027     2.5121     0.0002     7.7145   111.4177
  533.0000    13.4026    13.5278     0.1038     2.5079    -0.0006     7.7135   112.1965
