~VERSION INFORMATION
 VERS.                2.0:   CWLS LOG ASCII STANDARD - VERSION 2.0
 WRAP.                 NO:   ONE LINE PER DEPTH STEP
~WELL INFORMATION
#MNEM.UNIT      DATA TYPE    INFORMATION
#----------   ------------   ------------------------------
 STRT.F           40.0000:   START DEPTH
 STOP.F          684.0000:   STOP DEPTH
 STEP.F            0.5000:   STEP LENGTH
 NULL.          -999.2500:   NO VALUE
 COMP.    FENIX & SCISSON:   COMPANY
 WELL.   N P R-3 #26SX2-2:   WELL
 FLD .             TEAPOT:   FIELD
 LOC .       S2 T38N R78W:   LOCATION
 CNTY.            NATRONA:   COUNTY
 STAT.            WYOMING:   STATE
 CTRY. UNITED STATES OF AMERICA:   COUNTRY
 SRVC.            Unknown:   SERVICE COMPANY
 DATE.        26-JAN-1978:   LOGDATE
 API .       490251056400:   API NUMBER
~CURVE INFORMATION
#MNEM.UNIT       API CODE    CURVE DESCRIPTION
#----------   ------------   ------------------------------
 DEPT.F                  :   
 ILD .OHMM   05 120 46 00:   INDUCTION LOG DEEP
 SN  .OHMM   05 040 16 00:   SHORT NORMAL 16"
 SPR .MV     05 010 01 00:   SPONTANEOUS POTENTIAL FROM RES.
 CALD.IN     45 280 60 00:   CALIPER FROM DENSITY LOG
 CORR.G/C3   45 356 01 00:   DENSITY CORRECTION
 DPHI.DEC    45 890 12 00:   DENSITY POROSITY SANDSTONE
 GRD .GAPI   45 310 01 00:   GAMMA RAY FROM DENSITY LOG
 RHOB.G/C3   45 350 01 00:   BULK DENSITY
~PARAMETER INFORMATION
#MNEM.UNIT          VALUE    DESCRIPTION
#----------   ------------   ------------------------------
 PD  .                 GL:   PERMANENT DATUM
 EPD .F              5142:   ELEVATION PERMANENT DATUM
 LMF .                 KB:   LOG MEASURED FROM
 DMF .                 KB:   DRILLING MEASURED FROM
 EKB .F              5146:   KELLING BUSHING
 EGL .F              5142:   GROUND LEVEL
 DATE.        26-JAN-1978:   RUN DATE
 RUN .                  1:   RUN NUMBER
 DD  .F               690:   DEPTH DRILLER
 DL  .F               684:   DEPTH LOGGER
 BLI .F               684:   BOTTOM LOG INTERVAL
 TLI .F                50:   TOP LOG INTERVAL
 CS  .IN            8.625:   CASING SIZE
 CBD .F                39:   CASING BOTTOM DRILLER
 CBL .F                40:   CASING BOTTOM LOGGER
 BS  .IN            7.875:   BIT SIZE
 BSD .F               690:   BIT SIZE AT DEPTH
 DFT .                KCL:   DRILLING FLUID TYPE
 DFD .                8.5:   DRILLING FLUID DENSITY
 DFV .                 33:   DRILLING FLUID VISCOSITY
 DFPH.                  9:   DRILLING FLUID PH
 MSS .           FLOWLINE:   MUD SAMPLE SOURCE
 RMS .OHMM           0.48:   RESISTIVITY MUD SAMPLE
 MST .F                75:   MUD SAMPLE TEMPERATURE
 RMF .OHMM           0.46:   RESISTIVITY MUD FILTRATE SAMPLE
 MFST.F                75:   MUD FILTRATE SAMPLE TEMPERATURE
 RMC .OHMM              1:   RESISTIVITY MUD CAKE
 MCST.F                75:   MUD CAKE SAMPLE TEMPERATURE
 MFSS.               MEAS:   MUD FILTRATE SAMPLE SOURCE
 MCSS.               MEAS:   MUD CAKE SAMPLE SOURCE
 RMB .OHMM           0.47:   RESISTIVITY MUD AT BHT
 BHT .F                76:   BOTTOM HOLE TEMPERATURE
 TCS .HRS               1:   TIME CURCULATED STOPPED
 MRT .F                76:   MAXIMUM RECORDED TEMPERATURE
 LUN .               2958:   LOGGING UNIT NUMBER
 LUL .             CASPER:   LOGGING UNIT LOCATION
 ENGI.           REYNOLDS:   RECORDING ENGINEER
 WITN.       MR. MCGINLEY:   WITNESSED BY
 CLNT.            A2DTECH:   CLIENT CODE
 ORIG.      2.5" 5" PRINT:   ORIGIN OF DATA
 UWI .       490251056400:   UNIQUE WELL ID
 DICO. A2D Technologies, Inc.:   DIGITIZING COMPANY
~OTHER INFORMATION
~A   DEPT      ILD         SN        SPR       CALD       CORR       DPHI         GRD        RHOB 
# ...
  121.0000    12.9015    12.6630   -38.2380     9.4201     0.2680     0.3015   107.2752     2.1514
  121.5000    12.9114    12.6748   -38.5291     9.4204     0.2650     0.2979   107.9108     2.1651
  122.0000    12.9193    12.7718   -38.9647     9.4207     0.2620     0.2956   107.5474     2.1722
  122.5000    12.9272    12.7813   -39.2558     9.4210     0.2590     0.2946   104.0990     2.1753
  123.0000    12.9351    12.8792   -39.6915     9.4517     0.2560     0.2943   101.0468     2.1783
  123.5000    12.9430    12.8888   -39.9807     9.4520     0.2590     0.2934   102.8876     2.1783
  124.0000    12.9509    12.9875   -40.2702     9.4523     0.2590     0.2940   106.2575     2.1753
  124.5000    12.9588    12.9974   -40.5592     9.4391     0.2621     0.2958   109.0157     2.1708
  125.0000    12.9667    13.0068   -40.8484     9.4377     0.2659     0.2976   109.6333     2.1693
  125.5000    12.8857    12.9272   -41.4342     9.4363     0.2691     0.2977   110.2508     2.1754
  126.0000    12.8936    12.8481   -41.8893     9.4231     0.2753     0.2885   111.1845     2.1815
  126.5000    12.8130    12.6842   -42.1873     9.4235     0.2803     0.2865   111.8481     2.1845
  127.0000    12.4748    12.6066   -42.7449     9.4237     0.2848     0.2878   112.7156     2.1815
  127.5000    10.0152    12.3581   -43.3307     9.4240     0.2910     0.2897   113.1550     2.1800
  128.0000     8.8543    11.9489   -43.9165     9.4243     0.2954     0.2909   115.3782     2.1801
  128.5000     8.3256    11.0097   -44.6505     9.4246     0.3015     0.2920   120.4709     2.1830
  129.0000     7.9312    10.0056   -45.6811     9.4249     0.3015     0.2808   122.4546     2.1955
  129.5000     7.3959     9.2192   -46.8600     9.4252     0.2985     0.2732   123.5846     2.2100
  130.0000     6.7420     8.2639   -48.1871     9.4255     0.2985     0.2684   124.5260     2.2180
  130.5000     6.4734     7.5621   -49.2177     9.4258     0.2985     0.2690   125.3323     2.2218
  131.0000     6.3879     7.1619   -49.9517     9.4261     0.2985     0.2632   125.9155     2.2241
  131.5000     6.3480     6.9216   -50.5375     9.4264     0.2985     0.2623   122.5575     2.2265
  132.0000     6.3093     6.7420   -50.8270     9.4267     0.2985     0.2650   121.0344     2.2287
  132.5000     6.3567     6.6548   -51.2642     9.4271     0.2986     0.2629   120.1229     2.2288
  133.0000     6.3606     6.6141   -51.7017     9.4274     0.2986     0.2614   119.2115     2.2288
  133.5000     6.3645     6.6202   -52.2934     9.4277     0.2986     0.2636   120.4406     2.2258
  134.0000     6.4123     6.6244   -52.8969     9.4280     0.2986     0.2653   123.8105     2.2243
  134.5000     6.4162     6.6295   -53.3108     9.4283     0.2986     0.2647   123.1590     2.2243
  135.0000     6.4642     6.6350   -53.4518     9.4286     0.2986     0.2622   120.0509     2.2243
  135.5000     6.5131     6.6400   -53.4426     9.4289     0.2987     0.2604   117.9750     2.2304
  136.0000     6.5170     6.6449   -53.4353     9.4292     0.2987     0.2592   117.7181     2.2336
  136.5000     6.4319     6.6499   -53.4280     9.4295     0.2987     0.2586   120.4082     2.2365
  137.0000     6.4358     6.6548   -53.5708     9.4298     0.2987     0.2586   121.9001     2.2365
  137.5000     6.3956     6.6598   -53.5617     9.4301     0.2987     0.2592   122.3230     2.2347
  138.0000     6.3996     6.6647   -53.5544     9.4304     0.2987     0.2604   120.9745     2.2331
  138.5000     6.3596     6.6239   -53.5471     9.4307     0.2987     0.2628   120.6570     2.2315
  139.0000     6.3636     6.5834   -53.6899     9.4310     0.2988     0.2634   120.8135     2.2299
  139.5000     6.3676     6.5895   -53.6807     9.4313     0.2988     0.2647   121.4324     2.2283
  140.0000     6.3715     6.5944   -53.8217     9.4316     0.2988     0.2653   121.7441     2.2268
  140.5000     6.3761     6.5985   -54.2595     9.4319     0.2988     0.2663   122.0559     2.2246
  141.0000     6.4240     6.6035   -54.8450     9.4322     0.2988     0.2672   120.2269     2.2246
  141.5000     6.4274     6.6091   -55.4308     9.4021     0.2988     0.2675   116.8690     2.2246
  142.0000     6.4763     6.6371   -56.1707     9.4024     0.2981     0.2672   113.5110     2.2246
  142.5000     6.4802     6.6642   -56.6170     9.4027     0.2958     0.2659   117.1867     2.2262
  143.0000     6.5285     6.6697   -57.0633     9.4030     0.2959     0.2624   120.5617     2.2277
  143.5000     6.5777     6.7207   -57.1808     9.4034     0.2959     0.2578   120.5168     2.2293
  144.0000     6.6010     6.7447   -57.3218     9.4037     0.2959     0.2554   119.2640     2.2308
  144.5000     6.6315     6.8241   -57.4627     9.4147     0.2943     0.2535   118.1279     2.2369
  145.0000     6.6814     6.8763   -57.3053     9.4347     0.2920     0.2541   118.5933     2.2414
  145.5000     6.7316     6.9290   -57.2980     9.4350     0.2869     0.2535   120.4699     2.2415
  146.0000     6.7822     6.9873   -57.2907     9.4353     0.2808     0.2529   121.6228     2.2418
  146.5000     6.8332     7.1332   -57.2834     9.4052     0.2778     0.2511   120.9969     2.2430
  147.0000     6.9328     7.1396   -57.4244     9.4055     0.2688     0.2492   119.0866     2.2451
  147.5000     6.9843     7.1450   -57.5672     9.4058     0.2628     0.2480   117.8338     2.2476
  148.0000     7.0368     7.1495   -57.7081     9.4061     0.2507     0.2474   116.3376     2.2492
  148.5000     7.0412     7.1556   -57.9955     9.4064     0.2447     0.2554   114.8145     2.2499
  149.0000     7.0464     7.3103   -58.4331     9.4067     0.2356     0.2687   113.5972     2.2507
  149.5000     7.0507     7.4172   -58.5741     9.4070     0.2584     0.2782   115.1322     2.2356
  150.0000     7.0550     7.5776   -58.5667     9.4073     0.2820     0.2689   116.3614     2.2114
  150.5000     7.0593     7.7030   -58.8648     9.4076     0.2931     0.2774   115.1441     2.1929
  151.0000     7.0636     7.7915   -59.1628     9.4079     0.2937     0.2859   113.6209     2.1870
  151.5000     7.0674     7.8800   -59.4609     9.4082     0.2944     0.2821   113.3211     2.1826
  152.0000     7.0629     7.9691   -59.7075     9.4085     0.2950     0.2844   116.0793     2.1827
  152.5000     7.0277     7.9734   -59.9895     9.4089     0.2956     0.2915   115.3593     2.1827
  153.0000     7.0805     7.9777   -57.6056     9.4091     0.2967     0.2921   113.8390     2.1827
  153.5000     7.0852     7.9820   -57.0009     9.4095     0.2992     0.2799   113.0390     2.1861
  154.0000     7.0896     7.9315   -57.2859     9.4098     0.2992     0.2721   113.0459     2.2005
  154.5000     7.0939     7.8273   -57.4478     9.4101     0.2992     0.2672   113.2712     2.2162
  155.0000     7.0981     7.7193   -57.7075     9.4103     0.2992     0.2672   114.2813     2.2123
  155.5000     7.0538     7.6139   -58.1407     9.4106     0.2993     0.2611   114.7385     2.2010
  156.0000     7.0582     7.4722   -58.5711     9.4413     0.2993     0.2551   113.4985     2.2344
  156.5000     7.1113     7.4240   -58.7106     9.4112     0.2993     0.2587   112.1602     2.2367
  157.0000     7.1157     7.3274   -58.6962     9.4116     0.2993     0.2625   111.5546     2.2314
  157.5000     7.1201     7.2801   -58.6846     9.4119     0.2993     0.2653   110.6431     2.2299
  158.0000     7.1300     7.2351   -58.5247     9.4122     0.2993     0.2570   110.3432     2.2314
  158.5000     7.1446     7.2386   -58.2166     9.4125     0.2994     0.2523   110.6550     2.2375
  159.0000     7.1593     7.2429   -58.0547     9.4128     0.2994     0.2498   110.3551     2.2437
  159.5000     7.1739     7.2466   -57.7483     9.4131     0.2903     0.2442   110.3610     2.2534
  160.0000     7.1885     7.2723   -57.7341     9.4134     0.2450     0.2234   110.3670     2.2760
  160.5000     7.1960     7.3552   -57.7225     9.4137     0.2523     0.2157   111.6498     2.3021
  161.0000     7.2004     7.4100   -57.7109     9.4140     0.2786     0.2481   113.2385     2.3092
