~VERSION INFORMATION
 VERS.                2.0:   CWLS LOG ASCII STANDARD - VERSION 2.0
 WRAP.                 NO:   ONE LINE PER DEPTH STEP
~WELL INFORMATION
#MNEM.UNIT      DATA TYPE    INFORMATION
#----------   ------------   ------------------------------
 STRT.M         1049.9000:   START DEPTH
 STOP.M         2123.5000:   STOP DEPTH
 STEP.M            0.1000:   STEP LENGTH
 NULL.          -999.2500:   NO VALUE
 COMP. BROWN JOHN E&C INC:   COMPANY
 WELL. NAVAL PETROLEUM RESERVE 3 STX- #34-3:   WELL
 FLD .            WILDCAT:   FIELD
 LOC .       S3 T38N R78W:   LOCATION
 CNTY.            NATRONA:   COUNTY
 STAT.            WYOMING:   STATE
 CTRY. UNITED STATES OF AMERICA:   COUNTRY
 SRVC.            Unknown:   SERVICE COMPANY
 DATE.        04-SEP-1991:   LOGDATE
 API .       490251090400:   API NUMBER
~CURVE INFORMATION
#MNEM.UNIT       API CODE    CURVE DESCRIPTION
#----------   ------------   ------------------------------
 DEPT.M                  :   
 ROP .MIN/FT 91 810 01 00:   RAT OF DRILLING PENETRATION
 TGAS.UNITS  91 830 01 00:   TOTAL GAS FROM HOTWIRE
~PARAMETER INFORMATION
#MNEM.UNIT          VALUE    DESCRIPTION
#----------   ------------   ------------------------------
 EKB .F              5189:   KELLING BUSHING
 EGL .F              5179:   GROUND LEVEL
 DATE.             9-4-91:   RUN DATE
 DD  .F              2123:   DEPTH DRILLER
 CS  .IN            9.625:   CASING SIZE
 BS  .IN             8.75:   BIT SIZE
 BSD .F              2123:   BIT SIZE AT DEPTH
 ENGI.              TOWER:   RECORDING ENGINEER
 WITN.               HUSK:   WITNESSED BY
 CLNT.            A2DTECH:   CLIENT CODE
 ORIG.           5" PRINT:   ORIGIN OF DATA
 UWI .       490251090400:   UNIQUE WELL ID
 DICO. A2D Technologies, Inc.:   DIGITIZING COMPANY
~OTHER INFORMATION
~A  DEPT       ROP         TGAS 
# ...
 1195.7000     0.4705    19.1258
 1195.8000     0.4792    18.9457
 1195.9000     0.4879    18.9484
 1196.0000     0.4966    18.8428
 1196.1000     0.5054    18.7401
 1196.2000     0.5141    18.7431
 1196.3000     0.5228    18.7466
 1196.4000     0.5316    18.7491
 1196.5000     0.5398    18.6572
 1196.6000     0.5234    18.5409
 1196.7000     0.5078    18.5438
 1196.8000     0.4921    18.3742
 1196.9000     0.4765    18.3356
 1197.0000     0.4623    18.2571
 1197.1000     0.4533    18.1273
 1197.2000     0.4443    18.1305
 1197.3000     0.4354    18.1333
 1197.4000     0.4264    18.1363
 1197.5000     0.4199    18.0714
 1197.6000     0.4176    17.9276
 1197.7000     0.4152    17.9314
 1197.8000     0.4129    17.9340
 1197.9000     0.4106    17.9370
 1198.0000     0.4070    17.9400
 1198.1000     0.4024    17.9430
 1198.2000     0.3979    17.9460
 1198.3000     0.3933    17.9490
 1198.4000     0.3888    17.9520
 1198.5000     0.3874    17.9550
 1198.6000     0.3872    17.9581
 1198.7000     0.3871    17.7973
 1198.8000     0.3870    17.7497
 1198.9000     0.3868    17.7527
 1199.0000     0.3867    17.7557
 1199.1000     0.3866    17.7590
 1199.2000     0.3865    17.7617
 1199.3000     0.3863    17.7647
 1199.4000     0.3862    17.7087
 1199.5000     0.3861    17.5562
 1199.6000     0.3860    17.5600
 1199.7000     0.3858    17.5624
 1199.8000     0.3857    17.4742
 1199.9000     0.3856    17.3541
 1200.0000     0.3854    17.3571
 1200.1000     0.3853    17.3177
 1200.2000     0.3852    17.2783
 1200.3000     0.3851    17.2388
 1200.4000     0.3849    17.1994
 1200.5000     0.3848    17.1600
 1200.6000     0.3847    17.1506
 1200.7000     0.3845    17.1519
 1200.8000     0.3844    17.1531
 1200.9000     0.3855    17.1544
 1201.0000     0.3876    17.1559
 1201.1000     0.3896    17.1570
 1201.2000     0.3917    17.1583
 1201.3000     0.3938    17.0803
 1201.4000     0.3943    16.9466
 1201.5000     0.3942    16.9479
 1201.6000     0.3941    16.9494
 1201.7000     0.3940    16.9504
 1201.8000     0.3938    16.9517
 1201.9000     0.3976    16.9530
 1202.0000     0.4019    16.9257
 1202.1000     0.4062    16.7414
 1202.2000     0.4105    16.7426
 1202.3000     0.4147    16.7439
 1202.4000     0.4168    16.6537
 1202.5000     0.4189    16.4787
 1202.6000     0.4209    16.3190
 1202.7000     0.4230    16.3206
 1202.8000     0.4256    16.1675
 1202.9000     0.4299    16.1087
 1203.0000     0.4342    16.0314
 1203.1000     0.4385    15.8970
 1203.2000     0.4428    15.8954
 1203.3000     0.4462    15.6855
 1203.4000     0.4483    15.6866
 1203.5000     0.4504    15.5843
 1203.6000     0.4525    15.4091
 1203.7000     0.4546    15.2617
 1203.8000     0.4579    15.2632
 1203.9000     0.4622    15.2644
 1204.0000     0.4665    15.1371
 1204.1000     0.4708    15.0527
 1204.2000     0.4751    15.0540
 1204.3000     0.4697    15.0553
 1204.4000     0.4601    15.0567
 1204.5000     0.4517    15.0579
 1204.6000     0.4540    15.0591
 1204.7000     0.4561    15.0604
 1204.8000     0.4581    15.0617
 1204.9000     0.4601    15.0630
 1205.0000     0.4615    14.8857
 1205.1000     0.4613    14.8513
 1205.2000     0.4611    14.8526
 1205.3000     0.4609    14.8539
 1205.4000     0.4607    14.8551
 1205.5000     0.4605    14.8565
 1205.6000     0.4603    14.6921
 1205.7000     0.4601    14.6447
 1205.8000     0.4599    14.6460
 1205.9000     0.4597    14.5952
 1206.0000     0.4611    14.4342
 1206.1000     0.4631    14.4357
 1206.2000     0.4652    14.4369
 1206.3000     0.4672    14.4381
 1206.4000     0.4694    14.3622
 1206.5000     0.4693    14.2264
 1206.6000     0.4691    14.2277
 1206.7000     0.4689    14.2290
 1206.8000     0.4687    14.2303
 1206.9000     0.4689    14.1294
 1207.0000     0.4732    14.0186
 1207.1000     0.4774    14.0199
 1207.2000     0.4817    14.0212
 1207.3000     0.4859    13.8575
 1207.4000     0.4896    13.8094
 1207.5000     0.4916    13.7213
 1207.6000     0.4936    13.5977
 1207.7000     0.4957    13.5990
 1207.8000     0.4977    13.6005
 1207.9000     0.4998    13.6016
 1208.0000     0.5018    13.6029
 1208.1000     0.5038    13.6041
 1208.2000     0.5059    13.6054
 1208.3000     0.5079    13.6067
 1208.4000     0.5084    13.4310
 1208.5000     0.5082    13.3950
 1208.6000     0.5081    13.3963
 1208.7000     0.5079    13.3976
 1208.8000     0.5076    13.3989
 1208.9000     0.5075    13.4002
 1209.0000     0.5073    13.4014
 1209.1000     0.5071    13.2763
 1209.2000     0.5069    13.1897
 1209.3000     0.5063    13.1910
 1209.4000     0.4971    13.1923
 1209.5000     0.4880    13.1938
 1209.6000     0.4789    13.0434
 1209.7000     0.4698    12.9819
 1209.8000     0.4624    12.9831
 1209.9000     0.4600    12.9466
 1210.0000     0.4575    12.7714
 1210.1000     0.4551    12.7727
 1210.2000     0.4527    12.7740
 1210.3000     0.4503    12.7753
 1210.4000     0.4479    12.7766
 1210.5000     0.4454    12.7529
 1210.6000     0.4430    12.5650
 1210.7000     0.4406    12.5661
 1210.8000     0.4396    12.5674
 1210.9000     0.4394    12.5687
 1211.0000     0.4392    12.5700
 1211.1000     0.4390    12.5713
 1211.2000     0.4388    12.5728
 1211.3000     0.4386    12.5739
 1211.4000     0.4384    12.5751
 1211.5000     0.4382    12.5014
 1211.6000     0.4380    12.3634
 1211.7000     0.4378    12.3647
 1211.8000     0.4376    12.3660
 1211.9000     0.4375    12.2294
 1212.0000     0.4373    12.0542
 1212.1000     0.4398    11.9413
 1212.2000     0.4463    11.9426
 1212.3000     0.4528    11.9440
 1212.4000     0.4593    11.9451
 1212.5000     0.4657    11.9464
 1212.6000     0.4722    11.9477
 1212.7000     0.4787    11.9490
 1212.8000     0.4852    11.9390
 1212.9000     0.4917    11.7375
 1213.0000     0.4982    11.7386
 1213.1000     0.5047    11.7399
 1213.2000     0.5112    11.7411
 1213.3000     0.5176    11.7424
 1213.4000     0.5241    11.7437
 1213.5000     0.5307    11.7450
 1213.6000     0.5371    11.7463
 1213.7000     0.5436    11.7476
 1213.8000     0.5501    11.7489
 1213.9000     0.5566    11.7267
 1214.0000     0.5631    11.5372
 1214.1000     0.5695    11.5384
 1214.2000     0.5760    11.5397
 1214.3000     0.5825    11.5410
 1214.4000     0.5890    11.4937
 1214.5000     0.5947    11.3292
 1214.6000     0.5989    11.3308
 1214.7000     0.6032    11.3319
 1214.8000     0.6075    11.2217
 1214.9000     0.6117    11.1201
 1215.0000     0.6185    11.1214
 1215.1000     0.6272    11.1227
 1215.2000     0.6359    11.1240
 1215.3000     0.6446    11.1253
 1215.4000     0.6533    11.1266
 1215.5000     0.6570    11.1279
 1215.6000     0.6591    11.1291
 1215.7000     0.6611    11.1305
 1215.8000     0.6631    11.1317
 1215.9000     0.6653    11.0094
 1216.0000     0.6720    10.9200
 1216.1000     0.6791    10.9213
 1216.2000     0.6862    10.9226
 1216.3000     0.6933    10.9241
 1216.4000     0.6917    10.9251
 1216.5000     0.6825    10.9264
 1216.6000     0.6734    10.9277
 1216.7000     0.6643    10.9290
 1216.8000     0.6552    10.9303
 1216.9000     0.6461    10.9316
 1217.0000     0.6370    10.9329
 1217.1000     0.6279    10.9341
 1217.2000     0.6188    10.9354
 1217.3000     0.6090    10.9367
 1217.4000     0.6048    10.9381
 1217.5000     0.6001    10.9393
 1217.6000     0.5955    10.9406
 1217.7000     0.5908    10.9419
 1217.8000     0.5862    10.9431
 1217.9000     0.5815    10.9444
 1218.0000     0.5769    10.9459
 1218.1000     0.5722    10.9470
 1218.2000     0.5676    10.9483
 1218.3000     0.5643    10.9496
 1218.4000     0.5641    10.9509
 1218.5000     0.5639    10.9522
 1218.6000     0.5637    10.9534
 1218.7000     0.5635    10.9547
 1218.8000     0.5633    10.9560
 1218.9000     0.5631    10.9573
 1219.0000     0.5630    10.9586
 1219.1000     0.5628    10.9600
 1219.2000     0.5626    10.9611
 1219.3000     0.5639    10.9624
 1219.4000     0.5660    10.9637
 1219.5000     0.5680    10.9650
 1219.6000     0.5700    10.9663
 1219.7000     0.5723    10.9678
 1219.8000     0.5780    10.9689
 1219.9000     0.5845    10.8609
