~VERSION INFORMATION
 VERS.                2.0:   CWLS LOG ASCII STANDARD - VERSION 2.0
 WRAP.                 NO:   ONE LINE PER DEPTH STEP
~WELL INFORMATION
#MNEM.UNIT      DATA TYPE    INFORMATION
#----------   ------------   ------------------------------
 STRT.F           34.0000:   START DEPTH
 STOP.F          638.0000:   STOP DEPTH
 STEP.F            0.5000:   STEP LENGTH
 NULL.          -999.2500:   NO VALUE
 COMP. FENIX & SCISSON INC:   COMPANY
 WELL. S N.P.R. #3 #33-34:   WELL
 FLD .             TEAPOT:   FIELD
 LOC .      S34 T39N R78W:   LOCATION
 CNTY.            NATRONA:   COUNTY
 STAT.            WYOMING:   STATE
 CTRY. UNITED STATES OF AMERICA:   COUNTRY
 SRVC.       Schlumberger:   SERVICE COMPANY
 DATE.        18-MAR-1977:   LOGDATE
 API .       490251030400:   API NUMBER
~CURVE INFORMATION
#MNEM.UNIT       API CODE    CURVE DESCRIPTION
#----------   ------------   ------------------------------
 DEPT.F                  :   
 LL8 .OHMM   07 220 08 00:   LATEROLOG-8 RES.
 ILD .OHMM   07 120 46 00:   INDUCTION LOG DEEP
 ILM .OHMM   07 120 44 00:   INDUCTION LOG MEDIUM
 SPR .MV     07 010 01 00:   SPONTANEOUS POTENTIAL
 GRD .GAPI   45 310 01 00:   GAMMA RAY FROM DENSITY LOG
 CALD.IN     45 280 60 00:   CALIPER FROM DENSITY LOG
 RHOB.G/C3   45 350 01 00:   BULK DENSITY
 CORR.G/C3   45 356 01 00:   DENSITY CORRECTION
 DPHI.DEC    45 890 12 00:   DENSITY POROSITY SANDSTONE
~PARAMETER INFORMATION
#MNEM.UNIT          VALUE    DESCRIPTION
#----------   ------------   ------------------------------
 PD  .                 GL:   PERMANENT DATUM
 EPD .F              5081:   ELEVATION PERMANENT DATUM
 LMF .                 KB:   LOG MEASURED FROM
 DAPD.F                 5:   FEET ABOVE PERMANENT DATUM
 DMF .                 KB:   DRILLING MEASURED FROM
 EKB .F              5086:   KELLING BUSHING
 EGL .F              5081:   GROUND LEVEL
 DATE.            3-18-77:   RUN DATE
 RUN .                  1:   RUN NUMBER
 DD  .F               631:   DEPTH DRILLER
 DL  .F               637:   DEPTH LOGGER
 BLI .F               631:   BOTTOM LOG INTERVAL
 TLI .F                45:   TOP LOG INTERVAL
 CS  .IN            8.625:   CASING SIZE
 CBD .F                40:   CASING BOTTOM DRILLER
 CBL .F                45:   CASING BOTTOM LOGGER
 BS  .IN            7.875:   BIT SIZE
 BSD .F               631:   BIT SIZE AT DEPTH
 DFT .            KCL MUD:   DRILLING FLUID TYPE
 DFD .                8.7:   DRILLING FLUID DENSITY
 DFV .                 31:   DRILLING FLUID VISCOSITY
 DFPH.                  8:   DRILLING FLUID PH
 DFL .                8.2:   DRILLING FLUID LOSS
 MSS .                PIT:   MUD SAMPLE SOURCE
 RMS .OHMM            .27:   RESISTIVITY MUD SAMPLE
 MST .F                60:   MUD SAMPLE TEMPERATURE
 RMF .OHMM            .25:   RESISTIVITY MUD FILTRATE SAMPLE
 MFST.F                60:   MUD FILTRATE SAMPLE TEMPERATURE
 MFSS.                  M:   MUD FILTRATE SAMPLE SOURCE
 TCS .HRS            0400:   TIME CURCULATED STOPPED
 TLAB.HRS            0530:   TIME LOGGER AT BOTTOM
 LUN .               7711:   LOGGING UNIT NUMBER
 LUL .               CSPR:   LOGGING UNIT LOCATION
 ENGI.             SAYLER:   RECORDING ENGINEER
 WITN.         STUEBINGER:   WITNESSED BY
 CLNT.            A2DTECH:   CLIENT CODE
 ORIG.        2" 5" PRINT:   ORIGIN OF DATA
 UWI .       490251030400:   UNIQUE WELL ID
 DICO. A2D Technologies, Inc.:   DIGITIZING COMPANY
~OTHER INFORMATION
~A   DEPT      LL8        ILD        ILM        SPR         GRD      CALD       RHOB       CORR       DPHI   
   34.0000  -999.2500  -999.2500  -999.2500  -999.2500    91.4513  -999.2500  -999.2500  -999.2500  -999.2500
   34.5000  -999.2500  -999.2500  -999.2500  -999.2500    91.1311  -999.2500  -999.2500  -999.2500  -999.2500
   35.0000  -999.2500  -999.2500  -999.2500  -999.2500    90.5156  -999.2500  -999.2500  -999.2500  -999.2500
   35.5000  -999.2500  -999.2500  -999.2500  -999.2500    89.9844  -999.2500  -999.2500  -999.2500  -999.2500
   36.0000  -999.2500  -999.2500  -999.2500  -999.2500    67.4912  -999.2500  -999.2500  -999.2500  -999.2500
   36.5000  -999.2500  -999.2500  -999.2500  -999.2500    58.6206  -999.2500  -999.2500  -999.2500  -999.2500
   37.0000  -999.2500  -999.2500  -999.2500  -999.2500    57.7406  -999.2500  -999.2500  -999.2500  -999.2500
   37.5000  -999.2500  -999.2500  -999.2500  -999.2500    57.8159  -999.2500  -999.2500  -999.2500  -999.2500
   38.0000  -999.2500  -999.2500  -999.2500  -999.2500    57.0020  -999.2500  -999.2500  -999.2500  -999.2500
   38.5000  -999.2500  -999.2500  -999.2500  -999.2500    56.0114  -999.2500  -999.2500  -999.2500  -999.2500
   39.0000  -999.2500  -999.2500  -999.2500  -999.2500    55.0229  -999.2500  -999.2500  -999.2500  -999.2500
   39.5000  -999.2500  -999.2500  -999.2500  -999.2500    54.0327  -999.2500  -999.2500  -999.2500  -999.2500
   40.0000  -999.2500  -999.2500  -999.2500  -999.2500    53.4624  -999.2500  -999.2500  -999.2500  -999.2500
   40.5000  -999.2500  -999.2500  -999.2500  -999.2500    53.9201  -999.2500  -999.2500  -999.2500  -999.2500
   41.0000  -999.2500  -999.2500  -999.2500  -999.2500    55.1941  -999.2500  -999.2500  -999.2500  -999.2500
   41.5000  -999.2500  -999.2500  -999.2500  -999.2500    56.0555  -999.2500  -999.2500  -999.2500  -999.2500
   42.0000  -999.2500  -999.2500  -999.2500  -999.2500    56.6875  -999.2500  -999.2500  -999.2500  -999.2500
   42.5000  -999.2500  -999.2500  -999.2500  -999.2500    57.2811  -999.2500  -999.2500  -999.2500  -999.2500
   43.0000  -999.2500  -999.2500  -999.2500  -999.2500    59.7246  -999.2500  -999.2500  -999.2500  -999.2500
   43.5000  -999.2500  -999.2500  -999.2500  -999.2500    62.6448  -999.2500  -999.2500  -999.2500  -999.2500
   44.0000  -999.2500  -999.2500  -999.2500  -999.2500    67.1278     8.2952  -999.2500  -999.2500  -999.2500
   44.5000  -999.2500  -999.2500  -999.2500  -999.2500    71.7150     8.4943     2.0343  -999.2500  -999.2500
   45.0000     2.9934     1.7826     2.0164   -32.0861    76.2888     8.8036     2.2125     0.1135     0.1770
   45.5000     2.9389     1.4136     1.9595   -36.9123    80.5521     9.0484     2.2888     0.0515     0.1782
   46.0000     2.9120     1.2391     1.8774   -41.0153    82.5875     9.2422     2.2899     0.0367     0.2135
   46.5000     3.0324     1.4256     1.7796   -41.8383    84.1319     9.1605     2.2697     0.0324     0.2354
   47.0000     3.1234     1.5792     1.7845   -42.7572    85.0730     9.0850     2.2586     0.0267     0.2386
   47.5000     3.2814     1.8626     1.7098   -43.7425    84.9796     9.0732     2.2438     0.0207     0.2473
   48.0000     3.2200     2.5605     1.9162   -44.6504    84.9371     9.2052     2.2282     0.0164     0.2559
   48.5000     3.1341     2.3148     2.0987   -45.4119    85.4244     9.1816     2.2126     0.0165     0.2645
   49.0000     2.7253     1.9566     2.1811   -45.6949    86.4843     9.1730     2.1965     0.0210     0.2732
   49.5000     2.2444     1.9259     2.2240   -45.1869    87.5925     9.2224     2.1858     0.0290     0.2818
   50.0000     2.4313     1.9931     2.2722   -45.1805    88.4451     9.2659     2.1763     0.0371     0.2905
   50.5000     3.1682     2.0699     2.6008   -45.0518    89.2546     9.2699     2.1672     0.0451     0.2992
   51.0000     4.1270     2.1493     3.0219   -44.9370    89.6529     9.2367     2.1617     0.0543     0.3027
   51.5000     4.9616     2.3465     3.5643   -44.8247    88.2198     9.1386     2.2304     0.0261     0.2753
   52.0000     4.7027     2.6932     3.6087   -44.7112    85.7426     9.0163     2.2840     0.0164     0.2336
   52.5000     4.3561     3.0912     3.6471   -44.5976    83.4781     8.8976     2.3377     0.0210     0.1919
   53.0000     4.0350     3.5480     3.6862   -44.4855    83.8367     8.7790     2.3662     0.0225     0.1712
   53.5000     3.9131     3.7663     3.7668   -44.4195    85.6712     8.6867     2.3651     0.0240     0.1734
   54.0000     3.8702     3.6678     3.6442   -44.4919    87.8698     8.6654     2.3598     0.0249     0.1758
   54.5000     3.8277     3.5614     3.5125   -44.5603    88.1535     8.6434     2.3529     0.0228     0.1802
   55.0000     3.7857     3.4580     3.3856   -44.6283    88.3711     8.6212     2.3479     0.0208     0.1842
   55.5000     3.7442     3.3577     3.2634   -44.6973    89.7908     8.6119     2.3447     0.0187     0.1867
   56.0000     3.6377     3.2602     3.1459   -44.7664    91.6847     8.6083     2.3405     0.0167     0.1895
   56.5000     3.5074     3.1656     3.0321   -44.9728    93.5811     8.6048     2.3337     0.0190     0.1920
   57.0000     3.3815     3.0738     2.9120   -45.3334    94.4179     8.6013     2.3254     0.0226     0.1959
   57.5000     3.2603     2.9934     2.8134   -45.6933    95.0785     8.5977     2.3170     0.0140     0.2028
   58.0000     3.1434     2.8141     2.6697   -46.0540    95.7372     8.5947     2.3083     0.0114     0.2097
   58.5000     3.0309     2.6604     2.5181   -46.4146    96.4106     8.5986     2.2961     0.0110     0.2167
   59.0000     2.9226     2.5152     2.3751   -46.7751    96.2829     8.6026     2.2839     0.0106     0.2236
   59.5000     2.8077     2.3778     2.2402   -47.1356    95.8116     8.6066     2.2717     0.0105     0.2305
   60.0000     2.6023     2.2480     2.1504   -47.4962    96.3940     8.6106     2.2595     0.0105     0.2374
   60.5000     2.3918     2.1902     2.2806   -47.8571    96.6265     8.6145     2.2477     0.0124     0.2444
   61.0000     2.1986     2.3098     2.5026   -48.2170    94.1727     8.6185     2.2402     0.0241     0.2508
   61.5000     2.0728     2.4504     2.7944   -48.5770    92.0407     8.6225     2.2384     0.0390     0.2524
   62.0000     2.6307     2.5995     3.1200   -48.7629    92.0370     8.6265     2.2566     0.0507     0.2516
   62.5000     3.4283     2.7577     3.4828   -48.4593    90.9100     8.6305     2.2908     0.0459     0.2317
   63.0000     4.4678     3.0176     3.8875   -48.1560    87.9209     8.6339     2.3251     0.0243     0.2041
   63.5000     5.1003     3.3462     4.3392   -47.8546    84.9562     8.6293     2.3563     0.0195     0.1766
   64.0000     4.8735     3.7098     4.5868   -47.5551    83.3434     8.6245     2.3872     0.0220     0.1556
   64.5000     4.6955     4.1123     4.7380   -47.3721    84.7018     8.6198     2.3990     0.0311     0.1540
   65.0000     4.8104     4.6067     4.8918   -47.3415    86.0438     8.6150     2.3990     0.0355     0.1536
   65.5000     4.9173     4.7082     5.0514   -47.3104    86.9375     8.6141     2.3940     0.0320     0.1560
   66.0000     5.0265     4.8241     5.2167   -47.2806    86.4039     8.5994     2.3889     0.0237     0.1582
   66.5000     5.1381     4.9415     5.3873   -47.2505    87.0647     8.5647     2.3886     0.0231     0.1553
   67.0000     5.2999     5.0608     5.5979   -47.2207    87.6555     8.5302     2.3998     0.0304     0.1504
   67.5000     5.5162     5.2101     5.8321   -47.1945    87.5505     8.4957     2.4109     0.0312     0.1455
   68.0000     5.7414     5.4299     6.0761   -47.0716    87.4224     8.4612     2.4069     0.0265     0.1471
   68.5000     5.9757     5.6578     6.3305   -46.9358    87.2951     8.4370     2.4164     0.0218     0.1449
   69.0000     6.2199     5.8952     6.5956   -46.7986    87.1745     8.4149     2.4291     0.0234     0.1366
   69.5000     6.4750     6.1425     6.8751   -46.6615    87.2714     8.3929     2.4414     0.0276     0.1283
   70.0000     6.7499     6.4003     6.9728   -46.5241    88.2889     8.3747     2.4440     0.0244     0.1222
