~VERSION INFORMATION
 VERS.                2.0:   CWLS LOG ASCII STANDARD - VERSION 2.0
 WRAP.                 NO:   ONE LINE PER DEPTH STEP
~WELL INFORMATION
#MNEM.UNIT      DATA TYPE    INFORMATION
#----------   ------------   ------------------------------
 STRT.F           80.0000:   START DEPTH
 STOP.F          744.0000:   STOP DEPTH
 STEP.F            0.5000:   STEP LENGTH
 NULL.          -999.2500:   NO VALUE
 COMP.               NAVY:   COMPANY
 WELL. RES 3 TEAPOT DOM #44-S-11:   WELL
 FLD .             TEAPOT:   FIELD
 LOC .      S11 T38N R78W:   LOCATION
 CNTY.            NATRONA:   COUNTY
 STAT.            WYOMING:   STATE
 CTRY. UNITED STATES OF AMERICA:   COUNTRY
 SRVC.       Schlumberger:   SERVICE COMPANY
 DATE.        09-JUL-1962:   LOGDATE
 API .       490250634600:   API NUMBER
~CURVE INFORMATION
#MNEM.UNIT       API CODE    CURVE DESCRIPTION
#----------   ------------   ------------------------------
 DEPT.F                  :   
 SPR .MV     05 010 01 00:   SPONTANEOUS POTENTIAL FROM RES.
 ASN .OHMM   05 041 16 00:   AMPLIFIED SHORT NORMAL 16"
 ILD .OHMM   05 120 46 00:   INDUCTION LOG DEEP
 CILD.MMHO   05 110 46 00:   CONDUCTIVITY INDUCTION LOG DEEP
 GR  .GAPI   30 310 01 00:   GAMMA RAY
~PARAMETER INFORMATION
#MNEM.UNIT          VALUE    DESCRIPTION
#----------   ------------   ------------------------------
 PD  .                 KB:   PERMANENT DATUM
 EPD .F              5182:   ELEVATION PERMANENT DATUM
 EKB .F              5182:   KELLING BUSHING
 EGL .F              5177:   GROUND LEVEL
 DATE.        09-JUL-1962:   RUN DATE
 RUN .                  1:   RUN NUMBER
 DD  .F               745:   DEPTH DRILLER
 DL  .F               745:   DEPTH LOGGER
 BLI .F               744:   BOTTOM LOG INTERVAL
 TLI .F                90:   TOP LOG INTERVAL
 BS  .IN             6.75:   BIT SIZE
 BSD .F               745:   BIT SIZE AT DEPTH
 DFT .           OIL EMUL:   DRILLING FLUID TYPE
 DFD .               10.3:   DRILLING FLUID DENSITY
 DFV .                 50:   DRILLING FLUID VISCOSITY
 DFL .                3.4:   DRILLING FLUID LOSS
 RMS .OHMM            7.0:   RESISTIVITY MUD SAMPLE
 MST .F                73:   MUD SAMPLE TEMPERATURE
 RMF .OHMM            4.5:   RESISTIVITY MUD FILTRATE SAMPLE
 MFST.F                73:   MUD FILTRATE SAMPLE TEMPERATURE
 RMC .OHMM           13.5:   RESISTIVITY MUD CAKE
 MCST.F                73:   MUD CAKE SAMPLE TEMPERATURE
 MFSS.               MEAS:   MUD FILTRATE SAMPLE SOURCE
 MCSS.               MEAS:   MUD CAKE SAMPLE SOURCE
 TCS .HRS            0030:   TIME CURCULATED STOPPED
 LUN .               2503:   LOGGING UNIT NUMBER
 LUL .               CSPR:   LOGGING UNIT LOCATION
 ENGI.           ELLERMAN:   RECORDING ENGINEER
 WITN.          JORGENSON:   WITNESSED BY
 CLNT.            A2DTECH:   CLIENT CODE
 ORIG.           5" PRINT:   ORIGIN OF DATA
 UWI .       490250634600:   UNIQUE WELL ID
 DICO. A2D Technologies, Inc.:   DIGITIZING COMPANY
~OTHER INFORMATION
~A   DEPT      SPR        ASN        ILD       CILD         GR   
# ...
  507.0000   -55.1597     6.3976     6.4609   179.9085    83.4211
  507.5000   -55.0164     6.6680     6.8358   173.2782    69.7472
  508.0000   -53.5011     6.8489     6.9830   166.6479    74.7447
  508.5000   -53.0505     6.9541     7.0555   160.0176    82.1634
  509.0000   -53.0619     7.0744     7.1268   153.3873    98.2383
  509.5000   -53.0710     7.3159     7.1981   146.7570    93.8243
  510.0000   -52.9253     7.4514     7.2695   140.6978   101.5465
  510.5000   -52.9367     7.4659     7.4156   137.7097   110.1825
  511.0000   -52.9457     7.4799     7.4111   135.4780   115.3284
  511.5000   -53.1072     7.5850     7.4825   134.0015   125.0300
  512.0000   -53.2687     7.7357     7.5538   132.5265   110.9009
  512.5000   -53.5827     7.7651     7.5492   131.0522   109.3169
  513.0000   -53.8966     7.8248     7.5447   130.3328    98.4309
  513.5000   -54.0582     7.9299     7.6160   130.0758    95.6860
  514.0000   -54.0672     7.9899     7.6874   129.8143   100.7061
  514.5000   -54.2287     8.0496     7.6829   129.5527   104.6121
  515.0000   -54.2378     8.0638     7.7542   129.2912   102.3225
  515.5000   -54.2470     8.1233     7.7496   129.0297   101.0917
  516.0000   -54.2561     8.1527     7.7451   128.7682   103.2027
  516.5000   -54.2652     8.1972     7.8165   128.5066   109.4108
  517.0000   -54.1216     8.2266     7.8118   128.2451   111.6769
  517.5000   -54.1311     8.2864     7.8073   127.9836   106.9560
  518.0000   -53.9874     8.2703     7.8027   127.6900    90.4023
  518.5000   -53.9987     8.2542     7.7973   128.4840    84.1707
  519.0000   -54.1602     8.2846     7.7927   129.2780    94.9278
  519.5000   -54.4741     8.3434     7.7890   130.8285   111.7581
  520.0000   -54.6357     8.2950     7.7837   132.3790   113.7380
  520.5000   -54.7972     8.1368     7.7792   132.4166   100.3503
  521.0000   -54.6515     7.9768     7.6988   132.4542   101.8543
  521.5000   -54.5082     7.9153     7.6184   132.4918   102.9202
  522.0000   -54.2124     7.8386     7.6138   131.7635   104.4071
  522.5000   -53.9165     7.7468     7.5334   131.0447   105.0835
  523.0000   -53.7754     7.6247     7.4530   129.5788   101.9489
  523.5000   -53.7845     7.5480     7.2968   130.3729    97.9901
  524.0000   -53.9460     7.4562     7.2164   132.6798   100.2528
  524.5000   -54.4124     7.3038     6.9842   136.4995   120.5732
  525.0000   -54.7264     7.0908     6.8280   140.3193   127.9953
  525.5000   -55.4976     6.7566     6.5199   144.8954   133.4480
  526.0000   -54.8969     6.2405     6.1361   150.9845   115.9805
  526.5000   -53.8389     5.9669     5.8280   169.2917    99.4135
  527.0000   -53.3884     5.5417     5.3683   194.1689    89.0959
  527.5000   -54.4668     5.2530     4.8326   222.3578    93.1796
  528.0000   -54.7808     4.9339     4.3729   263.7154   100.1430
  528.5000   -54.7899     4.5542     3.9131   311.9708    90.7214
  529.0000   -54.6463     4.1593     3.4534   360.1276    89.1939
  529.5000   -54.0458     3.7948     3.0695   388.6691    90.9980
  530.0000   -53.4451     3.5363     2.8373   417.2107    94.6264
  530.5000   -51.6146     3.4597     2.7569   445.7523    92.1851
  531.0000   -51.3192     3.3679     2.6765   463.7722    88.9850
  531.5000   -51.0333     3.1548     2.8996   465.3133    80.9302
  532.0000   -51.2356     3.0630     3.1227   442.2388    70.1428
  532.5000   -52.2714     3.1712     3.3458   407.6088    85.2222
  533.0000   -52.2823     3.5051     3.5690   349.6986    81.2349
  533.5000   -52.2914     4.0848     3.8680   307.8259    88.1568
  534.0000   -53.5200     4.3043     4.2427   265.7214    94.8201
  534.5000   -54.1388     4.5128     4.6175   240.3438    91.6200
  535.0000   -54.7576     5.2089     5.0682   214.9662    84.4746
  535.5000   -55.3764     5.6929     5.5190   189.5235    87.1959
  536.0000   -55.2331     5.8738     6.0465   180.4454    81.7196
  536.5000   -54.9350     5.8883     6.1928   167.5802    91.8731
  537.0000   -54.1841     5.9025     6.1881   162.4049    84.1173
  537.5000   -53.4310     5.9468     6.1014   162.5064    92.2981
  538.0000   -53.4401     6.0520     5.9434   169.5298    91.5371
  538.5000   -53.4492     6.1271     5.6335   178.6993    96.8236
  539.0000   -53.4582     6.1260     5.3996   188.7377   112.2881
  539.5000   -53.4673     6.0038     5.0898   198.5471   102.8612
  540.0000   -53.6288     5.7605     4.9460   209.5385   113.8491
  540.5000   -53.6379     5.3202     4.8656   217.8969   112.1291
  541.0000   -53.6469     5.3953     4.8611   226.2552   107.8304
  541.5000   -53.6560     5.2578     4.8565   233.1007   105.3890
  542.0000   -53.8175     5.0145     4.8520   235.4075   108.1070
  542.5000   -53.9790     5.0439     4.8475   234.6887   115.5302
  543.0000   -53.8357     5.2854     4.9188   229.4313   109.9021
  543.5000   -53.6921     5.4512     5.0660   222.3315   118.3864
  544.0000   -53.7021     5.4048     5.2891   211.5164   120.4592
  544.5000   -53.7104     5.4645     5.4364   200.7013   105.4612
  545.0000   -53.7195     5.7970     5.5847   189.8862   115.0077
  545.5000   -53.7287     6.1750     5.8825   178.9354   100.8808
  546.0000   -53.7379     6.3582     6.1815   170.6523   103.9023
  546.5000   -53.7469     6.6019     6.4046   163.1256   110.8691
  547.0000   -53.7561     6.9889     6.7036   154.8425   110.5522
  547.5000   -53.7653     7.2713     7.0784   147.3158    98.2474
  548.0000   -53.7762     7.4459     7.3774   142.0584   101.3661
  548.5000   -53.7853     7.5480     7.5257   137.5574   113.1344
  549.0000   -53.6419     7.5926     7.4442   133.0564   110.0432
  549.5000   -52.8888     7.5765     7.2879   131.5810   125.2042
  550.0000   -50.4588     7.5520     7.1316   133.1316   113.6582
  550.5000   -48.1813     7.4379     7.0512   135.9312   112.1239
  551.0000   -48.0357     7.2850     6.8191   139.6957   104.2197
  551.5000   -47.7421     7.1928     6.6628   143.9063   117.4081
  552.0000   -47.7512     7.1157     6.5066   148.1169   123.3161
  552.5000   -47.6056     7.0082     6.3503   152.3275   121.3266
  553.0000   -47.6169     6.8554     6.1940   156.5381   108.8701
  553.5000   -47.4413     6.7479     6.0377   160.7487   121.7549
  554.0000   -46.9885     6.6405     5.8056   164.9593   122.3128
  554.5000   -47.1455     6.4725     5.6493   173.7689   113.9891
  555.0000   -47.3014     6.2893     5.3413   186.6883   119.4384
  555.5000   -46.5438     6.0607     5.0333   202.6335   102.2547
  556.0000   -47.0068     5.7714     4.6494   221.6044   109.2726
  556.5000   -47.1638     5.4367     4.5582   229.2289   107.2585
  557.0000   -46.7111     5.1021     4.5529   233.8276   121.2022
  557.5000   -45.6486     5.1158     4.5476   232.3625   112.0852
  558.0000   -45.1958     5.3721     4.5423   228.6239   109.0402
  558.5000   -45.0468     5.2192     4.6900   224.1275   112.9688
  559.0000   -45.9672     5.3693     4.9869   218.8109   108.8582
  559.5000   -47.0388     5.6862     5.3609   210.8869   111.7279
  560.0000   -47.3482     6.2757     5.7350   190.7288   105.3313
  560.5000   -47.5053     6.5774     6.1090   170.5707   108.5144
  561.0000   -47.5098     6.8336     6.4072   153.3760   100.7620
  561.5000   -47.6668     6.9534     6.7054   146.6283   109.2048
  562.0000   -47.8238     7.1188     6.7773   141.3934   124.7074
  562.5000   -47.8284     7.1932     6.7706   142.2100   115.5893
  563.0000   -47.8330     7.2979     6.7653   143.7831   109.6578
  563.5000   -47.8375     7.3723     6.8372   143.0868   106.7645
  564.0000   -47.8421     7.4770     6.8306   140.8775   114.3350
  564.5000   -47.8467     7.5362     6.9024   138.6609   104.3064
  565.0000   -47.6984     7.6106     6.8968   136.4343    93.0638
  565.5000   -47.7027     7.6547     6.8905   135.0067    90.6224
  566.0000   -47.7080     7.6836     6.8852   135.0681    93.9474
  566.5000   -47.7121     7.7126     6.8798   135.9630   104.1009
  567.0000   -47.7171     7.7111     6.8745   137.5539    90.5821
  567.5000   -47.8734     7.6644     6.8702   138.3889    98.9146
