~VERSION INFORMATION
 VERS.                2.0:   CWLS LOG ASCII STANDARD - VERSION 2.0
 WRAP.                 NO:   ONE LINE PER DEPTH STEP
~WELL INFORMATION
#MNEM.UNIT      DATA TYPE    INFORMATION
#----------   ------------   ------------------------------
 STRT.F            0.0000:   START DEPTH
 STOP.F          520.0000:   STOP DEPTH
 STEP.F            0.5000:   STEP LENGTH
 NULL.          -999.2500:   NO VALUE
 COMP. LAWRENCE/ALLISON INC:   COMPANY
 WELL.   NPR #3 #67-13 SX:   WELL
 FLD .             TEAPOT:   FIELD
 LOC .       S3 T38N R78W:   LOCATION
 CNTY.            NATRONA:   COUNTY
 STAT.            WYOMING:   STATE
 CTRY. UNITED STATES OF AMERICA:   COUNTRY
 SRVC.           Gearhart:   SERVICE COMPANY
 DATE.        06-JUL-1988:   LOGDATE
 API .       490251123000:   API NUMBER
~CURVE INFORMATION
#MNEM.UNIT       API CODE    CURVE DESCRIPTION
#----------   ------------   ------------------------------
 DEPT.F                  :   
 GRR .GAPI   07 310 01 00:   GAMMA RAY FROM RES. LOG.
 RILD.OHMM   07 120 46 00:   INDUCTION LOG DEEP RESISTIVITY
 RILM.OHMM   07 120 44 00:   INDUCTION LOG MEDIUM RESISTIVITY
~PARAMETER INFORMATION
#MNEM.UNIT          VALUE    DESCRIPTION
#----------   ------------   ------------------------------
 PD  .                 GL:   PERMANENT DATUM
 EPD .F              5168:   ELEVATION PERMANENT DATUM
 LMF .                 KB:   LOG MEASURED FROM
 DAPD.F                10:   FEET ABOVE PERMANENT DATUM
 DMF .                 KB:   DRILLING MEASURED FROM
 EKB .F              5178:   KELLING BUSHING
 EGL .F              5168:   GROUND LEVEL
 DATE.             7-6-88:   RUN DATE
 RUN .                  1:   RUN NUMBER
 DD  .F               520:   DEPTH DRILLER
 DL  .F               524:   DEPTH LOGGER
 BLI .F             515.5:   BOTTOM LOG INTERVAL
 TLI .F                50:   TOP LOG INTERVAL
 CS  .IN            9.625:   CASING SIZE
 CBD .F                50:   CASING BOTTOM DRILLER
 CBL .F                50:   CASING BOTTOM LOGGER
 BS  .IN             8.75:   BIT SIZE
 BSD .F               520:   BIT SIZE AT DEPTH
 DFT .                AIR:   DRILLING FLUID TYPE
 TLAB.HRS            0015:   TIME LOGGER AT BOTTOM
 MRT .F                70:   MAXIMUM RECORDED TEMPERATURE
 LUN .               7597:   LOGGING UNIT NUMBER
 LUL .           GILLETTE:   LOGGING UNIT LOCATION
 ENGI.          HUCKFELDT:   RECORDING ENGINEER
 WITN.              FIVAS:   WITNESSED BY
 CLNT.            A2DTECH:   CLIENT CODE
 ORIG.       2", 5" PRINT:   ORIGIN OF DATA
 UWI .       490251123000:   UNIQUE WELL ID
 DICO. A2D Technologies, Inc.:   DIGITIZING COMPANY
~OTHER INFORMATION
~A    DEPT      GRR      RILD       RILM   
# ...
  182.0000   129.3724     5.5176     6.2223
  182.5000   129.8061     4.9483     5.9008
  183.0000   129.4319     4.4378     4.9533
  183.5000   128.9079     3.8627     4.3080
  184.0000   127.7581     3.5966     3.7663
  184.5000   125.7072     3.3319     3.2772
  185.0000   123.5555     3.0946     2.8632
  185.5000   121.4870     3.0449     2.6693
  186.0000   119.4639     3.0298     2.6693
  186.5000   117.1535     3.0161     2.6448
  187.0000   116.0058     3.1863     2.7698
  187.5000   116.8331     3.4309     2.9035
  188.0000   120.7988     3.7297     3.1239
  188.5000   126.3761     4.1551     3.4315
  189.0000   128.7102     4.6236     3.7571
  189.5000   130.4460     5.1500     4.4252
  190.0000   132.9805     5.7316     5.2157
  190.5000   135.0599     6.2438     5.7612
  191.0000   138.5235     6.4830     6.2447
  191.5000   139.9443     6.6925     6.5399
  192.0000   138.7864     6.9072     6.5791
  192.5000   138.6770     6.9973     6.6742
  193.0000   138.3322     7.0355     6.7237
  193.5000   137.2585     6.8645     6.7675
  194.0000   135.9030     6.5938     6.7663
  194.5000   135.3000     6.3382     6.7237
  195.0000   137.9483     6.1458     6.3294
  195.5000   140.9907     5.9170     5.9538
  196.0000   142.2710     5.6949     5.6005
  196.5000   144.3200     5.4823     5.1913
  197.0000   143.7393     5.3883     5.0962
  197.5000   138.9330     5.4669     5.1135
  198.0000   134.9930     5.5410     5.1435
  198.5000   133.6256     5.7352     5.4367
  199.0000   135.9102     6.0157     5.6279
  199.5000   139.0825     6.3030     5.9203
  200.0000   139.7483     6.6119     6.2278
  200.5000   139.8120     6.9254     6.4798
  201.0000   138.7788     7.3067     6.8856
  201.5000   137.1520     7.5754     7.2379
  202.0000   135.8959     7.8948     7.6066
  202.5000   134.5296     8.3155     8.0114
  203.0000   133.1826     8.3601     8.2311
  203.5000   132.8391     8.4705     8.2360
  204.0000   135.4509     8.4215     8.1627
  204.5000   138.0453     8.3255     8.1152
  205.0000   137.5201     8.2305     8.0513
  205.5000   136.7390     8.1367     7.9407
  206.0000   137.4728     7.9401     7.8376
  206.5000   137.8772     7.6960     7.6576
  207.0000   137.2769     7.4664     7.4356
  207.5000   134.9306     7.2437     7.0470
  208.0000   131.9856     6.9324     6.7058
  208.5000   133.2632     6.5918     6.3358
  209.0000   136.8471     6.2697     5.9817
  209.5000   138.1646     5.9609     5.6473
  210.0000   137.5170     5.7499     5.3317
  210.5000   137.2423     5.7504     5.0337
  211.0000   140.1863     5.7495     4.8214
  211.5000   142.4300     5.7510     4.7771
  212.0000   139.8084     5.9652     5.3155
  212.5000   137.1307     6.2646     5.8537
  213.0000   137.2295     6.5902     6.1422
  213.5000   137.1174     6.9391     6.5078
  214.0000   136.0083     7.2992     6.8951
  214.5000   136.3323     7.6858     7.3054
  215.0000   138.7450     8.0116     7.6172
  215.5000   141.4463     8.0777     7.7171
  216.0000   142.7656     8.1297     7.8184
  216.5000   141.7001     8.1885     7.9211
  217.0000   139.7508     8.2451     8.0138
  217.5000   138.6202     8.3020     8.0077
  218.0000   136.5093     8.3594     8.0008
  218.5000   137.4068     8.4171     7.9939
  219.0000   142.2592     8.4752     7.9871
  219.5000   143.2838     8.5491     7.9802
  220.0000   143.3547     8.5362     7.9733
  220.5000   142.6637     8.5110     7.9665
  221.0000   138.6056     8.4860     7.9596
  221.5000   137.7762     8.4610     7.9528
  222.0000   138.7684     8.4361     7.9460
  222.5000   139.5688     8.4112     7.9401
  223.0000   140.8410     8.3155     7.9489
  223.5000   140.9607     8.3155     7.9616
  224.0000   141.1540     8.3169     7.9742
  224.5000   140.6664     8.3100     7.9869
  225.0000   140.0543     8.3165     7.9996
  225.5000   139.0404     8.3095     8.0138
  226.0000   136.9581     8.3162     8.0138
  226.5000   137.3957     8.3097     7.9401
  227.0000   139.7553     8.0651     7.8163
  227.5000   142.1442     7.7794     7.5297
  228.0000   144.9448     7.5147     7.2536
  228.5000   147.5426     7.2490     6.9875
  229.0000   150.1533     6.9799     6.6619
  229.5000   152.8738     6.8482     6.5399
  230.0000   153.4017     6.8157     6.5251
  230.5000   151.7074     6.7767     6.5007
  231.0000   151.3107     6.7460     6.4798
  231.5000   150.8865     6.5862     6.1789
  232.0000   149.1629     6.3046     5.9063
  232.5000   147.4772     6.0349     5.7512
  233.0000   145.4676     5.7767     5.5882
  233.5000   145.7301     5.6413     5.1162
  234.0000   144.5320     5.6667     4.7339
  234.5000   139.9091     5.7453     4.6507
  235.0000   139.3297     5.8249     4.9901
  235.5000   140.4403     5.9057     5.3647
  236.0000   140.3024     5.9628     5.6423
  236.5000   140.4291     6.3992     6.0414
  237.0000   140.4405     6.7565     6.3701
  237.5000   142.4446     7.1338     6.7123
  238.0000   143.6526     7.5120     6.9780
  238.5000   140.9852     7.5817     7.3042
  239.0000   138.6867     7.6521     7.2587
  239.5000   138.9623     7.5817     7.1888
  240.0000   138.1786     7.3389     7.1069
  240.5000   135.6269     7.0025     6.6095
  241.0000   133.7333     6.6815     6.2075
  241.5000   134.1204     6.3752     5.9074
  242.0000   139.0719     6.0182     5.6218
  242.5000   144.8874     5.9628     5.3867
  243.0000   145.2530     6.0173     5.2394
  243.5000   141.3490     6.0672     5.2925
  244.0000   138.0921     6.1304     5.5381
  244.5000   137.5199     6.2932     5.8123
  245.0000   137.9993     6.6176     6.2020
  245.5000   137.8273     6.9588     6.6178
  246.0000   136.9205     7.3176     7.0615
  246.5000   136.2956     7.6948     7.5120
  247.0000   136.1918     8.0451     7.7375
  247.5000   135.6105     8.3311     7.9592
  248.0000   134.9290     8.6274     8.1873
  248.5000   133.9111     8.7894     8.4705
  249.0000   131.1244     8.8181     8.4850
  249.5000   128.3526     8.8684     8.5103
  250.0000   128.1839     8.9190     8.5357
  250.5000   130.3385     8.9699     8.5491
  251.0000   132.1640     9.0211     8.6051
  251.5000   131.6804     9.0726     8.6588
  252.0000   130.9283     9.1202     8.7129
  252.5000   131.7102     9.2049     8.7674
  253.0000   133.8660     9.1863     8.7894
  253.5000   136.1586     9.1681     8.7104
  254.0000   135.3483     9.1499     8.6436
  254.5000   132.9102     9.1318     8.5773
  255.0000   132.6451     9.1202     8.5996
  255.5000   133.0662     9.1744     8.7254
  256.0000   132.9734     9.2498     8.8718
  256.5000   132.1034     9.3257     9.0308
  257.0000   129.9013     9.3765     9.0077
  257.5000   127.7609     9.2353     8.8635
  258.0000   126.2884     8.9533     8.3621
  258.5000   125.8353     8.4301     7.7793
  259.0000   126.2838     7.9396     7.3935
  259.5000   126.8033     7.4775     6.7485
  260.0000   129.1476     7.1069     6.1425
  260.5000   133.1272     7.0416     6.0177
  261.0000   133.0901     7.1069     6.0303
  261.5000   127.6925     7.4429     6.7253
  262.0000   122.5737     8.1632     7.4242
  262.5000   120.7160     9.1353     8.1664
  263.0000   120.7666    10.0613     8.9945
  263.5000   121.7772    10.8701     9.9033
  264.0000   123.7076    11.0819    10.9717
  264.5000   125.3328    11.2813    11.0876
  265.0000   126.2432    11.4844    10.9486
  265.5000   126.4391    11.6911    10.8853
  266.0000   125.1784    11.9222    10.7611
  266.5000   122.7588    12.5975    10.6978
  267.0000   120.8914    13.5683    10.8771
  267.5000   117.0866    14.5614    11.5207
  268.0000   111.5768    15.9345    12.8373
  268.5000   106.2609    17.4371    14.5122
  269.0000    90.5533    19.5578    16.9105
  269.5000    73.2349    22.2911    19.8368
  270.0000    72.2437    25.4063    23.5367
  270.5000    76.9066    26.9444    24.1315
  271.0000    80.7163    27.8909    24.7484
  271.5000    84.9773    28.1897    25.3811
  272.0000    84.3447    28.6024    26.1444
  272.5000    81.4130    29.0212    26.2302
