~VERSION INFORMATION
 VERS.                2.0:   CWLS LOG ASCII STANDARD - VERSION 2.0
 WRAP.                 NO:   ONE LINE PER DEPTH STEP
~WELL INFORMATION
#MNEM.UNIT      DATA TYPE    INFORMATION
#----------   ------------   ------------------------------
 STRT.F            7.5000:   START DEPTH
 STOP.F         2886.0000:   STOP DEPTH
 STEP.F            0.5000:   STEP LENGTH
 NULL.          -999.2500:   NO VALUE
 COMP. LAWRENCE/ALLISON INC:   COMPANY
 WELL.     16-1 AX #21-21:   WELL
 FLD .             TEAPOT:   FIELD
 LOC .      S21 T39N R78W:   LOCATION
 CNTY.            NATRONA:   COUNTY
 STAT.            WYOMING:   STATE
 CTRY. UNITED STATES OF AMERICA:   COUNTRY
 SRVC.      Dresser Atlas:   SERVICE COMPANY
 DATE.        05-DEC-1986:   LOGDATE
 API .       490251111900:   API NUMBER
~CURVE INFORMATION
#MNEM.UNIT       API CODE    CURVE DESCRIPTION
#----------   ------------   ------------------------------
 DEPT.F                  :   
 GRR .GAPI   07 310 01 00:   GAMMA RAY FROM RES. LOG.
 SPR .MV     07 010 01 00:   SPONTANEOUS POTENTIAL
 RFOC.OHMM   07 220 04 00:   RESISTIVITY FOCUSED LOG
 RILM.OHMM   07 120 44 00:   INDUCTION LOG MEDIUM RESISTIVITY
 RILD.OHMM   07 120 46 00:   INDUCTION LOG DEEP RESISTIVITY
 CALD.IN     45 280 60 00:   CALIPER
 DEN .G/C3   45 350 01 00:   BULK DENSITY
 CORR.G/C3   45 356 01 00:   DENSITY CORRECTION
 CNC .DEC    42 890 03 00:   NEUTRON POROSITY SANDSTONE
 PORD.DEC    45 890 12 00:   DENSITY POROSITY SANDSTONE
~PARAMETER INFORMATION
#MNEM.UNIT          VALUE    DESCRIPTION
#----------   ------------   ------------------------------
 PD  .                 GL:   PERMANENT DATUM
 EPD .F              4992:   ELEVATION PERMANENT DATUM
 LMF .                 KB:   LOG MEASURED FROM
 DAPD.F                12:   FEET ABOVE PERMANENT DATUM
 DMF .                 KB:   DRILLING MEASURED FROM
 EKB .F              5004:   KELLING BUSHING
 EGL .F              4992:   GROUND LEVEL
 DATE.            12-5-86:   RUN DATE
 RUN .                  1:   RUN NUMBER
 DD  .F              2905:   DEPTH DRILLER
 DL  .F              2890:   DEPTH LOGGER
 BLI .F              2884:   BOTTOM LOG INTERVAL
 TLI .F              2200:   TOP LOG INTERVAL
 CS  .IN            8.625:   CASING SIZE
 CBD .F               300:   CASING BOTTOM DRILLER
 CBL .F               300:   CASING BOTTOM LOGGER
 BS  .IN            7.875:   BIT SIZE
 BSD .F              2905:   BIT SIZE AT DEPTH
 DFT .        KCL POLYMER:   DRILLING FLUID TYPE
 DFD .                  9:   DRILLING FLUID DENSITY
 DFV .                 36:   DRILLING FLUID VISCOSITY
 DFPH.                9.5:   DRILLING FLUID PH
 DFL .               11.8:   DRILLING FLUID LOSS
 MSS .            MUDTANK:   MUD SAMPLE SOURCE
 RMS .OHMM            .43:   RESISTIVITY MUD SAMPLE
 MST .F                63:   MUD SAMPLE TEMPERATURE
 RMF .OHMM           .348:   RESISTIVITY MUD FILTRATE SAMPLE
 MFST.F                63:   MUD FILTRATE SAMPLE TEMPERATURE
 RMC .OHMM           .538:   RESISTIVITY MUD CAKE
 MCST.F                63:   MUD CAKE SAMPLE TEMPERATURE
 MFSS.               MEAS:   MUD FILTRATE SAMPLE SOURCE
 MCSS.               CALC:   MUD CAKE SAMPLE SOURCE
 RMB .OHMM           .233:   RESISTIVITY MUD AT BHT
 BHT .F               116:   BOTTOM HOLE TEMPERATURE
 TCS .HRS             3.5:   TIME CURCULATED STOPPED
 MRT .F               116:   MAXIMUM RECORDED TEMPERATURE
 LUN .            HL-6274:   LOGGING UNIT NUMBER
 LUL .           GILLETTE:   LOGGING UNIT LOCATION
 ENGI.             RAUTIO:   RECORDING ENGINEER
 WITN.             STRONG:   WITNESSED BY
 CLNT.            A2DTECH:   CLIENT CODE
 ORIG.       2", 5" PRINT:   ORIGIN OF DATA
 UWI .       490251111900:   UNIQUE WELL ID
 DICO. A2D Technologies, Inc.:   DIGITIZING COMPANY
~OTHER INFORMATION
~A    DEPT     GRR        SPR       RFOC       RILM       RILD       CALD        DEN       CORR        CNC       PORD   
# ...
 2855.0000   161.1404   -33.9983     3.4512     2.7896     2.5697     8.1917  -999.2500     0.0081     0.2917     0.1421
 2855.5000   160.2049   -33.9654     3.3482     2.7346     2.5287     8.1786  -999.2500     0.0918  -999.2500  -999.2500
 2856.0000   160.6812   -33.9323     3.2644     2.6781     2.4884     8.1719  -999.2500     0.1578  -999.2500  -999.2500
 2856.5000   161.7294   -33.8879     3.2162     2.6107     2.4487     8.1717  -999.2500  -999.2500  -999.2500  -999.2500
 2857.0000   162.1526   -33.7762     3.1000     2.5456     2.4097     8.1717  -999.2500  -999.2500  -999.2500  -999.2500
 2857.5000   162.3276   -33.7258     2.9811     2.4928     2.3713     8.1717  -999.2500  -999.2500  -999.2500  -999.2500
 2858.0000   164.7404   -33.8921     2.8679     2.4585     2.3430     8.1717  -999.2500  -999.2500  -999.2500  -999.2500
 2858.5000   167.7873   -34.0563     2.7993     2.5066     2.3320     8.1717  -999.2500  -999.2500  -999.2500  -999.2500
 2859.0000   169.8536   -34.2205     3.0524     2.5580     2.3254     8.1717  -999.2500  -999.2500  -999.2500  -999.2500
 2859.5000   169.5674   -34.3838     3.1875     2.6018     2.3510     8.1717  -999.2500  -999.2500  -999.2500  -999.2500
 2860.0000   168.3013   -34.5095     3.0919     2.6129     2.3695     8.1717  -999.2500  -999.2500  -999.2500  -999.2500
 2860.5000   166.8217   -34.5107     3.0156     2.6232     2.3913     8.1717  -999.2500  -999.2500  -999.2500  -999.2500
 2861.0000   166.5210   -34.5204     3.1235     2.5840     2.3916     8.1717  -999.2500  -999.2500  -999.2500  -999.2500
 2861.5000   165.1027   -34.3487     3.2544     2.5465     2.3910     8.1717  -999.2500  -999.2500  -999.2500  -999.2500
 2862.0000   158.8681   -34.3939     3.4330     2.4734     2.2826     8.1717  -999.2500  -999.2500  -999.2500  -999.2500
 2862.5000   152.1017   -34.4433     3.2624     2.3665     2.2243     8.1717  -999.2500  -999.2500  -999.2500  -999.2500
 2863.0000   154.4339   -34.4964     3.0349     2.2642     2.1792     8.1717  -999.2500  -999.2500  -999.2500  -999.2500
 2863.5000   162.8691   -34.5070     2.8232     2.1792     2.1445     8.1717  -999.2500  -999.2500  -999.2500  -999.2500
 2864.0000  -999.2500   -34.5071     2.7192     2.2200     2.1081     8.1717  -999.2500  -999.2500  -999.2500  -999.2500
 2864.5000  -999.2500   -34.5070     2.6478     2.2786     2.0998     8.1717  -999.2500  -999.2500  -999.2500  -999.2500
 2865.0000  -999.2500   -34.5146     2.6683     2.3408     2.1194     8.1717  -999.2500  -999.2500  -999.2500  -999.2500
 2865.5000  -999.2500   -34.5534     2.7225     2.4097     2.1395     8.1717  -999.2500  -999.2500  -999.2500  -999.2500
 2866.0000  -999.2500   -34.5914     2.9079     2.4996     2.1590     8.1717  -999.2500  -999.2500  -999.2500  -999.2500
 2866.5000  -999.2500   -34.6294     3.1027     2.5874     2.2530     8.1717  -999.2500  -999.2500  -999.2500  -999.2500
 2867.0000  -999.2500   -34.6680     3.3388     2.6699     2.3479     8.1717  -999.2500  -999.2500  -999.2500  -999.2500
 2867.5000  -999.2500   -34.7058     3.3342     2.7219     2.4468     8.1717  -999.2500  -999.2500  -999.2500  -999.2500
 2868.0000  -999.2500   -34.6417     3.3290     2.7690     2.5499     8.1717  -999.2500  -999.2500  -999.2500  -999.2500
 2868.5000  -999.2500   -34.5681     3.3238     2.8417     2.6513     8.1717  -999.2500  -999.2500  -999.2500  -999.2500
 2869.0000  -999.2500   -34.4947     3.3184     2.9164     2.7433     8.1717  -999.2500  -999.2500  -999.2500  -999.2500
 2869.5000  -999.2500   -34.4215     3.3128     2.9930     2.8381     8.1717  -999.2500  -999.2500  -999.2500  -999.2500
 2870.0000  -999.2500   -34.3494     3.3080     3.1216     2.9360     8.1717  -999.2500  -999.2500  -999.2500  -999.2500
 2870.5000  -999.2500   -34.3369     3.4361     3.3504     3.1426     8.1717  -999.2500  -999.2500  -999.2500  -999.2500
 2871.0000  -999.2500   -34.4147     3.7101     3.5959     3.3972     8.1717  -999.2500  -999.2500  -999.2500  -999.2500
 2871.5000  -999.2500   -34.4913     4.0467     3.8595     3.6724     8.1717  -999.2500  -999.2500  -999.2500  -999.2500
 2872.0000  -999.2500   -34.5681     4.4139     4.1423     3.9699     8.1717  -999.2500  -999.2500  -999.2500  -999.2500
 2872.5000  -999.2500   -34.6449     4.7939     4.3692     4.2346     8.1717  -999.2500  -999.2500  -999.2500  -999.2500
 2873.0000  -999.2500   -34.7218     4.7415     4.3055     4.2889     8.1718  -999.2500  -999.2500  -999.2500  -999.2500
 2873.5000  -999.2500   -34.7984     4.7058     4.0575     3.8076     8.1714  -999.2500  -999.2500  -999.2500  -999.2500
 2874.0000  -999.2500   -34.8769     5.2403     3.2896     3.2717     8.1653  -999.2500  -999.2500  -999.2500  -999.2500
 2874.5000  -999.2500   -34.9138     5.9372     2.6233     2.7904     8.1592  -999.2500  -999.2500  -999.2500  -999.2500
 2875.0000  -999.2500   -34.9335     4.8729     2.0612     2.3799     8.1527  -999.2500  -999.2500  -999.2500  -999.2500
 2875.5000  -999.2500   -33.2482     3.1819     1.9308     2.2473     8.1610  -999.2500  -999.2500  -999.2500  -999.2500
 2876.0000  -999.2500   -30.5493     1.9316     2.0227     2.1976     8.1720  -999.2500  -999.2500  -999.2500  -999.2500
 2876.5000  -999.2500   -28.3962     1.6807     2.2021     2.1574     8.1720  -999.2500  -999.2500  -999.2500  -999.2500
 2877.0000  -999.2500   -28.3050     1.9678     2.3953     2.1516     8.1735  -999.2500  -999.2500  -999.2500  -999.2500
 2877.5000  -999.2500   -28.3841     2.7031     2.6149     2.1452     8.1751  -999.2500  -999.2500  -999.2500  -999.2500
 2878.0000  -999.2500   -28.5194     3.7131     2.8537     2.1391     8.1766  -999.2500  -999.2500  -999.2500  -999.2500
 2878.5000  -999.2500   -28.6225     5.0214     3.4392     2.1287     8.1782  -999.2500  -999.2500  -999.2500  -999.2500
 2879.0000  -999.2500   -28.6419     5.1155     4.1291     2.1194     8.1797  -999.2500  -999.2500  -999.2500  -999.2500
 2879.5000  -999.2500   -28.5857     5.0079     4.7926     2.1210     8.1812  -999.2500  -999.2500  -999.2500  -999.2500
 2880.0000  -999.2500   -28.5278     4.8836     5.1247     2.1227     8.1828  -999.2500  -999.2500  -999.2500  -999.2500
 2880.5000  -999.2500   -28.4762     5.0826     5.3847     2.1242     8.1843  -999.2500  -999.2500  -999.2500  -999.2500
 2881.0000  -999.2500   -28.6128     5.4734     5.4793     2.1258     8.1859  -999.2500  -999.2500  -999.2500  -999.2500
 2881.5000  -999.2500   -28.7597     5.9338     5.5710     2.1274     8.1874  -999.2500  -999.2500  -999.2500  -999.2500
 2882.0000  -999.2500   -28.8760     5.8844     5.6126     2.1290     8.1889  -999.2500  -999.2500  -999.2500  -999.2500
 2882.5000  -999.2500   -28.8739     5.8195     5.6126     2.1306     8.1905  -999.2500  -999.2500  -999.2500  -999.2500
 2883.0000  -999.2500   -28.8746     5.7553     5.6126     2.1322     8.1918  -999.2500  -999.2500  -999.2500  -999.2500
 2883.5000  -999.2500   -28.8675     5.7020     5.6126     2.1338     8.1912  -999.2500  -999.2500  -999.2500  -999.2500
 2884.0000  -999.2500   -28.7216     5.6649     5.6126     2.1354     8.1703  -999.2500  -999.2500  -999.2500  -999.2500
 2884.5000  -999.2500  -999.2500     5.4869     5.6126     2.1370  -999.2500  -999.2500  -999.2500  -999.2500  -999.2500
 2885.0000  -999.2500  -999.2500     5.1792     5.6126     2.1386  -999.2500  -999.2500  -999.2500  -999.2500  -999.2500
 2885.5000  -999.2500  -999.2500     4.8720     5.6126     2.1391  -999.2500  -999.2500  -999.2500  -999.2500  -999.2500
 2886.0000  -999.2500  -999.2500     4.8383     5.6126  -999.2500  -999.2500  -999.2500  -999.2500  -999.2500  -999.2500
