~VERSION INFORMATION
 VERS.                2.0:   CWLS LOG ASCII STANDARD - VERSION 2.0
 WRAP.                 NO:   ONE LINE PER DEPTH STEP
~WELL INFORMATION
#MNEM.UNIT      DATA TYPE    INFORMATION
#----------   ------------   ------------------------------
 STRT.F            2.0000:   START DEPTH
 STOP.F          497.5000:   STOP DEPTH
 STEP.F            0.5000:   STEP LENGTH
 NULL.          -999.2500:   NO VALUE
 COMP. Fluor Daniel (NPOSR) Inc:   COMPANY
 WELL.  NPR ##3 72-5-X-10:   WELL
 FLD .             TEAPOT:   FIELD
 LOC .      S10 T38N R78W:   LOCATION
 CNTY.            NATRONA:   COUNTY
 STAT.            WYOMING:   STATE
 CTRY. UNITED STATES OF AMERICA:   COUNTRY
 SRVC.      Western Atlas:   SERVICE COMPANY
 DATE.        27-APR-1996:   LOGDATE
 API .       490252278100:   API NUMBER
~CURVE INFORMATION
#MNEM.UNIT       API CODE    CURVE DESCRIPTION
#----------   ------------   ------------------------------
 DEPT.F                  :   
 GRR .GAPI   07 310 01 00:   GAMMA RAY FROM RES. LOG.
 RILD.OHMM   07 120 46 00:   INDUCTION LOG DEEP RESISTIVITY
 RILM.OHMM   07 120 44 00:   INDUCTION LOG MEDIUM RESISTIVITY
~PARAMETER INFORMATION
#MNEM.UNIT          VALUE    DESCRIPTION
#----------   ------------   ------------------------------
 PD  .                 GL:   PERMANENT DATUM
 EPD .F              5171:   ELEVATION PERMANENT DATUM
 LMF .                 KB:   LOG MEASURED FROM
 DAPD.F                10:   FEET ABOVE PERMANENT DATUM
 DMF .                 KB:   DRILLING MEASURED FROM
 EKB .F              5181:   KELLING BUSHING
 EDF .F              5180:   DRILLING FLOOR
 EGL .F              5171:   GROUND LEVEL
 DATE.            4-27-96:   RUN DATE
 RUN .                  1:   RUN NUMBER
 DD  .F               505:   DEPTH DRILLER
 DL  .F               505:   DEPTH LOGGER
 BLI .F               498:   BOTTOM LOG INTERVAL
 CS  .IN            9.625:   CASING SIZE
 CBD .F                95:   CASING BOTTOM DRILLER
 CBL .F                95:   CASING BOTTOM LOGGER
 BS  .IN             8.75:   BIT SIZE
 BSD .F               505:   BIT SIZE AT DEPTH
 DFT .                AIR:   DRILLING FLUID TYPE
 MRT .F                88:   MAXIMUM RECORDED TEMPERATURE
 LUN .            HL-6530:   LOGGING UNIT NUMBER
 LUL .             CASPER:   LOGGING UNIT LOCATION
 ENGI.             RAUTIO:   RECORDING ENGINEER
 WITN.              HARDY:   WITNESSED BY
 CLNT.            A2DTECH:   CLIENT CODE
 ORIG.       2", 5" PRINT:   ORIGIN OF DATA
 UWI .       490252278100:   UNIQUE WELL ID
 DICO. A2D Technologies, Inc.:   DIGITIZING COMPANY
~OTHER INFORMATION
~A    DEPT      GRR      RILD       RILM   
# ...
  366.0000    93.5603    13.8527    13.8721
  366.5000    92.8985    13.5671    13.6097
  367.0000    92.4174    13.2875    13.3522
  367.5000    93.8548    13.0136    13.0996
  368.0000    96.2909    12.7453    12.8517
  368.5000    97.6022    12.4826    12.6084
  369.0000    97.8563    12.2253    12.3703
  369.5000    99.5644    12.0080    12.1566
  370.0000   101.9387    11.8797    12.0289
  370.5000   104.0922    11.7527    11.9128
  371.0000   102.5354    11.6271    11.7978
  371.5000   100.8684    11.5028    11.6839
  372.0000   100.4430    11.3969    11.6090
  372.5000   103.3944    11.7375    11.9345
  373.0000   107.5356    12.1544    12.4746
  373.5000   110.3369    12.7931    13.1897
  374.0000   110.6149    13.6345    14.1686
  374.5000   108.7665    14.8350    15.2121
  375.0000   103.8635    16.1412    17.6018
  375.5000    97.2918    17.7082    20.7469
  376.0000    92.1191    20.0948    24.4567
  376.5000    87.7492    22.7952    27.1129
  377.0000    83.4990    25.8513    29.6601
  377.5000    80.3469    28.6623    32.3027
  378.0000    80.3959    30.8474    32.6018
  378.5000    81.4343    31.7125    34.1399
  379.0000    82.3107    31.7125    33.0382
  379.5000    81.4384    31.2679    32.0183
  380.0000    80.5708    30.3712    31.0373
  380.5000    79.9006    29.4827    30.0890
  381.0000    82.4120    28.9379    29.4576
  381.5000    85.6155    29.2005    29.5996
  382.0000    87.1055    29.1873    29.7971
  382.5000    86.0949    29.1280    29.9960
  383.0000    84.0451    28.7319    30.1962
  383.5000    81.9923    28.3411    30.2823
  384.0000    81.6328    27.9557    30.2927
  384.5000    84.1657    27.4646    29.0249
  385.0000    86.9712    26.9518    27.7869
  385.5000    86.7222    26.4487    26.6167
  386.0000    84.8416    25.9549    26.1763
  386.5000    84.0107    25.4704    25.7474
  387.0000    86.3293    24.9946    25.3255
  387.5000    88.0263    24.5276    24.9106
  388.0000    88.1421    24.0703    24.5022
  388.5000    86.6092    23.8290    24.0511
  389.0000    84.9197    23.9544    24.3182
  389.5000    85.5322    24.0403    24.6280
  390.0000    88.7820    24.1266    24.9427
  390.5000    90.1528    24.2132    25.4176
  391.0000    88.4439    24.3001    25.3597
  391.5000    87.8953    24.3873    25.2404
  392.0000    90.6914    24.4984    25.1445
  392.5000    92.3244    24.4409    25.0295
  393.0000    92.1336    24.3377    24.7748
  393.5000    90.7185    24.2189    24.2802
  394.0000    88.4668    23.9029    23.7949
  394.5000    86.2429    23.5912    23.3194
  395.0000    87.2250    23.2833    22.8536
  395.5000    88.7445    22.9795    22.3971
  396.0000    89.4388    22.6798    22.1018
  396.5000    90.4638    22.3839    22.0228
  397.0000    93.1503    22.0919    21.9440
  397.5000    94.3737    21.7993    21.6207
  398.0000    95.3257    21.5053    21.2596
  398.5000    96.3532    21.2153    20.9029
  399.0000    95.3906    20.9291    20.5523
  399.5000    93.2169    20.6469    20.2077
  400.0000    92.0534    20.3684    19.8689
  400.5000    93.0806    20.0937    19.5358
  401.0000    93.9497    19.8227    19.2083
  401.5000    93.3079    19.5554    18.9044
  402.0000    93.9253    19.2917    18.7407
  402.5000    94.9172    19.0315    18.5785
  403.0000    96.7727    18.7747    18.4075
  403.5000    98.9379    18.5216    17.9687
  404.0000   101.1475    18.2147    17.5117
  404.5000   103.7574    17.8661    17.0663
  405.0000   101.7783    17.5446    16.7708
  405.5000    99.2605    17.3349    16.6738
  406.0000    98.2710    17.1278    16.5775
  406.5000   100.3463    16.9231    16.4796
  407.0000   102.0734    16.7208    16.2906
  407.5000   100.7506    16.5210    16.0997
  408.0000    98.2036    16.3235    15.9110
  408.5000    96.5958    16.1285    15.7245
  409.0000    95.2774    15.9357    15.5402
  409.5000    93.4932    15.7453    15.3580
  410.0000    92.4724    15.5571    15.1780
  410.5000    91.7374    15.3712    15.0001
  411.0000    92.9482    15.1875    14.8243
  411.5000    94.1281    15.0060    14.6506
  412.0000    94.7976    14.8266    14.4788
  412.5000    94.8075    14.6494    14.2977
  413.0000    94.0180    14.4840    14.0848
  413.5000    93.2142    14.2206    13.8751
  414.0000    93.9142    13.9754    13.6684
  414.5000    96.2935    13.7345    13.4649
  415.0000    95.6258    13.4977    13.2644
  415.5000    95.3452    13.2650    13.0668
  416.0000    97.7504    13.0360    12.8522
  416.5000   100.6254    12.9534    12.8212
  417.0000    99.6166    12.9279    12.7888
  417.5000    98.0631    12.9019    12.7577
  418.0000    95.8187    12.8759    12.7266
  418.5000    93.3480    12.8483    12.6955
  419.0000    93.0384    12.8265    12.6646
  419.5000    94.8148    12.8032    12.6337
  420.0000    98.2588    12.7800    12.6029
  420.5000   102.7296    12.7567    12.5722
  421.0000   102.5991    12.7336    12.5416
  421.5000   101.7430    12.7104    12.5110
  422.0000   100.4043    12.6873    12.4805
  422.5000    98.1769    12.6643    12.4500
  423.0000    97.5385    12.6410    12.4197
  423.5000    99.5939    12.6183    12.3894
  424.0000   101.5155    12.5346    12.3268
  424.5000   100.9378    12.4348    12.2555
  425.0000   101.0003    12.3357    12.1847
  425.5000   104.0505    12.2375    12.1227
  426.0000   108.6171    12.1400    12.0667
  426.5000   113.2327    12.0451    12.0108
  427.0000   114.5438    12.0204    11.9552
  427.5000   113.9927    11.9962    11.8999
  428.0000   112.4016    11.9720    11.8449
  428.5000   110.6049    11.9479    11.7901
  429.0000   109.3937    11.9238    11.7355
  429.5000   108.9057    11.8998    11.6090
  430.0000   108.2962    11.8758    11.6285
  430.5000   105.5979    11.8519    11.6420
  431.0000   106.0325    11.8280    11.6555
  431.5000   107.2392    11.7688    11.6690
  432.0000   107.1191    11.7048    11.6827
  432.5000   105.3942    11.6411    11.6961
  433.0000   105.7462    11.5778    11.7097
  433.5000   108.3442    11.5148    11.7165
  434.0000   110.2112    11.4525    11.5638
  434.5000   110.1974    11.3881    11.4631
  435.0000   109.9413    11.3162    11.3632
  435.5000   108.5922    11.2439    11.2642
  436.0000   106.6934    11.1722    11.1661
  436.5000   106.4703    11.1009    11.0688
  437.0000   110.1911    11.0301    10.9724
  437.5000   113.6256    10.9524    10.8768
  438.0000   112.1164    10.8601    10.7821
  438.5000   110.8170    10.7690    10.6846
  439.0000   112.0521    10.6785    10.5771
  439.5000   113.0082    10.5865    10.4378
  440.0000   112.9145    10.3865    10.2977
  440.5000   115.7660    10.1851    10.1543
  441.0000   119.9376     9.9876     9.9736
  441.5000   120.1027     9.7940     9.7962
  442.0000   117.0974     9.6041     9.6219
  442.5000   113.7326     9.4178     9.4507
  443.0000   113.3475     9.2357     9.2826
  443.5000   114.5796     9.0588     8.9801
  444.0000   117.4524     8.8854     8.6050
  444.5000   118.7450     8.2232     8.1960
  445.0000   117.5606     7.6262     7.6283
  445.5000   117.2194     7.0727     7.1217
  446.0000   119.0836     6.2144     6.2867
  446.5000   120.9736     5.8177     5.5800
  447.0000   124.9222     5.7080     5.0596
  447.5000   132.9111     5.7151     5.0626
  448.0000   146.1183     5.7417     5.4663
  448.5000   151.6995     5.7591     5.8868
  449.0000   145.2427     6.0093     6.3363
  449.5000   133.9445     6.2454     6.8202
  450.0000   122.9073     6.7061     7.3410
  450.5000   114.8688     7.4233     7.9548
  451.0000   116.7401     8.2173     8.6558
  451.5000   119.6607     8.8983     9.1383
  452.0000   121.6247     9.1986     9.2882
  452.5000   121.9896     9.5090     9.4480
  453.0000   120.8504     9.7094     9.6102
  453.5000   119.6723     9.8711     9.7753
  454.0000   119.8645    10.0356     9.9433
  454.5000   119.6361    10.2027    10.1141
  455.0000   118.2466    10.3727    10.2879
  455.5000   119.0239    10.5455    10.4647
  456.0000   122.1239    10.7212    10.6445
  456.5000   123.8900    10.8998    10.8274
