~VERSION INFORMATION
 VERS.                2.0:   CWLS LOG ASCII STANDARD - VERSION 2.0
 WRAP.                 NO:   ONE LINE PER DEPTH STEP
~WELL INFORMATION
#MNEM.UNIT      DATA TYPE    INFORMATION
#----------   ------------   ------------------------------
 STRT.F           32.0000:   START DEPTH
 STOP.F          502.0000:   STOP DEPTH
 STEP.F            0.5000:   STEP LENGTH
 NULL.          -999.2500:   NO VALUE
 COMP.    FENIX & SCISSON:   COMPANY
 WELL. NPR # #3 65-36-SX-3-FP:   WELL
 FLD .             TEAPOT:   FIELD
 LOC .       S3 T38N R78W:   LOCATION
 CNTY.            NATRONA:   COUNTY
 STAT.            WYOMING:   STATE
 CTRY. UNITED STATES OF AMERICA:   COUNTRY
 SRVC.              Welex:   SERVICE COMPANY
 DATE.        15-JUN-1980:   LOGDATE
 API .       490251082600:   API NUMBER
~CURVE INFORMATION
#MNEM.UNIT       API CODE    CURVE DESCRIPTION
#----------   ------------   ------------------------------
 DEPT.F                  :   
 CALD.IN     45 280 60 00:   CALIPER FROM DENSITY LOG
 CORR.G/C3   45 356 01 00:   DENSITY CORRECTION
 DPHI.DEC    45 890 12 00:   DENSITY POROSITY SANDSTONE
 GRD .GAPI   45 310 01 00:   GAMMA RAY FROM DENSITY LOG
 RHOB.G/C3   45 350 01 00:   BULK DENSITY
 NPHI.DEC    42 890 03 00:   NEUTRON POROSITY SANDSTONE
 ILD .OHMM   07 120 46 00:   INDUCTION LOG DEEP
 ILM .OHMM   07 120 44 00:   INDUCTION LOG MEDIUM
 SGRD.OHMM   07 220 05 00:   SHALLOW GUARD RESISTIVITY
 SPR .MV     07 010 01 00:   SPONTANEOUS POTENTIAL FROM RES.
~PARAMETER INFORMATION
#MNEM.UNIT          VALUE    DESCRIPTION
#----------   ------------   ------------------------------
 PD  .                 GL:   PERMANENT DATUM
 EPD .F              5159:   ELEVATION PERMANENT DATUM
 LMF .                 KB:   LOG MEASURED FROM
 DAPD.F                 5:   FEET ABOVE PERMANENT DATUM
 DMF .                 KB:   DRILLING MEASURED FROM
 EKB .F              5164:   KELLING BUSHING
 EGL .F              5159:   GROUND LEVEL
 DATE.            6-15-80:   RUN DATE
 RUN .                  1:   RUN NUMBER
 DD  .F               505:   DEPTH DRILLER
 DL  .F               504:   DEPTH LOGGER
 BLI .F               502:   BOTTOM LOG INTERVAL
 TLI .F                30:   TOP LOG INTERVAL
 BS  .IN            9.875:   BIT SIZE
 BSD .F               505:   BIT SIZE AT DEPTH
 DFT .             2% KCL:   DRILLING FLUID TYPE
 DFD .                9.4:   DRILLING FLUID DENSITY
 DFV .                 51:   DRILLING FLUID VISCOSITY
 DFPH.                 12:   DRILLING FLUID PH
 DFL .                5.6:   DRILLING FLUID LOSS
 MSS .           FLOWLINE:   MUD SAMPLE SOURCE
 RMS .OHMM            .36:   RESISTIVITY MUD SAMPLE
 MST .F                65:   MUD SAMPLE TEMPERATURE
 RMF .OHMM            .29:   RESISTIVITY MUD FILTRATE SAMPLE
 MFST.F                65:   MUD FILTRATE SAMPLE TEMPERATURE
 RMC .OHMM            .42:   RESISTIVITY MUD CAKE
 MCST.F                65:   MUD CAKE SAMPLE TEMPERATURE
 MFSS.           MEASURED:   MUD FILTRATE SAMPLE SOURCE
 MCSS.           MEASURED:   MUD CAKE SAMPLE SOURCE
 RMB .OHMM            .32:   RESISTIVITY MUD AT BHT
 BHT .F                74:   BOTTOM HOLE TEMPERATURE
 TCS .HRS               2:   TIME CURCULATED STOPPED
 MRT .F                74:   MAXIMUM RECORDED TEMPERATURE
 LUN .               1892:   LOGGING UNIT NUMBER
 LUL .             CASPER:   LOGGING UNIT LOCATION
 ENGI.               REIN:   RECORDING ENGINEER
 WITN.              AMEND:   WITNESSED BY
 CLNT.            A2DTECH:   CLIENT CODE
 ORIG.       2", 5" PRINT:   ORIGIN OF DATA
 UWI .       490251082600:   UNIQUE WELL ID
 DICO. A2D Technologies, Inc.:   DIGITIZING COMPANY
~OTHER INFORMATION
~A   DEPT     CALD       CORR       DPHI        GRD       RHOB       NPHI         ILD         ILM       SGRD      SPR   
# ...
  132.5000    10.2655     0.0778     0.1083   101.8824     2.4899     0.2996    10.5157     7.7991     6.4744   -54.9252
  133.0000    10.2519     0.0961     0.0956   102.6303     2.4986     0.3007    10.5850     7.6899     6.5626   -54.9210
  133.5000    10.2531     0.1038     0.1004   102.3692     2.4993     0.3018    10.7277     7.5826     6.6062   -54.4878
  134.0000    10.2543     0.1019     0.1120    99.5512     2.4913     0.3056    10.7984     7.5807     6.6041   -54.3410
  134.5000    10.2555     0.0836     0.1195    99.7094     2.4567     0.3050    10.8696     7.5787     6.6024   -54.0505
  135.0000    10.2419     0.0630     0.1272   100.1819     2.4336     0.3028    10.7906     7.5763     6.6007   -53.9039
  135.5000    10.2431     0.0485     0.1272   101.0634     2.4322     0.3010    10.8617     7.5745     6.6447   -54.3303
  136.0000    10.2442     0.0608     0.1205   102.8378     2.4450     0.2985    10.9334     7.5724     6.7347   -54.7278
  136.5000    10.2399     0.0669     0.1154   104.3232     2.4548     0.2964    11.3132     7.5703     6.8737   -54.8967
  137.0000    10.2319     0.0656     0.1192   105.0711     2.4599     0.2921    11.1538     7.6204     7.0181   -55.1790
  137.5000    10.2331     0.0582     0.1204   105.1057     2.4459     0.2885    10.8469     7.6711     7.0623   -55.3188
  138.0000    10.2343     0.0538     0.1182   104.6469     2.4482     0.2860    10.6126     7.6164     7.1093   -55.3147
  138.5000    10.2503     0.0554     0.1119   103.9225     2.4670     0.2847    10.4726     7.6143     7.1562   -55.3116
  139.0000    10.2662     0.0647     0.1037   101.7206     2.4806     0.2856    10.6872     7.6120     7.1538   -55.3080
  139.5000    10.2674     0.0754     0.1031    99.9611     2.4881     0.2894    10.7607     7.6627     7.1029   -55.3044
  140.0000    10.2833     0.0801     0.1034    99.6740     2.4762     0.2960    10.3890     7.6076     7.0523   -55.1572
  140.5000    10.2845     0.0802     0.1078    99.0970     2.4755     0.2974    10.2243     7.6057     7.0504   -55.0106
  141.0000    10.2857     0.0774     0.1111    97.4851     2.4778     0.2983    10.0999     7.5515     6.9517   -54.7139
  141.5000    10.2869     0.0760     0.1113    95.8731     2.4629     0.2985    10.0966     7.5495     6.8547   -54.2867
  142.0000    10.3029     0.0807     0.1089    95.4411     2.4795     0.2991    10.1632     7.5474     6.8529   -53.5670
  142.5000    10.3188     0.0884     0.1070    95.5990     2.4780     0.2990    10.2294     7.5452     6.8040   -53.7070
  143.0000    10.3200     0.0900     0.1067    95.7569     2.4721     0.2990    10.2969     7.5432     6.7552   -53.7027
  143.5000    10.3209     0.0856     0.1111    96.3574     2.4640     0.2989    10.3646     7.5408     6.7534   -53.9859
  144.0000    10.3221     0.0873     0.1132    97.1053     2.4642     0.2988    10.3610     7.5389     6.7517   -54.3203
  144.5000    10.3233     0.0935     0.1068    97.2606     2.4738     0.2991    10.3877     7.4851     6.7965   -54.6225
  145.0000    10.3097     0.0937     0.1098    97.1235     2.4699     0.2993    10.4256     7.4317     6.8419   -55.2644
  145.5000    10.3184     0.0923     0.1145    97.4420     2.4597     0.2996    10.3498     7.3784     6.8397   -55.5476
  146.0000    10.3268     0.0894     0.1139    97.5870     2.4613     0.2995    10.2048     7.2255     6.8379   -55.6883
  146.5000    10.3210     0.0881     0.1099    97.4499     2.4726     0.2998    10.0969     7.1247     6.8357   -55.6841
  147.0000    10.3145     0.0943     0.1048    97.1652     2.4846     0.2997    10.0584     7.0249     6.8340   -55.5367
  147.5000    10.3009     0.0959     0.1011    95.5551     2.4809     0.2991    10.0549     6.9269     6.8322   -55.3901
  148.0000    10.3021     0.0913     0.0993    93.9135     2.4863     0.2999    10.0513     6.8775     6.8300   -55.9598
  148.5000    10.3033     0.0919     0.1004    93.6560     2.4856     0.3003    10.0480     6.9233     6.7813   -56.6921
  149.0000    10.3045     0.0964     0.1022    93.6667     2.4856     0.3016    10.1135     6.9211     6.6868   -57.0992
  149.5000    10.2906     0.0965     0.1033    93.9720     2.4865     0.3046    10.2506     6.9193     6.5458   -57.0950
  150.0000    10.2921     0.0801     0.1027    94.7416     2.4903     0.3063    10.0277     6.9913     6.3935   -57.0916
  150.5000    10.2783     0.0938     0.1015    95.7525     2.4978     0.3098     9.7103     7.0264     6.2758   -56.8009
  151.0000    10.2500     0.0803     0.1032    96.7633     2.4836     0.3122     9.4203     7.0615     6.1044   -56.6543
  151.5000    10.2514     0.0774     0.1091    99.0243     2.4762     0.3160     9.1062     7.0965     5.9761   -56.5077
  152.0000    10.2526     0.0776     0.1193   101.8355     2.4672     0.3193     8.7953     7.1032     5.8511   -56.0745
  152.5000    10.2833     0.0732     0.1246   101.9897     2.4508     0.3207     8.7326     7.1009     5.6894   -55.9271
  153.0000    10.3140     0.0688     0.1234   100.2308     2.4411     0.3222     8.4264     7.0991     5.5240   -55.6372
  153.5000    10.3447     0.0629     0.1176    98.6173     2.4389     0.3230     8.2025     7.0972     5.3786   -55.4905
  154.0000    10.3753     0.0600     0.1208    98.3289     2.4554     0.3221     8.2003     7.0949     5.3025   -56.2321
  154.5000    10.3765     0.0707     0.1256    99.2249     2.4517     0.3193     8.1982     7.0931     5.3001   -57.6328
  155.0000    10.3776     0.0694     0.1303   100.2662     2.4450     0.3109     8.2527     7.1407     5.2977   -57.7719
  155.5000    10.3789     0.0559     0.1240   100.8650     2.4241     0.3045     8.3071     7.1878     5.3313   -57.7685
  156.0000    10.3801     0.0560     0.1209   101.1689     2.4338     0.3038     8.4203     7.2356     5.4029   -57.6211
  156.5000    10.3811     0.0592     0.1186   101.1777     2.4429     0.3050     8.5940     7.2838     5.4384   -57.1934
  157.0000    10.3824     0.0608     0.1144   101.1866     2.4556     0.3103     8.7110     7.2814     5.5499   -56.9389
  157.5000    10.3836     0.0670     0.1072   101.0457     2.4586     0.3100     8.9522     7.3303     5.7008   -56.6082
  158.0000    10.3847     0.0762     0.0979   102.9742     2.4692     0.3039     8.9493     7.3786     5.8173   -56.6040
  158.5000    10.3858     0.0915     0.1018   102.9830     2.4961     0.3006     9.0089     7.4277     5.9361   -56.7439
  159.0000    10.3872     0.0901     0.1056   102.6969     2.4880     0.3008     9.1316     7.4253     6.0574   -56.7405
  159.5000    10.3883     0.0856     0.1083   101.5258     2.4827     0.3020     9.1292     7.4234     6.2232   -57.0237
  160.0000    10.3894     0.0813     0.1103   100.9447     2.4731     0.3005     9.1262     7.4215     6.2641   -57.0195
  160.5000    10.3907     0.0799     0.1070   100.8038     2.4664     0.2995     9.1238     7.4190     6.3046   -56.8167
  161.0000    10.3917     0.0816     0.1090   100.9624     2.4724     0.2985     9.0588     7.3664     6.3446   -56.4854
  161.5000    10.3929     0.0832     0.1137   100.8237     2.4829     0.2975     8.9324     7.3642     6.3410   -56.1541
  162.0000    10.3942     0.0803     0.1203   100.3901     2.4635     0.2995     8.8682     7.1621     6.3381   -55.8228
  162.5000    10.3954     0.0623     0.1187    99.3665     2.4515     0.3027     8.7444     7.0096     6.2485   -55.5874
  163.0000    10.3966     0.0594     0.1208    97.4558     2.4433     0.3060     8.6821     6.6810     6.1601   -55.5874
  163.5000    10.3976     0.0566     0.1255    98.7943     2.4531     0.3082     8.4438     6.4086     6.1087   -55.5874
  164.0000    10.3988     0.0506     0.1258   101.3105     2.4344     0.3130     8.1555     6.2758     5.8639   -55.5874
  164.5000    10.4000     0.0508     0.1242   101.7618     2.4322     0.3176     8.0412     6.2309     5.6626   -55.5874
  165.0000    10.4013     0.0570     0.1227   101.3260     2.4360     0.3191     7.9839     6.1437     5.5061   -55.7307
  165.5000    10.4024     0.0707     0.1154    99.5671     2.4435     0.3295     7.8725     6.1421     5.3460   -55.8739
