~VERSION INFORMATION
 VERS.                2.0:   CWLS LOG ASCII STANDARD - VERSION 2.0
 WRAP.                 NO:   ONE LINE PER DEPTH STEP
~WELL INFORMATION
#MNEM.UNIT      DATA TYPE    INFORMATION
#----------   ------------   ------------------------------
 STRT.F           82.0000:   START DEPTH
 STOP.F         1194.0000:   STOP DEPTH
 STEP.F            0.5000:   STEP LENGTH
 NULL.          -999.2500:   NO VALUE
 COMP.       INTEX OIL CO:   COMPANY
 WELL.   76S-11 NPR #3-11:   WELL
 FLD .             TEAPOT:   FIELD
 LOC .      S11 T38N R78W:   LOCATION
 CNTY.            NATRONA:   COUNTY
 STAT.            WYOMING:   STATE
 CTRY. UNITED STATES OF AMERICA:   COUNTRY
 SRVC.       Schlumberger:   SERVICE COMPANY
 DATE.        30-AUG-1966:   LOGDATE
 API .       490250972800:   API NUMBER
~CURVE INFORMATION
#MNEM.UNIT       API CODE    CURVE DESCRIPTION
#----------   ------------   ------------------------------
 DEPT.F                  :   
 SPR .MV     05 010 01 00:   SPONTANEOUS POTENTIAL FROM RES.
 CILD.MMHO   05 110 46 00:   CONDUCTIVITY INDUCTION LOG DEEP
 ILD .OHMM   05 120 46 00:   INDUCTION LOG DEEP
 ASN .OHMM   05 041 16 00:   AMPLIFIED SHORT NORMAL 16"
 CALD.IN     45 280 60 00:   CALIPER FROM DENSITY LOG
 CORR.G/C3   45 356 01 00:   DENSITY CORRECTION
 RHOB.G/C3   45 350 01 00:   BULK DENSITY
 DPHI.DEC    45 890 12 00:   DENSITY POROSITY SANDSTONE
 GRD .GAPI   45 310 01 00:   GAMMA RAY FROM DENSITY LOG
~PARAMETER INFORMATION
#MNEM.UNIT          VALUE    DESCRIPTION
#----------   ------------   ------------------------------
 PD  .                 GL:   PERMANENT DATUM
 EPD .F              5261:   ELEVATION PERMANENT DATUM
 LMF .                 KB:   LOG MEASURED FROM
 DAPD.F                 5:   FEET ABOVE PERMANENT DATUM
 DMF .                 KB:   DRILLING MEASURED FROM
 EKB .F              5266:   KELLING BUSHING
 EGL .F              5261:   GROUND LEVEL
 DATE.            8-30-66:   RUN DATE
 RUN .                  1:   RUN NUMBER
 DD  .F              1191:   DEPTH DRILLER
 DL  .F              1191:   DEPTH LOGGER
 BLI .F              1190:   BOTTOM LOG INTERVAL
 TLI .F                87:   TOP LOG INTERVAL
 CS  .IN            8.625:   CASING SIZE
 CBD .F                10:   CASING BOTTOM DRILLER
 BS  .IN             6.75:   BIT SIZE
 BSD .F              1191:   BIT SIZE AT DEPTH
 DFT .           CHEM-GEL:   DRILLING FLUID TYPE
 DFD .                9.8:   DRILLING FLUID DENSITY
 DFV .                 60:   DRILLING FLUID VISCOSITY
 MSS .         CIRCULATED:   MUD SAMPLE SOURCE
 RMS .OHMM            .76:   RESISTIVITY MUD SAMPLE
 MST .F                85:   MUD SAMPLE TEMPERATURE
 RMF .OHMM            .46:   RESISTIVITY MUD FILTRATE SAMPLE
 MFST.F                88:   MUD FILTRATE SAMPLE TEMPERATURE
 MFSS.                  M:   MUD FILTRATE SAMPLE SOURCE
 RMB .OHMM           .695:   RESISTIVITY MUD AT BHT
 BHT .F                93:   BOTTOM HOLE TEMPERATURE
 TCS .HRS               1:   TIME CURCULATED STOPPED
 MRT .F                93:   MAXIMUM RECORDED TEMPERATURE
 LUN .               3527:   LOGGING UNIT NUMBER
 LUL .               CSPR:   LOGGING UNIT LOCATION
 ENGI.               HAUG:   RECORDING ENGINEER
 WITN.                MAY:   WITNESSED BY
 CLNT.            A2DTECH:   CLIENT CODE
 ORIG. 2", 2.5", 5" PRINT:   ORIGIN OF DATA
 UWI .       490250972800:   UNIQUE WELL ID
 DICO. A2D Technologies, Inc.:   DIGITIZING COMPANY
~OTHER INFORMATION
~A   DEPT      SPR        CILD       ILD          ASN     CALD       CORR       RHOB       DPHI        GRD   
# ...
 1067.5000   -44.8222   101.8604     9.3315    12.2944     7.0801     0.0635     2.4019     0.1521    89.5738
 1068.0000   -44.8415   102.3773     9.3310    12.3181     7.0793     0.0692     2.3979     0.1552    89.7591
 1068.5000   -44.8787   102.8942     9.3313    12.2834     7.0786     0.0677     2.4043     0.1533    89.4985
 1069.0000   -44.7550   103.4111     9.3187    12.2664     7.0779     0.0733     2.4141     0.1485    89.3012
 1069.5000   -44.4180   103.9280     9.1601    12.2260     7.0772     0.0611     2.4167     0.1437    90.8823
 1070.0000   -44.3298   104.5409     9.0464    12.2705     7.0765     0.0681     2.4230     0.1409    92.6424
 1070.5000   -44.5485   105.2894     8.9484    12.3616     7.0757     0.0852     2.4308     0.1366    94.3759
 1071.0000   -44.6400   103.7591     8.9432    12.5667     7.0750     0.0901     2.4326     0.1337    96.0939
 1071.5000   -44.3036   102.0792     9.1183    12.8416     7.0743     0.0701     2.4330     0.1356    96.2367
 1072.0000   -43.9121    98.4443     9.4355    13.2784     7.0736     0.0604     2.4371     0.1376    95.5480
 1072.5000   -43.5203    93.1079    10.0296    14.0344     7.0729     0.0738     2.4704     0.1141    93.5133
 1073.0000   -43.4645    87.7715    10.6230    15.0838     7.0721     0.0930     2.4986     0.0945    91.3734
 1073.5000   -43.4806    83.3333    11.2233    16.6630     7.0714     0.1059     2.5306     0.0752    89.0029
 1074.0000   -43.4325    79.5233    11.8008    18.2422     7.0707     0.1084     2.5642     0.0556    81.6024
 1074.5000   -42.9074    76.2622    12.1043    19.5143     7.0700     0.1040     2.5976     0.0360    74.5744
 1075.0000   -42.6449    72.3611    12.5574    20.6088     7.0692     0.1000     2.6224     0.0235    71.6260
 1075.5000   -42.6801    73.3451    12.5068    20.1826     7.0685     0.1117     2.6247     0.0156    71.2249
 1076.0000   -42.6663    77.8178    11.8258    18.9202     7.0678     0.1231     2.5923     0.0446    73.4505
 1076.5000   -42.6536    83.3258    11.2226    17.3074     7.0671     0.1049     2.5589     0.0929    76.9356
 1077.0000   -42.4303    88.8501    10.5742    16.0274     7.0664     0.0887     2.5309     0.0961    80.1817
 1077.5000   -42.2950    95.2314     9.9523    14.9399     7.0656     0.0747     2.5203     0.0992    81.9186
 1078.0000   -42.4670    98.3724     9.2853    13.8523     7.0649     0.0681     2.4974     0.1071    83.6871
 1078.5000   -42.6378   102.0706     9.0206    12.6248     7.0642     0.0765     2.4936     0.1112    87.1781
 1079.0000   -42.6204   105.7623     8.8308    12.2832     7.0635     0.0716     2.4820     0.1136    90.9393
 1079.5000   -42.4473   108.5498     8.6109    11.9262     7.0627     0.0600     2.4682     0.1158    90.7968
 1080.0000   -42.2803   109.1322     8.4425    11.6212     7.0620     0.0652     2.4606     0.1174    90.3316
 1080.5000   -42.6452   109.6994     8.4355    11.4271     7.0613     0.0752     2.4740     0.1151    89.7605
 1081.0000   -42.8367   110.2673     8.4539    11.3057     7.0606     0.0864     2.5000     0.1063    89.2774
 1081.5000   -43.0434   110.8443     8.4676    11.2753     7.0599     0.0917     2.4946     0.1095    88.7654
 1082.0000   -42.6853   111.4335     8.4830    11.2450     7.0591     0.0844     2.4717     0.1174    88.2615
 1082.5000   -42.4814   112.0265     8.4975    11.2146     7.0584     0.0713     2.4518     0.1252    87.7293
 1083.0000   -42.5949   112.1637     8.5119    11.1838     7.0577     0.0629     2.4516     0.1252    87.2617
 1083.5000   -42.6699   111.9621     8.5271    11.1534     7.0570     0.0751     2.4576     0.1219    86.7542
 1084.0000   -42.4824   111.7605     8.5337    11.1234     7.0563     0.0836     2.4622     0.1197    87.8820
 1084.5000   -42.0456   111.5589     8.5387    11.0932     7.0555     0.0777     2.4563     0.1221    89.2938
 1085.0000   -41.9069   111.3573     8.5472    11.0628     7.0548     0.0692     2.4510     0.1245    90.8132
 1085.5000   -42.1114   111.1557     8.5547    11.0323     7.0541     0.0754     2.4669     0.1188    91.1703
 1086.0000   -42.2077   110.9541     8.5628    11.0021     7.0534     0.0927     2.4886     0.1118    89.3847
 1086.5000   -41.8462   110.7525     8.5706    10.9712     7.0526     0.1017     2.5004     0.1047    87.5036
 1087.0000   -41.2975   110.5509     8.5785    10.9416     7.0519     0.0971     2.4857     0.1039    88.7368
 1087.5000   -41.1288   110.3493     8.5863    10.9096     7.0512     0.0938     2.4718     0.1069    90.2896
 1088.0000   -41.3706   110.1477     8.5942    10.8821     7.0505     0.0896     2.4679     0.1079    91.9239
 1088.5000   -41.5967   109.9461     8.6021    10.8448     7.0498     0.0830     2.4705     0.1055    93.4791
 1089.0000   -41.5344   109.7445     8.6100    10.8441     7.0490     0.0755     2.4629     0.1111    95.2407
 1089.5000   -41.2689   109.5429     8.6178    10.9097     7.0483     0.0681     2.4655     0.1101    96.0029
 1090.0000   -41.2681   109.3413     8.6259    10.9707     7.0476     0.0651     2.4685     0.1071    94.8362
 1090.5000   -41.2639   109.1633     8.6324    11.0357     7.0469     0.0534     2.4632     0.1095    94.2068
 1091.0000   -41.2488   108.9953     8.6329    11.0969     7.0461     0.0485     2.4547     0.1122    94.6510
 1091.5000   -41.0394   108.8273     8.6329    11.1630     7.0454     0.0568     2.4542     0.1134    95.3816
 1092.0000   -40.8891   108.6593     8.6329    11.2213     7.0447     0.0704     2.4585     0.1135    96.0683
 1092.5000   -41.0316   108.4913     8.6329    11.2955     7.0440     0.0706     2.4630     0.1123    96.7782
 1093.0000   -41.1824   108.2834     8.6331    11.3047     7.0436     0.0689     2.4649     0.1107    96.8176
 1093.5000   -41.3441   108.9009     8.6329    11.2205     7.0437     0.0674     2.4687     0.1097    96.1909
 1094.0000   -41.4388   109.7109     8.6319    11.1467     7.0437     0.0713     2.4761     0.1084    94.8524
 1094.5000   -41.2277   110.5176     8.5984    11.0668     7.0437     0.0712     2.4721     0.1071    93.4459
 1095.0000   -41.0696   111.3279     8.5509    10.9903     7.0437     0.0646     2.4606     0.1098    91.9108
 1095.5000   -40.9828   112.1389     8.5058    10.9118     7.0437     0.0650     2.4546     0.1142    91.1179
 1096.0000   -40.8695   112.9502     8.4596    10.8346     7.0437     0.0742     2.4664     0.1108    91.5009
 1096.5000   -40.7632   113.7611     8.4140    10.7562     7.0437     0.0827     2.4775     0.1053    91.7810
 1097.0000   -40.6517   114.5716     8.3680    10.6796     7.0437     0.0857     2.4892     0.0985    93.4168
 1097.5000   -40.5451   115.3810     8.3221    10.5996     7.0437     0.0923     2.5055     0.0912    94.1493
 1098.0000   -40.4365   116.1904     8.2763    10.5352     7.0437     0.1106     2.5299     0.0820    93.3099
 1098.5000   -40.2030   117.0008     8.2301    10.5481     7.0437     0.1437     2.5535     0.0670    93.4545
 1099.0000   -40.0114   117.4766     8.1847    10.5705     7.0437     0.1358     2.5652     0.0528    95.0654
 1099.5000   -39.7787   117.7901     8.1378    10.5879     7.0437     0.1186     2.5430     0.0626    96.2683
 1100.0000   -39.6530   118.1037     8.0937    10.6124     7.0437     0.1023     2.5243     0.0747    97.1549
 1100.5000   -39.7497   118.4172     8.0446    10.6212     7.0437     0.0974     2.5148     0.0818    93.0782
 1101.0000   -39.8225   118.7308     8.0428    10.6791     7.0437     0.1079     2.5102     0.0874    92.8345
 1101.5000   -39.9053   119.0443     8.1503    10.8463     7.0437     0.1176     2.5121     0.0857    92.3352
 1102.0000   -39.9850   118.5699     8.2590    11.0111     7.0437     0.1263     2.5153     0.0842    92.4939
 1102.5000   -40.0706   116.3199     8.3626    11.1789     7.0437     0.1112     2.5004     0.0826    92.6917
 1103.0000   -40.4247   114.0699     8.4765    11.3453     7.0437     0.0831     2.4726     0.1023    92.9138
 1103.5000   -40.8126   111.8199     8.5687    11.5117     7.0437     0.0893     2.4811     0.1076    92.4014
