~VERSION INFORMATION
 VERS.                2.0:   CWLS LOG ASCII STANDARD - VERSION 2.0
 WRAP.                 NO:   ONE LINE PER DEPTH STEP
~WELL INFORMATION
#MNEM.UNIT      DATA TYPE    INFORMATION
#----------   ------------   ------------------------------
 STRT.F           36.0000:   START DEPTH
 STOP.F          518.0000:   STOP DEPTH
 STEP.F            0.5000:   STEP LENGTH
 NULL.          -999.2500:   NO VALUE
 COMP.    FENIX & SCISSON:   COMPANY
 WELL.        NPR #57S-10:   WELL
 FLD .             TEAPOT:   FIELD
 LOC .      S10 T38N R78W:   LOCATION
 CNTY.            NATRONA:   COUNTY
 STAT.            WYOMING:   STATE
 CTRY. UNITED STATES OF AMERICA:   COUNTRY
 SRVC.              Welex:   SERVICE COMPANY
 DATE.        11-MAR-1977:   LOGDATE
 API .       490251029100:   API NUMBER
~CURVE INFORMATION
#MNEM.UNIT       API CODE    CURVE DESCRIPTION
#----------   ------------   ------------------------------
 DEPT.F                  :   
 SPR .MV     07 010 01 00:   SPONTANEOUS POTENTIAL
 ILD .OHMM   07 120 46 00:   INDUCTION LOG DEEP
 ILM .OHMM   07 120 44 00:   INDUCTION LOG MEDIUM
 SGUR.OHMM   07 220 01 00:   SHORT GUARD RESISITIVITY
 CORR.G/C3   45 356 01 00:   DENSITY CORRECTION
 CALD.IN     45 280 60 00:   CALIPER
 GRD .GAPI   45 310 01 00:   GAMMA RAY FROM DENSITY LOG
 RHOB.G/C3   45 350 01 00:   BULK DENSITY
 DPOR.DEC    45 890 12 00:   DENSITY POROSITY SANDSTONE
~PARAMETER INFORMATION
#MNEM.UNIT          VALUE    DESCRIPTION
#----------   ------------   ------------------------------
 PD  .                 GL:   PERMANENT DATUM
 EPD .F              5244:   ELEVATION PERMANENT DATUM
 LMF .                 GL:   LOG MEASURED FROM
 DMF .                 GL:   DRILLING MEASURED FROM
 EGL .F              5244:   GROUND LEVEL
 DATE.          3-11-1977:   RUN DATE
 RUN .                  1:   RUN NUMBER
 DD  .F               530:   DEPTH DRILLER
 DL  .F               522:   DEPTH LOGGER
 BLI .F               520:   BOTTOM LOG INTERVAL
 TLI .F                35:   TOP LOG INTERVAL
 CS  .IN            8.625:   CASING SIZE
 CBD .F                40:   CASING BOTTOM DRILLER
 CBL .F                44:   CASING BOTTOM LOGGER
 BS  .IN            7.875:   BIT SIZE
 BSD .F               530:   BIT SIZE AT DEPTH
 DFT .            KCL MUD:   DRILLING FLUID TYPE
 DFD .                8.8:   DRILLING FLUID DENSITY
 DFV .                  8:   DRILLING FLUID VISCOSITY
 DFPH.                 10:   DRILLING FLUID PH
 DFL .               12.4:   DRILLING FLUID LOSS
 MSS .           FLOWLINE:   MUD SAMPLE SOURCE
 RMS .OHMM           .398:   RESISTIVITY MUD SAMPLE
 MST .F                50:   MUD SAMPLE TEMPERATURE
 RMF .OHMM           .276:   RESISTIVITY MUD FILTRATE SAMPLE
 MFST.F                60:   MUD FILTRATE SAMPLE TEMPERATURE
 RMC .OHMM            .42:   RESISTIVITY MUD CAKE
 MCST.F                60:   MUD CAKE SAMPLE TEMPERATURE
 MFSS.           MEASURED:   MUD FILTRATE SAMPLE SOURCE
 RMB .OHMM            .31:   RESISTIVITY MUD AT BHT
 BHT .F                64:   BOTTOM HOLE TEMPERATURE
 TCS .HRS             2.5:   TIME CURCULATED STOPPED
 MRT .F                64:   MAXIMUM RECORDED TEMPERATURE
 LUN .               8611:   LOGGING UNIT NUMBER
 LUL .           GILLETTE:   LOGGING UNIT LOCATION
 ENGI.               DOAK:   RECORDING ENGINEER
 WITN.         STUEBINGER:   WITNESSED BY
 CLNT.            A2DTECH:   CLIENT CODE
 ORIG.      2" & 5" PRINT:   ORIGIN OF DATA
 UWI .       490251029100:   UNIQUE WELL ID
 DICO. A2D Technologies, Inc.:   DIGITIZING COMPANY
~OTHER INFORMATION
~A   DEPT      SPR        ILD        ILM       SGUR        CORR        CALD      GRD       RHOB       DPOR   
# ...
  474.0000   -42.0564    12.1264    15.6005    17.7013     0.0395     7.8397   108.4973     2.4991     0.0909
  474.5000   -42.3898    11.9476    15.3998    17.4254     0.0379     7.8426   105.8551     2.5071     0.0902
  475.0000   -42.7249    12.0495    15.0696    18.5844     0.0399     7.8426   101.9510     2.5150     0.0827
  475.5000   -43.0574    12.1769    14.7475    19.9264     0.0419     7.8426   102.9025     2.5228     0.0752
  476.0000   -43.3919    12.2805    14.4952    20.7714     0.0438     7.8426   104.5998     2.5274     0.0703
  476.5000   -43.6045    12.1120    15.0103    18.3757     0.0460     7.8426   106.3139     2.5311     0.0679
  477.0000   -43.7145    11.9733    15.4537    18.2070     0.0493     7.8426   108.0160     2.5347     0.0667
  477.5000   -43.8218    11.8359    15.9102    18.0399     0.0484     7.8426   108.0741     2.5316     0.0700
  478.0000   -43.9288    11.6973    16.1836    17.6315     0.0475     7.8426   107.7563     2.5207     0.0759
  478.5000   -44.0367    11.6253    15.8195    17.0276     0.0465     7.8426   106.6424     2.5142     0.0798
  479.0000   -44.1427    12.0536    15.5623    16.9438     0.0456     7.8426   105.5670     2.5209     0.0746
  479.5000   -44.1476    11.8923    15.3160    17.2764     0.0447     7.8426   106.3604     2.5275     0.0703
  480.0000   -44.1470    11.7770    15.3160    18.4105     0.0437     7.8426   109.6183     2.5339     0.0686
  480.5000   -44.1469    11.6629    15.3160    17.8912     0.0428     7.8426   110.7939     2.5279     0.0700
  481.0000   -44.1471    11.5498    15.3143    17.1040     0.0419     7.8426   109.3628     2.5255     0.0720
  481.5000   -44.1468    11.4379    15.3139    17.3752     0.0430     7.8426   107.6185     2.5256     0.0740
  482.0000   -44.1252    11.3270    15.6286    17.5827     0.0442     7.8426   106.6847     2.5234     0.0732
  482.5000   -44.0075    11.2173    15.8876    16.6383     0.0455     7.8426   108.4190     2.5276     0.0716
  483.0000   -43.8918    11.1086    16.0371    16.7022     0.0454     7.8424   110.4448     2.5325     0.0707
  483.5000   -43.7765    11.0009    15.9412    16.7921     0.0446     7.8482   112.5131     2.5294     0.0741
  484.0000   -43.6616    10.8943    15.7381    16.2755     0.0437     7.8547   112.5928     2.5206     0.0778
  484.5000   -43.5471    10.7887    15.0810    15.6772     0.0429     7.8613   111.5782     2.5119     0.0810
  485.0000   -43.3928    10.6842    14.3625    14.8990     0.0421     7.8679   110.5496     2.5054     0.0826
  485.5000   -43.2408    10.5806    14.5344    15.0835     0.0412     7.8744   109.5190     2.5055     0.0834
  486.0000   -43.0892    10.4614    14.7404    15.3760     0.0404     7.8810   108.4889     2.5063     0.0838
  486.5000   -42.9375    10.2926    14.8990    15.6005     0.0378     7.8876   109.3902     2.5078     0.0814
  487.0000   -42.7866    10.1264    14.2800    15.0589     0.0405     7.8942   112.4934     2.5159     0.0773
  487.5000   -42.6345     9.9630    13.8016    14.4934     0.0432     7.9007   115.5872     2.5278     0.0715
  488.0000   -42.6213     9.8805    13.3393    15.0848     0.0459     7.9073   118.7045     2.5398     0.0652
  488.5000   -42.7400     9.8125    12.8925    15.6005     0.0486     7.9139   118.3837     2.5455     0.0606
  489.0000   -42.8600     9.7448    12.5508    14.9981     0.0513     7.9205   116.2638     2.5423     0.0602
  489.5000   -42.9796     9.6777    12.2648    14.3224     0.0540     7.9270   116.1941     2.5484     0.0599
  490.0000   -43.1012     9.6110    11.9854    13.6771     0.0553     7.9336   118.0285     2.5523     0.0614
  490.5000   -43.0134     9.5448    11.7123    13.4649     0.0526     7.9405   119.4756     2.5419     0.0650
  491.0000   -42.7580     9.4790    11.4454    13.6904     0.0501     7.9389   120.9276     2.5320     0.0686
  491.5000   -42.5009     9.4137    11.2016    13.7605     0.0476     7.9342   122.3805     2.5271     0.0722
  492.0000   -42.2435     9.3488    11.2706    13.8135     0.0450     7.9294   123.8442     2.5222     0.0758
  492.5000   -41.9861     9.2844    11.3358    13.9341     0.0425     7.9246   124.8581     2.5172     0.0778
  493.0000   -41.7298     9.2204    11.4013    14.1332     0.0400     7.9199   123.7997     2.5123     0.0790
  493.5000   -41.4686     9.1569    11.4672    14.3578     0.0375     7.9151   122.0583     2.5052     0.0829
  494.0000   -41.5219     9.0938    11.5152    13.9401     0.0349     7.9103   118.5566     2.4967     0.0877
  494.5000   -41.7684     9.0311    11.3052    13.4799     0.0324     7.9056   114.6139     2.4885     0.0925
  495.0000   -42.0187     8.9689    11.3052    12.9783     0.0329     7.9008   115.6415     2.4899     0.0972
  495.5000   -42.2710     8.9071    11.3453    13.2827     0.0340     7.8960   117.6009     2.4867     0.0982
  496.0000   -42.5308     8.7769    11.4888    13.4649     0.0351     7.8912   117.8271     2.4866     0.0940
  496.5000   -42.2256     8.6395    11.6216    12.6231     0.0362     7.8865   117.4316     2.4973     0.0887
  497.0000   -41.8263     8.5044    11.2134    12.5832     0.0374     7.8822   118.7427     2.5081     0.0834
  497.5000   -41.4245     8.3713    10.8284    12.5442     0.0385     7.8814   120.0318     2.5058     0.0810
  498.0000   -41.0221     8.2403    10.4067    12.5088     0.0397     7.8805   121.3228     2.5028     0.0834
  498.5000   -40.6179     8.1114    10.5060    12.4400     0.0381     7.8796   122.6432     2.4999     0.0871
  499.0000   -40.7836     7.9845    10.6183    12.3763     0.0356     7.8787   123.9803     2.4969     0.0910
  499.5000   -41.0233     7.8350    10.6980    12.3131     0.0332     7.8779   123.3697     2.4958     0.0918
  500.0000   -41.2641     7.6217    10.4561    12.2503     0.0307     7.8769   117.7212     2.4964     0.0874
  500.5000   -41.5037     7.4175    10.2733    12.1687     0.0282     7.8761  -999.2500     2.4969     0.0897
  501.0000   -41.7431     7.2182    10.0938    12.2880     0.0314     7.8752  -999.2500     2.4974     0.0923
  501.5000   -41.9827     7.0242     9.9190    12.4622     0.0354     7.8743  -999.2500     2.4944     0.0953
  502.0000   -42.2217     6.8355     9.7549    12.6250     0.0353     7.8734  -999.2500     2.4879     0.0986
  502.5000   -42.4631     6.6518     9.4151    12.6250     0.0344     7.8725  -999.2500     2.4815     0.1019
  503.0000   -42.5392     6.4730     9.0651    10.0000     0.0334     7.8716  -999.2500     2.4747     0.1038
  503.5000   -42.5096     6.4130     9.2465     8.3276     0.0325     7.8707  -999.2500     2.4835     0.0992
  504.0000   -42.4781     6.3904     9.4604     7.0062     0.0335     7.8698  -999.2500     2.5007     0.0902
  504.5000   -42.4467     6.8155     9.6796    10.0653     0.0374     7.8689  -999.2500     2.5182     0.0799
  505.0000   -42.4169     6.8155     9.9006    12.2841     0.0412     7.8680  -999.2500     2.5258     0.0739
  505.5000   -42.3816     6.8155    10.2926    12.5463     0.0451     7.8671  -999.2500     2.5329     0.0701
  506.0000   -42.1835     6.8791    10.7255    12.8140     0.0472     7.8662  -999.2500     2.5400     0.0662
  506.5000   -41.4474     7.1567    11.1780    13.6525     0.0489     7.8653  -999.2500     2.5470     0.0624
  507.0000   -40.7409     7.4456    11.6496    14.2568     0.0506     7.8644  -999.2500     2.5429     0.0599
  507.5000   -40.0368     7.7461    12.1413    14.3222     0.0523     7.8635  -999.2500     2.5364     0.0625
  508.0000   -39.2300     8.0587    12.6530    14.3878     0.0540     7.8626  -999.2500     2.5301     0.0681
  508.5000   -38.2701     8.3836    13.1387    14.4538     0.0559     7.8659  -999.2500     2.5236     0.0737
  509.0000   -34.6608     8.7224    13.3415    14.6498     0.0614     7.8696  -999.2500     2.5206     0.0793
  509.5000   -30.5170     9.0744    14.2291    15.0460     0.0674     7.8732  -999.2500     2.5211     0.0814
  510.0000   -26.8139     9.9952    15.5825    15.4576     0.0735     7.8769  -999.2500     2.5059     0.0800
