~VERSION INFORMATION
 VERS.                2.0:   CWLS LOG ASCII STANDARD - VERSION 2.0
 WRAP.                 NO:   ONE LINE PER DEPTH STEP
~WELL INFORMATION
#MNEM.UNIT      DATA TYPE    INFORMATION
#----------   ------------   ------------------------------
 STRT.F           24.0000:   START DEPTH
 STOP.F          464.0000:   STOP DEPTH
 STEP.F            0.5000:   STEP LENGTH
 NULL.          -999.2500:   NO VALUE
 COMP.    FENIX & SCISSON:   COMPANY
 WELL.       NPR #62-S-10:   WELL
 FLD .             TEAPOT:   FIELD
 LOC .      S10 T38N R78W:   LOCATION
 CNTY.            NATRONA:   COUNTY
 STAT.            WYOMING:   STATE
 CTRY. UNITED STATES OF AMERICA:   COUNTRY
 SRVC.              Welex:   SERVICE COMPANY
 DATE.        12-APR-1977:   LOGDATE
 API .       490251033300:   API NUMBER
~CURVE INFORMATION
#MNEM.UNIT       API CODE    CURVE DESCRIPTION
#----------   ------------   ------------------------------
 DEPT.F                  :   
 SPR .MV     07 010 01 00:   SPONTANEOUS POTENTIAL
 ILD .OHMM   07 120 46 00:   INDUCTION LOG DEEP
 ILM .OHMM   07 120 44 00:   INDUCTION LOG MEDIUM
 SGRD.OHMM   07 221 05 00:   SHALLOW SHORT GUARD RESISTIVITY
 GRD .GAPI   45 310 01 00:   GAMMA RAY FROM DENSITY LOG
 CALD.IN     45 280 60 00:   CALIPER FROM DENSITY LOG
 CORR.G/C3   45 356 01 00:   DENSITY CORRECTION
 RHOB.G/C3   45 350 01 00:   BULK DENSITY
 DPHI.DEC    45 890 12 00:   DENSITY POROSITY SANDSTONE
~PARAMETER INFORMATION
#MNEM.UNIT          VALUE    DESCRIPTION
#----------   ------------   ------------------------------
 PD  .                 GL:   PERMANENT DATUM
 EPD .F              5155:   ELEVATION PERMANENT DATUM
 LMF .                 GL:   LOG MEASURED FROM
 DMF .                 GL:   DRILLING MEASURED FROM
 EGL .F              5155:   GROUND LEVEL
 DATE.        12-APR-1977:   RUN DATE
 RUN .                  1:   RUN NUMBER
 DD  .F               460:   DEPTH DRILLER
 DL  .F               464:   DEPTH LOGGER
 BLI .F               462:   BOTTOM LOG INTERVAL
 TLI .F                30:   TOP LOG INTERVAL
 CS  .IN            8.625:   CASING SIZE
 BS  .IN            7.875:   BIT SIZE
 BSD .F               460:   BIT SIZE AT DEPTH
 DFT .            KCL GEL:   DRILLING FLUID TYPE
 DFD .                8.8:   DRILLING FLUID DENSITY
 TCS .HRS            0100:   TIME CURCULATED STOPPED
 MRT .F                65:   MAXIMUM RECORDED TEMPERATURE
 ENGI.        E. CALLAHAN:   RECORDING ENGINEER
 WITN.            R. LYON:   WITNESSED BY
 CLNT.            A2DTECH:   CLIENT CODE
 ORIG.           5" PRINT:   ORIGIN OF DATA
 UWI .       490251033300:   UNIQUE WELL ID
 DICO. A2D Technologies, Inc.:   DIGITIZING COMPANY
~OTHER INFORMATION
~A   DEPT      SPR        ILD        ILM       SGRD        GRD       CALD       CORR       RHOB       DPHI   
# ...
  352.5000   -29.4989    12.2749    15.9214    19.7663    96.5448     8.0876     0.0478     2.4973     0.0963
  353.0000   -29.6402    12.2819    15.2885    19.7745    96.7082     8.0739     0.0449     2.4771     0.1035
  353.5000   -29.9256    12.2887    15.4064    19.7827    97.1713     8.0606     0.0360     2.4696     0.1098
  354.0000   -30.0670    12.3809    15.9609    19.9319    98.0843     8.0466     0.0316     2.4847     0.1047
  354.5000   -30.5016    12.4737    16.5354    20.5042    99.2971     8.0483     0.0286     2.4825     0.1044
  355.0000   -30.6430    12.4807    16.0963    21.6702   101.2595     8.0496     0.0257     2.4698     0.1089
  355.5000   -30.9310    12.4015    15.7746    20.5023   102.4723     8.0510     0.0243     2.4608     0.1152
  356.0000   -31.2164    12.2380    15.7896    19.5461   100.6747     8.0523     0.0259     2.4699     0.1122
  356.5000   -31.3578    12.1588    16.1331    18.8893    99.4838     8.0836     0.0276     2.4828     0.1068
  357.0000   -31.4965    12.0834    16.2545    18.5146    99.0642     8.0999     0.0323     2.4919     0.1010
  357.5000   -31.3342    12.0901    15.7167    18.6509    99.0776     8.1012     0.0384     2.4950     0.0973
  358.0000   -31.1744    11.9307    14.9849    18.7881    98.6412     8.1026     0.0458     2.5033     0.0953
  358.5000   -31.0147    11.7717    14.6854    18.7959    98.6546     8.1185     0.0519     2.5079     0.0911
  359.0000   -30.5564    11.6181    14.5953    18.6740    98.2215     8.1049     0.0520     2.5083     0.0875
  359.5000   -30.2474    11.5429    15.1235    18.4252    97.9317     8.1066     0.0476     2.4960     0.0890
  360.0000   -29.9384    11.4697    15.6649    18.1714    97.4954     8.1079     0.0462     2.4878     0.0930
  360.5000   -29.7786    11.3970    15.3145    17.8053    97.2122     8.0793     0.0418     2.4811     0.1005
  361.0000   -29.7681    11.3248    14.8253    17.5677    96.7759     8.0807     0.0358     2.4759     0.1073
  361.5000   -29.7576    11.3326    14.6510    17.3422    96.1896     8.0820     0.0299     2.4722     0.1102
  362.0000   -29.7493    11.4176    14.6627    17.3496    95.9031     8.0833     0.0255     2.4692     0.1117
  362.5000   -29.7388    11.4240    14.5559    17.3668    96.0664     8.0996     0.0196     2.4663     0.1129
  363.0000   -29.7503    11.5096    14.1545    17.8617    96.3797     8.1010     0.0151     2.4626     0.1147
  363.5000   -29.8861    11.5959    13.9044    18.6146    96.9928     8.1173     0.0122     2.4589     0.1165
  364.0000   -30.1555    11.6024    14.0120    18.1029    97.6059     8.1486     0.0123     2.4551     0.1183
  364.5000   -30.4435    11.4494    14.0227    18.1342    98.0690     8.1649     0.0139     2.4507     0.1204
  365.0000   -30.5823    11.2984    14.0333    18.4076    97.6326     8.1812     0.0170     2.4444     0.1234
  365.5000   -30.4224    11.2253    14.1415    18.6455    96.8964     8.1825     0.0201     2.4404     0.1255
  366.0000   -30.2627    11.1541    14.3495    18.2571    96.3101     8.1689     0.0247     2.4515     0.1225
  366.5000   -30.1030    11.1619    14.4602    17.7793    95.8704     8.1552     0.0248     2.4631     0.1176
  367.0000   -30.2418    11.1681    14.5714    17.5424    96.0370     8.1566     0.0234     2.4639     0.1152
  367.5000   -30.5299    11.0973    14.0675    17.4287    96.3503     8.1429     0.0174     2.4512     0.1164
  368.0000   -30.6687    11.1034    13.4307    17.4361    96.9634     8.1443     0.0130     2.4543     0.1200
  368.5000   -30.5088    11.1096    13.5427    17.3230    97.7264     8.1290     0.0101     2.4641     0.1185
  369.0000   -30.3490    11.0377    13.8444    17.3304    98.7893     8.1170     0.0117     2.4717     0.1152
  369.5000   -30.1893    11.0453    14.0322    17.2179   100.0021     8.1009     0.0133     2.4786     0.1125
  370.0000   -30.1788    11.0503    13.6534    17.2094   101.2148     8.0751     0.0164     2.4673     0.1094
  370.5000   -30.0190    11.0427    13.3837    16.9797   102.2777     8.0765     0.0195     2.4651     0.1151
  371.0000   -29.8592    10.9103    13.1240    16.7690   102.7409     8.0778     0.0227     2.4705     0.1136
  371.5000   -29.5502    10.8309    12.9535    16.5295   103.3540     8.0642     0.0258     2.4788     0.1102
  372.0000   -29.2412    10.6982    13.6068    16.1965   104.2669     8.0655     0.0318     2.4894     0.1043
  372.5000   -28.9322    10.6232    12.8779    15.8701   107.1339     8.0668     0.0351     2.4729     0.1073
  373.0000   -28.6232    10.4902    12.5416    15.5504   108.5128     8.0831     0.0410     2.4790     0.1118
  373.5000   -28.4635    10.4195    12.5512    15.4658   109.7162     8.0845     0.0441     2.4889     0.1060
  374.0000   -28.4530    10.2126    12.3027    15.7965   112.6467     8.0858     0.0442     2.4701     0.1084
  374.5000   -28.4425    10.0099    12.1423    15.2491   113.8001     8.0872     0.0398     2.4581     0.1147
  375.0000   -28.2827     9.7436    11.9024    14.6351   113.9430     8.0885     0.0354     2.4544     0.1186
  375.5000   -27.8244     9.4830    11.6668    14.1433   114.5589     8.0898     0.0294     2.4605     0.1150
  376.0000   -27.5154     9.1659    11.0469    13.6841   115.6218     8.0912     0.0250     2.4681     0.1171
  376.5000   -27.3557     8.7376    10.4599    13.5018   116.5347     8.1075     0.0236     2.4562     0.1192
  377.0000   -27.6437     8.3294    10.2528    13.2301   117.7475     8.1088     0.0252     2.4517     0.1207
  377.5000   -27.6332     7.9403    10.1196    13.0375   119.2602     8.0948     0.0313     2.4465     0.1207
  378.0000   -27.6227     7.5693     9.6485    12.7749   120.4730     8.0965     0.0374     2.4481     0.1210
  378.5000   -27.6122     7.2157     9.1993    12.4151   121.6857     8.0979     0.0420     2.4520     0.1222
  379.0000   -27.3032     6.8785     8.4324    12.0809   122.4488     8.0992     0.0391     2.4384     0.1270
  379.5000   -27.1434     6.5572     7.7182    11.5786   123.0619     8.1152     0.0331     2.4264     0.1387
  380.0000   -27.2848     6.2077     7.0591     9.3872   122.6255     8.1015     0.0317     2.4249     0.1372
  380.5000   -27.4236     5.6772     6.5917     6.6922   121.4395     8.1032     0.0333     2.4401     0.1242
  381.0000   -27.3389     5.3377     6.5332     5.5165   118.3044     8.1195     0.0349     2.4778     0.1065
  381.5000   -27.2507     5.4904     7.1724     6.9334   115.3193     8.1058     0.0395     2.5134     0.0809
  382.0000   -26.9417     5.8059     7.7451    14.5361   112.6341     8.1072     0.0411     2.5217     0.0790
  382.5000   -26.6327     6.1821     8.3058    15.1565   109.7989     8.1085     0.0412     2.5202     0.0803
  383.0000   -26.4729     6.5374     8.9072    14.0537   110.8618     8.1099     0.0413     2.5179     0.0824
  383.5000   -26.6117     7.0093     9.5520    13.8650   109.5225     8.1112     0.0429     2.5126     0.0848
  384.0000   -26.7530     7.6200    10.0331    14.2613   111.0385     8.0976     0.0430     2.5068     0.0884
  384.5000   -26.8918     8.1137    10.3935    14.3662   112.2513     8.0990     0.0446     2.5069     0.0920
  385.0000   -26.7294     8.5800    10.6189    14.1747   113.3152     8.1003     0.0447     2.5108     0.0881
  385.5000   -26.4204     9.0105    10.7001    14.1806   114.2282     8.1016     0.0463     2.5169     0.0821
  386.0000   -26.2607     9.3327    10.9322    14.1865   114.6914     8.1030     0.0463     2.5222     0.0811
  386.5000   -25.9516     9.5997    11.1693    14.2908   114.8547     8.1043     0.0479     2.5178     0.0817
  387.0000   -25.9433     9.8744    11.4116    14.4959   114.5682     8.1059     0.0480     2.5163     0.0829
  387.5000   -26.2562    10.0870    11.5787    14.8058   113.6821     8.1073     0.0481     2.5141     0.0841
  388.0000   -26.3705    10.3757    11.8298    15.1224   111.8963     8.1236     0.0482     2.5142     0.0847
  388.5000   -26.1916    10.6726    12.0030    15.5530   109.2111     8.1249     0.0483     2.5143     0.0852
