~VERSION INFORMATION
 VERS.                2.0:   CWLS LOG ASCII STANDARD - VERSION 2.0
 WRAP.                 NO:   ONE LINE PER DEPTH STEP
~WELL INFORMATION
#MNEM.UNIT      DATA TYPE    INFORMATION
#----------   ------------   ------------------------------
 STRT.F          672.0000:   START DEPTH
 STOP.F         2343.5000:   STOP DEPTH
 STEP.F            0.5000:   STEP LENGTH
 NULL.          -999.2500:   NO VALUE
 COMP. FENIX & SCISSON INC:   COMPANY
 WELL.   23 SHX-33 #23-33:   WELL
 FLD .             TEAPOT:   FIELD
 LOC .      S33 T39N R78W:   LOCATION
 CNTY.            NATRONA:   COUNTY
 STAT.            WYOMING:   STATE
 CTRY. UNITED STATES OF AMERICA:   COUNTRY
 SRVC.            Unknown:   SERVICE COMPANY
 DATE.        01-MAY-1978:   LOGDATE
 API .       490251062700:   API NUMBER
~CURVE INFORMATION
#MNEM.UNIT       API CODE    CURVE DESCRIPTION
#----------   ------------   ------------------------------
 DEPT.F                  :   
 IL  .OHMM   05 120 00 00:   INDUCTION LOG
 CIL .MMHO   05 110 00 00:   CONDUCTIVITY INDUCTION LOG
 CALD.IN     45 280 60 00:   CALIPER FROM DENSITY LOG
 GRD .GAPI   45 310 01 00:   GAMMA RAY FROM DENSITY LOG
 DPHI.DEC    45 890 12 00:   DENSITY POROSITY SANDSTONE
 RHOB.G/C3   45 350 01 00:   BULK DENSITY
 CORR.G/C3   45 356 01 00:   DENSITY CORRECTION
~PARAMETER INFORMATION
#MNEM.UNIT          VALUE    DESCRIPTION
#----------   ------------   ------------------------------
 PD  .                 GL:   PERMANENT DATUM
 EPD .F              5163:   ELEVATION PERMANENT DATUM
 LMF .                 KB:   LOG MEASURED FROM
 DAPD.F                10:   FEET ABOVE PERMANENT DATUM
 DMF .                 KB:   DRILLING MEASURED FROM
 EKB .F              5173:   KELLING BUSHING
 EGL .F              5163:   GROUND LEVEL
 DATE.           5-1-1978:   RUN DATE
 RUN .                  1:   RUN NUMBER
 DD  .F              2331:   DEPTH DRILLER
 DL  .F              2260:   DEPTH LOGGER
 BLI .F              2250:   BOTTOM LOG INTERVAL
 TLI .F               690:   TOP LOG INTERVAL
 CS  .IN            9.625:   CASING SIZE
 CBD .F               683:   CASING BOTTOM DRILLER
 CBL .F               690:   CASING BOTTOM LOGGER
 BS  .IN             8.75:   BIT SIZE
 BSD .F              2331:   BIT SIZE AT DEPTH
 DFT .                OIL:   DRILLING FLUID TYPE
 BHT .F               104:   BOTTOM HOLE TEMPERATURE
 TCS .HRS               5:   TIME CURCULATED STOPPED
 MRT .F               104:   MAXIMUM RECORDED TEMPERATURE
 LUN .               2958:   LOGGING UNIT NUMBER
 LUL .               CASP:   LOGGING UNIT LOCATION
 ENGI.             MILLER:   RECORDING ENGINEER
 WITN.           MCGINLEY:   WITNESSED BY
 CLNT.            A2DTECH:   CLIENT CODE
 ORIG.       2", 5" PRINT:   ORIGIN OF DATA
 UWI .       490251062700:   UNIQUE WELL ID
 DICO. A2D Technologies, Inc.:   DIGITIZING COMPANY
~OTHER INFORMATION
~A   DEPT       IL        CIL       CALD         GRD      DPHI       RHOB       CORR   
# ...
 1627.5000     7.0024   130.9229    10.5231   100.1534    -0.0269     2.5896     0.1205
 1628.0000     7.0510   130.0094    10.7439   100.9544    -0.0293     2.5897     0.1205
 1628.5000     7.0905   130.7141    10.7978   102.8696    -0.0421     2.5913     0.1190
 1629.0000     7.0579   131.4188    10.7592   104.6611    -0.0416     2.6021     0.1175
 1629.5000     7.0272   132.1236    10.6993   104.9756    -0.0311     2.6135     0.1060
 1630.0000     6.9970   132.8283    10.6386   105.2424    -0.0239     2.5878     0.0850
 1630.5000     6.9667   133.5330    10.5799   105.4321    -0.0190     2.5965     0.0715
 1631.0000     6.9364   134.2385    10.5712   109.3164    -0.0190     2.5865     0.0763
 1631.5000     6.9060   134.9424    10.7037   115.4846    -0.0193     2.5760     0.0770
 1632.0000     6.8756   135.6472    10.6227   116.5710    -0.0197     2.5781     0.0771
 1632.5000     6.8486   135.5051    10.5775   113.6567    -0.0200     2.5816     0.0770
 1633.0000     6.8540   135.0009    10.6128   109.7695    -0.0206     2.5819     0.0769
 1633.5000     6.8604   134.4947    10.5136   106.0964    -0.0238     2.5778     0.0811
 1634.0000     6.8668   133.9886    10.4593   107.8339    -0.0246     2.5812     0.0860
 1634.5000     6.8731   133.8384    10.5048   109.9586    -0.0319     2.5845     0.0869
 1635.0000     6.8794   133.8384    10.5438   112.1480    -0.0412     2.5836     0.0812
 1635.5000     6.8857   133.8384    10.4551   113.2024    -0.0412     2.6006     0.0750
 1636.0000     6.8920   133.8384    10.2686   112.7035    -0.0277     2.6119     0.0689
 1636.5000     6.8984   133.8384    10.3140   111.1272    -0.0271     2.6013     0.0632
 1637.0000     6.9047   133.8384    10.3221   109.5738    -0.0268     2.5951     0.0630
 1637.5000     6.9110   133.8384    10.2378   108.0193    -0.0274     2.5919     0.0635
 1638.0000     6.9173   133.8384    10.1553   106.4973    -0.0306     2.5885     0.0723
 1638.5000     6.9236   133.8384    10.0728   105.3293    -0.0333     2.5915     0.0825
 1639.0000     6.9289   133.8384     9.9898   105.0988    -0.0337     2.5986     0.0930
 1639.5000     6.9260   133.8384     9.9028   105.8072    -0.0333     2.5894     0.0919
 1640.0000     6.9230   133.8384     9.8840   107.9597    -0.0327     2.5760     0.0869
 1640.5000     6.9200   133.8384     9.9239   109.7510    -0.0321     2.5739     0.0818
 1641.0000     6.9169   133.8384     9.9786   109.9778    -0.0314     2.5793     0.0767
 1641.5000     6.9139   133.8384     9.9324   110.0744    -0.0308     2.5891     0.0716
 1642.0000     6.9109   133.8384     9.8394   109.9740    -0.0305     2.5980     0.0666
 1642.5000     6.9079   133.8384     9.9411   108.1370    -0.0321     2.5966     0.0631
 1643.0000     6.9049   133.8384     9.7963   106.2496    -0.0343     2.5952     0.0647
 1643.5000     6.9019   133.8384     9.6639   107.0818    -0.0372     2.6032     0.0694
 1644.0000     6.8988   133.8384    10.1340   108.5839    -0.0414     2.6081     0.0738
 1644.5000     6.8958   133.2702     9.8394   108.9568    -0.0456     2.5996     0.0782
 1645.0000     6.8928   132.6389     9.7076   109.0488    -0.0498     2.6094     0.0827
 1645.5000     6.8894   132.0076     9.8098   109.4903    -0.0528     2.6178     0.0849
 1646.0000     6.9058   131.3763    10.0854   110.9494    -0.0479     2.6251     0.0831
 1646.5000     6.9297   130.7449     9.7913   112.3958    -0.0408     2.6315     0.0812
 1647.0000     6.9538   130.1136     9.6184   111.8211    -0.0408     2.6154     0.0794
 1647.5000     6.9779   129.8523    10.0507   108.8313    -0.0386     2.6143     0.0794
 1648.0000     7.0019   129.9609     9.7870   102.4863    -0.0337     2.6137     0.0806
 1648.5000     7.0260   130.0691     9.9521   104.9547    -0.0351     2.6060     0.0810
 1649.0000     7.0498   130.1781     9.9633   107.9094    -0.0361     2.6010     0.0786
 1649.5000     7.0729   130.2867     9.9716   110.1555    -0.0330     2.6074     0.0731
 1650.0000     7.1024   130.3953    10.0441   110.3321    -0.0294     2.6066     0.0669
 1650.5000     7.1606   130.5039     9.9129   110.5396    -0.0258     2.5983     0.0651
 1651.0000     7.1727   130.6125     9.8071   110.7546    -0.0241     2.5901     0.0652
 1651.5000     7.1641   130.7211     9.9805   110.9519    -0.0338     2.5857     0.0699
 1652.0000     7.1415   130.8186     9.9752   113.1719    -0.0409     2.5895     0.0837
 1652.5000     7.1195   130.8715     9.9360   116.5741    -0.0481     2.6054     0.0963
 1653.0000     7.0974   130.9243    10.3624   114.2176    -0.0508     2.6210     0.0969
 1653.5000     7.0754   130.9772    10.0611   110.7703    -0.0462     2.6310     0.0870
 1654.0000     7.0533   131.0301     9.9557   115.5790    -0.0397     2.6300     0.0775
 1654.5000     7.0313   131.0830    10.0302   118.8150    -0.0372     2.6126     0.0689
 1655.0000     7.0092   131.1358     9.9730   113.4844    -0.0381     2.6037     0.0735
 1655.5000     6.9872   131.1887     9.9204   109.5931    -0.0453     2.6035     0.0784
 1656.0000     6.9690   131.2416    10.0737   108.3648    -0.0532     2.6068     0.0832
 1656.5000     6.9687   131.2945    10.3798   107.2684    -0.0443     2.6269     0.0845
 1657.0000     6.9790   131.3474    10.2557   106.1541    -0.0353     2.6311     0.0701
 1657.5000     7.0336   131.4002    10.1392   105.0388    -0.0263     2.6132     0.0560
 1658.0000     7.0637   131.4531    10.0228   104.8195    -0.0242     2.5887     0.0431
 1658.5000     7.0922   131.5060     9.9764   104.7437    -0.0353     2.5845     0.0510
 1659.0000     7.1208   131.5589    10.1092   104.7290    -0.0444     2.5941     0.0599
 1659.5000     7.1493   131.6117    10.2164   104.8564    -0.0431     2.6070     0.0688
 1660.0000     7.1688   131.6646    10.1772   104.9318    -0.0428     2.6171     0.0777
 1660.5000     7.1499   131.7175    10.1407   105.3543    -0.0552     2.6128     0.0867
 1661.0000     7.1318   131.7704    10.1363   111.7598    -0.0560     2.6160     0.0878
 1661.5000     7.1138   131.8182    10.1818   117.5582    -0.0459     2.6346     0.0890
 1662.0000     7.0958   131.6605    10.1832   114.4857    -0.0420     2.6231     0.0902
 1662.5000     7.0777   131.5166    10.1125   111.2827    -0.0424     2.6156     0.0914
 1663.0000     7.0597   131.3726    10.0438   109.0566    -0.0452     2.6128     0.0927
 1663.5000     7.0416   131.2287     9.9809   109.0661    -0.0507     2.6101     0.0928
 1664.0000     7.0237   131.0850    10.1355   109.0338    -0.0544     2.6201     0.0862
 1664.5000     7.0098   130.9429    10.2901   110.3566    -0.0329     2.6352     0.0730
 1665.0000     7.0099   130.8053    10.1859   111.8335    -0.0374     2.6116     0.0665
 1665.5000     7.0183   130.3671    10.0697   111.5305    -0.0453     2.5930     0.0742
 1666.0000     7.0299   129.9580     9.9563   111.0122    -0.0595     2.6098     0.0816
 1666.5000     7.0416   129.5489     9.8860   110.6581    -0.0479     2.6238     0.0871
 1667.0000     7.0534   129.1398     9.8238   110.4605    -0.0361     2.6362     0.0810
 1667.5000     7.0651   128.7307     9.7622   110.4600    -0.0356     2.6178     0.0694
 1668.0000     7.0768   128.3216     9.7210   110.4176    -0.0421     2.6017     0.0786
 1668.5000     7.0886   127.9126     9.7219   110.2148    -0.0511     2.6021     0.0886
 1669.0000     7.1003   128.2310     9.7330   108.4094    -0.0452     2.6143     0.0850
 1669.5000     7.1121   128.9069     9.7585   106.5216    -0.0349     2.6259     0.0712
 1670.0000     7.1237   129.5828     9.8473   105.2526    -0.0393     2.6095     0.0596
 1670.5000     7.1313   130.2587     9.9493   105.1855    -0.0446     2.5951     0.0593
 1671.0000     7.1265   130.8081    10.0300   108.9960    -0.0442     2.6185     0.0673
 1671.5000     7.1215   130.8081     9.9165   112.7244    -0.0427     2.6218     0.0610
 1672.0000     7.1165   130.8081     9.8481   112.5230    -0.0412     2.6169     0.0550
 1672.5000     7.1115   130.8081     9.9069   112.3885    -0.0408     2.6117     0.0563
