~VERSION INFORMATION
 VERS.                2.0:   CWLS LOG ASCII STANDARD - VERSION 2.0
 WRAP.                 NO:   ONE LINE PER DEPTH STEP
~WELL INFORMATION
#MNEM.UNIT      DATA TYPE    INFORMATION
#----------   ------------   ------------------------------
 STRT.F            8.0000:   START DEPTH
 STOP.F          513.0000:   STOP DEPTH
 STEP.F            0.5000:   STEP LENGTH
 NULL.          -999.2500:   NO VALUE
 COMP. LAWRENCE-ALLISON &AS:   COMPANY
 WELL. NPR 3 #51-63SX10UP3:   WELL
 FLD .             TEAPOT:   FIELD
 LOC .      S10 T38N R78W:   LOCATION
 CNTY.            NATRONA:   COUNTY
 STAT.            WYOMING:   STATE
 CTRY. UNITED STATES OF AMERICA:   COUNTRY
 SRVC.      Dresser Atlas:   SERVICE COMPANY
 DATE.        09-DEC-1984:   LOGDATE
 API .       490251099400:   API NUMBER
~CURVE INFORMATION
#MNEM.UNIT       API CODE    CURVE DESCRIPTION
#----------   ------------   ------------------------------
 DEPT.F                  :   
 RFOC.OHMM   07 220 01 00:   RESISTIVITY FOCUSED LOG
 RILD.OHMM   07 120 46 00:   INDUCTION LOG DEEP RESISTIVITY
 RILM.OHMM   07 120 44 00:   RESITIVITY LONG MEDIUM
 SPR .MV     07 010 01 00:   SPONTANEOUS POTENTIAL
 CALD.IN     45 280 60 00:   CALIPER FROM DENSITY LOG
 CORR.none               :   
 DEN .G/C3   45 350 01 00:   COMPENSATED BULK DENSTIY
 GRD .GAPI   45 310 01 00:   GAMMA RAY FROM DENSITY LOG
 PORD.DEC    45 890 12 00:   POROSITY DENSITY SANDSTONE
 CNC .DEC    42 890 03 00:   NEUTRON POROSITY SANDSTONE
~PARAMETER INFORMATION
#MNEM.UNIT          VALUE    DESCRIPTION
#----------   ------------   ------------------------------
 PD  .                 GL:   PERMANENT DATUM
 EPD .F              5162:   ELEVATION PERMANENT DATUM
 LMF .                 GL:   LOG MEASURED FROM
 DMF .                 GL:   DRILLING MEASURED FROM
 EGL .F              5162:   GROUND LEVEL
 DATE.        09-DEC-1984:   RUN DATE
 RUN .                  1:   RUN NUMBER
 DD  .F               510:   DEPTH DRILLER
 DL  .F               515:   DEPTH LOGGER
 BLI .F               513:   BOTTOM LOG INTERVAL
 TLI .F                20:   TOP LOG INTERVAL
 CS  .IN            8.625:   CASING SIZE
 CBD .F                20:   CASING BOTTOM DRILLER
 CBL .F                20:   CASING BOTTOM LOGGER
 BS  .IN            7.875:   BIT SIZE
 BSD .F               510:   BIT SIZE AT DEPTH
 DFT .          KCL-WATER:   DRILLING FLUID TYPE
 MSS .            MUDTANK:   MUD SAMPLE SOURCE
 RMS .OHMM           0.41:   RESISTIVITY MUD SAMPLE
 MST .F                45:   MUD SAMPLE TEMPERATURE
 RMF .OHMM           0.31:   RESISTIVITY MUD FILTRATE SAMPLE
 MFST.F                45:   MUD FILTRATE SAMPLE TEMPERATURE
 RMC .OHMM           0.51:   RESISTIVITY MUD CAKE
 MCST.F                45:   MUD CAKE SAMPLE TEMPERATURE
 MFSS.               CALC:   MUD FILTRATE SAMPLE SOURCE
 MCSS.               CALC:   MUD CAKE SAMPLE SOURCE
 RMB .OHMM           0.22:   RESISTIVITY MUD AT BHT
 BHT .F                85:   BOTTOM HOLE TEMPERATURE
 TCS .HRS               2:   TIME CURCULATED STOPPED
 MRT .F               100:   MAXIMUM RECORDED TEMPERATURE
 LUN .               6270:   LOGGING UNIT NUMBER
 LUL .                 FM:   LOGGING UNIT LOCATION
 ENGI.          E. GOVETT:   RECORDING ENGINEER
 WITN.              LUERS:   WITNESSED BY
 CLNT.            A2DTECH:   CLIENT CODE
 ORIG.           5" PRINT:   ORIGIN OF DATA
 UWI .       490251099400:   UNIQUE WELL ID
 DICO. A2D Technologies, Inc.:   DIGITIZING COMPANY
~OTHER INFORMATION
~A    DEPT    RFOC       RILD       RILM        SPR       CALD       CORR        DEN        GRD       PORD          CNC 
    8.0000  -999.2500  -999.2500  -999.2500  -999.2500  -999.2500  -999.2500  -999.2500   146.9708  -999.2500     0.0265
    8.5000  -999.2500  -999.2500  -999.2500  -999.2500  -999.2500  -999.2500  -999.2500   151.0250  -999.2500     0.0269
    9.0000  -999.2500  -999.2500  -999.2500  -999.2500  -999.2500  -999.2500  -999.2500   155.9815  -999.2500     0.0275
    9.5000  -999.2500  -999.2500  -999.2500  -999.2500  -999.2500  -999.2500  -999.2500   157.4809  -999.2500     0.0287
   10.0000  -999.2500  -999.2500  -999.2500  -999.2500  -999.2500  -999.2500  -999.2500   152.9622  -999.2500     0.0293
   10.5000  -999.2500  -999.2500  -999.2500  -999.2500  -999.2500  -999.2500  -999.2500   151.0014  -999.2500     0.0287
   11.0000  -999.2500  -999.2500  -999.2500  -999.2500  -999.2500  -999.2500  -999.2500   150.6947  -999.2500     0.0254
   11.5000  -999.2500  -999.2500  -999.2500  -999.2500  -999.2500  -999.2500  -999.2500   150.5093  -999.2500     0.0211
   12.0000  -999.2500  -999.2500  -999.2500  -999.2500  -999.2500  -999.2500  -999.2500   142.1071  -999.2500     0.0171
   12.5000  -999.2500  -999.2500  -999.2500  -999.2500  -999.2500  -999.2500  -999.2500   135.3382  -999.2500     0.0185
   13.0000  -999.2500  -999.2500  -999.2500  -999.2500  -999.2500  -999.2500  -999.2500   132.3248  -999.2500     0.0212
   13.5000  -999.2500  -999.2500  -999.2500  -999.2500  -999.2500  -999.2500  -999.2500   130.9654  -999.2500     0.0236
   14.0000  -999.2500  -999.2500  -999.2500  -999.2500  -999.2500  -999.2500  -999.2500   133.1529  -999.2500     0.0264
   14.5000  -999.2500  -999.2500  -999.2500  -999.2500  -999.2500  -999.2500  -999.2500   135.1628  -999.2500     0.0288
   15.0000  -999.2500  -999.2500  -999.2500  -999.2500  -999.2500  -999.2500  -999.2500   133.6531  -999.2500     0.0307
   15.5000  -999.2500  -999.2500  -999.2500  -999.2500  -999.2500  -999.2500  -999.2500   132.8953  -999.2500     0.0319
   16.0000  -999.2500  -999.2500  -999.2500  -999.2500  -999.2500  -999.2500  -999.2500   136.9496  -999.2500     0.0301
   16.5000  -999.2500  -999.2500  -999.2500  -999.2500  -999.2500  -999.2500  -999.2500   140.3931  -999.2500     0.0273
   17.0000  -999.2500  -999.2500  -999.2500  -999.2500  -999.2500  -999.2500  -999.2500   143.2540  -999.2500     0.0240
   17.5000  -999.2500  -999.2500  -999.2500  -999.2500  -999.2500  -999.2500  -999.2500   149.2857  -999.2500     0.0219
   18.0000  -999.2500  -999.2500  -999.2500  -999.2500  -999.2500  -999.2500  -999.2500   143.8601  -999.2500     0.0213
   18.5000  -999.2500  -999.2500  -999.2500  -999.2500  -999.2500  -999.2500  -999.2500   131.0121  -999.2500     0.0262
   19.0000  -999.2500  -999.2500  -999.2500  -999.2500  -999.2500  -999.2500  -999.2500   117.0636  -999.2500     0.0305
   19.5000  -999.2500  -999.2500  -999.2500  -999.2500  -999.2500  -999.2500  -999.2500   117.6591  -999.2500     0.0335
   20.0000  -999.2500  8279.5254  -999.2500   -37.5923     8.0858    -0.0148     2.2285   118.2548     0.2780     0.0362
   20.5000  -999.2500  9790.9277  -999.2500   -32.5329     8.0837     0.0034     2.2650   115.5421     0.2498     0.0384
   21.0000  -999.2500  9797.9395  -999.2500   -35.0516     8.0831     0.0126     2.2778   114.1828     0.2425     0.0405
   21.5000   677.2485  9804.9551  1136.0493   -39.7992     8.0825     0.0251     2.2877   113.1243     0.2353     0.0418
   22.0000    76.9342     2.1989     4.0548   -43.2094     8.0819     0.0441     2.3013   114.7725     0.2265     0.0430
   22.5000    98.8600     1.7736     3.0524   -43.9450     8.0663     0.0334     2.3081   118.5260     0.2213     0.0442
   23.0000   244.1715     1.6788     3.2260   -44.8489     8.0655     0.0227     2.3005   117.6178     0.2235     0.0467
   23.5000   558.6785     1.9579     3.6038   -46.1986     8.0650     0.0181     2.2981   114.4540     0.2256     0.0503
   24.0000   607.5117     3.1226     3.9980   -47.0416     8.0794     0.0134     2.2981   110.8271     0.2265     0.1120
   24.5000   184.1622     5.3396     4.5916   -47.3333     8.0788     0.0073     2.3064   107.4707     0.2241     0.1563
   25.0000   175.2573     6.5563     5.4214   -47.6214     8.1085     0.0027     2.3193   105.0877     0.2114     0.2317
   25.5000    41.0021     6.1459     5.9317   -47.7645     8.1380     0.0011     2.3301   104.0530     0.2044     0.2794
   26.0000    20.6210     5.2045     6.0980   -48.0525     8.1676     0.0010     2.3377   103.1449     0.2026     0.2871
   26.5000    16.0262     4.8245     5.5725   -48.4910     8.1971     0.0039     2.3435   103.7405     0.1999     0.2973
   27.0000    17.2312     4.5985     5.3085   -48.7808     8.1964     0.0084     2.3616   104.9376     0.1872     0.3307
   27.5000    18.6100     4.5059     5.2715   -49.2211     8.1807     0.0130     2.3821   105.3843     0.1717     0.3335
   28.0000    20.2392     4.9713     7.1985   -50.6979     8.1650     0.0175     2.4064   104.9258     0.1590     0.3289
   28.5000    21.8586     5.5994     7.1980   -54.8510     8.1494     0.0239     2.4246   104.7695     0.1520     0.3144
   29.0000    23.1204     6.4398     7.1975   -58.8556     8.1337     0.0385     2.4298   104.7636     0.1502     0.3129
   29.5000    23.6197     7.2032     7.0979   -62.5630     8.1331     0.0475     2.4260   105.0584     0.1518     0.3189
   30.0000    24.9831     7.3705     6.9998   -63.8930     8.1324     0.0368     2.4237   107.6089     0.1532     0.3232
   30.5000    26.6096     7.1635     6.9993   -65.8371     8.1168     0.0276     2.4221   110.3113     0.1535     0.3266
   31.0000    26.2556     7.0176     6.9505   -67.3155     8.0860     0.0260     2.4198   109.1990     0.1548     0.3111
   31.5000    22.0404     6.8805     6.9021   -68.1783     8.0634     0.0275     2.4175   107.5419     0.1563     0.3020
   32.0000    16.4817     6.8377     6.9496   -68.6186     8.0547     0.0380     2.4175   106.3808     0.1569     0.3010
   32.5000    11.1846     6.7952     7.1939   -68.7581     8.0541     0.0471     2.4174   106.2246     0.1566     0.2998
   33.0000     9.6705     6.8965     7.1934   -69.0479     8.0385     0.0379     2.4143   105.7675     0.1594     0.2943
   33.5000     8.9632     6.9982     7.1433   -70.0807     8.0531     0.0257     2.4082   104.7090     0.1633     0.2893
   34.0000     8.6614     7.1013     7.2928   -70.9650     8.0676     0.0180     2.4029   103.5001     0.1655     0.2850
   34.5000     8.5451     7.1547     7.8152   -71.5520     8.0970     0.0149     2.4036   102.7423     0.1651     0.2832
   35.0000     8.5506     7.0132     8.4332   -71.8437     8.1114     0.0211     2.4081   103.0372     0.1616     0.2951
   35.5000     8.5549     6.9683     8.2022   -70.9430     8.1410     0.0314     2.4089   103.6328     0.1606     0.3030
   36.0000     8.6190     6.9261     7.6001   -69.7470     8.1404     0.0253     2.4096   103.1757     0.1601     0.3051
   36.5000     8.6836     6.8354     7.8156   -69.4425     8.1230     0.0191     2.4141   102.8587     0.1579     0.3061
   37.0000     8.5114     6.7458     8.0937   -67.0578     8.0940     0.0175     2.4186   103.1649     0.1549     0.3079
   37.5000     8.3350     6.6982     8.0779   -61.4042     8.0933     0.0326     2.4224   102.6692     0.1543     0.3091
   38.0000     8.1624     6.6621     7.8113   -57.1768     8.0927     0.0462     2.4255   101.1489     0.1531     0.3097
   38.5000     7.9495     6.6681     7.5974   -54.3462     8.1071     0.0507     2.4342   100.8906     0.1437     0.3088
   39.0000     7.8437     6.6729     7.8102   -52.4651     8.1218     0.0430     2.4572   102.8381     0.1319     0.3003
   39.5000     7.7934     6.7242     8.7248   -51.4177     8.1511     0.0399     2.4731   103.4352     0.1237     0.2946
   40.0000     7.7433     6.8233     8.9075   -55.4223     8.1702     0.0444     2.4768   100.5706     0.1248     0.2955
   40.5000     7.8568     6.8282     8.8453   -60.0212     8.1951     0.0535     2.4548    99.6640     0.1335     0.3017
   41.0000     7.9156     6.8331     8.6630   -59.1224     8.1945     0.0488     2.4373   101.1603     0.1414     0.3037
