~VERSION INFORMATION
 VERS.                2.0:   CWLS LOG ASCII STANDARD - VERSION 2.0
 WRAP.                 NO:   ONE LINE PER DEPTH STEP
~WELL INFORMATION
#MNEM.UNIT      DATA TYPE    INFORMATION
#----------   ------------   ------------------------------
 STRT.F           34.5000:   START DEPTH
 STOP.F          880.5000:   STOP DEPTH
 STEP.F            0.5000:   STEP LENGTH
 NULL.          -999.2500:   NO VALUE
 COMP. FENIX & SCISSON INC:   COMPANY
 WELL. NAVAL PETROLEUM RESERVE 3 S-14 #35-14:   WELL
 FLD .             TEAPOT:   FIELD
 LOC .      S14 T38N R78W:   LOCATION
 CNTY.            NATRONA:   COUNTY
 STAT.            WYOMING:   STATE
 CTRY. UNITED STATES OF AMERICA:   COUNTRY
 SRVC.            Unknown:   SERVICE COMPANY
 DATE.        24-APR-1978:   LOGDATE
 API .       490251062000:   API NUMBER
~CURVE INFORMATION
#MNEM.UNIT       API CODE    CURVE DESCRIPTION
#----------   ------------   ------------------------------
 DEPT.F                  :   
 RHOB.G/C3   45 350 01 00:   BULK DENSITY
 DPHI.DEC    45 890 12 00:   DENSITY POROSITY SANDSTONE
 CORR.G/C3   45 356 01 00:   DENSITY CORRECTION
 GRD .GAPI   45 310 01 00:   GAMMA RAY FROM DENSITY LOG
 CALD.IN     45 280 60 00:   CALIPER FROM DENSITY LOG
 SPR .MV     05 010 01 00:   SPONTANEOUS POTENTIAL FROM RES.
 SN  .OHMM   05 040 16 00:   SHORT NORMAL 16"
 ILD .OHMM   05 120 46 00:   INDUCTION LOG DEEP
~PARAMETER INFORMATION
#MNEM.UNIT          VALUE    DESCRIPTION
#----------   ------------   ------------------------------
 PD  .                 GL:   PERMANENT DATUM
 EPD .F              5246:   ELEVATION PERMANENT DATUM
 LMF .                 KB:   LOG MEASURED FROM
 DMF .                 KB:   DRILLING MEASURED FROM
 EKB .F              5250:   KELLING BUSHING
 EGL .F              5246:   GROUND LEVEL
 DATE.          4-24-1978:   RUN DATE
 RUN .                  1:   RUN NUMBER
 DD  .F               880:   DEPTH DRILLER
 DL  .F               880:   DEPTH LOGGER
 BLI .F               884:   BOTTOM LOG INTERVAL
 TLI .F                50:   TOP LOG INTERVAL
 CS  .IN            8.625:   CASING SIZE
 CBD .F                40:   CASING BOTTOM DRILLER
 CBL .F                50:   CASING BOTTOM LOGGER
 BS  .IN            7.875:   BIT SIZE
 BSD .F               880:   BIT SIZE AT DEPTH
 DFT .                KCL:   DRILLING FLUID TYPE
 DFD .                8.6:   DRILLING FLUID DENSITY
 DFV .                 32:   DRILLING FLUID VISCOSITY
 DFPH.                 10:   DRILLING FLUID PH
 DFL .               12.8:   DRILLING FLUID LOSS
 MSS .            MUD PIT:   MUD SAMPLE SOURCE
 RMS .OHMM            .34:   RESISTIVITY MUD SAMPLE
 MST .F                62:   MUD SAMPLE TEMPERATURE
 RMF .OHMM             .3:   RESISTIVITY MUD FILTRATE SAMPLE
 MFST.F                70:   MUD FILTRATE SAMPLE TEMPERATURE
 RMC .OHMM            .58:   RESISTIVITY MUD CAKE
 MCST.F                70:   MUD CAKE SAMPLE TEMPERATURE
 MFSS.           MEASURED:   MUD FILTRATE SAMPLE SOURCE
 RMB .OHMM            .28:   RESISTIVITY MUD AT BHT
 BHT .F                74:   BOTTOM HOLE TEMPERATURE
 TCS .HRS               4:   TIME CURCULATED STOPPED
 MRT .F                74:   MAXIMUM RECORDED TEMPERATURE
 LUN .               2958:   LOGGING UNIT NUMBER
 LUL .              CASP.:   LOGGING UNIT LOCATION
 ENGI.             MILLER:   RECORDING ENGINEER
 WITN.           MCGINLEY:   WITNESSED BY
 CLNT.            A2DTECH:   CLIENT CODE
 ORIG.       2", 5" PRINT:   ORIGIN OF DATA
 UWI .       490251062000:   UNIQUE WELL ID
 DICO. A2D Technologies, Inc.:   DIGITIZING COMPANY
~OTHER INFORMATION
~A   DEPT     RHOB       DPHI       CORR         GRD      CALD        SPR         SN        ILD   
# ...
   75.0000     2.3904     0.1497     0.0351    86.6466     8.6287   -31.9256     5.6631     5.2701
   75.5000     2.3954     0.1469     0.0359    85.8077     8.6260   -31.9931     5.7030     5.3332
   76.0000     2.4004     0.1442     0.0366    85.4026     8.6233   -32.0607     5.7696     5.4083
   76.5000     2.4053     0.1414     0.0375    87.5128     8.6207   -32.1253     5.8370     5.3743
   77.0000     2.4103     0.1387     0.0408    90.4443     8.6180   -32.0707     5.9051     5.3328
   77.5000     2.4154     0.1360     0.0441    91.7740     8.6102   -31.7672     5.9741     5.2917
   78.0000     2.4152     0.1361     0.0474    88.1412     8.5676   -31.5713     6.0397     5.2509
   78.5000     2.4142     0.1361     0.0540    85.8091     8.5240   -31.5740     6.0397     5.2104
   79.0000     2.4150     0.1353     0.0642    85.5149     8.5169   -31.5735     6.0397     5.1702
   79.5000     2.4162     0.1345     0.0728    86.1358     8.5181   -31.5736     6.0398     5.1186
   80.0000     2.4171     0.1353     0.0779    86.4337     8.5195   -31.5737     6.0401     5.1705
   80.5000     2.4133     0.1384     0.0812    85.1769     8.5208   -31.5838     6.0393     5.2490
   81.0000     2.4065     0.1415     0.0817    81.1031     8.5221   -31.6357     6.1466     5.3278
   81.5000     2.3997     0.1445     0.0822    80.1707     8.5234   -31.6873     6.3609     5.4079
   82.0000     2.3928     0.1517     0.0826    80.6710     8.5247   -31.7362     6.5822     5.4891
   82.5000     2.3858     0.1593     0.0807    81.1247     8.5260   -31.6941     6.8118     5.5716
   83.0000     2.3778     0.1634     0.0727    81.8603     8.5273   -31.3442     6.9190     5.6553
   83.5000     2.3737     0.1614     0.0674    84.7132     8.5286   -31.0070     6.9851     5.7402
   84.0000     2.3785     0.1594     0.0627    87.8622     8.5299   -30.6707     7.0519     5.8265
   84.5000     2.3857     0.1521     0.0585    89.6670     8.5312   -30.3669     7.1191     5.9140
   85.0000     2.4038     0.1448     0.0566    90.0030     8.5325   -30.3516     7.1871     6.0028
   85.5000     2.4045     0.1410     0.0546    90.5910     8.5338   -30.3297     7.2557     6.0930
   86.0000     2.4068     0.1414     0.0527    92.6466     8.5350   -30.3069     7.3249     6.1845
   86.5000     2.4191     0.1363     0.0511    94.5969     8.5329   -30.2840     7.3949     6.2774
   87.0000     2.4266     0.1306     0.0522    94.3918     8.5249   -30.2610     7.4626     6.3717
   87.5000     2.4229     0.1324     0.0535    90.7096     8.5171   -30.2381     7.4626     6.4674
   88.0000     2.4194     0.1343     0.0561    88.9278     8.5092   -30.2148     7.4626     6.5009
   88.5000     2.4161     0.1346     0.0585    88.1637     8.5014   -30.1930     7.4626     6.5009
   89.0000     2.4160     0.1346     0.0607    88.3094     8.4935   -30.1743     7.4626     6.5002
   89.5000     2.4161     0.1346     0.0630    89.0642     8.4856   -30.5216     7.3813     6.5023
   90.0000     2.4151     0.1363     0.0651    89.8934     8.4778   -31.0438     7.3066     6.3144
   90.5000     2.4137     0.1382     0.0657    90.6757     8.4598   -31.5723     7.2328     6.1911
   91.0000     2.4123     0.1379     0.0663    90.2335     8.4329   -32.1098     7.1596     6.0706
   91.5000     2.4144     0.1361     0.0673    88.4043     8.4047   -32.8136     7.0874     5.9524
   92.0000     2.4176     0.1324     0.0759    87.0857     8.4353   -33.7246     7.0156     5.8734
   92.5000     2.4208     0.1283     0.0845    86.7955     8.4778   -34.3442     6.9877     5.8594
   93.0000     2.4218     0.1262     0.0836    86.9062     8.4811   -34.7157     6.9702     5.8455
   93.5000     2.4094     0.1414     0.0726    87.0161     8.4853   -34.9812     6.9527     5.8316
   94.0000     2.3966     0.1482     0.0616    87.0742     8.4892   -35.0272     6.9353     5.8177
   94.5000     2.3942     0.1483     0.0544    84.5035     8.4932   -35.0783     6.9179     5.8039
   95.0000     2.3987     0.1401     0.0530    80.7996     8.4972   -35.1285     6.9006     5.7901
   95.5000     2.4035     0.1363     0.0530    81.7928     8.5012   -35.1789     6.8833     5.7763
   96.0000     2.4077     0.1352     0.0531    83.4288     8.5052   -35.2294     6.8698     5.6941
   96.5000     2.4110     0.1321     0.0557    85.1501     8.5092   -35.2798     6.7621     5.5969
   97.0000     2.4207     0.1278     0.0584    84.5103     8.5131   -35.3294     6.6582     5.5016
   97.5000     2.4252     0.1278     0.0583    83.2081     8.5171   -35.3254     6.5560     5.4076
   98.0000     2.4202     0.1296     0.0574    84.2145     8.5211   -35.2472     6.4552     5.3153
   98.5000     2.4174     0.1312     0.0564    85.2832     8.5251   -35.1699     6.3559     5.2248
   99.0000     2.4195     0.1306     0.0555    86.0397     8.5291   -35.0922     6.2582     5.2109
   99.5000     2.4199     0.1308     0.0546    86.7949     8.5330   -35.0147     6.2085     5.2075
  100.0000     2.4146     0.1332     0.0536    87.5501     8.5335   -34.9371     6.2295     5.2042
  100.5000     2.4092     0.1358     0.0524    88.3064     8.5233   -34.8595     6.2456     5.2008
  101.0000     2.4120     0.1327     0.0510    89.0862     8.5136   -34.7782     6.2619     5.1974
  101.5000     2.4173     0.1292     0.0533    90.0671     8.5039   -34.8016     6.2781     5.1941
  102.0000     2.4228     0.1258     0.0598    91.6796     8.4942   -34.8556     6.2943     5.1907
  102.5000     2.4277     0.1252     0.0651    93.0938     8.4845   -34.9127     6.3101     5.1873
  103.0000     2.4229     0.1246     0.0652    92.5220     8.4750   -35.0790     6.3240     5.1840
  103.5000     2.4232     0.1277     0.0692    90.2355     8.4658   -35.8470     5.9101     5.1806
  104.0000     2.4237     0.1278     0.0730    86.2883     8.4522   -36.1505     5.5841     5.1773
  104.5000     2.4165     0.1305     0.0730    83.9033     8.3690   -36.1564     5.4086     5.1739
  105.0000     2.4175     0.1308     0.0766    84.4035     8.2955   -36.1560     5.4086     5.1707
  105.5000     2.4208     0.1287     0.0836    85.9976     8.3040   -36.1554     5.4086     5.1662
  106.0000     2.4244     0.1267     0.0905    87.5838     8.3111   -36.1554     5.3679     5.1678
  106.5000     2.4228     0.1290     0.0928    88.1201     8.3230   -36.1554     5.2850     5.0474
  107.0000     2.4095     0.1414     0.0865    88.4057     8.3604   -36.1554     5.2033     4.9694
  107.5000     2.3906     0.1586     0.0779    89.1170     8.3975   -36.1554     5.1182     4.8885
  108.0000     2.3777     0.1545     0.0657    91.9448     8.4347   -36.1554     5.1024     4.8840
  108.5000     2.3869     0.1508     0.0536    94.8757     8.4716   -36.1554     5.0856     4.8803
  109.0000     2.3922     0.1487     0.0448    95.7117     8.4762   -36.1554     5.0689     4.8764
  109.5000     2.3969     0.1421     0.0481    96.5118     8.4762   -36.1554     5.0522     4.8724
  110.0000     2.4062     0.1355     0.0568    96.4422     8.4761   -36.1554     5.0356     4.8684
  110.5000     2.4195     0.1289     0.0655    93.7477     8.4761   -36.1554     5.0191     4.8644
  111.0000     2.4280     0.1272     0.0706    91.2134     8.4761   -36.1554     5.0026     4.8604
  111.5000     2.4274     0.1271     0.0693    89.4181     8.4761   -36.1553     4.9862     4.8564
  112.0000     2.4282     0.1219     0.0681    87.6196     8.4761   -36.1552     4.9698     4.8525
  112.5000     2.4339     0.1208     0.0671    85.9073     8.4761   -36.1561     4.9535     4.8485
  113.0000     2.4390     0.1209     0.0701    88.5613     8.4761   -36.2081     4.9372     4.8445
  113.5000     2.4395     0.1212     0.0733    92.4478     8.4761   -36.3405     4.9210     4.7670
  114.0000     2.4401     0.1197     0.0801    93.6446     8.4761   -36.4718     4.9048     4.6630
  114.5000     2.4429     0.1162     0.0867    92.6227     8.4761   -36.6033     4.8881     4.5612
  115.0000     2.4457     0.1166     0.0898    91.4449     8.4761   -36.7348     4.8136     4.4617
