~VERSION INFORMATION
 VERS.                2.0:   CWLS LOG ASCII STANDARD - VERSION 2.0
 WRAP.                 NO:   ONE LINE PER DEPTH STEP
~WELL INFORMATION
#MNEM.UNIT      DATA TYPE    INFORMATION
#----------   ------------   ------------------------------
 STRT.F           32.0000:   START DEPTH
 STOP.F          551.0000:   STOP DEPTH
 STEP.F            0.5000:   STEP LENGTH
 NULL.          -999.2500:   NO VALUE
 COMP.    FENIX & SCISSON:   COMPANY
 WELL.   NPR ##3 84-SX-10:   WELL
 FLD .              NPR 3:   FIELD
 LOC .      S10 T38N R78W:   LOCATION
 CNTY.            NATRONA:   COUNTY
 STAT.            WYOMING:   STATE
 CTRY. UNITED STATES OF AMERICA:   COUNTRY
 SRVC.              Welex:   SERVICE COMPANY
 DATE.        25-JAN-1978:   LOGDATE
 API .       490251033700:   API NUMBER
~CURVE INFORMATION
#MNEM.UNIT       API CODE    CURVE DESCRIPTION
#----------   ------------   ------------------------------
 DEPT.F                  :   
 SPR .MV     07 010 01 00:   SPONTANEOUS POTENTIAL FROM RES.
 ILD .OHMM   07 120 46 00:   INDUCTION LOG DEEP
 ILM .OHMM   07 120 44 00:   INDUCTION LOG MEDIUM
 SGRD.OHMM   07 220 05 00:   SHALLOW GUARD RESISTIVITY
 CALD.IN     45 280 60 00:   CALIPER FROM DENSITY LOG
 GRD .GAPI   45 310 01 00:   GAMMA RAY FROM DENSITY LOG
 CORR.G/C3   45 356 01 00:   DENSITY CORRECTION
 RHOB.G/C3   45 350 01 00:   BULK DENSITY
 DPHI.DEC    45 890 12 00:   DENSITY POROSITY SANDSTONE
~PARAMETER INFORMATION
#MNEM.UNIT          VALUE    DESCRIPTION
#----------   ------------   ------------------------------
 CLNT.            A2DTECH:   CLIENT CODE
 ORIG.           5" PRINT:   ORIGIN OF DATA
 UWI .       490251033700:   UNIQUE WELL ID
 DICO. A2D Technologies, Inc.:   DIGITIZING COMPANY
~OTHER INFORMATION
~A   DEPT      SPR        ILD        ILM       SGRD         CALD      GRD       CORR       RHOB       DPHI   
# ...
  433.5000   -37.5375    19.6259    21.8239    37.0868     7.9369    82.8806     0.0806     2.3794     0.1667
  434.0000   -37.5375    19.0902    21.5229    38.1302     7.9144    83.7783     0.0820     2.3817     0.1661
  434.5000   -37.5375    18.6983    21.6716    38.3958     7.9069    83.1722     0.0850     2.3824     0.1652
  435.0000   -37.5375    18.5697    22.1257    38.3959     7.9069    82.1169     0.0880     2.3832     0.1649
  435.5000   -37.3874    18.3149    22.2786    38.1307     7.9219    81.0615     0.0910     2.3794     0.1664
  436.0000   -37.3874    18.1888    22.2775    38.6635     7.9219    80.1562     0.0924     2.3831     0.1664
  436.5000   -37.3874    17.9393    22.2766    39.2036     7.9219    81.5022     0.0939     2.3869     0.1646
  437.0000   -37.2372    18.0644    22.2757    39.2038     7.9369    83.2997     0.0969     2.3914     0.1612
  437.5000   -37.0871    18.1906    22.1211    39.1589     7.9445    84.3464     0.0998     2.3981     0.1570
  438.0000   -37.0871    18.3175    21.9674    40.3069     7.9520    85.6934     0.0998     2.4041     0.1543
  438.5000   -36.9369    18.4453    21.6644    37.8680     7.9670    87.4909     0.1028     2.4102     0.1516
  439.0000   -36.9369    18.5739    21.3655    39.7520     7.9670    88.9990     0.1043     2.4154     0.1479
  439.5000   -36.9369    18.5744    21.0708    37.3467     7.9670    89.2840     0.1057     2.4184     0.1438
  440.0000   -36.7868    18.5750    20.6368    35.5770     7.9670    87.0264     0.1087     2.4183     0.1411
  440.5000   -36.7868    18.4474    20.4934    36.8326     7.9670    86.8730     0.1147     2.4183     0.1423
  441.0000   -36.7868    18.3204    20.4926    37.0890     7.9520    88.9697     0.1177     2.4176     0.1438
  441.5000   -36.6366    18.0689    20.4917    36.0744     7.9520    90.9173     0.1116     2.4153     0.1438
  442.0000   -36.4865    17.8210    20.3495    35.0875     7.9369    92.2643     0.1056     2.4113     0.1459
  442.5000   -36.4865    17.4551    19.9303    33.4249     7.9219    91.0577     0.1026     2.4017     0.1528
  443.0000   -36.4865    17.3351    18.7253    32.0627     7.9069    90.6029     0.1025     2.4025     0.1531
  443.5000   -36.4865    17.2159    18.3396    31.6211     7.8919    90.1482     0.1025     2.4077     0.1492
  444.0000   -36.6366    17.2165    19.2498    31.8413     7.8919    89.6934     0.0995     2.4145     0.1456
  444.5000   -36.7868    17.2170    17.4703    32.0631     7.8769    89.6890     0.0964     2.4114     0.1468
  445.0000   -36.9369    17.2174    18.3373    31.8416     7.8769    89.5346     0.0904     2.4083     0.1486
  445.5000   -36.9369    17.0991    19.6514    31.8417     7.8619    89.6804     0.0859     2.4061     0.1495
  446.0000   -37.0871    16.9815    19.7871    31.1862     7.8468    89.8262     0.0813     2.4121     0.1468
  446.5000   -37.2372    16.7484    19.3794    29.8951     7.8544    90.1211     0.0768     2.4151     0.1453
  447.0000   -37.3874    16.5186    18.9801    29.2993     7.8619    90.4182     0.0753     2.4151     0.1447
  447.5000   -37.3874    16.1794    18.4609    29.2994     7.8769    91.1635     0.0722     2.4166     0.1438
  448.0000   -37.3874    15.9573    18.3328    27.9111     7.8919    91.7618     0.0692     2.4235     0.1411
  448.5000   -37.3874    15.8326    18.0799    27.1475     7.9219    92.6553     0.0677     2.4339     0.1351
  449.0000   -37.2372    15.4151    18.2048    26.9600     7.9820    93.2515     0.0646     2.4361     0.1327
  449.5000   -37.0871    15.0986    18.3306    26.9601     8.0496    93.0971     0.0616     2.4354     0.1324
  450.0000   -36.9304    14.9507    16.3639    26.2268     8.0732    92.0418     0.0654     2.4313     0.1344
  450.5000   -36.8491    14.6433    15.5520    24.7953     8.0785    90.1612     0.0654     2.4282     0.1368
  451.0000   -36.7954    14.4403    16.0190    25.3150     8.0839    87.8218     0.0683     2.4259     0.1392
  451.5000   -36.6496    14.2402    15.1530    25.6674     8.0857    86.9140     0.0712     2.4281     0.1365
  452.0000   -36.5037    14.1404    16.4625    25.6654     8.0853    89.0651     0.0727     2.4235     0.1384
  452.5000   -36.3589    14.0410    16.5748    25.4864     8.0849    90.9525     0.0719     2.4235     0.1402
  453.0000   -36.3634    13.8464    15.8968    24.9600     8.0844    88.6934     0.0711     2.4197     0.1414
  453.5000   -36.3686    13.8450    14.9337    24.4442     8.0840    86.4325     0.0665     2.4272     0.1408
  454.0000   -36.3729    13.7480    13.5515    24.2737     8.0834    87.0262     0.0649     2.4407     0.1372
  454.5000   -36.3773    13.7465    14.6210    24.4415     8.0830    89.1214     0.0649     2.4436     0.1303
  455.0000   -36.3816    13.7450    15.1335    24.4396     8.0826    91.9657     0.0648     2.4473     0.1273
  455.5000   -36.2357    13.7432    15.3420    24.6082     8.0821    94.0609     0.0617     2.4488     0.1252
  456.0000   -36.2411    13.6470    15.5533    24.2673     8.0817    95.8558     0.0602     2.4390     0.1310
  456.5000   -36.2454    13.5514    15.8825    23.7661     8.0812    98.2513     0.0616     2.4434     0.1301
  457.0000   -36.2497    13.4564    14.8116    23.4373     8.0808    95.9921     0.0661     2.4442     0.1280
  457.5000   -36.1028    13.3621    15.0156    23.1130     8.0804    98.3982     0.0690     2.4441     0.1286
  458.0000   -35.9580    13.2682    15.4353    22.9518     8.0798   100.3310     0.0705     2.4493     0.1217
  458.5000   -35.9625    13.0843    14.6003    22.7917     8.0794   100.7728     0.0734     2.4575     0.1169
  459.0000   -35.8165    12.9926    13.9070    22.4760     8.0790   100.7658     0.0764     2.4652     0.1133
  459.5000   -35.8219    12.9913    14.2952    22.1650     8.0635   100.6071     0.0740     2.4589     0.1172
  460.0000   -35.6750    12.8112    13.8063    20.9674     8.0631   100.4501     0.0702     2.4521     0.1208
  460.5000   -35.6803    12.6336    15.0001    20.1115     8.0627    99.8409     0.0657     2.4453     0.1223
  461.0000   -35.3843    12.5448    14.1886    20.9696     8.0621    97.8820     0.0731     2.4648     0.1145
  461.5000   -35.2385    12.3710    14.6861    21.7032     8.0617    96.9743     0.0806     2.4836     0.1076
  462.0000   -35.0937    12.2843    14.2627    21.2546     8.0613    98.1668     0.0835     2.4970     0.0998
  462.5000   -34.9468    12.1982    13.8898    20.3870     8.0608    98.9107     0.0835     2.4880     0.1026
  463.0000   -34.8010    12.0292    13.7909    20.3858     8.0604    99.6546     0.0804     2.4804     0.1062
  463.5000   -34.6562    11.9446    13.4119    20.3845     8.0599   100.0964     0.0803     2.4871     0.1053
  464.0000   -34.6607    11.8609    12.9532    20.0839     8.0595   100.0895     0.0833     2.4939     0.1017
  464.5000   -34.5158    11.7527    12.6847    19.5509     8.0590   100.2341     0.0862     2.4976     0.0990
  465.0000   -34.5201    11.6953    13.1288    19.2804     8.0735   100.6746     0.0870     2.5005     0.0966
  465.5000   -34.5244    11.6941    12.3334    19.1462     8.0731   103.0701     0.0756     2.5012     0.0954
  466.0000   -34.2284    11.6928    13.0337    19.5473     8.0726   103.5136     0.0695     2.5012     0.0951
  466.5000   -34.2327    11.6106    13.3056    19.2701     8.0722   102.9044     0.0710     2.5004     0.0966
  467.0000   -34.0868    11.6094    12.9393    18.7479     8.0718   103.0494     0.0739     2.4973     0.1003
  467.5000   -33.9410    11.6082    12.6638    19.0085     8.0713   104.3904     0.0753     2.4913     0.1048
  468.0000   -33.9464    11.6069    12.0689    19.4070     8.0709   105.4346     0.0632     2.4845     0.1072
  468.5000   -33.7995    11.5256    12.3207    19.4058     8.0705   106.9292     0.0572     2.4769     0.1096
  469.0000   -33.6547    11.4446    11.8167    19.4045     8.0699   108.5722     0.0571     2.4694     0.1120
  469.5000   -33.5088    11.3644    11.5723    18.7032     8.0695   106.0128     0.0570     2.4678     0.1129
