~VERSION INFORMATION
 VERS.                2.0:   CWLS LOG ASCII STANDARD - VERSION 2.0
 WRAP.                 NO:   ONE LINE PER DEPTH STEP
~WELL INFORMATION
#MNEM.UNIT      DATA TYPE    INFORMATION
#----------   ------------   ------------------------------
 STRT.F          100.0000:   START DEPTH
 STOP.F          874.0000:   STOP DEPTH
 STEP.F            0.5000:   STEP LENGTH
 NULL.          -999.2500:   NO VALUE
 COMP. U S NAVY-INTEX OIL:   COMPANY
 WELL.     NPR #3 #45-S-2:   WELL
 FLD .             TEAPOT:   FIELD
 LOC .       S2 T38N R78W:   LOCATION
 CNTY.            NATRONA:   COUNTY
 STAT.            WYOMING:   STATE
 CTRY. UNITED STATES OF AMERICA:   COUNTRY
 SRVC.       Schlumberger:   SERVICE COMPANY
 DATE.        15-JUL-1962:   LOGDATE
 API .       490250642400:   API NUMBER
~CURVE INFORMATION
#MNEM.UNIT       API CODE    CURVE DESCRIPTION
#----------   ------------   ------------------------------
 DEPT.F                  :   
 ASN .OHMM   05 041 16 00:   AMPLIFIED SHORT NORMAL 16"
 CILD.MMHO   05 110 46 00:   CONDUCTIVITY INDUCTION LOG DEEP
 ILD .OHMM   05 120 46 00:   INDUCTION LOG DEEP
 SPR .MV     05 010 01 00:   SPONTANEOUS POTENTIAL FROM RES.
 GR  .GAPI   30 310 01 00:   GAMMA RAY
~PARAMETER INFORMATION
#MNEM.UNIT          VALUE    DESCRIPTION
#----------   ------------   ------------------------------
 LMF .                 KB:   LOG MEASURED FROM
 DMF .                 KB:   DRILLING MEASURED FROM
 EKB .F              5149:   KELLING BUSHING
 EGL .F              5144:   GROUND LEVEL
 DATE.        15-JUL-1962:   RUN DATE
 RUN .                  1:   RUN NUMBER
 DD  .F               875:   DEPTH DRILLER
 DL  .F               875:   DEPTH LOGGER
 BLI .F               874:   BOTTOM LOG INTERVAL
 TLI .F               100:   TOP LOG INTERVAL
 BS  .IN             6.75:   BIT SIZE
 BSD .F               875:   BIT SIZE AT DEPTH
 DFT .           OIL EMUL:   DRILLING FLUID TYPE
 DFD .               10.2:   DRILLING FLUID DENSITY
 DFV .                 42:   DRILLING FLUID VISCOSITY
 DFL .                4.6:   DRILLING FLUID LOSS
 RMS .OHMM            6.0:   RESISTIVITY MUD SAMPLE
 MST .F                64:   MUD SAMPLE TEMPERATURE
 RMF .OHMM            5.8:   RESISTIVITY MUD FILTRATE SAMPLE
 MFST.F                64:   MUD FILTRATE SAMPLE TEMPERATURE
 RMC .OHMM            5.2:   RESISTIVITY MUD CAKE
 MCST.F                66:   MUD CAKE SAMPLE TEMPERATURE
 TCS .HRS             0.5:   TIME CURCULATED STOPPED
 LUN .               2503:   LOGGING UNIT NUMBER
 LUL .               CSPR:   LOGGING UNIT LOCATION
 ENGI.           ELLERMAN:   RECORDING ENGINEER
 WITN.          JORGENSON:   WITNESSED BY
 CLNT.            A2DTECH:   CLIENT CODE
 ORIG.           5" PRINT:   ORIGIN OF DATA
 UWI .       490250642400:   UNIQUE WELL ID
 DICO. A2D Technologies, Inc.:   DIGITIZING COMPANY
~OTHER INFORMATION
~A   DEPT        ASN      CILD       ILD        SPR         GR   
# ...
  649.0000     5.7917   178.1011     5.9880   -40.9483   137.3463
  649.5000     5.8524   167.4581     6.4371   -40.2053   112.7996
  650.0000     5.8832   158.3303     6.8111   -38.7147   121.3855
  650.5000     5.8688   155.2846     6.8097   -38.2674   118.9789
  651.0000     5.9444   156.7727     6.7334   -38.5681   126.3110
  651.5000     6.0048   159.7803     6.5822   -39.1675   130.5819
  652.0000     6.0503   165.2219     6.4311   -39.3184   124.8619
  652.5000     6.0958   176.3972     6.2026   -39.3199   121.0991
  653.0000     6.0781   188.4963     6.0536   -39.0227   115.6804
  653.5000     5.7678   200.5954     5.8276   -38.1273   123.5154
  654.0000     5.4839   211.9369     5.6764   -37.5308   121.7104
  654.5000     5.2450   223.2784     5.6002   -37.0835   129.3948
  655.0000     5.1408   230.0745     5.4490   -37.2347   139.6387
  655.5000     5.0366   234.5978     5.2230   -37.6846   130.6055
  656.0000     4.8875   239.1211     5.2216   -38.1545   128.5000
  656.5000     4.8281   241.3717     5.1452   -39.0331   127.3101
  657.0000     4.9521   238.3138     5.2187   -39.9314   110.7340
  657.5000     5.1738   226.1705     5.2169   -40.9792    97.3349
  658.0000     5.2791   214.0271     5.4400   -41.4291   106.9764
  658.5000     5.3546   201.8838     5.6631   -41.4305   109.0878
  659.0000     5.5348   192.0132     5.8433   -40.9786   111.9522
  659.5000     5.7899   182.1426     6.1093   -40.2380   115.1178
  660.0000     6.1348   173.7872     6.2675   -39.6415   116.0242
  660.5000     6.5096   166.9468     6.5010   -39.0450   107.1410
  661.0000     6.8730   159.1513     6.8531   -38.5980   105.6387
  661.5000     7.1296   149.4728     7.0762   -38.1511   100.5960
  662.0000     7.3049   142.6325     7.2993   -38.0030   118.8976
  662.5000     7.3204   137.3074     7.3728   -38.3159   121.0090
  663.0000     7.3059   135.7701     7.4461   -39.0526   117.0713
  663.5000     7.2767   136.5111     7.5195   -39.3530   112.2807
  664.0000     7.2472   138.0041     7.5177   -39.6534   111.2287
  664.5000     7.1880   141.0068     7.3665   -39.6548   120.5697
  665.0000     7.1128   145.5301     7.2154   -39.6563   125.2413
  665.5000     7.0049   148.6542     7.1391   -39.2093   115.9062
  666.0000     6.8905   153.8137     6.9880   -39.6990   133.5304
  666.5000     6.7713   160.6097     6.7620   -40.2589   127.2080
  667.0000     6.6222   166.6482     6.6856   -39.6624   125.5542
  667.5000     6.4132   172.6867     6.3845   -38.9164   126.1597
  668.0000     6.2342   179.4828     6.1585   -38.3200   116.9759
  668.5000     6.0252   188.5516     6.0822   -37.7235   129.6670
  669.0000     5.7850   196.1052     5.9310   -37.5755   123.8098
  669.5000     5.5387   205.9316     5.7799   -37.5773   116.5334
  670.0000     5.3534   209.6973     5.6287   -37.5787   111.4159
  670.5000     5.3690   207.2674     5.6327   -37.7296   123.0152
  671.0000     5.4594   202.8294     5.7755   -37.8806   110.9700
  671.5000     5.6396   199.7825     5.8576   -38.3304   105.0995
  672.0000     5.8797   192.1809     6.0717   -39.2287   103.7470
  672.5000     6.2096   184.5831     6.1519   -39.9901   102.0933
  673.0000     6.4800   176.0449     6.3685   -40.1288   103.9288
  673.5000     6.6677   164.5833     6.5164   -39.9804   106.9192
  674.0000     6.8851   155.7233     6.6647   -39.9822   120.6270
  674.5000     7.0204   151.1557     6.7377   -40.1331   132.8288
  675.0000     7.0809   148.1033     6.8446   -40.1346   138.7052
  675.5000     7.1264   146.5660     6.9598   -39.9866   134.3399
  676.0000     7.1743   144.2712     7.0070   -39.8385   139.3128
  676.5000     7.2923   141.9763     7.1062   -39.3919   129.2261
  677.0000     7.3678   141.1966     7.1048   -39.0940   131.9399
  677.5000     7.4282   140.4167     7.1033   -38.7969   140.5272
  678.0000     7.4737   139.5758     7.2512   -38.6488   142.4879
  678.5000     7.5042   138.8520     7.2498   -38.5007   142.3403
  679.0000     7.5348   138.8299     7.3235   -38.5072   143.4227
  679.5000     7.5353   138.8078     7.3969   -38.8030   144.6060
  680.0000     7.5050   138.7857     7.4700   -39.4023   140.3921
  680.5000     7.4467   140.2842     7.4684   -40.3006   132.8649
  681.0000     7.3875   141.0142     7.3921   -39.5547   137.6871
  681.5000     7.3282   142.5072     7.3158   -39.1073   137.0876
  682.0000     7.2987   142.4848     7.3144   -39.7070   128.6569
  682.5000     7.2396   143.2205     7.3129   -40.3064   140.7080
  683.0000     7.1803   143.1929     7.3111   -38.8134   144.0242
  683.5000     7.1509   143.1708     7.2348   -37.6191   141.3163
  684.0000     7.1215   143.3735     7.2334   -37.4707   149.7530
  684.5000     7.0922   148.4277     7.0074   -37.4725   137.1056
  685.0000     7.0628   155.9814     6.8562   -37.6234   123.1025
  685.5000     6.9737   171.8683     6.5554   -37.6248   119.6416
  686.0000     6.5402   185.4826     6.1677   -38.2441   118.1385
  686.5000     6.0617   199.0968     5.5791   -39.1228   133.9294
  687.0000     5.6881   210.4383     5.3531   -40.0211   147.5620
  687.5000     5.3743   215.7192     5.2768   -40.9194   141.7927
  688.0000     5.2850   220.2827     5.3505   -39.5756   127.3378
  688.5000     5.2734   224.8689     5.4239   -37.4843   122.9733
  689.0000     4.9420   226.2589     5.5719   -37.0374   117.8558
  689.5000     5.2420   222.4434     5.7246   -37.6371   105.5093
  690.0000     5.7815   215.6031     6.0180   -38.8343   107.6207
  690.5000     5.8719   211.0355     6.0914   -40.0316   108.8285
  691.0000     5.7527   217.0740     5.5657   -40.4814   122.8375
  691.5000     5.4988   227.6580     5.2648   -40.6324   125.4007
  692.0000     5.2433   232.1813     5.1137   -39.5875   136.3976
  692.5000     5.0247   230.6439     5.1122   -38.8415   129.6234
  693.0000     4.9167   229.1061     5.1108   -38.6935   144.6621
  693.5000     5.2468   226.0488     5.1090   -38.9942   140.1722
  694.0000     5.1126   222.9964     5.3321   -39.4441   135.3559
  694.5000     5.0682   218.4288     5.7049   -39.5950   133.5516
  695.0000     5.5180   212.3461     6.2274   -39.8954   135.6630
  695.5000     6.0276   195.6573     6.5254   -40.0463   139.1298
  696.0000     6.3132   174.4231     6.6736   -40.1973   127.0846
  696.5000     6.4670   162.2797     6.7470   -40.3485   123.9249
  697.0000     6.5833   155.4295     6.7336   -40.2005   124.0784
  697.5000     6.6438   150.8719     6.5941   -40.0521   124.8344
  698.0000     6.6594   165.2381     6.3681   -39.7550   113.6928
  698.5000     6.6300   178.0948     6.1421   -39.3080   117.1971
  699.0000     6.4809   190.1939     5.8412   -38.5520   120.9276
  699.5000     6.2120   200.0203     5.6152   -37.5175   113.7024
  700.0000     5.7641   206.0588     5.4641   -37.9675   123.3433
  700.5000     5.5582   209.0772     5.3907   -36.9156   138.1008
  701.0000     5.5020   209.8197     5.3173   -36.6123   143.0692
  701.5000     5.4758   210.5623     5.3937   -36.4584   144.0614
  702.0000     5.5244   207.5133     5.4704   -36.6034   128.0060
  702.5000     5.6928   202.1952     5.8461   -36.7496   123.9382
  703.0000     6.1156   193.8469     6.2218   -37.0442   121.2219
  703.5000     6.7331   179.4379     6.5975   -37.4871   125.6220
  704.0000     7.1410   161.9987     6.8984   -37.9312   126.0422
  704.5000     7.4142   148.3473     7.1993   -37.7772   115.9244
  705.0000     7.5975   139.2414     7.3505   -37.7728   110.9786
  705.5000     7.7210   133.1658     7.5016   -38.0772   103.7482
  706.0000     7.8145   130.8781     7.6528   -39.1490    90.7949
  706.5000     7.9230   128.5903     7.8040   -39.7028    92.9022
  707.0000     8.0015   127.0602     7.8803   -38.8004    93.8040
  707.5000     8.0656   127.0452     7.9567   -38.1981    98.9230
  708.0000     8.1299   127.0302     7.9581   -37.8947   106.1504
  708.5000     8.1643   126.2576     8.0345   -37.7408   118.3477
  709.0000     8.1987   126.2021     8.0359   -37.7364   120.7559
  709.5000     8.2305   125.4697     7.9626   -37.7320   117.8930
