~VERSION INFORMATION
 VERS.                2.0:   CWLS LOG ASCII STANDARD - VERSION 2.0
 WRAP.                 NO:   ONE LINE PER DEPTH STEP
~WELL INFORMATION
#MNEM.UNIT      DATA TYPE    INFORMATION
#----------   ------------   ------------------------------
 STRT.F            8.0000:   START DEPTH
 STOP.F          866.5000:   STOP DEPTH
 STEP.F            0.5000:   STEP LENGTH
 NULL.          -999.2500:   NO VALUE
 COMP. LAWRENCE/ALLISON INC:   COMPANY
 WELL.    42-11 SX #11-11:   WELL
 FLD .              NPR 3:   FIELD
 LOC .      S11 T38N R78W:   LOCATION
 CNTY.            NATRONA:   COUNTY
 STAT.            WYOMING:   STATE
 CTRY. UNITED STATES OF AMERICA:   COUNTRY
 SRVC.           Gearhart:   SERVICE COMPANY
 DATE.        17-MAY-1987:   LOGDATE
 API .       490251112700:   API NUMBER
~CURVE INFORMATION
#MNEM.UNIT       API CODE    CURVE DESCRIPTION
#----------   ------------   ------------------------------
 DEPT.F                  :   
 GRR .GAPI   07 310 01 00:   GAMMA RAY FROM RES. LOG.
 RILD.OHMM   07 120 46 00:   INDUCTION LOG DEEP RESISTIVITY
 RILM.OHMM   07 120 44 00:   INDUCTION LOG MEDIUM RESISTIVITY
~PARAMETER INFORMATION
#MNEM.UNIT          VALUE    DESCRIPTION
#----------   ------------   ------------------------------
 PD  .                 GL:   PERMANENT DATUM
 EPD .F              5166:   ELEVATION PERMANENT DATUM
 LMF .                 KB:   LOG MEASURED FROM
 DAPD.F                 8:   FEET ABOVE PERMANENT DATUM
 DMF .                 KB:   DRILLING MEASURED FROM
 EKB .F              5174:   KELLING BUSHING
 EDF .F              5174:   DRILLING FLOOR
 EGL .F              5166:   GROUND LEVEL
 DATE.            5-17-87:   RUN DATE
 RUN .                  1:   RUN NUMBER
 DD  .F               891:   DEPTH DRILLER
 DL  .F               874:   DEPTH LOGGER
 BLI .F               865:   BOTTOM LOG INTERVAL
 TLI .F                44:   TOP LOG INTERVAL
 CS  .IN            8.625:   CASING SIZE
 CBD .F                49:   CASING BOTTOM DRILLER
 CBL .F                44:   CASING BOTTOM LOGGER
 BS  .IN            7.875:   BIT SIZE
 BSD .F               891:   BIT SIZE AT DEPTH
 DFT .           AIR FOAM:   DRILLING FLUID TYPE
 TCS .HRS            0300:   TIME CURCULATED STOPPED
 TLAB.HRS            1255:   TIME LOGGER AT BOTTOM
 MRT .F                80:   MAXIMUM RECORDED TEMPERATURE
 LUN .               7597:   LOGGING UNIT NUMBER
 LUL .           GILLETTE:   LOGGING UNIT LOCATION
 ENGI.            WANGLER:   RECORDING ENGINEER
 WITN.             STRONG:   WITNESSED BY
 CLNT.            A2DTECH:   CLIENT CODE
 ORIG.       2", 5" PRINT:   ORIGIN OF DATA
 UWI .       490251112700:   UNIQUE WELL ID
 DICO. A2D Technologies, Inc.:   DIGITIZING COMPANY
~OTHER INFORMATION
~A    DEPT      GRR      RILD       RILM   
    8.0000    21.4286  -999.2500  -999.2500
    8.5000    30.3128  -999.2500  -999.2500
    9.0000    42.7576  -999.2500  -999.2500
    9.5000    52.8265  -999.2500  -999.2500
   10.0000    61.9623  -999.2500  -999.2500
   10.5000    69.4579  -999.2500  -999.2500
   11.0000    73.9154  -999.2500  -999.2500
   11.5000    78.3520  -999.2500  -999.2500
   12.0000    82.8967  -999.2500  -999.2500
   12.5000    84.3347  -999.2500  -999.2500
   13.0000    82.2891  -999.2500  -999.2500
   13.5000    79.6783  -999.2500  -999.2500
   14.0000    78.3511  -999.2500  -999.2500
   14.5000    78.8420  -999.2500  -999.2500
   15.0000    79.3482  -999.2500  -999.2500
   15.5000    80.2102  -999.2500  -999.2500
   16.0000    83.5301  -999.2500  -999.2500
   16.5000    85.4919  -999.2500  -999.2500
   17.0000    86.5573  -999.2500  -999.2500
   17.5000    85.3414  -999.2500  -999.2500
   18.0000    84.3548  -999.2500  -999.2500
   18.5000    85.5110  -999.2500  -999.2500
   19.0000    86.3752  -999.2500  -999.2500
   19.5000    84.1056  -999.2500  -999.2500
   20.0000    80.7282  -999.2500  -999.2500
   20.5000    78.6068  -999.2500  -999.2500
   21.0000    78.3174  -999.2500  -999.2500
   21.5000    78.2988  -999.2500  -999.2500
   22.0000    79.7133  -999.2500  -999.2500
   22.5000    82.2014  -999.2500  -999.2500
   23.0000    82.6755  -999.2500  -999.2500
   23.5000    81.0477  -999.2500  -999.2500
   24.0000    78.9729  -999.2500  -999.2500
   24.5000    77.7599  -999.2500  -999.2500
   25.0000    78.7763  -999.2500  -999.2500
   25.5000    81.0211  -999.2500  -999.2500
   26.0000    83.2327  -999.2500  -999.2500
   26.5000    84.8127  -999.2500  -999.2500
   27.0000    83.0194  -999.2500  -999.2500
   27.5000    81.2703  -999.2500  -999.2500
   28.0000    79.5103  -999.2500  -999.2500
   28.5000    77.9742  -999.2500  -999.2500
   29.0000    76.9009  -999.2500  -999.2500
   29.5000    77.1155  -999.2500  -999.2500
   30.0000    78.5280  -999.2500  -999.2500
   30.5000    79.5769  -999.2500  -999.2500
   31.0000    80.6225  -999.2500  -999.2500
   31.5000    80.2702  -999.2500  -999.2500
   32.0000    78.5704  -999.2500  -999.2500
   32.5000    77.9366  -999.2500  -999.2500
   33.0000    80.4838  -999.2500  -999.2500
   33.5000    79.4737  -999.2500  -999.2500
   34.0000    76.6290  -999.2500  -999.2500
   34.5000    73.7656  -999.2500  -999.2500
   35.0000    71.8624  -999.2500  -999.2500
   35.5000    71.7209  -999.2500  -999.2500
   36.0000    73.5805  -999.2500  -999.2500
   36.5000    75.8951  -999.2500  -999.2500
   37.0000    77.6790  -999.2500  -999.2500
   37.5000    77.4362  -999.2500  -999.2500
   38.0000    77.0602  -999.2500  -999.2500
   38.5000    77.8713  -999.2500  -999.2500
   39.0000    79.3412  -999.2500  -999.2500
   39.5000    79.7933  -999.2500  -999.2500
   40.0000    78.6351  -999.2500  -999.2500
   40.5000    76.3670  -999.2500  -999.2500
   41.0000    74.1277  -999.2500  -999.2500
   41.5000    73.0424  -999.2500  -999.2500
   42.0000    71.9963  -999.2500  -999.2500
   42.5000    70.3974  -999.2500  -999.2500
   43.0000    69.6004  -999.2500  -999.2500
   43.5000    71.7905  -999.2500   242.7806
   44.0000    74.2469    23.9320   228.3491
   44.5000    76.2608     5.0834    58.1594
   45.0000    76.9310     2.8545    60.1744
   45.5000    76.9302     2.3651     3.9481
   46.0000    77.6520     2.2774     2.4601
   46.5000    79.3090     2.8553     2.2513
   47.0000    81.7941     3.6870     2.4190
   47.5000    85.9590     3.8653     2.6782
   48.0000    89.7865     3.6016     2.9362
   48.5000    89.8368     3.0455     3.1896
   49.0000    89.5976     2.6496     3.3231
   49.5000    91.7829     2.4821     3.3231
   50.0000    95.1535     2.3662     2.9031
   50.5000    96.3504     2.2942     2.6035
   51.0000    94.4061     2.2244     2.3844
   51.5000    92.5121     2.1567     2.2402
   52.0000    90.6272     2.0949     2.1661
   52.5000    90.9331     2.0372     2.0939
   53.0000    92.8950     1.9810     2.0242
   53.5000    94.8832     1.9264     1.9567
   54.0000    96.6413     1.8927     1.9032
   54.5000    97.3290     1.8743     1.9012
   55.0000    97.7610     1.8676     1.8963
   55.5000    97.7541     1.8853     1.8915
   56.0000    95.8425     1.9438     1.8853
   56.5000    93.0100     2.0254     1.9065
   57.0000    90.1860     2.1104     1.9458
   57.5000    87.5190     2.1989     1.9859
   58.0000    85.9183     2.2912     2.0268
   58.5000    83.3067     2.3773     2.0721
   59.0000    80.2643     2.4102     2.1549
   59.5000    77.1995     2.4331     2.2348
   60.0000    73.5455     2.2348     2.2138
   60.5000    67.3056     2.1165     1.9649
   61.0000    58.8018     2.0142     1.7194
   61.5000    47.9202     1.9409     1.5033
   62.0000    34.5529     1.8622     1.3233
   62.5000    21.7352     1.7918     1.2255
   63.0000    15.9877     1.7321     1.1921
   63.5000    14.2911     1.6745     1.1665
   64.0000    14.3204     1.6509     1.1536
   64.5000    14.7661     1.7657     1.1574
   65.0000    15.2134     1.9006     1.1809
   65.5000    15.6301     2.0710     1.2267
   66.0000    16.6548     2.3667     1.2930
   66.5000    17.7617     2.7046     1.4135
   67.0000    21.2043     3.0908     1.5525
   67.5000    26.8166     3.5320     1.7899
   68.0000    32.7130     4.0363     2.1504
   68.5000    40.4783     4.6125     2.5835
   69.0000    48.3008     5.2710     3.0528
   69.5000    56.2382     6.0236     3.3467
   70.0000    60.1603     6.5841     3.6197
   70.5000    61.3511     7.0698     3.8954
   71.0000    61.3512     7.4880     4.1452
   71.5000    59.5390     7.1589     4.3757
   72.0000    57.7666     6.8974     4.7143
   72.5000    55.9796     6.6454     5.0835
   73.0000    56.1865     6.4124     5.3879
   73.5000    60.6455     6.2613     5.6859
   74.0000    65.0238     6.1353     5.8022
   74.5000    69.3525     6.0288     5.7272
   75.0000    72.8728     5.8778     5.6881
   75.5000    74.6039     5.7418     5.6466
   76.0000    75.6872     5.6090     5.6058
   76.5000    75.2975     5.4793     5.5653
   77.0000    74.8891     5.2606     5.5345
   77.5000    74.5013     4.9977     5.3827
   78.0000    74.4850     4.7476     5.2296
   78.5000    74.4901     4.5114     4.8416
   79.0000    74.6481     4.3432     4.4520
   79.5000    75.2753     4.2278     4.1413
   80.0000    74.8823     4.1976     4.0165
   80.5000    74.4244     4.1848     3.8956
   81.0000    74.1705     4.1720     3.7930
   81.5000    74.6461     4.1687     3.9959
   82.0000    75.0985     4.3301     4.2726
   82.5000    76.0047     4.5465     4.5685
   83.0000    77.2783     4.7769     4.8849
   83.5000    78.2888     4.9984     5.1475
   84.0000    78.7491     5.2264     5.3919
   84.5000    78.9986     5.4293     5.6465
   85.0000    78.9476     5.6085     5.8455
   85.5000    77.2222     5.7730     5.9540
   86.0000    75.3719     5.8766     6.0277
   86.5000    73.6952     5.9738     6.0963
   87.0000    73.6738     6.0129     6.1406
   87.5000    73.5014     6.0523     6.1617
   88.0000    71.8561     6.0828     6.1892
   88.5000    68.3635     5.9671     6.2170
   89.0000    66.5866     5.8779     6.2449
   89.5000    66.7176     5.7760     6.2579
   90.0000    68.9787     5.5906     6.0828
   90.5000    73.4963     5.4111     5.8614
   91.0000    76.7690     5.2523     5.6439
   91.5000    76.7403     5.1433     5.4349
   92.0000    75.2049     4.9291     5.2315
   92.5000    73.5725     4.7114     5.0677
   93.0000    73.3502     4.5033     4.9395
   93.5000    72.0329     4.3044     4.6642
   94.0000    70.4335     4.1143     4.3997
   94.5000    69.3050     3.8252     4.1508
   95.0000    69.5758     3.6025     3.9162
   95.5000    70.3400     3.4457     3.6948
   96.0000    72.5376     3.2900     3.4859
   96.5000    76.9127     3.1328     3.2889
   97.0000    78.3056     2.9760     3.2609
   97.5000    78.3271     3.0408     3.2962
   98.0000    75.9457     3.1986     3.3688
   98.5000    73.8731     3.3755     3.5154
