~VERSION INFORMATION
 VERS.                2.0:   CWLS LOG ASCII STANDARD - VERSION 2.0
 WRAP.                 NO:   ONE LINE PER DEPTH STEP
~WELL INFORMATION
#MNEM.UNIT      DATA TYPE    INFORMATION
#----------   ------------   ------------------------------
 STRT.F            2.0000:   START DEPTH
 STOP.F          510.5000:   STOP DEPTH
 STEP.F            0.5000:   STEP LENGTH
 NULL.          -999.2500:   NO VALUE
 COMP. LAWRENCE/ALLISON INC:   COMPANY
 WELL.   NPR #3 #58-12 SX:   WELL
 FLD .             TEAPOT:   FIELD
 LOC .       S3 T38N R78W:   LOCATION
 CNTY.            NATRONA:   COUNTY
 STAT.            WYOMING:   STATE
 CTRY. UNITED STATES OF AMERICA:   COUNTRY
 SRVC.           Gearhart:   SERVICE COMPANY
 DATE.        20-JUN-1988:   LOGDATE
 API .       490251123500:   API NUMBER
~CURVE INFORMATION
#MNEM.UNIT       API CODE    CURVE DESCRIPTION
#----------   ------------   ------------------------------
 DEPT.F                  :   
 GRR .GAPI   07 310 01 00:   GAMMA RAY FROM RES. LOG.
 RILD.OHMM   07 120 46 00:   INDUCTION LOG DEEP RESISTIVITY
 RILM.OHMM   07 120 44 00:   INDUCTION LOG MEDIUM RESISTIVITY
~PARAMETER INFORMATION
#MNEM.UNIT          VALUE    DESCRIPTION
#----------   ------------   ------------------------------
 PD  .                 GL:   PERMANENT DATUM
 EPD .F              5195:   ELEVATION PERMANENT DATUM
 LMF .                 KB:   LOG MEASURED FROM
 DAPD.F                10:   FEET ABOVE PERMANENT DATUM
 DMF .                 KB:   DRILLING MEASURED FROM
 EKB .F              5205:   KELLING BUSHING
 EGL .F              5195:   GROUND LEVEL
 DATE.            6-20-88:   RUN DATE
 RUN .                  1:   RUN NUMBER
 DD  .F               515:   DEPTH DRILLER
 DL  .F               519:   DEPTH LOGGER
 BLI .F             510.5:   BOTTOM LOG INTERVAL
 TLI .F                50:   TOP LOG INTERVAL
 CS  .IN            9.625:   CASING SIZE
 CBD .F                50:   CASING BOTTOM DRILLER
 CBL .F                50:   CASING BOTTOM LOGGER
 BS  .IN             8.75:   BIT SIZE
 BSD .F               515:   BIT SIZE AT DEPTH
 DFT .                AIR:   DRILLING FLUID TYPE
 TLAB.HRS            0414:   TIME LOGGER AT BOTTOM
 MRT .F                70:   MAXIMUM RECORDED TEMPERATURE
 LUN .               7597:   LOGGING UNIT NUMBER
 LUL .           GILLETTE:   LOGGING UNIT LOCATION
 ENGI.          HUCKFELDT:   RECORDING ENGINEER
 WITN.             STRONG:   WITNESSED BY
 CLNT.            A2DTECH:   CLIENT CODE
 ORIG.       2", 5" PRINT:   ORIGIN OF DATA
 UWI .       490251123500:   UNIQUE WELL ID
 DICO. A2D Technologies, Inc.:   DIGITIZING COMPANY
~OTHER INFORMATION
~A    DEPT      GRR      RILD       RILM   
# ...
  457.0000   101.4905    14.3476    13.3614
  457.5000   102.8119    14.3673    13.3039
  458.0000   101.5715    14.3869    13.2464
  458.5000   100.4604    14.4040    13.1890
  459.0000   101.0101    14.2652    13.1315
  459.5000   101.5662    14.1243    13.1850
  460.0000    99.9594    13.9699    13.2530
  460.5000    97.9248    13.7517    13.0974
  461.0000    97.4357    13.5369    12.9008
  461.5000    98.6445    13.3255    12.7071
  462.0000    99.8404    13.1175    12.5163
  462.5000   101.0296    12.9127    12.3285
  463.0000   101.2152    12.7111    12.1434
  463.5000   101.9583    12.5126    11.9611
  464.0000   105.3827    12.3172    11.7815
  464.5000   108.5035    12.1249    11.6046
  465.0000   110.0110    11.9355    11.4304
  465.5000   109.2932    11.7491    11.2588
  466.0000   108.5622    11.5975    11.0898
  466.5000   108.1391    11.4904    10.9233
  467.0000   108.5706    11.3846    10.7593
  467.5000   109.1711    11.2800    10.5978
  468.0000   110.2389    11.1788    10.4387
  468.5000   111.3040    11.0781    10.2820
  469.0000   112.3645    10.9784    10.1356
  469.5000   113.3018    10.8796    10.1356
  470.0000   112.9174    10.7816    10.0423
  470.5000   111.7774    10.6846    10.0071
  471.0000   110.1497    10.5884     9.9740
  471.5000   108.1119    10.4930     9.9409
  472.0000   107.2494    10.3986     9.9080
  472.5000   106.4763    10.3050     9.8752
  473.0000   107.2605    10.2122     9.8106
  473.5000   110.0286    10.1203     9.7124
  474.0000   114.2863    10.0292     9.6152
  474.5000   118.4350     9.9389     9.5190
  475.0000   120.3078     9.8583     9.4237
  475.5000   120.0531     9.6920     9.3294
  476.0000   119.2744     9.5431     9.2360
  476.5000   118.5070     9.3967     9.1436
  477.0000   115.9265     9.2512     9.0521
  477.5000   113.3207     9.1354     8.9614
  478.0000   114.2001     9.0695     8.8718
  478.5000   116.8924     9.0049     8.7831
  479.0000   119.5029     8.9269     8.6612
  479.5000   121.6353     8.8444     8.5411
  480.0000   122.1558     8.5679     8.2488
  480.5000   121.1399     8.2336     7.9666
  481.0000   119.9773     7.8931     7.6940
  481.5000   118.9065     7.9634     7.4307
  482.0000   119.6823     8.0577     7.1764
  482.5000   120.0219     8.1506     7.0668
  483.0000   118.1144     8.2801     7.4306
  483.5000   116.1643     8.5194     7.7103
  484.0000   116.4464     8.7674     8.0005
  484.5000   117.8821     9.0221     8.3016
  485.0000   118.4742     9.2843     8.6140
  485.5000   116.9449     9.5541     8.9383
  486.0000   115.4598     9.8317     9.2750
  486.5000   113.9575    10.1176     9.6247
  487.0000   113.2990    10.4124    10.1373
  487.5000   113.7322    10.7132    10.1333
  488.0000   114.2143    10.7471    10.2301
  488.5000   114.6959    10.7785    10.1951
  489.0000   115.1641    10.8105    10.1737
  489.5000   116.6942    10.8430    10.1523
  490.0000   118.4902    10.8755    10.1356
  490.5000   116.4430    10.9138    10.1995
  491.0000   113.5640    10.8526    10.2298
  491.5000   110.6766    10.7787    10.1548
  492.0000   107.7747    10.7054    10.1025
  492.5000   105.6924    10.6326    10.0506
  493.0000   105.1912    10.5602     9.9988
  493.5000   105.5293    10.4883     9.9501
  494.0000   107.1178    10.4206    10.0065
  494.5000   108.6879    10.4049    10.0618
  495.0000   110.2453    10.3808    10.1171
  495.5000   110.9332    10.3569    10.1367
  496.0000   110.8756    10.3335    10.1382
  496.5000   110.8639    10.2816    10.1386
  497.0000   110.8652     9.9571     9.7959
  497.5000   110.8652     9.4057     9.6606
  498.0000   110.8652     8.8848     9.5382
  498.5000   110.8652     8.3928     9.1639
  499.0000   110.8652     7.9695     8.6942
  499.5000   110.8652     7.2914     8.2486
  500.0000   110.8652     6.3225     7.8962
  500.5000  -999.2500     5.4823     7.1957
  501.0000  -999.2500     4.7538     5.9556
  501.5000  -999.2500     4.1221     4.9292
  502.0000  -999.2500     3.8032     4.0797
  502.5000  -999.2500     3.5908     3.3766
  503.0000  -999.2500     3.3959     2.9492
  503.5000  -999.2500     3.3724     2.7012
  504.0000  -999.2500     3.3724     2.6763
  504.5000  -999.2500     3.4313     2.7900
  505.0000  -999.2500     3.7418     3.1290
  505.5000  -999.2500     4.1424     3.5662
  506.0000  -999.2500  -999.2500     4.0645
  506.5000  -999.2500  -999.2500     4.6324
  507.0000  -999.2500  -999.2500     5.2796
  507.5000  -999.2500  -999.2500     6.0173
  508.0000  -999.2500  -999.2500     6.8580
  508.5000  -999.2500  -999.2500     7.4543
  509.0000  -999.2500  -999.2500     7.9394
  509.5000  -999.2500  -999.2500     8.3466
  510.0000  -999.2500  -999.2500     8.1979
  510.5000  -999.2500  -999.2500     8.2486
