~VERSION INFORMATION
 VERS.                2.0:   CWLS LOG ASCII STANDARD - VERSION 2.0
 WRAP.                 NO:   ONE LINE PER DEPTH STEP
~WELL INFORMATION
#MNEM.UNIT      DATA TYPE    INFORMATION
#----------   ------------   ------------------------------
 STRT.F          217.0000:   START DEPTH
 STOP.F         3170.0000:   STOP DEPTH
 STEP.F            0.5000:   STEP LENGTH
 NULL.          -999.2500:   NO VALUE
 COMP. FENIX & SCISSON INC:   COMPANY
 WELL.    51 TX 33 #51-33:   WELL
 FLD .             TEAPOT:   FIELD
 LOC .      S33 T39N R78W:   LOCATION
 CNTY.            NATRONA:   COUNTY
 STAT.            WYOMING:   STATE
 CTRY. UNITED STATES OF AMERICA:   COUNTRY
 SRVC.            Unknown:   SERVICE COMPANY
 DATE.        02-APR-1978:   LOGDATE
 API .       490251068600:   API NUMBER
~CURVE INFORMATION
#MNEM.UNIT       API CODE    CURVE DESCRIPTION
#----------   ------------   ------------------------------
 DEPT.F                  :   
 TGAS.UNITS  91 830 01 00:   TOTAL GAS FROM HOTWIRE
 ROP .MIN/FT 91 810 01 00:   RATE OF DRILLING PENETRATION
~PARAMETER INFORMATION
#MNEM.UNIT          VALUE    DESCRIPTION
#----------   ------------   ------------------------------
 DATE.         2-APR-1978:   RUN DATE
 RUN .                  1:   RUN NUMBER
 BLI .F              3150:   BOTTOM LOG INTERVAL
 TLI .F               250:   TOP LOG INTERVAL
 DFT .       CHEMICAL GEL:   DRILLING FLUID TYPE
 ENGI.            R. CABS:   RECORDING ENGINEER
 CLNT.            A2DTECH:   CLIENT CODE
 ORIG.           5" PRINT:   ORIGIN OF DATA
 UWI .       490251068600:   UNIQUE WELL ID
 DICO. A2D Technologies, Inc.:   DIGITIZING COMPANY
~OTHER INFORMATION
~A   DEPT       TGAS      ROP   
# ...
 1553.5000     1.4315     2.1034
 1554.0000     1.4246     2.1029
 1554.5000     1.4177     2.1020
 1555.0000     1.4107     2.1195
 1555.5000     1.4038     2.3177
 1556.0000     1.3968     2.2990
 1556.5000     1.3899     2.2800
 1557.0000     1.3829     2.2614
 1557.5000     1.3760     2.2605
 1558.0000     1.3731     2.2599
 1558.5000     1.3262     2.2228
 1559.0000     1.3798     2.2041
 1559.5000     1.4334     2.4385
 1560.0000     1.4870     2.4560
 1560.5000     1.5406     2.4736
 1561.0000     1.5839     2.4727
 1561.5000     1.6468     2.5264
 1562.0000     1.7097     2.2362
 1562.5000     1.7610     2.2534
 1563.0000     1.7115     2.2526
 1563.5000     1.6411     2.2339
 1564.0000     1.5707  -999.2500
 1564.5000     1.5004  -999.2500
 1565.0000     1.4345  -999.2500
 1565.5000     1.4391  -999.2500
 1566.0000     1.4435  -999.2500
 1566.5000     1.4478  -999.2500
 1567.0000     1.4675  -999.2500
 1567.5000     1.5435  -999.2500
 1568.0000     1.4609  -999.2500
 1568.5000     1.4652  -999.2500
 1569.0000     1.4696  -999.2500
 1569.5000     1.4739  -999.2500
 1570.0000     1.4788  -999.2500
 1570.5000     1.4830  -999.2500
 1571.0000     1.5178  -999.2500
 1571.5000     1.5944  -999.2500
 1572.0000     1.6765     2.0768
 1572.5000     1.8486     2.0760
 1573.0000     1.9447     2.0753
 1573.5000     2.0093     2.0746
 1574.0000     2.0351     2.0738
 1574.5000     2.1269  -999.2500
 1575.0000     2.1311  -999.2500
 1575.5000     2.2217  -999.2500
 1576.0000     2.2261  -999.2500
 1576.5000     2.2304  -999.2500
 1577.0000     2.2355  -999.2500
 1577.5000     2.2391  -999.2500
 1578.0000     2.2435  -999.2500
 1578.5000     2.2478  -999.2500
 1579.0000     2.2750  -999.2500
 1579.5000     2.3218  -999.2500
 1580.0000     2.3686     2.0109
 1580.5000     2.4155     2.0101
 1581.0000     2.4436     2.0094
 1581.5000     2.6221     2.0085
 1582.0000     2.6734     2.4116
 1582.5000     2.8051     2.4199
 1583.0000     2.9832     2.4282
 1583.5000     2.9863     2.4366
 1584.0000     2.9603     1.9498
 1584.5000     2.9375     1.9532
 1585.0000     2.9148     1.9560
 1585.5000     2.8920     1.9588
 1586.0000     2.8693     1.9616
 1586.5000     2.8466     1.9644
 1587.0000     2.8435     1.9672
 1587.5000     2.8608     1.9700
 1588.0000     2.9112     1.9729
 1588.5000     2.9617     1.9757
 1589.0000     3.0121     1.9785
 1589.5000     3.1424     1.9813
 1590.0000     3.2074     1.9841
 1590.5000     3.2724     1.9869
 1591.0000     3.3374     1.9897
 1591.5000     3.4024     1.9925
 1592.0000     3.4675     1.9954
 1592.5000     3.5325     1.9982
 1593.0000     3.5975     2.0010
 1593.5000     3.6625     2.0038
 1594.0000     3.7275     2.0066
 1594.5000     3.7783  -999.2500
 1595.0000     3.7860  -999.2500
 1595.5000     3.8030  -999.2500
 1596.0000     3.8199  -999.2500
 1596.5000     3.8369  -999.2500
 1597.0000     3.8538  -999.2500
 1597.5000     3.8708  -999.2500
 1598.0000     3.8877  -999.2500
 1598.5000     3.8125  -999.2500
 1599.0000     3.9043  -999.2500
 1599.5000     3.9087  -999.2500
 1600.0000     3.9130  -999.2500
 1600.5000     3.9174  -999.2500
 1601.0000     3.9101  -999.2500
 1601.5000     3.8775  -999.2500
 1602.0000     3.8449  -999.2500
 1602.5000     3.8123  -999.2500
 1603.0000     3.7797  -999.2500
 1603.5000     3.7471     2.0025
 1604.0000     3.7145     2.0029
 1604.5000     3.6868     2.0033
 1605.0000     3.7203     2.0036
 1605.5000     3.7561     2.0040
 1606.0000     3.7920     2.0044
 1606.5000     3.8279     2.0047
 1607.0000     3.8638     2.0051
 1607.5000     3.8849     2.0055
 1608.0000     3.8185     2.0058
 1608.5000     3.7268     2.0062
 1609.0000     3.6351     2.0066
 1609.5000     3.5434     2.1999
 1610.0000     3.4688     2.4756
 1610.5000     3.3971     2.4724
 1611.0000     3.4243     2.4691
 1611.5000     3.4515     2.4659
 1612.0000     3.4787     2.4626
 1612.5000     3.5059     2.0995
 1613.0000     3.5331     2.0976
 1613.5000     3.5603     2.0867
 1614.0000     3.5879     2.2816
 1614.5000     3.6787     2.2911
 1615.0000     3.6826     2.3065
 1615.5000     3.6865     2.3220
 1616.0000     3.6904     2.3374
 1616.5000     3.6943     2.7540
 1617.0000     3.6990     2.7725
 1617.5000     3.7065     2.7909
 1618.0000     3.7238     2.8094
 1618.5000     3.7411     2.3573
 1619.0000     3.7584     2.3577
 1619.5000     3.7757     2.3581
 1620.0000     3.7930     2.6633
 1620.5000     3.8133     2.6589
 1621.0000     3.9040     2.6545
 1621.5000     3.8200     2.6500
 1622.0000     3.7368     2.6456
 1622.5000     3.7416     2.6412
 1623.0000     3.7452     2.6368
 1623.5000     3.7491     2.6324
 1624.0000     3.7530     2.6280
 1624.5000     3.7570     2.6236
 1625.0000     3.6746     2.6192
 1625.5000     3.5905     3.1950
 1626.0000     3.6179     3.2134
 1626.5000     3.6493     3.2319
 1627.0000     3.6807     3.2322
 1627.5000     3.6937     3.2327
 1628.0000     3.6975     2.6839
 1628.5000     3.6026     2.7084
 1629.0000     3.5822     2.7088
 1629.5000     3.5617     2.2978
 1630.0000     3.5395     2.2792
 1630.5000     3.5433     2.2788
 1631.0000     3.4365     2.2783
 1631.5000     3.3882     2.5662
 1632.0000     3.3399     2.5656
 1632.5000     3.2974     2.5653
 1633.0000     3.3021     2.5649
 1633.5000     3.3059     2.5643
 1634.0000     3.3096     2.5820
 1634.5000     3.3135     2.5996
 1635.0000     3.3174     2.5991
 1635.5000     3.3213     2.6166
 1636.0000     3.3260     2.6162
 1636.5000     3.3298     2.6157
 1637.0000     3.2087     2.6153
 1637.5000     3.1496     2.4167
 1638.0000     3.0807     2.4161
 1638.5000     3.0845     2.4158
 1639.0000     3.0004     2.4152
 1639.5000     3.0048     2.4148
 1640.0000     3.0087     2.4143
 1640.5000     3.0126     2.3959
 1641.0000     3.0169     2.3775
 1641.5000     3.0207     2.6294
 1642.0000     3.0119     2.6289
 1642.5000     2.9876     2.6103
 1643.0000     2.9633     2.6099
 1643.5000     2.9390     2.6094
 1644.0000     2.9148     2.6090
 1644.5000     2.8905     2.6084
 1645.0000     2.8738     2.6081
 1645.5000     2.8786     2.6257
 1646.0000     2.8575     2.6252
 1646.5000     2.8185     2.6248
 1647.0000     2.7796     2.6423
 1647.5000     2.7407     2.4617
 1648.0000     2.7234     2.4071
 1648.5000     2.7282     2.4067
 1649.0000     2.7320     2.3882
 1649.5000     2.7352     2.7121
 1650.0000     2.7391     2.7117
 1650.5000     2.7437     2.7474
 1651.0000     2.7476     2.7469
 1651.5000     2.8383     2.7643
 1652.0000     2.8451     2.7640
 1652.5000     2.8728     2.7814
 1653.0000     2.9006     2.6729
 1653.5000     2.9283     2.4742
 1654.0000     2.9443     2.4738
 1654.5000     2.9483     2.4735
 1655.0000     2.8644     2.4549
 1655.5000     2.8535     2.4545
 1656.0000     2.8425     2.6704
 1656.5000     2.8316     2.6698
 1657.0000     2.8206     2.6873
 1657.5000     2.8096     2.6869
 1658.0000     2.8017     2.6864
 1658.5000     2.8057     2.6860
 1659.0000     2.7942     2.7036
 1659.5000     2.7676     2.4148
 1660.0000     2.7409     2.3964
 1660.5000     2.7337     2.3959
 1661.0000     2.7384     2.3955
 1661.5000     2.8088     2.3949
 1662.0000     2.7216     2.3946
 1662.5000     2.6344     2.6704
 1663.0000     2.5471     2.6821
 1663.5000     2.4963     2.6816
 1664.0000     2.5011     2.6630
 1664.5000     2.4837     2.6086
 1665.0000     2.4653     2.5720
 1665.5000     2.4469     2.5536
 1666.0000     2.4285     2.5350
 1666.5000     2.4101     2.5166
 1667.0000     2.3917     2.4622
 1667.5000     2.3733     2.3716
 1668.0000     2.3549     2.3352
 1668.5000     2.3365     2.3166
 1669.0000     2.3181     2.2802
 1669.5000     2.2997     2.2616
 1670.0000     2.2826     2.6216
 1670.5000     2.2692     2.6573
 1671.0000     2.2559     2.6567
 1671.5000     2.2425     2.6563
 1672.0000     2.2292     2.0252
 1672.5000     2.2196     2.0248
 1673.0000     2.2235     2.0242
 1673.5000     2.3231     2.0239
 1674.0000     2.3652     2.5999
 1674.5000     2.3178     2.6175
