~VERSION INFORMATION
 VERS.                2.0:   CWLS LOG ASCII STANDARD - VERSION 2.0
 WRAP.                 NO:   ONE LINE PER DEPTH STEP
~WELL INFORMATION
#MNEM.UNIT      DATA TYPE    INFORMATION
#----------   ------------   ------------------------------
 STRT.F           30.0000:   START DEPTH
 STOP.F          677.0000:   STOP DEPTH
 STEP.F            0.5000:   STEP LENGTH
 NULL.          -999.2500:   NO VALUE
 COMP. FENIX & SCISSON INC:   COMPANY
 WELL. TEAPOT DOME #27 SX -2:   WELL
 FLD .             TEAPOT:   FIELD
 LOC .       S2 T38N R78W:   LOCATION
 CNTY.            NATRONA:   COUNTY
 STAT.            WYOMING:   STATE
 CTRY. UNITED STATES OF AMERICA:   COUNTRY
 SRVC.            Unknown:   SERVICE COMPANY
 DATE.        28-JAN-1978:   LOGDATE
 API .       490251056500:   API NUMBER
~CURVE INFORMATION
#MNEM.UNIT       API CODE    CURVE DESCRIPTION
#----------   ------------   ------------------------------
 DEPT.F                  :   
 ILD .OHMM   05 120 46 00:   INDUCTION LOG DEEP
 SN  .OHMM   05 040 16 00:   SHORT NORMAL 16"
 SPR .MV     05 010 01 00:   SPONTANEOUS POTENSIAL
 CALD.IN     45 280 60 00:   CALIPER FROM DENSITY LOG
 CORR.G/C3   45 356 01 00:   DENSITY CORRECTION
 DPHI.DEC    45 890 12 00:   DENSITY POROSITY SANDSTONE
 GRD .GAPI   45 310 01 00:   GAMMA RAY FROM DENSITY LOG
 RHOB.G/C3   45 350 01 00:   BULK DENSITY
~PARAMETER INFORMATION
#MNEM.UNIT          VALUE    DESCRIPTION
#----------   ------------   ------------------------------
 PD  .                 GL:   PERMANENT DATUM
 EPD .F              5147:   ELEVATION PERMANENT DATUM
 LMF .                 KB:   LOG MEASURED FROM
 DAPD.F                 4:   FEET ABOVE PERMANENT DATUM
 DMF .                 KB:   DRILLING MEASURED FROM
 EKB .F              5151:   KELLING BUSHING
 EGL .F              5147:   GROUND LEVEL
 DATE.        28-JAN-1978:   RUN DATE
 RUN .                  1:   RUN NUMBER
 DD  .F               675:   DEPTH DRILLER
 DL  .F               678:   DEPTH LOGGER
 BLI .F               677:   BOTTOM LOG INTERVAL
 TLI .F                40:   TOP LOG INTERVAL
 CS  .IN            8.625:   CASING SIZE
 CBD .F                40:   CASING BOTTOM DRILLER
 CBL .F                40:   CASING BOTTOM LOGGER
 BS  .IN            7.875:   BIT SIZE
 BSD .F               675:   BIT SIZE AT DEPTH
 DFT .                KCL:   DRILLING FLUID TYPE
 DFD .                8.6:   DRILLING FLUID DENSITY
 DFV .                .34:   DRILLING FLUID VISCOSITY
 DFPH.                9.5:   DRILLING FLUID PH
 MSS .           FLOWLINE:   MUD SAMPLE SOURCE
 RMS .OHMM           0.38:   RESISTIVITY MUD SAMPLE
 MST .F                60:   MUD SAMPLE TEMPERATURE
 RMF .OHMM           0.36:   RESISTIVITY MUD FILTRATE SAMPLE
 MFST.F                62:   MUD FILTRATE SAMPLE TEMPERATURE
 RMC .OHMM            0.7:   RESISTIVITY MUD CAKE
 MCST.F                63:   MUD CAKE SAMPLE TEMPERATURE
 MFSS.               MEAS:   MUD FILTRATE SAMPLE SOURCE
 MCSS.               MEAS:   MUD CAKE SAMPLE SOURCE
 RMB .OHMM           0.31:   RESISTIVITY MUD AT BHT
 BHT .F                76:   BOTTOM HOLE TEMPERATURE
 TCS .HRS               3:   TIME CURCULATED STOPPED
 MRT .F                76:   MAXIMUM RECORDED TEMPERATURE
 LUN .               2958:   LOGGING UNIT NUMBER
 LUL .             CASPER:   LOGGING UNIT LOCATION
 ENGI.           REYNOLDS:   RECORDING ENGINEER
 WITN.     MR. HARRINGTON:   WITNESSED BY
 CLNT.            A2DTECH:   CLIENT CODE
 ORIG.           5" PRINT:   ORIGIN OF DATA
 UWI .       490251056500:   UNIQUE WELL ID
 DICO. A2D Technologies, Inc.:   DIGITIZING COMPANY
~OTHER INFORMATION
~A   DEPT      ILD         SN        SPR       CALD       CORR       DPHI        GRD       RHOB   
# ...
  313.5000    12.0223     9.8355   -66.6629     8.6898     0.1009     0.1121    92.8022     2.4720
  314.0000    11.9502     9.7741   -66.7907     8.6770     0.0906     0.1121    93.1206     2.4714
  314.5000    11.7971     9.7150   -66.6142     8.6644     0.0803     0.1173    93.1431     2.4677
  315.0000    11.7263     9.7251   -66.5925     8.6517     0.0668     0.1251    93.3136     2.4626
  315.5000    11.6559     9.7331   -66.7203     8.6543     0.0641     0.1257    94.2294     2.4530
  316.0000    11.7490     9.7412   -66.6932     8.6564     0.0658     0.1292    94.5478     2.4494
  316.5000    11.7593     9.6160   -66.6715     8.6586     0.0660     0.1307    94.5703     2.4472
  317.0000    11.8530     9.6259   -66.7993     8.6607     0.0646     0.1313    94.5928     2.4436
  317.5000    11.6209     9.6339   -66.9325     8.6633     0.0588     0.1276    94.7633     2.4415
  318.0000    11.2377     9.6419   -66.9054     8.6654     0.0574     0.1228    94.7915     2.4467
  318.5000    11.2474     9.6498   -66.8834     8.6675     0.0606     0.1237    94.3702     2.4540
  319.0000    11.1795     9.6580   -67.0115     8.6696     0.0608     0.1275    93.2094     2.4583
  319.5000    11.2668     9.5356   -66.9844     8.6719     0.0609     0.1302    92.4866     2.4419
  320.0000    11.2768     9.4130   -67.1176     8.6744     0.0564     0.1298    91.4793     2.4405
  320.5000    11.2886     9.2920   -67.0905     8.6765     0.0538     0.1298    90.7622     2.4414
  321.0000    11.1415     9.2359   -67.0688     8.6786     0.0554     0.1298    93.1572     2.4438
  321.5000    11.0011     9.1799   -67.0472     8.6807     0.0571     0.1309    94.2153     2.4476
  322.0000    10.8578     9.0621   -67.0254     8.6834     0.0573     0.1345    94.3857     2.4447
  322.5000    10.7209     9.0700   -67.1533     8.6701     0.0574     0.1305    95.1479     2.4366
  323.0000    10.4390     9.0790   -67.2811     8.6728     0.0561     0.1299    95.9158     2.4450
  323.5000    10.3075     9.0865   -67.2540     8.6891     0.0563     0.1305    95.3466     2.4473
  324.0000    10.3163     9.0298   -67.3818     8.6887     0.0564     0.1283    93.4404     2.4474
  324.5000    10.2522     9.0391   -67.3601     8.6884     0.0536     0.1232    93.6165     2.4483
  325.0000    10.1929     9.0466   -67.3384     8.6880     0.0507     0.1235    94.0828     2.4506
  325.5000    10.2017     9.0541   -67.3167     8.6876     0.0434     0.1246    94.5548     2.4530
  326.0000    10.1405     8.9395   -67.4445     8.6873     0.0391     0.1306    95.1691     2.4539
  326.5000    10.0796     8.8837   -67.4174     8.6869     0.0453     0.1365    95.7833     2.4458
  327.0000     9.9504     8.8301   -67.3957     8.6865     0.0499     0.1371    96.2496     2.4361
  327.5000     9.8907     8.7786   -67.3741     8.6862     0.0531     0.1364    97.0118     2.4332
  328.0000     9.8335     8.7859   -67.3524     8.6858     0.0533     0.1346    99.4069     2.4364
  328.5000     9.8420     8.7933   -67.3307     8.6854     0.0549     0.1334    98.8321     2.4380
  329.0000     9.8504     8.8022   -67.3094     8.6851     0.0551     0.1333    98.2685     2.4396
  329.5000     9.7913     8.8085   -67.1375     8.6847     0.0552     0.1330    97.6937     2.4404
  330.0000     9.8005     8.8168   -67.1108     8.6843     0.0524     0.1294    96.8343     2.4443
  330.5000     9.7410     8.8241   -67.0891     8.6839     0.0510     0.1266    95.2353     2.4504
  331.0000     9.7514     8.7708   -67.2223     8.6836     0.0497     0.1254    92.8910     2.4520
  331.5000     9.7598     8.7179   -67.1952     8.6832     0.0544     0.1283    92.6120     2.4499
  332.0000     9.7012     8.7255   -67.1735     8.6828     0.0591     0.1277    92.4866     2.4417
  332.5000     9.7096     8.7330   -67.1518     8.6825     0.0638     0.1274    92.3669     2.4403
  333.0000     9.6236     8.7413   -67.1300     8.6821     0.0654     0.1270    91.2116     2.4427
  333.5000     9.5297     8.6881   -67.1076     8.6817     0.0656     0.1264    91.6779     2.4443
  334.0000     9.5379     8.6359   -67.0814     8.6814     0.0657     0.1264    92.1443     2.4459
  334.5000     9.4787     8.6433   -67.2146     8.6810     0.0674     0.1263    92.3147     2.4468
  335.0000     9.4236     8.5339   -67.1875     8.6670     0.0691     0.1266    92.6331     2.4499
  335.5000     9.1667     8.4824   -67.0179     8.6691     0.0692     0.1265    94.4365     2.4530
  336.0000     8.8144     8.4294   -66.9946     8.6711     0.0664     0.1271    96.8259     2.4524
  336.5000     8.5826     8.2656   -67.1226     8.6733     0.0621     0.1274    97.7360     2.4517
  337.0000     8.5293     8.1034   -67.2666     8.6756     0.0591     0.1276    98.2023     2.4474
  337.5000     8.4781     7.9992   -67.8265     8.6778     0.0549     0.1282    98.6686     2.4459
  338.0000     8.4872     7.8880   -67.9543     8.6802     0.0535     0.1285    97.9572     2.4461
  338.5000     8.3784     7.7414   -67.9297     8.6822     0.0552     0.1293    97.5303     2.4462
  339.0000     8.3875     7.6946   -67.7560     8.6844     0.0554     0.1287    96.9611     2.4471
  339.5000     8.2800     7.8094   -67.7343     8.6842     0.0555     0.1280    96.3976     2.4494
  340.0000     8.2303     7.8159   -67.7126     8.6832     0.0512     0.1247    96.7160     2.4503
  340.5000     8.2942     7.9308   -67.6906     8.6822     0.0483     0.1235    97.0400     2.4511
  341.0000     8.4164     8.0476   -67.6639     8.6812     0.0455     0.1234    97.3584     2.4512
  341.5000     8.6586     8.0557   -67.6422     8.6802     0.0442     0.1228    97.5289     2.4528
  342.0000     8.7259     7.9505   -67.6205     8.6793     0.0444     0.1212    97.8473     2.4545
  342.5000     8.6735     7.8499   -67.7537     8.6783     0.0446     0.1197    98.4615     2.4572
  343.0000     8.6828     7.8564   -67.7266     8.6773     0.0432     0.1185    98.3362     2.4592
  343.5000     8.6896     7.8629   -67.7049     8.6763     0.0434     0.1184    98.3643     2.4608
  344.0000     8.6974     7.8695   -67.6831     8.6753     0.0420     0.1184    98.3869     2.4609
  344.5000     8.7053     7.9319   -67.6607     8.6743     0.0422     0.1178    98.6293     2.4610
  345.0000     8.6537     7.9933   -67.6345     8.6733     0.0408     0.1174    99.0367     2.4619
  345.5000     8.7209     8.0000   -67.6128     8.6724     0.0410     0.1183    99.4441     2.4635
  346.0000     8.7285     8.0066   -67.5911     8.6713     0.0427     0.1194    98.6174     2.4636
  346.5000     8.7378     8.0132   -67.7243     8.6727     0.0458     0.1209    98.5014     2.4622
  347.0000     8.8664     8.0199   -67.8475     8.6735     0.0460     0.1241   100.0089     2.4615
  347.5000     8.8113     8.0281   -67.8250     8.6742     0.0462     0.1244    99.8779     2.4587
  348.0000     8.8208     8.0348   -67.6532     8.6750     0.0464     0.1193    99.9061     2.4558
  348.5000     8.8284     8.0414   -67.6268     8.6758     0.0465     0.1172   100.0868     2.4537
  349.0000     8.7754     8.0481   -67.7600     8.6765     0.0467     0.1156   100.9923     2.4538
  349.5000     8.7849     7.9992   -67.8824     8.6773     0.0468     0.1168   101.6066     2.4561
  350.0000     8.7924     8.0061   -68.0102     8.6781     0.0470     0.1185   102.0729     2.4570
  350.5000     8.8000     8.0130   -67.9885     8.6789     0.0472     0.1170   101.6516     2.4601
  351.0000     8.8076     8.0210   -67.9668     8.6796     0.0458     0.1146   101.0533     2.4647
  351.5000     8.8152     8.0277   -67.9447     8.6801     0.0445     0.1130    98.5958     2.4686
  352.0000     8.8227     8.0334   -67.9180     8.6796     0.0417     0.1130    97.4350     2.4709
  352.5000     8.8303     8.0384   -68.0023     8.6791     0.0419     0.1189    97.7534     2.4703
  353.0000     8.7738     8.0435   -68.1821     8.6786     0.0405     0.1201    99.5510     2.4637
  353.5000     8.7206     8.1046   -68.1620     8.6781     0.0422     0.1212    99.5838     2.4611
