~VERSION INFORMATION
 VERS.                2.0:   CWLS LOG ASCII STANDARD - VERSION 2.0
 WRAP.                 NO:   ONE LINE PER DEPTH STEP
~WELL INFORMATION
#MNEM.UNIT      DATA TYPE    INFORMATION
#----------   ------------   ------------------------------
 STRT.F           20.0000:   START DEPTH
 STOP.F          677.0000:   STOP DEPTH
 STEP.F            0.5000:   STEP LENGTH
 NULL.          -999.2500:   NO VALUE
 COMP. FENIX & SCISSON INC:   COMPANY
 WELL. 11 WI NPR 3 #36-26 SX:   WELL
 FLD .             TEAPOT:   FIELD
 LOC .      S11 T38N R78W:   LOCATION
 CNTY.            NATRONA:   COUNTY
 STAT.            WYOMING:   STATE
 CTRY. UNITED STATES OF AMERICA:   COUNTRY
 SRVC.      Dresser Atlas:   SERVICE COMPANY
 DATE.        06-AUG-1980:   LOGDATE
 API .       490251084100:   API NUMBER
~CURVE INFORMATION
#MNEM.UNIT       API CODE    CURVE DESCRIPTION
#----------   ------------   ------------------------------
 DEPT.F                  :   
 SPR .MV     07 010 01 00:   SPONTANEOUS POTENTIAL
 SFL .OHMM   07 220 01 00:   SHALLOW FOCUSED LOG RESISTIVITY
 ILD .OHMM   07 120 46 00:   INDUCTION LOG DEEP
 ILM .OHMM   07 120 44 00:   INDUCTION LOG MEDIUM
 GRD .GAPI   45 310 01 00:   GAMMA RAY FROM DENSITY LOG
 RHOB.G/C3   45 350 01 00:   BULK DENSITY
 CALD.IN     45 280 60 00:   CALIPER
 CORR.G/C3   45 356 01 00:   DENSITY CORRECTION
 DPOR.DEC    45 890 12 00:   DENSITY POROSITY SANDSTONE
 NPOR.DEC    42 890 03 00:   NEUTRON POROSITY SANDSTONE
~PARAMETER INFORMATION
#MNEM.UNIT          VALUE    DESCRIPTION
#----------   ------------   ------------------------------
 PD  .                 GL:   PERMANENT DATUM
 EPD .F              5191:   ELEVATION PERMANENT DATUM
 LMF .                 KB:   LOG MEASURED FROM
 DAPD.F                 5:   FEET ABOVE PERMANENT DATUM
 DMF .                 KB:   DRILLING MEASURED FROM
 EKB .F              5196:   KELLING BUSHING
 EGL .F              5191:   GROUND LEVEL
 DATE.             8-6-80:   RUN DATE
 RUN .                  1:   RUN NUMBER
 DD  .F               680:   DEPTH DRILLER
 DL  .F               679:   DEPTH LOGGER
 BLI .F               676:   BOTTOM LOG INTERVAL
 TLI .F                20:   TOP LOG INTERVAL
 BS  .IN            7.875:   BIT SIZE
 BSD .F               680:   BIT SIZE AT DEPTH
 DFT .                KCL:   DRILLING FLUID TYPE
 DFD .                9.4:   DRILLING FLUID DENSITY
 DFV .                 45:   DRILLING FLUID VISCOSITY
 DFPH.                 12:   DRILLING FLUID PH
 MSS .           FLOWLINE:   MUD SAMPLE SOURCE
 RMS .OHMM            .11:   RESISTIVITY MUD SAMPLE
 MST .F                65:   MUD SAMPLE TEMPERATURE
 RMF .OHMM             .1:   RESISTIVITY MUD FILTRATE SAMPLE
 MFST.F                60:   MUD FILTRATE SAMPLE TEMPERATURE
 RMC .OHMM            .17:   RESISTIVITY MUD CAKE
 MCST.F                65:   MUD CAKE SAMPLE TEMPERATURE
 MFSS.               MEAS:   MUD FILTRATE SAMPLE SOURCE
 MCSS.              CHART:   MUD CAKE SAMPLE SOURCE
 TCS .HRS              .5:   TIME CURCULATED STOPPED
 MRT .F               100:   MAXIMUM RECORDED TEMPERATURE
 LUN .               6240:   LOGGING UNIT NUMBER
 LUL .               RVTN:   LOGGING UNIT LOCATION
 ENGI.            K. RALL:   RECORDING ENGINEER
 WITN.     AMAND/MCINTYRE:   WITNESSED BY
 CLNT.            A2DTECH:   CLIENT CODE
 ORIG.        2" 5" PRINT:   ORIGIN OF DATA
 UWI .       490251084100:   UNIQUE WELL ID
 DICO. A2D Technologies, Inc.:   DIGITIZING COMPANY
~OTHER INFORMATION
~A   DEPT       SPR       SFL         ILD         ILM      GRD       RHOB       CALD       CORR       DPOR       NPOR   
# ...
  556.0000   -58.1357    13.0320    13.8417    12.5609    94.6023     2.3504     7.9246     0.0003     0.1954     0.2471
  556.5000   -58.3697    12.9783    13.7803    12.5175    92.8832     2.3514     7.9246     0.0055     0.1938     0.2456
  557.0000   -58.6152    12.9783    13.7343    12.3363    93.4572     2.3651     7.9246     0.0221     0.1830     0.2402
  557.5000   -58.8604    12.9783    13.6885    12.0633    96.2960     2.3850     7.9246     0.0386     0.1723     0.2311
  558.0000   -59.1064    12.9783    13.6426    11.7963    99.3883     2.4004     7.9246     0.0402     0.1664     0.2218
  558.5000   -59.3321    12.9783    13.5978    11.5352   100.7897     2.3951     7.9246     0.0320     0.1684     0.2188
  559.0000   -59.2962    12.9785    13.4988    11.1964    98.2706     2.3894     7.9246     0.0225     0.1705     0.2188
  559.5000   -59.2539    12.9783    13.3901    11.1951    97.4861     2.3999     7.9247     0.0155     0.1717     0.2211
  560.0000   -59.2126    12.9783    13.2823    11.4967   102.6899     2.4210     7.9247     0.0244     0.1591     0.2314
  560.5000   -59.1713    12.8815    13.0831    11.8649   104.1708     2.4278     7.9248     0.0315     0.1480     0.2486
  561.0000   -59.1571    12.6500    12.7610    12.2812   100.1857     2.4144     7.9197     0.0371     0.1543     0.2558
  561.5000   -59.3347    12.4214    12.4452    12.0487    96.2072     2.4000     7.9136     0.0372     0.1645     0.2537
  562.0000   -59.5120    12.1974    12.1374    11.7259    93.3620     2.3861     7.9075     0.0344     0.1746     0.2544
  562.5000   -59.6888    11.9769    11.8374    11.4118    91.8698     2.3734     7.9059     0.0225     0.1820     0.2567
  563.0000   -59.8656    11.9392    11.5449    11.1061    92.5050     2.3755     7.9091     0.0202     0.1780     0.2552
  563.5000   -60.0428    11.9303    11.4097    10.7981    95.4788     2.3866     7.9124     0.0163     0.1730     0.2535
  564.0000   -60.2169    11.9218    11.4667    10.8582    98.2180     2.3907     7.9156     0.0089     0.1712     0.2539
  564.5000   -60.3312    11.9130    11.5096    10.9256    99.6285     2.3758     7.9189    -0.0061     0.1817     0.2456
  565.0000   -60.2878    11.9043    11.5527    10.9923   100.8546     2.3599     7.9222    -0.0211     0.1909     0.2350
  565.5000   -60.2474    11.8956    11.5959    11.0592   100.9873     2.3410     7.9245    -0.0357     0.2001     0.2314
  566.0000   -60.2062    11.8868    11.6392    11.1264    99.6921     2.3338     7.9235    -0.0327     0.2059     0.2410
  566.5000   -60.1667    11.8781    11.6827    11.1940    97.7738     2.3491     7.9226    -0.0178     0.1969     0.2471
  567.0000   -60.1901    11.8694    11.7264    11.2623    96.0551     2.3649     7.9217    -0.0029     0.1873     0.2462
  567.5000   -60.3239    11.8608    11.7702    11.3311    96.2939     2.3807     7.9208     0.0110     0.1778     0.2430
  568.0000   -60.4562    11.8524    11.8142    11.4111    97.2766     2.3963     7.9199     0.0200     0.1681     0.2331
  568.5000   -60.5888    11.8427    11.8374    11.3145    97.7044     2.3955     7.9190     0.0287     0.1691     0.2359
  569.0000   -60.7214    11.7673    11.5590    11.1723    97.2716     2.3929     7.9181     0.0214     0.1701     0.2536
  569.5000   -60.8527    11.5589    11.3737    11.0318    96.1365     2.3925     7.9172     0.0141     0.1707     0.2703
  570.0000   -61.0279    11.3545    11.1913    10.8930    95.0645     2.3923     7.9163     0.0067     0.1715     0.2663
  570.5000   -61.1594    11.1530    11.0119    10.7836    94.3523     2.3968     7.9154     0.0105     0.1674     0.2590
  571.0000   -61.2646    11.0990    10.7969    10.7403    92.5502     2.4094     7.9145     0.0170     0.1608     0.2523
  571.5000   -61.3660    11.0990    10.8116    10.6971    89.4155     2.4219     7.9136     0.0209     0.1528     0.2563
  572.0000   -61.4685    11.0990    10.8366    10.6539    88.8152     2.4285     7.9127     0.0217     0.1493     0.2587
  572.5000   -61.5354    11.1403    10.8616    10.6110    92.0147     2.4243     7.9118     0.0235     0.1521     0.2492
  573.0000   -61.1934    11.1790    10.8867    10.5418    94.5445     2.4198     7.9110     0.0251     0.1549     0.2337
  573.5000   -61.0358    11.2016    10.8967    10.4361    95.2003     2.3982     7.9100     0.0115     0.1616     0.2204
  574.0000   -61.3303    11.0970    10.7792    10.3319    95.0455     2.3743     7.9092    -0.0038     0.1798     0.2285
  574.5000   -61.0769    11.0123    10.6969    10.2287    94.8765     2.3650     7.9082    -0.0102     0.1880     0.2393
  575.0000   -60.7992    10.9284    10.6151    10.1266    94.6861     2.3886     7.9074    -0.0064     0.1750     0.2501
  575.5000   -60.5237    10.8967    10.5999    10.0307    95.5214     2.4024     7.9064    -0.0021     0.1644     0.2608
  576.0000   -60.2481    10.8967    10.7068    10.0307    97.7082     2.4035     7.9056    -0.0014     0.1642     0.2679
  576.5000   -59.9733    10.8967    10.7937    10.1536   100.7361     2.4262     7.9046     0.0187     0.1532     0.2604
  577.0000   -59.9391    10.8967    10.8813    10.2498   103.3729     2.4557     7.9054     0.0394     0.1344     0.2530
  577.5000   -59.9428    11.0479    10.9696    10.3469   105.3372     2.4596     7.9073     0.0489     0.1286     0.2459
  578.0000   -59.9226    11.1989    11.0587    10.4450   105.9640     2.4438     7.9093     0.0468     0.1328     0.2459
  578.5000   -59.4412    11.3520    11.1487    10.5440   105.5729     2.4213     7.9112     0.0171     0.1486     0.2459
  579.0000   -58.9546    11.5072    11.2388    10.6438   104.8196     2.4183     7.9131     0.0216     0.1557     0.2406
  579.5000   -58.9308    11.6216    11.3052    10.6980   103.5780     2.4345     7.9151     0.0292     0.1487     0.2383
  580.0000   -58.9325    11.3997    11.1241    10.6980   101.8438     2.4320     7.9170     0.0353     0.1445     0.2444
  580.5000   -59.0116    11.2286    10.9837    10.6662   102.6682     2.4277     7.9189     0.0352     0.1469     0.2499
  581.0000   -59.6907    11.0596    10.8451    10.4952   103.9422     2.4279     7.9208     0.0350     0.1493     0.2474
  581.5000   -60.3719    10.8932    10.7083    10.3269   104.3503     2.4179     7.9228     0.0264     0.1516     0.2455
  582.0000   -60.7501    10.7294    10.5731    10.1613   103.7496     2.4067     7.9247     0.0082     0.1608     0.2455
  582.5000   -60.4448    10.5847    10.4397     9.9984   101.3228     2.3966     7.9266    -0.0031     0.1689     0.2501
  583.0000   -60.0224    10.5079    10.3080     9.8478    99.6508     2.3986     7.9286    -0.0008     0.1674     0.2555
  583.5000   -59.5931    10.4318    10.2170     9.6988   101.3914     2.4019     7.9305     0.0008     0.1659     0.2723
  584.0000   -59.6563    10.3562    10.2170     9.5605   103.5479     2.4105     7.9324     0.0026     0.1645     0.2912
  584.5000   -59.7353    10.3110    10.2170     9.4241   103.4715     2.4220     7.9344     0.0073     0.1537     0.2950
  585.0000   -59.7481    10.3563    10.2170     9.2897   101.8047     2.4200     7.9363     0.0049     0.1546     0.2803
  585.5000   -60.0717    10.3937    10.2169     9.1489   100.1652     2.4171     7.9382     0.0026     0.1565     0.2618
  586.0000   -59.6619    10.4309    10.2173     9.1489   103.1667     2.4207     7.9402     0.0012     0.1544     0.2410
  586.5000   -59.5389    10.4672    10.2160     9.1489   107.6877     2.4216     7.9421    -0.0005     0.1513     0.2379
  587.0000   -59.5406    10.5047    10.3943     9.5456   108.4166     2.4007     7.9440    -0.0080     0.1658     0.2632
  587.5000   -59.2380    10.7845    10.5211     9.9464   105.8293     2.3790     7.9430    -0.0159     0.1792     0.2830
  588.0000   -58.7972    11.0491    10.7322    10.4271   103.8662     2.3935     7.9389    -0.0060     0.1788     0.2954
  588.5000   -58.3540    11.3203    11.0848    10.9780   103.4273     2.4122     7.9348     0.0051     0.1607     0.2853
  589.0000   -57.9022    11.9125    11.5567    11.5584   102.0407     2.4109     7.9307     0.0167     0.1601     0.2711
