~VERSION INFORMATION
 VERS.                2.0:   CWLS LOG ASCII STANDARD - VERSION 2.0
 WRAP.                 NO:   ONE LINE PER DEPTH STEP
~WELL INFORMATION
#MNEM.UNIT      DATA TYPE    INFORMATION
#----------   ------------   ------------------------------
 STRT.F            0.0000:   START DEPTH
 STOP.F          962.0000:   STOP DEPTH
 STEP.F            0.5000:   STEP LENGTH
 NULL.          -999.2500:   NO VALUE
 COMP. FENIX & SCISSON INC:   COMPANY
 WELL.      NPR #3 #51-14:   WELL
 FLD .             TEAPOT:   FIELD
 LOC .      S14 T38N R78W:   LOCATION
 CNTY.            NATRONA:   COUNTY
 STAT.            WYOMING:   STATE
 CTRY. UNITED STATES OF AMERICA:   COUNTRY
 SRVC.              Welex:   SERVICE COMPANY
 DATE.        03-MAR-1977:   LOGDATE
 API .       490251029700:   API NUMBER
~CURVE INFORMATION
#MNEM.UNIT       API CODE    CURVE DESCRIPTION
#----------   ------------   ------------------------------
 DEPT.F                  :   
 SGRD.OHMM   07 220 05 00:   SHALLOW RESISTIVITY
 ILM .OHMM   07 120 44 00:   INDUCTION LOG MEDIUM
 ILD .OHMM   07 120 46 00:   INDUCTION LOG DEEP
 SPR .MV     07 010 01 00:   SPONTANEOUS POTENTIAL
 DPHI.DEC    45 890 12 00:   DENSITY POROSITY SANDSTONE
 RHOB.G/C3   45 350 01 00:   BULK DENSITY
 CORR.G/C3   45 356 01 00:   DENSITY CORRECTION
 CALD.IN     45 280 60 00:   CALIPER
 GRD .GAPI   45 310 01 00:   GAMMA RAY FROM DENSITY LOG
~PARAMETER INFORMATION
#MNEM.UNIT          VALUE    DESCRIPTION
#----------   ------------   ------------------------------
 PD  .                 GL:   PERMANENT DATUM
 EPD .F            5221.8:   ELEVATION PERMANENT DATUM
 LMF .                 GL:   LOG MEASURED FROM
 DMF .                 GL:   DRILLING MEASURED FROM
 EGL .F            5221.8:   GROUND LEVEL
 DATE.             3-3-77:   RUN DATE
 RUN .                  1:   RUN NUMBER
 DD  .F               967:   DEPTH DRILLER
 DL  .F               964:   DEPTH LOGGER
 BLI .F               962:   BOTTOM LOG INTERVAL
 TLI .F                42:   TOP LOG INTERVAL
 CS  .IN            8.625:   CASING SIZE
 CBD .F                42:   CASING BOTTOM DRILLER
 CBL .F                42:   CASING BOTTOM LOGGER
 BS  .IN            7.875:   BIT SIZE
 BSD .F               967:   BIT SIZE AT DEPTH
 DFT .           CHEM-GEL:   DRILLING FLUID TYPE
 DFD .                8.7:   DRILLING FLUID DENSITY
 DFV .                 33:   DRILLING FLUID VISCOSITY
 DFPH.                7.2:   DRILLING FLUID PH
 DFL .                 10:   DRILLING FLUID LOSS
 MSS .          FLOW LINE:   MUD SAMPLE SOURCE
 RMS .OHMM           .422:   RESISTIVITY MUD SAMPLE
 MST .F                56:   MUD SAMPLE TEMPERATURE
 RMF .OHMM           .372:   RESISTIVITY MUD FILTRATE SAMPLE
 MFST.F                56:   MUD FILTRATE SAMPLE TEMPERATURE
 RMC .OHMM           .484:   RESISTIVITY MUD CAKE
 MCST.F                56:   MUD CAKE SAMPLE TEMPERATURE
 MFSS.           MEASURED:   MUD FILTRATE SAMPLE SOURCE
 MCSS.           MEASURED:   MUD CAKE SAMPLE SOURCE
 RMB .OHMM           .284:   RESISTIVITY MUD AT BHT
 BHT .F                83:   BOTTOM HOLE TEMPERATURE
 TCS .HRS               2:   TIME CURCULATED STOPPED
 MRT .F                83:   MAXIMUM RECORDED TEMPERATURE
 LUN .               8611:   LOGGING UNIT NUMBER
 LUL .           GILLETTE:   LOGGING UNIT LOCATION
 ENGI.          D. LAWSON:   RECORDING ENGINEER
 WITN.         STUEBINGER:   WITNESSED BY
 CLNT.            A2DTECH:   CLIENT CODE
 ORIG.        2" 5" PRINT:   ORIGIN OF DATA
 UWI .       490251029700:   UNIQUE WELL ID
 DICO. A2D Technologies, Inc.:   DIGITIZING COMPANY
~OTHER INFORMATION
~A    DEPT    SGRD        ILM        ILD        SPR       DPHI       RHOB       CORR       CALD        GRD   
# ...
  547.5000    12.0628     8.7214     6.8301   -42.6428     0.0691     2.5350     0.0768     8.1564   123.8260
  548.0000    11.4744     9.0866     6.8302   -42.6619     0.0683     2.5355     0.0813     8.1502   124.8788
  548.5000    11.2191     9.4655     6.8301   -42.6810     0.0676     2.5361     0.0793     8.1440   125.9634
  549.0000    11.6114     9.8601     6.8301   -42.7000     0.0710     2.5321     0.0758     8.1378   125.1464
  549.5000    12.5210    10.3250     6.8301   -42.7199     0.0748     2.5264     0.0723     8.1315   123.6084
  550.0000    12.2206    10.0750     6.8302   -42.7686     0.0786     2.5206     0.0688     8.1253   122.0441
  550.5000    11.7908     9.7958     6.8301   -42.8502     0.0824     2.5149     0.0655     8.1191   121.2948
  551.0000    11.3761     9.5243     6.8298   -42.9315     0.0832     2.5148     0.0652     8.1129   122.0476
  551.5000    11.2146     9.2603     6.8301   -43.0131     0.0801     2.5201     0.0647     8.1065   124.7548
  552.0000    11.2146     9.0036     6.7184   -43.0946     0.0770     2.5255     0.0642     8.1018   127.4227
  552.5000    11.2146     8.7518     6.6495   -43.1761     0.0761     2.5266     0.0637     8.0763   130.1088
  553.0000    11.2146     8.5927     6.5814   -43.2576     0.0773     2.5240     0.0632     8.0777   131.9423
  553.5000    11.1296     8.6849     6.5139   -43.3391     0.0785     2.5211     0.0628     8.0775   132.1571
  554.0000    11.0412     8.7544     6.4471   -43.4206     0.0802     2.5143     0.0623     8.0775   131.2297
  554.5000    10.8807     8.8245     6.3810   -43.5054     0.0850     2.5080     0.0618     8.0775   129.6978
  555.0000    10.6811     8.9142     6.3156   -43.5407     0.0869     2.5088     0.0617     8.0775   128.1626
  555.5000    10.4862     8.7889     6.2509   -43.5617     0.0847     2.5095     0.0617     8.0775   128.2355
  556.0000    10.2952     8.6203     6.1867   -43.5822     0.0857     2.5093     0.0617     8.0775   129.7162
  556.5000    10.1075     8.4550     6.1232   -43.6030     0.0870     2.5071     0.0617     8.0775   130.9277
  557.0000    10.0445     8.2928     6.0608   -43.6238     0.0884     2.5049     0.0617     8.0775   129.3102
  557.5000    10.0443     8.1338     6.0062   -43.6446     0.0897     2.5027     0.0616     8.0775   126.3305
  558.0000    10.0443     7.9778     6.0199   -43.6654     0.0910     2.5004     0.0634     8.0775   123.6930
  558.5000    10.0438     7.8248     6.0322   -43.6864     0.0897     2.5032     0.0657     8.0775   124.9455
  559.0000    10.0433     7.6258     6.0445   -43.7073     0.0864     2.5075     0.0680     8.0775   127.0056
  559.5000    10.1215     7.7846     6.0568   -43.7179     0.0831     2.5118     0.0703     8.0775   129.0778
  560.0000    10.2401     8.0277     6.0692   -43.6562     0.0803     2.5159     0.0712     8.0790   129.9501
  560.5000    10.3590     8.2784     6.0815   -43.5948     0.0807     2.5140     0.0699     8.0810   129.8639
  561.0000    10.4795     8.5370     6.0940   -43.5336     0.0821     2.5113     0.0686     8.0830   130.1513
  561.5000    10.6004     8.8036     6.1066   -43.4725     0.0834     2.5086     0.0673     8.0850   130.7422
  562.0000    10.7113     8.9965     6.1276   -43.4113     0.0847     2.5071     0.0660     8.0870   132.2775
  562.5000    10.7113     8.8825     6.2261   -43.3501     0.0854     2.5086     0.0646     8.0890   133.4190
  563.0000    10.7113     8.7955     6.3262   -43.2889     0.0848     2.5099     0.0633     8.0910   131.4165
  563.5000    10.7111     8.7091     6.4279   -43.2276     0.0872     2.5059     0.0620     8.0929   128.8999
  564.0000    10.7111     8.6237     6.5312   -43.1672     0.0902     2.5016     0.0607     8.0949   126.3755
  564.5000    10.7322     8.5392     6.6362   -43.1373     0.0893     2.5014     0.0597     8.0969   123.7762
  565.0000    10.9236     8.4363     6.7427   -43.1674     0.0876     2.5028     0.0597     8.0989   123.8756
  565.5000    11.1178     8.6063     6.8298   -43.1965     0.0894     2.5015     0.0597     8.1009   124.6697
  566.0000    11.3155     8.8322     6.7713   -43.2259     0.0913     2.5001     0.0597     8.1029   125.4828
  566.5000    11.4225     9.0641     6.7225   -43.2552     0.0903     2.5018     0.0597     8.1049   126.2892
  567.0000    11.2485     9.3014     6.6738   -43.2845     0.0883     2.5039     0.0597     8.1069   127.2976
  567.5000    11.1314     9.5049     6.6256   -43.3138     0.0863     2.5061     0.0597     8.1089   128.4634
  568.0000    11.0155     9.3368     6.5778   -43.3431     0.0852     2.5083     0.0597     8.1109   129.6330
  568.5000    10.9008     9.1942     6.5303   -43.3724     0.0852     2.5089     0.0597     8.1129   130.7655
  569.0000    10.7873     9.0531     6.5236   -43.4017     0.0852     2.5087     0.0596     8.1149   130.1009
  569.5000    10.7113     8.9143     6.5236   -43.4310     0.0852     2.5084     0.0593     8.1168   127.9961
  570.0000    10.8354     8.7780     6.5236   -43.4603     0.0852     2.5081     0.0590     8.1188   123.9336
  570.5000    10.9099     8.6720     6.5236   -43.4897     0.0860     2.5068     0.0587     8.1208   121.1413
  571.0000    10.6820     8.6455     6.5236   -43.5214     0.0873     2.5042     0.0584     8.1228   121.5592
  571.5000    10.5344     8.6197     6.5236   -43.4533     0.0887     2.5017     0.0581     8.1248   122.3613
  572.0000    10.8751     8.5927     6.5236   -43.3578     0.0900     2.4991     0.0578     8.1268   123.1801
  572.5000    11.2146     8.4124     6.5236   -43.2617     0.0913     2.4965     0.0575     8.1288   123.9986
  573.0000    10.9520     8.2270     6.5236   -43.1659     0.0926     2.4939     0.0572     8.1308   124.7059
  573.5000    10.6931     8.0519     6.5231   -43.0701     0.0939     2.4913     0.0569     8.1328   123.0597
  574.0000    10.5408     8.5317     6.5214   -42.9744     0.0952     2.4887     0.0566     8.1348   121.1138
  574.5000    11.6342     9.1002     6.6283   -42.8786     0.0964     2.4896     0.0564     8.1368   122.1018
  575.0000    11.8795     9.7073     6.7748   -42.7828     0.0956     2.4919     0.0560     8.1388   123.4644
  575.5000    12.1407     9.9568     6.9246   -42.6870     0.0941     2.4953     0.0557     8.1408   121.8729
  576.0000    12.2861     9.9551     7.0777   -42.5913     0.0922     2.4989     0.0575     8.1427   119.6666
  576.5000    12.4115     9.9527     7.2342   -42.4955     0.0867     2.5074     0.0600     8.1447   117.9841
  577.0000    12.5380     9.9527     7.3942   -42.3997     0.0812     2.5177     0.0624     8.1467   118.7719
  577.5000    12.6659     9.9532     7.5577   -42.3042     0.0758     2.5281     0.0679     8.1487   118.0821
  578.0000    12.7951     9.9505     7.7248   -42.2084     0.0699     2.5366     0.0706     8.1507   117.4870
  578.5000    12.9256    10.1848     7.8956   -42.0967     0.0716     2.5318     0.0686     8.1527   118.6158
  579.0000    13.0972    10.4135     8.0702   -41.9116     0.0734     2.5270     0.0667     8.1547   119.6548
  579.5000    13.3069    10.7084     8.2487   -41.7279     0.0788     2.5224     0.0630     8.1567   119.6773
  580.0000    13.5211    11.0635     8.4312   -41.5444     0.0855     2.5112     0.0580     8.1587   119.0053
  580.5000    13.7253    11.4305     8.6175   -41.3608     0.0922     2.4978     0.0530     8.1608   117.3555
  581.0000    13.7834    11.8138     8.7667   -41.1773     0.0992     2.4846     0.0508     8.1628   115.9700
  581.5000    13.8384    12.0676     8.8171   -40.9916     0.0988     2.4899     0.0545     8.1648   117.0286
  582.0000    14.1047    11.6307     8.8679   -40.9409     0.0925     2.4965     0.0580     8.1669   117.2742
  582.5000    14.4462    11.3090     8.9190   -40.9460     0.0868     2.5029     0.0615     8.1689   115.1321
  583.0000    14.7959    10.9977     8.9703   -40.9523     0.0872     2.5069     0.0602     8.1709   114.3344
  583.5000    15.3242    10.6134     8.9964   -40.9584     0.0883     2.5051     0.0587     8.1730   115.3623
