~VERSION INFORMATION
 VERS.                2.0:   CWLS LOG ASCII STANDARD - VERSION 2.0
 WRAP.                 NO:   ONE LINE PER DEPTH STEP
~WELL INFORMATION
#MNEM.UNIT      DATA TYPE    INFORMATION
#----------   ------------   ------------------------------
 STRT.F           84.0000:   START DEPTH
 STOP.F          849.5000:   STOP DEPTH
 STEP.F            0.5000:   STEP LENGTH
 NULL.          -999.2500:   NO VALUE
 COMP. U S NAVY/INTEX OIL CO:   COMPANY
 WELL.     NPR 3 #81-S-34:   WELL
 FLD .        TEAPOT DOME:   FIELD
 LOC .      S34 T39N R78W:   LOCATION
 CNTY.            NATRONA:   COUNTY
 STAT.            WYOMING:   STATE
 CTRY. UNITED STATES OF AMERICA:   COUNTRY
 SRVC.       Schlumberger:   SERVICE COMPANY
 DATE.        29-JUL-1963:   LOGDATE
 API .       490250656700:   API NUMBER
~CURVE INFORMATION
#MNEM.UNIT       API CODE    CURVE DESCRIPTION
#----------   ------------   ------------------------------
 DEPT.F                  :   
 CALS.IN     60 280 50 00:   CALIPER FROM SONIC LOG
 DT  .US/F   60 520 33 00:   INTERVAL TRANSIT TIME
 SPR .MV     05 010 01 00:   SPONTANEOUS POTENTIAL FROM RES.
 ILD .OHMM   05 120 46 00:   INDUCTION LOG DEEP
 ASN .OHMM   05 041 16 00:   AMPLIFIED SHORT NORMAL 16"
 CILD.MMHO   05 110 46 00:   CONDUCTIVITY INDUCTION LOG DEEP
 GR  .GAPI   30 310 01 00:   GAMMA RAY FROM RES.
~PARAMETER INFORMATION
#MNEM.UNIT          VALUE    DESCRIPTION
#----------   ------------   ------------------------------
 PD  .                 GL:   PERMANENT DATUM
 EPD .F              5067:   ELEVATION PERMANENT DATUM
 LMF .                 KB:   LOG MEASURED FROM
 DAPD.F                 5:   FEET ABOVE PERMANENT DATUM
 DMF .                 KB:   DRILLING MEASURED FROM
 EKB .F              5072:   KELLING BUSHING
 EGL .F              5067:   GROUND LEVEL
 DATE.          7-29-1963:   RUN DATE
 RUN .                  1:   RUN NUMBER
 DD  .F               850:   DEPTH DRILLER
 DL  .F               850:   DEPTH LOGGER
 BLI .F               849:   BOTTOM LOG INTERVAL
 TLI .F                90:   TOP LOG INTERVAL
 CS  .IN            8.625:   CASING SIZE
 CBD .F                10:   CASING BOTTOM DRILLER
 BS  .IN            7.875:   BIT SIZE
 BSD .F               850:   BIT SIZE AT DEPTH
 DFT .            GEL-OIL:   DRILLING FLUID TYPE
 DFD .                9.4:   DRILLING FLUID DENSITY
 DFV .                 40:   DRILLING FLUID VISCOSITY
 DFPH.                  9:   DRILLING FLUID PH
 DFL .                8.4:   DRILLING FLUID LOSS
 MSS .           FLOWLINE:   MUD SAMPLE SOURCE
 RMS .OHMM           3.08:   RESISTIVITY MUD SAMPLE
 MST .F                79:   MUD SAMPLE TEMPERATURE
 RMF .OHMM           2.39:   RESISTIVITY MUD FILTRATE SAMPLE
 MFST.F                79:   MUD FILTRATE SAMPLE TEMPERATURE
 RMC .OHMM           3.29:   RESISTIVITY MUD CAKE
 MCST.F                79:   MUD CAKE SAMPLE TEMPERATURE
 MFSS.                 MP:   MUD FILTRATE SAMPLE SOURCE
 MCSS.                 MP:   MUD CAKE SAMPLE SOURCE
 TCS .HRS               1:   TIME CURCULATED STOPPED
 LUN .               4507:   LOGGING UNIT NUMBER
 LUL .              CSPR.:   LOGGING UNIT LOCATION
 ENGI.             KNOBEL:   RECORDING ENGINEER
 WITN.          JORGENSON:   WITNESSED BY
 CLNT.            A2DTECH:   CLIENT CODE
 ORIG.           5" PRINT:   ORIGIN OF DATA
 UWI .       490250656700:   UNIQUE WELL ID
 DICO. A2D Technologies, Inc.:   DIGITIZING COMPANY
~OTHER INFORMATION
~A   DEPT     CALS         DT        SPR        ILD        ASN       CILD         GR   
# ...
  493.5000     7.6083   100.3071   -33.5263     7.9972    10.0407   127.0920  -999.2500
  494.0000     7.5730   101.3488   -33.2799     7.7815    10.0185   130.6764  -999.2500
  494.5000     7.6528   102.3904   -33.0321     7.5641     9.7315   134.1841  -999.2500
  495.0000     7.7375   103.0324   -32.8436     7.3465     9.3953   137.5523  -999.2500
  495.5000     7.7544   103.6074   -32.7532     7.1850     9.0573   142.2415  -999.2500
  496.0000     7.7502   104.1824   -32.6614     7.0540     8.7223   146.7513  -999.2500
  496.5000     7.7451   104.7574   -32.5711     6.9539     8.5427   150.1046  -999.2500
  497.0000     7.7403   105.0052   -32.4647     6.9555     8.3915   151.1187  -999.2500
  497.5000     7.7240   105.1145   -32.7531     6.9544     8.2543   149.7556  -999.2500
  498.0000     7.7034   103.4786   -32.8776     6.9678     8.3304   147.3201  -999.2500
  498.5000     7.6823   101.6036   -32.8851     7.2046     8.4972   144.6856  -999.2500
  499.0000     7.6615    99.7286   -32.7504     7.3762     8.8150   142.0721  -999.2500
  499.5000     7.7043    97.8536   -32.6735     7.3844     9.1239   139.4577  -999.2500
  500.0000     7.7529    96.1653   -32.7292     7.5719     9.3604   136.8431  -999.2500
  500.5000     7.7573    96.6475   -32.8447     7.7557     9.4171   134.2285  -999.2500
  501.0000     7.6799    97.6098   -32.9598     7.9386     9.4614   131.6139  -999.2500
  501.5000     7.6043    98.7550   -33.0788     8.1067     9.5005   129.1841  -999.2500
  502.0000     7.6180    97.3888   -33.1022     8.0328     9.6087   129.3966  -999.2500
  502.5000     7.7382    96.1862   -32.7942     7.9457     9.7144   130.2056  -999.2500
  503.0000     7.8670    97.2085   -32.5816     7.8594     9.6667   131.0146  -999.2500
  503.5000     7.8911    97.6308   -32.3753     7.7913     9.5491   131.8237  -999.2500
  504.0000     7.8791    98.0530   -32.3077     7.7789     9.4808   132.6327  -999.2500
  504.5000     7.8765    98.3002   -32.4394     7.7067     9.4213   133.4418  -999.2500
  505.0000     7.8867    98.4362   -32.5678     7.6360     9.2840   134.2354  -999.2500
  505.5000     7.9490    98.4659   -32.6754     7.5650     9.2059   136.9282  -999.2500
  506.0000     7.9552    97.7273   -32.6756     7.4909     9.2121   137.5398  -999.2500
  506.5000     7.9070    96.9888   -32.5568     7.5640     9.2376   135.5648  -999.2500
  507.0000     7.8761    96.2503   -32.3249     7.6725     9.3364   132.7406  -999.2500
  507.5000     7.9236    95.5117   -31.9256     7.7825     9.4403   131.0146  -999.2500
  508.0000     7.9899    94.9906   -31.6623     7.8932     9.5470   129.2887  -999.2500
  508.5000     7.9067    95.9018   -31.4338     7.9330     9.6021   127.5628  -999.2500
  509.0000     7.8188    96.8124   -31.7198     7.9695     9.6585   127.3745  -999.2500
  509.5000     7.7453    97.7243   -32.0491     8.0011     9.7228   127.7600  -999.2500
  510.0000     7.8761    98.6361   -32.3777     7.9831     9.7758   128.1502  -999.2500
  510.5000     7.8259    99.3068   -32.6627     7.9657     9.7437   128.5395  -999.2500
  511.0000     7.7424    99.7747   -32.5243     7.9484     9.6771   128.9278  -999.2500
  511.5000     7.7612   100.2425   -32.3831     7.9311     9.5974   129.3162  -999.2500
  512.0000     7.8618   100.6474   -32.2615     7.9139     9.5219   129.7045  -999.2500
  512.5000     8.0101   100.4478   -32.3633     7.8966     9.4382   130.0928  -999.2500
  513.0000     7.9406   100.2641   -32.4612     7.8794     9.4097   130.4270  -999.2500
  513.5000     7.8715   100.0796   -32.4640     7.8621     9.4414   130.7316  -999.2500
  514.0000     7.8039    99.8943   -32.4636     7.8448     9.4723   131.0362  -999.2500
  514.5000     7.7571    99.4036   -32.4638     7.8276     9.5039   131.3408  -999.2500
  515.0000     7.7591    98.7799   -32.4619     7.8102     9.4862   131.6452  -999.2500
  515.5000     7.7862    98.2570   -32.4121     7.7934     9.4189   131.9499  -999.2500
  516.0000     7.8815    98.3566   -32.3605     7.7930     9.3491   132.2545  -999.2500
  516.5000     7.9762    99.0502   -32.3098     7.7728     9.3117   132.6509  -999.2500
  517.0000     7.9305    99.9574   -32.2506     7.7385     9.2959   133.0736  -999.2500
  517.5000     7.9124   100.2490   -31.9568     7.7040     9.2805   133.4963  -999.2500
  518.0000     8.0105    99.1841   -31.6399     7.6694     9.2653   133.9190  -999.2500
  518.5000     7.9867    98.0578   -31.4501     7.6352     9.2500   134.3416  -999.2500
  519.0000     7.9577    98.2671   -31.2532     7.5995     9.2316   134.7643  -999.2500
  519.5000     7.9291    98.8045   -31.3508     7.5807     9.1542   135.1870  -999.2500
  520.0000     7.9001    99.3526   -31.5427     7.4722     9.0436   135.6097  -999.2500
  520.5000     7.9122    98.9420   -31.7379     7.4771     9.0942   136.0324  -999.2500
  521.0000     7.9318    98.2351   -31.8850     7.4791     9.1469   136.4550  -999.2500
  521.5000     7.9514    97.7134   -31.9835     7.4744     9.1914   137.0009  -999.2500
  522.0000     7.9721    98.0045   -32.0818     7.4644     9.1398   137.5637  -999.2500
  522.5000     7.9552    98.2956   -32.1801     7.4544     9.0872   138.1265  -999.2500
  523.0000     7.9142    98.2490   -32.2786     7.4445     9.0808   138.6893  -999.2500
  523.5000     7.7780    98.1129   -32.3770     7.4345     9.1062   139.2521  -999.2500
  524.0000     7.6462    97.9836   -32.4758     7.4246     9.0770   139.8149  -999.2500
  524.5000     7.5169    98.2957   -32.5756     7.4146     8.9964   140.3777  -999.2500
  525.0000     7.5337    98.8612   -32.6638     7.4047     8.9132   140.9405  -999.2500
  525.5000     7.5790    99.4268   -32.4895     7.3948     8.8860   141.5033  -999.2500
  526.0000     7.5490    99.6514   -32.3035     7.3857     8.8800   141.7364  -999.2500
  526.5000     7.4852   100.0092   -32.1186     7.3688     8.8819   141.7462  -999.2500
  527.0000     7.4188   100.4542   -31.9341     7.4790     8.9362   140.4871  -999.2500
  527.5000     7.4520   101.2027   -31.7507     7.5897     8.9981   138.8617  -999.2500
  528.0000     7.5153   101.4442   -31.5735     7.5824     9.0776   137.2331  -999.2500
  528.5000     7.5788   100.4343   -31.4147     7.5832     9.1660   135.6052  -999.2500
  529.0000     7.5716    99.5696   -31.2461     7.5993     9.2697   133.9767  -999.2500
  529.5000     7.5805    98.7886   -31.3678     7.7284     9.3736   132.3506  -999.2500
  530.0000     7.7175    98.0066   -31.5841     7.8588     9.4772   130.7233  -999.2500
  530.5000     7.8590    97.2258   -31.7985     7.9881     9.5716   130.3086  -999.2500
  531.0000     7.9240    96.4647   -32.0084     7.9806     9.5969   130.4211  -999.2500
  531.5000     7.9395    96.7204   -32.1066     7.9558     9.6201   130.5337  -999.2500
  532.0000     7.9545    97.3930   -31.9069     7.9309     9.6434   130.6463  -999.2500
  532.5000     7.9694    97.5356   -31.7014     7.9062     9.6668   130.7588  -999.2500
  533.0000     7.9845    97.8912   -31.5370     7.8815     9.6904   130.8714  -999.2500
  533.5000     8.0000    98.2904   -31.3962     7.8569     9.7145   130.9839  -999.2500
  534.0000     8.0115    98.9504   -31.2549     7.8323     9.6896   131.0965  -999.2500
  534.5000     7.9482    99.8506   -31.1145     7.8073     9.6115   131.2091  -999.2500
  535.0000     7.8966    99.4190   -31.0144     7.7633     9.5088   131.5750  -999.2500
  535.5000     7.9285    99.7719   -31.1022     7.6890     9.4151   132.3222  -999.2500
  536.0000     7.8836   100.1798   -31.1866     7.6151     9.3196   134.2105  -999.2500
  536.5000     7.8240   100.3045   -31.2704     7.5411     9.2379   136.1181  -999.2500
  537.0000     7.7665   100.4293   -31.3542     7.4672     9.1592   138.0258  -999.2500
  537.5000     7.7298   101.0440   -31.4379     7.3933     9.0806   139.9513  -999.2500
  538.0000     7.5665   101.7438   -31.5219     7.3192     9.0019   141.9774  -999.2500
  538.5000     7.5112   102.4487   -31.6088     7.2188     8.9224   144.0036  -999.2500
