~VERSION INFORMATION
 VERS.                2.0:   CWLS LOG ASCII STANDARD - VERSION 2.0
 WRAP.                 NO:   ONE LINE PER DEPTH STEP
~WELL INFORMATION
#MNEM.UNIT      DATA TYPE    INFORMATION
#----------   ------------   ------------------------------
 STRT.F           21.0000:   START DEPTH
 STOP.F          495.0000:   STOP DEPTH
 STEP.F            0.5000:   STEP LENGTH
 NULL.          -999.2500:   NO VALUE
 COMP. FENIX & SCISSON U.S. NAVY:   COMPANY
 WELL.        NPR #42-S-3:   WELL
 FLD .             TEAPOT:   FIELD
 LOC .       S3 T38N R78W:   LOCATION
 CNTY.            NATRONA:   COUNTY
 STAT.            WYOMING:   STATE
 CTRY. UNITED STATES OF AMERICA:   COUNTRY
 SRVC.              Welex:   SERVICE COMPANY
 DATE.        05-MAY-1977:   LOGDATE
 API .       490251034800:   API NUMBER
~CURVE INFORMATION
#MNEM.UNIT       API CODE    CURVE DESCRIPTION
#----------   ------------   ------------------------------
 DEPT.F                  :   
 SPR .MV     07 010 01 00:   SPONTANEOUS POTENTIAL
 SGRD.OHMM   07 221 05 00:   SHALLOW SHORT GUARD RESISTIVITY
 ILD .OHMM   07 120 46 00:   INDUCTION LOG DEEP
 ILM .OHMM   07 120 44 00:   INDUCTION LOG MEDIUM
 GRD .GAPI   45 310 01 00:   GAMMA RAY FROM DENSITY LOG
 CALD.IN     45 280 60 00:   CALIPER FROM DENSITY LOG
 CORR.G/C3   45 356 01 00:   DENSITY CORRECTION
 RHOB.G/C3   45 350 01 00:   BULK DENSITY
 DPHI.DEC    45 890 12 00:   DENSITY POROSITY SANDSTONE
~PARAMETER INFORMATION
#MNEM.UNIT          VALUE    DESCRIPTION
#----------   ------------   ------------------------------
 PD  .                 GL:   PERMANENT DATUM
 EPD .F              5120:   ELEVATION PERMANENT DATUM
 LMF .                 GL:   LOG MEASURED FROM
 DMF .                 GL:   DRILLING MEASURED FROM
 EGL .F              5120:   GROUND LEVEL
 DATE.        05-MAY-1977:   RUN DATE
 RUN .                  1:   RUN NUMBER
 DD  .F               490:   DEPTH DRILLER
 DL  .F               495:   DEPTH LOGGER
 BLI .F               493:   BOTTOM LOG INTERVAL
 TLI .F                20:   TOP LOG INTERVAL
 CS  .IN            8.625:   CASING SIZE
 CBD .F                25:   CASING BOTTOM DRILLER
 CBL .F                25:   CASING BOTTOM LOGGER
 BS  .IN            7.875:   BIT SIZE
 BSD .F               490:   BIT SIZE AT DEPTH
 DFT .            KCL MUD:   DRILLING FLUID TYPE
 DFD .                8.8:   DRILLING FLUID DENSITY
 DFV .                 34:   DRILLING FLUID VISCOSITY
 DFPH.                8.0:   DRILLING FLUID PH
 DFL .                8.4:   DRILLING FLUID LOSS
 MSS .           FLOWLINE:   MUD SAMPLE SOURCE
 RMS .OHMM           0.26:   RESISTIVITY MUD SAMPLE
 MST .F                60:   MUD SAMPLE TEMPERATURE
 RMF .OHMM           0.14:   RESISTIVITY MUD FILTRATE SAMPLE
 MFST.F                60:   MUD FILTRATE SAMPLE TEMPERATURE
 RMC .OHMM           0.41:   RESISTIVITY MUD CAKE
 MCST.F                60:   MUD CAKE SAMPLE TEMPERATURE
 MFSS.           FANN KIT:   MUD FILTRATE SAMPLE SOURCE
 MCSS.            FANNKIT:   MUD CAKE SAMPLE SOURCE
 RMB .OHMM           0.21:   RESISTIVITY MUD AT BHT
 BHT .F                71:   BOTTOM HOLE TEMPERATURE
 TCS .HRS            0130:   TIME CURCULATED STOPPED
 MRT .F                71:   MAXIMUM RECORDED TEMPERATURE
 LUN .               8611:   LOGGING UNIT NUMBER
 LUL .             CASPER:   LOGGING UNIT LOCATION
 ENGI.            C. DOAK:   RECORDING ENGINEER
 WITN.            R. LYON:   WITNESSED BY
 CLNT.            A2DTECH:   CLIENT CODE
 ORIG.           5" PRINT:   ORIGIN OF DATA
 UWI .       490251034800:   UNIQUE WELL ID
 DICO. A2D Technologies, Inc.:   DIGITIZING COMPANY
~OTHER INFORMATION
~A   DEPT      SPR       SGRD        ILD        ILM         GRD        CALD       CORR       RHOB       DPHI 
# ...
  130.5000   -51.8021    13.4806     9.6827    11.5835   107.9448     7.8205     0.0015     2.4630     0.1250
  131.0000   -51.9509    13.5720     9.6149    11.5767   110.7519     7.8207     0.0015     2.4600     0.1279
  131.5000   -51.9581    14.0461     9.5432    11.6659   111.2030     7.8208     0.0015     2.4608     0.1282
  132.0000   -51.9653    14.0365     9.4153    11.8209   109.6992     7.8210     0.0007     2.4631     0.1270
  132.5000   -51.9725    13.7549     9.3493    11.9834   106.8421     7.8201     0.0015     2.4631     0.1264
  133.0000   -51.9797    13.8482     9.3481    12.0643   105.1880     7.8063     0.0015     2.4646     0.1258
  133.5000   -51.9869    13.5625     9.3468    11.9798   105.3884     7.8065     0.0015     2.4653     0.1254
  134.0000   -52.1430    13.1923     9.3456    11.7330   107.8947     7.8066     0.0022     2.4608     0.1263
  134.5000   -52.3100    13.7471     9.2801    11.4124   110.0000     7.8067     0.0022     2.4570     0.1281
  135.0000   -52.4568    13.4639     9.2789    11.4108   109.2481     7.7919     0.0015     2.4534     0.1302
  135.5000   -52.4640    13.0960     9.2776    11.5783   106.2406     7.7921     0.0015     2.4511     0.1317
  136.0000   -52.6200    14.0283     9.2761    11.8079   105.7895     7.7922     0.0022     2.4504     0.1329
  136.5000   -52.7761    13.6450     9.2749    11.8059   107.2181     7.7924     0.0022     2.4511     0.1329
  137.0000   -52.9321    12.0510     9.1467    11.8043   108.6466     7.7925     0.0022     2.4489     0.1338
  137.5000   -52.9393    12.5582     9.0826    11.7217   105.7895     7.7927     0.0022     2.4458     0.1350
  138.0000   -53.0953    12.3846     9.0190    11.5596   104.2857     7.7928     0.0022     2.4482     0.1349
  138.5000   -53.2515    13.2667     8.8943    11.3998   103.9850     7.7930     0.0022     2.4512     0.1340
  139.0000   -53.4092    13.7308     8.7713    11.1649   104.5865     7.7931     0.0015     2.4512     0.1337
  139.5000   -53.5652    13.1370     8.6498    10.8595   106.2657     7.8083     0.0015     2.4482     0.1343
  140.0000   -54.0188    12.6367     8.4716    10.4181   109.8496     7.8084     0.0015     2.4490     0.1331
  140.5000   -54.1748    12.5478     8.3545     9.9946   109.2481     7.8085     0.0015     2.4521     0.1313
  141.0000   -54.4797    12.1210     8.1824     9.5883   106.3910     7.8087     0.0015     2.4557     0.1301
  141.5000   -54.6357    10.9287     7.9588     9.2622   105.6391     7.8238     0.0015     2.4587     0.1277
  142.0000   -54.6429    12.0349     7.8488     9.0091   106.2406     7.8239     0.0022     2.4640     0.1244
  142.5000   -54.6503     9.9892     7.6871     9.0079   108.1454     7.8241     0.0045     2.4692     0.1214
  143.0000   -54.6591    10.2984     7.5808     9.0690   110.7519     7.8243     0.0045     2.4752     0.1181
  143.5000   -54.6663    11.7021     7.5795     9.3210   112.8571     7.8244     0.0045     2.4789     0.1160
  144.0000   -54.6736    12.4495     7.7369     9.7133   113.1579     7.8246     0.0045     2.4790     0.1160
  144.5000   -54.6808    12.3623     7.7896     9.8472   112.2556     7.8097     0.0045     2.4812     0.1160
  145.0000   -54.5392    12.1914     7.8967     9.3817   110.9023     7.8099     0.0052     2.4827     0.1160
  145.5000   -54.5464    11.5357     7.9503     9.1253   111.4537     7.8101     0.0052     2.4842     0.1150
  146.0000   -54.4048    11.2205     8.0593     9.3148   113.4586     7.8252     0.0045     2.4827     0.1147
  146.5000   -54.2632    11.5326     8.1140     9.5783   112.7068     7.8253     0.0037     2.4787     0.1165
  147.0000   -54.1234    11.8535     8.1690     9.8400   110.4511     7.8255     0.0015     2.4715     0.1207
  147.5000   -54.1306    12.2672     8.1677     9.9756   110.1253     7.8256     0.0015     2.4685     0.1237
  148.0000   -54.1378    11.8500     8.1105    10.1824   112.1053     7.8108     0.0007     2.4670     0.1246
  148.5000   -54.1450    11.5261     8.1094    10.3224   114.7620     7.8110     0.0015     2.4670     0.1246
  149.0000   -54.1522    11.6043     8.1083    10.4646   117.3528     7.8111     0.0015     2.4678     0.1243
  149.5000   -54.1595    11.9272     8.1633    10.5353   119.2086     7.8112     0.0022     2.4687     0.1231
  150.0000   -54.1667    12.1748     8.2187    10.6067   120.8278     7.8115     0.0021     2.4701     0.1216
  150.5000   -54.1782    12.4254     8.2608    10.5616   120.0802     7.8120     0.0013     2.4662     0.1251
  151.0000   -54.1882    12.7694     8.3282    10.5251   117.8289     7.8126     0.0000     2.4626     0.1266
  151.5000   -53.9005    12.8545     8.5097    10.3782   117.8131     7.8132    -0.0007     2.4596     0.1278
  152.0000   -53.9286    13.2102     8.5565    10.2327   120.6246     7.8288    -0.0007     2.4604     0.1281
  152.5000   -54.0716    13.1152     8.5537    10.1590   121.4508     7.8144    -0.0007     2.4612     0.1281
  153.0000   -54.0816    12.6674     8.5514    10.1557   119.9524     7.8301    -0.0007     2.4552     0.1311
  153.5000   -54.2403    12.4907     8.5492    10.1523   119.6549     7.8306    -0.0006     2.4493     0.1332
  154.0000   -54.2502    12.8365     8.4882    10.0792   120.8632     7.8312     0.0009     2.4470     0.1353
  154.5000   -54.1114    13.1919     8.3121    10.0751   122.5218     7.8318     0.0016     2.4501     0.1352
  155.0000   -53.9725    13.0918     8.1394    10.0718   121.0233     7.8323     0.0039     2.4561     0.1321
  155.5000   -53.9849    12.8255     8.0813     9.9993   119.0727     7.8181     0.0054     2.4621     0.1253
  156.0000   -53.9948    12.1341     8.0237     9.9960   116.8213     7.8186     0.0062     2.4711     0.1214
  156.5000   -54.0047    11.8826     8.0216     9.9927   116.5248     7.8041     0.0054     2.4756     0.1199
  157.0000   -54.1637    11.7986     8.0194    10.0585   117.4918     7.8198     0.0047     2.4704     0.1220
  157.5000   -54.1759    12.1245     8.0728    10.0543   119.6924     7.8204     0.0025     2.4614     0.1279
  158.0000   -54.1858    12.4602     8.0701    10.1905   118.6441     7.8211     0.0010     2.4525     0.1340
  158.5000   -54.1957    12.4561     8.0680    10.2585   115.6409     7.8216     0.0010     2.4510     0.1328
  159.0000   -54.2057    12.3672     8.1222    10.3966   114.8933     7.8222     0.0003     2.4541     0.1304
  159.5000   -54.3646    12.0277     8.1756    10.3932   114.8977     7.8228    -0.0005     2.4555     0.1313
  160.0000   -54.2255    11.7783     8.2300    10.3175   114.4518     7.8234    -0.0004     2.4511     0.1331
  160.5000   -54.3867    12.1045     8.2848    10.1729   113.8546     7.8241    -0.0004     2.4548     0.1300
  161.0000   -54.3967    12.1850     8.2820    10.1695   112.3552     7.8246    -0.0004     2.4616     0.1255
  161.5000   -54.5554    12.3509     8.2798    10.0963   110.5549     7.8252    -0.0004     2.4684     0.1219
  162.0000   -54.8631    12.7798     8.2208     9.9548   112.4643     7.8258    -0.0004     2.4654     0.1219
  162.5000   -55.0242    12.6015     8.1621     9.8831   114.7751     7.8114    -0.0004     2.4586     0.1282
  163.0000   -55.1829    12.0877     8.1039     9.6769   114.3283     7.8121    -0.0004     2.4579     0.1297
  163.5000   -55.3417    11.6729     8.0460     9.6072   111.6259     7.8127    -0.0003     2.4594     0.1291
  164.0000   -55.5004    11.1213     8.0434     9.4725   109.3745     7.8132    -0.0003     2.4618     0.1279
  164.5000   -55.5104    11.4292     8.0413     9.6009   109.0780     7.7987    -0.0003     2.4640     0.1261
  165.0000   -55.5227    11.7465     8.0392     9.7309   110.5872     7.7994     0.0019     2.4625     0.1258
  165.5000   -55.5327    11.7426     8.0371     9.7276   113.1479     7.8001     0.0027     2.4640     0.1270
  166.0000   -55.5426    11.7395     7.9249     9.6569   115.2574     7.7856     0.0050     2.4685     0.1222
  166.5000   -55.7013    11.2405     7.8142     9.4561   114.5098     7.7863     0.0080     2.4785     0.1180
