~VERSION INFORMATION
 VERS.                2.0:   CWLS LOG ASCII STANDARD - VERSION 2.0
 WRAP.                 NO:   ONE LINE PER DEPTH STEP
~WELL INFORMATION
#MNEM.UNIT      DATA TYPE    INFORMATION
#----------   ------------   ------------------------------
 STRT.F           12.0000:   START DEPTH
 STOP.F          660.0000:   STOP DEPTH
 STEP.F            0.5000:   STEP LENGTH
 NULL.          -999.2500:   NO VALUE
 COMP. LAWRENCE/ALLISON INC:   COMPANY
 WELL.    24-11 SX #11-11:   WELL
 FLD .             TEAPOT:   FIELD
 LOC .      S11 T38N R78W:   LOCATION
 CNTY.            NATRONA:   COUNTY
 STAT.            WYOMING:   STATE
 CTRY. UNITED STATES OF AMERICA:   COUNTRY
 SRVC.           Gearhart:   SERVICE COMPANY
 DATE.        21-JUN-1986:   LOGDATE
 API .       490251109900:   API NUMBER
~CURVE INFORMATION
#MNEM.UNIT       API CODE    CURVE DESCRIPTION
#----------   ------------   ------------------------------
 DEPT.F                  :   
 GRR .GAPI   07 310 01 00:   GAMMA RAY FROM RES. LOG.
 ILM .OHMM   07 120 44 00:   INDUCTION LOG MEDIUM
 ILD .OHMM   07 120 46 00:   INDUCTION LOG DEEP
~PARAMETER INFORMATION
#MNEM.UNIT          VALUE    DESCRIPTION
#----------   ------------   ------------------------------
 PD  .                 GL:   PERMANENT DATUM
 EPD .F              5157:   ELEVATION PERMANENT DATUM
 LMF .                 KB:   LOG MEASURED FROM
 DAPD.F                 5:   FEET ABOVE PERMANENT DATUM
 DMF .                 KB:   DRILLING MEASURED FROM
 EKB .F              5162:   KELLING BUSHING
 EGL .F              5157:   GROUND LEVEL
 DATE.            6-21-86:   RUN DATE
 RUN .                  1:   RUN NUMBER
 DD  .F               665:   DEPTH DRILLER
 DL  .F               667:   DEPTH LOGGER
 BLI .F               658:   BOTTOM LOG INTERVAL
 CS  .IN            8.625:   CASING SIZE
 CBD .F                47:   CASING BOTTOM DRILLER
 CBL .F                48:   CASING BOTTOM LOGGER
 BS  .IN            7.875:   BIT SIZE
 BSD .F               665:   BIT SIZE AT DEPTH
 DFT .                AIR:   DRILLING FLUID TYPE
 TCS .HRS            1130:   TIME CURCULATED STOPPED
 TLAB.HRS            1315:   TIME LOGGER AT BOTTOM
 MRT .F                67:   MAXIMUM RECORDED TEMPERATURE
 LUN .               7609:   LOGGING UNIT NUMBER
 LUL .           GILLETTE:   LOGGING UNIT LOCATION
 ENGI.            WANGLER:   RECORDING ENGINEER
 WITN.           JENNINGS:   WITNESSED BY
 CLNT.            A2DTECH:   CLIENT CODE
 ORIG.       2", 5" PRINT:   ORIGIN OF DATA
 UWI .       490251109900:   UNIQUE WELL ID
 DICO. A2D Technologies, Inc.:   DIGITIZING COMPANY
~OTHER INFORMATION
~A   DEPT       GRR       ILM        ILD   
# ...
  558.0000    89.5400    11.9167    11.7439
  558.5000    92.0691    11.8937    11.7728
  559.0000    94.5882    11.8708    11.7394
  559.5000    94.4515    11.8478    11.7130
  560.0000    92.2348    11.8249    11.6866
  560.5000    90.0239    11.8022    11.6602
  561.0000    88.1287    11.7747    11.6340
  561.5000    88.2117    11.7859    11.6078
  562.0000    90.0201    11.8041    11.5816
  562.5000    93.8556    11.8221    11.5555
  563.0000    97.4515    11.8401    11.5295
  563.5000    96.6564    11.8582    11.5035
  564.0000    92.8976    11.8762    11.4776
  564.5000    89.0421    11.8849    11.4517
  565.0000    87.8855    11.7921    11.4000
  565.5000    89.9410    11.7153    11.3418
  566.0000    92.0216    11.6390    11.2839
  566.5000    94.0814    11.5632    11.2262
  567.0000    96.1507    11.4879    11.1689
  567.5000    97.1528    11.4240    11.1119
  568.0000    96.1003    11.3342    11.0551
  568.5000    94.6110    11.2451    10.9550
  569.0000    94.6240    11.1566    10.8063
  569.5000    95.0527    11.0689    10.6598
  570.0000    95.5008    10.9062    10.5151
  570.5000    95.8724    10.6704    10.3724
  571.0000    94.4702    10.4216    10.2316
  571.5000    92.9947    10.3300    10.0928
  572.0000    92.1537    10.2336     9.9558
  572.5000    93.9854    10.1374     9.8207
  573.0000    97.2215    10.0416     9.6875
  573.5000    99.5242     9.9441     9.5780
  574.0000    96.9369     9.6687     9.2417
  574.5000    95.0798     9.3929     8.9074
  575.0000    97.2060     9.1249     8.5852
  575.5000   102.1908     8.7596     8.1432
  576.0000   103.0542     8.2635     7.5449
  576.5000    99.7829     7.7956     6.9906
  577.0000    99.9721     7.1563     6.4770
  577.5000   102.3749     6.5325     6.1938
  578.0000   109.5834     6.0504     5.9584
  578.5000   117.7653     5.8368     5.8176
  579.0000   121.7833     5.6198     5.7118
  579.5000   121.3799     5.5069     5.7158
  580.0000   112.6322     5.6820     6.1046
  580.5000   105.1084     5.9665     6.3806
  581.0000   100.9511     6.3387     6.7588
  581.5000    98.5579     6.7342     7.2071
  582.0000    96.1902     7.2239     7.6824
  582.5000    93.7784     8.0691     8.1939
  583.0000    92.9841     8.6860     8.5822
  583.5000    96.7514     9.0819     8.9197
  584.0000   100.5436     9.2849     9.1074
  584.5000   100.8344     9.4924     9.2587
  585.0000   101.2264     9.6320     9.3468
  585.5000   102.5591     9.7699     9.4843
  586.0000   103.6086     9.9139     9.6933
  586.5000   102.3536    10.0660     9.9076
  587.0000   100.6573    10.2204    10.0709
  587.5000    99.8691    10.3772    10.2254
  588.0000   102.1418    10.5364    10.3822
  588.5000   108.4343    10.6980    10.5415
  589.0000   114.7704    10.8621    10.7032
  589.5000   120.3369    11.0288    10.8513
  590.0000   120.0764    11.1980    10.9608
  590.5000   113.3672    11.3697    11.0715
  591.0000   106.6375    11.5442    11.1833
  591.5000   101.9602    11.6844    11.2963
  592.0000   100.9342    11.7497    11.4101
  592.5000   100.5163    11.8153    11.5255
  593.0000    99.5318    11.8813    11.5901
  593.5000    98.3446    11.9477    11.6379
  594.0000    97.5539    12.0145    11.6860
  594.5000    98.2902    12.0816    11.7342
  595.0000   100.3814    12.1238    11.7776
  595.5000   102.3806    12.1488    11.8009
  596.0000   102.4487    12.1739    11.8242
  596.5000   101.9112    12.1993    11.8476
  597.0000   100.5928    12.2228    11.8709
  597.5000    99.6905    12.1712    11.8832
  598.0000   100.3032    12.1210    11.8215
  598.5000   100.7136    12.0711    11.7786
  599.0000    98.6387    12.0215    11.7358
  599.5000    96.5949    11.9721    11.6931
  600.0000    95.4088    11.9230    11.6506
  600.5000    94.3781    11.8740    11.6083
  601.0000    93.4621    11.8252    11.5661
  601.5000    93.9958    11.7730    11.4890
  602.0000    95.6025    11.6894    11.3989
  602.5000    97.1713    11.5332    11.3094
  603.0000   100.3096    11.3899    11.2207
  603.5000   103.8656    11.2469    11.1291
  604.0000   107.4298    11.1060    10.9727
  604.5000   110.9989    10.9669    10.8119
  605.0000   114.5795    10.8295    10.6532
  605.5000   117.8221    10.6914    10.5086
  606.0000   116.6234    10.5445    10.3692
  606.5000   111.7049    10.3996    10.2316
  607.0000   106.9329    10.2567    10.0958
  607.5000   106.2126    10.1158     9.9618
  608.0000   105.5868     9.9768     9.8296
  608.5000   105.4564     9.8396     9.6992
  609.0000   105.8190     9.7041     9.5705
  609.5000   106.5895     9.5785     9.4432
  610.0000   107.3620     9.5317     9.3660
  610.5000   108.1762     9.4789     9.3145
  611.0000   109.8838     9.4260     9.2634
  611.5000   110.1739     9.3732     9.2124
  612.0000   109.5788     9.3208     9.1618
  612.5000   108.1264     9.2687     9.1114
  613.0000   106.6542     9.2168     9.0613
  613.5000   107.8418     9.1653     9.0114
  614.0000   111.5194     9.1140     8.9619
  614.5000   115.3623     9.0631     8.9126
  615.0000   118.8443     9.0124     8.8637
  615.5000   116.8699     8.9516     8.8149
  616.0000   112.3306     8.8315     8.7216
  616.5000   109.0456     8.7130     8.6147
  617.0000   108.4884     8.5961     8.5092
  617.5000   108.3058     8.4808     8.4049
  618.0000   108.1773     8.3670     8.3019
  618.5000   109.4217     8.2548     8.2001
  619.0000   112.0974     8.1495     8.0996
  619.5000   114.6425     8.0666     8.0003
  620.0000   115.3327     7.9846     7.9023
  620.5000   115.8330     7.9034     7.8054
  621.0000   114.7899     7.8230     7.7098
  621.5000   113.7436     7.7435     7.6153
  622.0000   112.7103     7.6647     7.5217
  622.5000   111.7858     7.5868     7.4356
  623.0000   111.8132     7.5366     7.4013
  623.5000   111.1583     7.4774     7.3658
  624.0000   109.9706     7.4358     7.3658
  624.5000   108.7735     7.5576     7.2971
  625.0000   109.2905     7.6505     7.4933
  625.5000   113.4992     7.8591     7.6919
  626.0000   117.4985     8.0623     7.8957
  626.5000   118.7246     8.2708     8.1048
  627.0000   115.2358     8.4846     8.3196
  627.5000   111.1167     8.7040     8.5400
  628.0000   106.9586     8.9290     8.7663
  628.5000   106.2005     9.1599     8.9985
  629.0000   111.0418     9.3967     9.2370
  629.5000   114.9044     9.6397     9.4908
  630.0000   115.3024     9.9432     9.4877
  630.5000   113.3896     9.9202     9.4637
  631.0000   110.3714     9.8912     9.4316
  631.5000   107.4200     9.8611     9.4007
  632.0000   107.3726     9.8313     9.4000
  632.5000   109.3863     9.8017     9.4000
  633.0000   111.3417     9.7722     9.4000
  633.5000   111.0329     9.7427     9.3999
  634.0000   110.6366     9.7134     9.4015
  634.5000   111.0309     9.6841     9.3595
  635.0000   111.5126     9.6163     9.2961
  635.5000   110.1146     9.5352     9.2335
  636.0000   106.5796     9.4711     9.1713
  636.5000   104.6972     9.4073     9.0507
  637.0000   104.2281     9.3440     8.8692
  637.5000   103.7881     9.2959     8.6913
  638.0000   103.3323     9.2411     8.5170
  638.5000   103.3120     9.0500     8.2840
  639.0000   105.5774     8.8307     7.9265
  639.5000   109.1477     8.3965     7.5844
  640.0000   112.9421     7.9836     7.1346
  640.5000   116.0246     7.5645     6.4910
  641.0000   112.4266     7.0249     5.9055
  641.5000   106.1605     6.5162     5.3727
  642.0000   100.8229     6.0648     4.7851
  642.5000  -999.2500     5.1799     4.2340
  643.0000  -999.2500     4.4320     3.7464
  643.5000  -999.2500     3.8376     3.3376
  644.0000  -999.2500     3.3544     3.0055
  644.5000  -999.2500     2.9382     2.8569
  645.0000  -999.2500     2.8330     2.8054
  645.5000  -999.2500     2.7356     2.7733
  646.0000  -999.2500     2.7001     2.9163
  646.5000  -999.2500     2.9225     3.0539
  647.0000  -999.2500     3.2123     3.3208
  647.5000  -999.2500     3.5308     3.7696
  648.0000  -999.2500     3.8809     4.2791
  648.5000  -999.2500     4.4208     4.8574
