~VERSION INFORMATION
 VERS.                2.0:   CWLS LOG ASCII STANDARD - VERSION 2.0
 WRAP.                 NO:   ONE LINE PER DEPTH STEP
~WELL INFORMATION
#MNEM.UNIT      DATA TYPE    INFORMATION
#----------   ------------   ------------------------------
 STRT.F          160.0000:   START DEPTH
 STOP.F         1181.5000:   STOP DEPTH
 STEP.F            0.5000:   STEP LENGTH
 NULL.          -999.2500:   NO VALUE
 COMP.            US NAVY:   COMPANY
 WELL. RES 3 TEAPOT DOM #71-SX-14:   WELL
 FLD .             TEAPOT:   FIELD
 LOC .      S14 T38N R78W:   LOCATION
 CNTY.            NATRONA:   COUNTY
 STAT.            WYOMING:   STATE
 CTRY. UNITED STATES OF AMERICA:   COUNTRY
 SRVC.       Schlumberger:   SERVICE COMPANY
 DATE.        23-AUG-1959:   LOGDATE
 API .       490250632200:   API NUMBER
~CURVE INFORMATION
#MNEM.UNIT       API CODE    CURVE DESCRIPTION
#----------   ------------   ------------------------------
 DEPT.F                  :   
 SPR .MV     05 010 01 00:   SPONTANEOUS POTENTIAL FROM RES.
 IL  .OHMM   05 120 00 00:   INDUCTION LOG
 ASN .OHMM   05 041 16 00:   AMPLIFIED SHORT NORMAL 16"
 CIL .MMHO   05 110 00 00:   CONDUCTIVITY INDUCTION LOG
~PARAMETER INFORMATION
#MNEM.UNIT          VALUE    DESCRIPTION
#----------   ------------   ------------------------------
 PD  .                 GL:   PERMANENT DATUM
 EPD .F              5259:   ELEVATION PERMANENT DATUM
 LMF .                 KB:   LOG MEASURED FROM
 DAPD.F                 4:   FEET ABOVE PERMANENT DATUM
 DMF .                 KB:   DRILLING MEASURED FROM
 EKB .F              5263:   KELLING BUSHING
 EGL .F              5259:   GROUND LEVEL
 DATE.            8-23-59:   RUN DATE
 RUN .                  1:   RUN NUMBER
 DD  .F              1190:   DEPTH DRILLER
 DL  .F              1186:   DEPTH LOGGER
 BLI .F              1180:   BOTTOM LOG INTERVAL
 TLI .F               150:   TOP LOG INTERVAL
 CBD .F                17:   CASING BOTTOM DRILLER
 BS  .IN             6.75:   BIT SIZE
 BSD .F              1190:   BIT SIZE AT DEPTH
 DFT .                GEL:   DRILLING FLUID TYPE
 DFD .                9.5:   DRILLING FLUID DENSITY
 DFV .                 52:   DRILLING FLUID VISCOSITY
 MSS .           FLOWLINE:   MUD SAMPLE SOURCE
 RMS .OHMM            2.6:   RESISTIVITY MUD SAMPLE
 MST .F                62:   MUD SAMPLE TEMPERATURE
 MFSS.                  M:   MUD FILTRATE SAMPLE SOURCE
 MCSS.                  M:   MUD CAKE SAMPLE SOURCE
 RMB .OHMM            2.2:   RESISTIVITY MUD AT BHT
 BHT .F                80:   BOTTOM HOLE TEMPERATURE
 TCS .HRS               1:   TIME CURCULATED STOPPED
 MRT .F                80:   MAXIMUM RECORDED TEMPERATURE
 LUN .               2523:   LOGGING UNIT NUMBER
 LUL .               CSPR:   LOGGING UNIT LOCATION
 ENGI.             ATWOOD:   RECORDING ENGINEER
 WITN.             MARTIN:   WITNESSED BY
 CLNT.            A2DTECH:   CLIENT CODE
 ORIG.     1", 2.5" PRINT:   ORIGIN OF DATA
 UWI .       490250632200:   UNIQUE WELL ID
 DICO. A2D Technologies, Inc.:   DIGITIZING COMPANY
~OTHER INFORMATION
~A   DEPT      SPR           IL        ASN      CIL   
# ...
  890.0000   -35.4872     7.2706     7.5531   163.5944
  890.5000   -33.7721     7.4406     7.6127   161.3837
  891.0000   -33.6332     7.5470     7.6781   159.1732
  891.5000   -34.1004     7.5120     7.7056   157.6848
  892.0000   -32.5367     7.4464     7.6644   158.1101
  892.5000   -32.4250     7.3808     7.6282   159.3733
  893.0000   -33.9235     7.3120     7.6048   160.6365
  893.5000   -35.2069     7.2458     7.6064   161.8997
  894.0000   -36.6019     7.1782     7.6124   163.1629
  894.5000   -37.7327     7.1104     7.5391   164.4261
  895.0000   -38.0597     7.0451     7.3495   165.6893
  895.5000   -38.0194     6.9321     7.1678   168.8805
  896.0000   -38.9526     6.7500     6.9821   166.0433
  896.5000   -38.9526     6.5732     6.7985   166.0433
  897.0000   -38.2522     6.3951     6.6159   172.6870
  897.5000   -35.9177     6.2052     6.4206   183.7598
  898.0000   -33.5832     5.9532     6.3983   193.6305
  898.5000   -31.4822     5.6024     6.1188   204.2604
  899.0000   -31.2033     5.2517     5.8392   214.8903
  899.5000   -31.1402     5.0654     5.7091   220.8775
  900.0000   -30.8246     4.8581     5.4168   228.4420
  900.5000   -30.5574     4.8801     5.1403   233.4877
  901.0000   -30.3177     4.8654     4.7592   238.5334
  901.5000   -30.0692     4.9847     4.8408   243.5792
  902.0000   -30.0612     5.2924     5.4226   244.6693
  902.5000   -30.0493     5.5834     6.0461   231.3287
  903.0000   -30.1236     5.8801     6.4026   217.9882
  903.5000   -30.2522     6.1761     6.5504   204.6895
  904.0000   -30.3738     6.4716     6.7138   191.3603
  904.5000   -30.4955     6.7712     6.8770   178.4989
  905.0000   -30.6187     7.0050     7.0402   175.2686
  905.5000   -30.7406     7.0739     7.1965   172.1376
  906.0000   -30.8632     7.1349     7.3814   169.0050
  906.5000   -30.9855     7.1931     7.4816   166.0393
  907.0000   -31.1074     7.2521     7.6019   163.5372
  907.5000   -31.2313     7.3113     7.7133   161.1648
  908.0000   -31.3502     7.3702     7.8448   158.7963
  908.5000   -31.4770     7.4291     7.9823   156.4280
  909.0000   -31.4753     7.4882     8.0369   154.0564
  909.5000   -31.4934     7.5475     8.0643   151.8642
  910.0000   -31.4801     7.6059     8.1059   150.4298
  910.5000   -31.4198     7.6666     8.1489   149.0962
  911.0000   -31.0461     7.7159     8.1887   147.7625
  911.5000   -30.9996     7.7669     8.2293   146.5551
  912.0000   -30.8889     7.8099     8.2837   145.8616
  912.5000   -30.7970     7.8550     8.3175   145.2264
  913.0000   -30.7080     7.8994     8.3163   144.5911
  913.5000   -30.6094     7.9427     8.3214   143.9559
  914.0000   -30.5212     7.9891     8.4320   143.3206
  914.5000   -30.4214     8.0319     8.5426   142.6853
  915.0000   -30.4157     8.0613     8.6357   142.0501
  915.5000   -30.4142     7.9891     8.6327   141.4148
  916.0000   -30.4123     7.9301     8.6265   142.2323
  916.5000   -30.4457     7.8644     8.5091   143.6006
  917.0000   -30.5024     7.8013     8.4122   144.9688
  917.5000   -30.5544     7.7407     8.3071   146.3371
  918.0000   -30.6056     7.6741     8.2059   147.7053
  918.5000   -30.6596     7.6041     8.1038   149.0736
  919.0000   -30.7095     7.5353     8.0146   150.4316
  919.5000   -30.7668     7.4682     7.9039   151.7997
  920.0000   -30.7703     7.4012     7.7645   153.1755
  920.5000   -30.7733     7.2898     7.6379   154.5566
  921.0000   -30.7692     7.1315     7.4354   157.0826
  921.5000   -30.7680     6.9542     7.1885   161.5770
  922.0000   -30.6368     6.7944     6.9125   166.0819
  922.5000   -30.4721     6.3509     6.5581   169.7855
  923.0000   -30.3068     5.9803     6.1130   182.6969
  923.5000   -30.1435     5.5829     5.6810   193.8140
  924.0000   -29.9790     5.1969     5.2468   205.0197
  924.5000   -29.8146     4.8104     4.8138   241.1933
  925.0000   -29.6502     4.4195     4.3696   277.6575
  925.5000   -29.4872     4.0324     3.9535   314.1216
  926.0000   -29.3202     3.6479     3.4577   350.5858
  926.5000   -29.1589     3.2474     3.3076   387.0500
  927.0000   -29.0022     3.0910     3.1364   422.9331
  927.5000   -28.9950     3.0991     3.0104   451.8465
  928.0000   -29.1252     3.1055     2.8341   479.6260
  928.5000   -29.3071     3.1178     3.0905   476.0827
  929.0000   -29.4845     3.4435     3.4365   450.2874
  929.5000   -29.6607     3.7731     3.7658   424.0689
  930.0000   -29.8389     4.1175     4.1860   376.1417
  930.5000   -30.0170     4.4528     4.6981   328.2146
  931.0000   -30.1920     4.7924     5.1708   280.2874
  931.5000   -30.3699     5.1301     5.6334   245.0024
  932.0000   -30.4186     5.4653     5.7261   216.5425
  932.5000   -30.4170     5.8134     5.8080   200.2141
  933.0000   -30.4135     5.9493     5.8717   190.8465
  933.5000   -30.4158     5.9472     5.9485   194.7884
  934.0000   -30.2820     5.8564     5.9858   198.4941
  934.5000   -30.0928     5.6921     5.8888   206.6909
  935.0000   -29.9046     5.5356     5.6526   216.0039
  935.5000   -29.7181     5.3826     5.4259   224.1565
  936.0000   -29.5352     5.2255     5.1969   231.5945
  936.5000   -29.3384     5.0694     4.9668   243.6860
  937.0000   -29.1627     4.9169     4.8044   254.8031
  937.5000   -29.0243     4.7573     4.6860   265.9203
  938.0000   -29.4184     4.6857     4.8226   275.8858
  938.5000   -29.7806     4.7850     5.0696   271.2242
  939.0000   -30.1716     5.0211     5.1944   263.3145
  939.5000   -30.5477     5.2472     5.3341   248.1505
  940.0000   -30.9281     5.4772     5.6580   234.5274
  940.5000   -31.3101     5.7073     5.9747   220.9006
  941.0000   -31.6850     5.9360     6.2934   207.2615
  941.5000   -32.0717     6.1666     6.6144   193.6059
  942.0000   -32.2041     6.3955     6.9352   183.4358
  942.5000   -32.1962     6.6235     7.2405   176.3898
  943.0000   -32.1555     6.8589     7.4844   169.2748
  943.5000   -32.0079     7.0763     7.5811   162.1598
  944.0000   -31.8622     7.3390     7.7066   157.0008
  944.5000   -31.7142     7.3453     7.7088   153.4433
  945.0000   -31.5588     7.3210     7.6922   151.8701
  945.5000   -31.4756     7.2865     7.6607   152.7299
  946.0000   -31.4810     7.2589     7.6318   155.1016
  946.5000   -31.4933     7.2284     7.4926   157.4390
  947.0000   -31.3674     7.2028     7.3761   159.8204
  947.5000   -31.1471     7.1116     7.2512   162.1944
  948.0000   -30.9449     6.9266     7.1301   164.5578
  948.5000   -30.7441     6.7472     7.0076   168.0977
  949.0000   -30.5238     6.5661     6.8868   173.5167
  949.5000   -30.4034     6.3846     6.7636   178.9403
  950.0000   -30.4193     6.2035     6.6389   185.5315
  950.5000   -30.4123     6.0228     6.5313   191.0578
  951.0000   -30.4115     5.8407     6.3213   197.9589
  951.5000   -30.4306     5.6594     6.0395   204.8599
  952.0000   -30.2383     5.4821     5.7773   211.7609
  952.5000   -30.0523     5.2916     5.5017   216.9488
  953.0000   -30.2695     5.2269     5.4296   219.9252
  953.5000   -30.4681     5.2444     5.5608   222.9016
  954.0000   -30.6782     5.4850     5.7229   226.2795
  954.5000   -30.8746     5.7223     6.0941   226.2795
  955.0000   -31.1099     5.9728     6.5411   216.2938
  955.5000   -31.1219     6.2164     6.9557   204.1178
  956.0000   -31.1253     6.4594     7.0862   191.9417
  956.5000   -30.8921     6.7086     7.2092   179.7656
  957.0000   -30.5937     6.9509     7.3230   169.2854
  957.5000   -30.2925     7.1676     7.4373   164.3159
  958.0000   -30.0643     7.2145     7.5645   160.7283
  958.5000   -30.0612     7.2852     7.6274   160.7283
  959.0000   -30.0569     7.3420     7.6973   160.1791
  959.5000   -30.0598     7.4034     7.7618   159.4350
  960.0000   -30.0537     7.4646     7.8290   158.1595
  960.5000   -30.1167     7.5240     7.8971   155.9272
  961.0000   -30.2768     7.5870     7.9614   153.6417
  961.5000   -30.4299     7.6442     8.0293   153.9291
  962.0000   -30.5847     7.7067     8.0308   154.4324
  962.5000   -30.7402     7.6604     8.0284   154.9255
