~VERSION INFORMATION
 VERS.                2.0:   CWLS LOG ASCII STANDARD - VERSION 2.0
 WRAP.                 NO:   ONE LINE PER DEPTH STEP
~WELL INFORMATION
#MNEM.UNIT      DATA TYPE    INFORMATION
#----------   ------------   ------------------------------
 STRT.F            0.0000:   START DEPTH
 STOP.F         3139.0000:   STOP DEPTH
 STEP.F            0.5000:   STEP LENGTH
 NULL.          -999.2500:   NO VALUE
 COMP. BROWN JOHN E&C INC:   COMPANY
 WELL.       TX-10 #63-10:   WELL
 FLD .             TEAPOT:   FIELD
 LOC .      S10 T38N R78W:   LOCATION
 CNTY.            NATRONA:   COUNTY
 STAT.            WYOMING:   STATE
 CTRY. UNITED STATES OF AMERICA:   COUNTRY
 SRVC.       Schlumberger:   SERVICE COMPANY
 DATE.        05-OCT-1982:   LOGDATE
 API .       490251090100:   API NUMBER
~CURVE INFORMATION
#MNEM.UNIT       API CODE    CURVE DESCRIPTION
#----------   ------------   ------------------------------
 DEPT.F                  :   
 DPHI.DEC    45 890 12 00:   DENSITY POROSITY  SANDSTONE
 GRD .GAPI   45 310 01 00:   GAMMA RAY FROM DENSITY LOG
 NPHI.DEC    42 890 03 00:   NEUTRON POROSITY SANDSTONE
 CALD.IN     45 280 60 00:   CALIPER FROM DENSITY LOG
 CORR.G/C3   45 356 01 00:   DENSITY CORRECTION
 RHOB.G/C3   45 350 01 00:   BULK DENSITY
 ILD .OHMM   07 120 46 00:   INDUCTION LOG DEEP
 ILM .OHMM   07 120 44 00:   INDUCTION LOG MEDIUM
 SFLU.OHMM   07 220 01 00:   SPHERICALLY FOCUSED LOG UNAVERAGED RESISTIVITY
 SPR .MV     07 010 01 00:   SPONTANEOUS POTENTIAL
~PARAMETER INFORMATION
#MNEM.UNIT          VALUE    DESCRIPTION
#----------   ------------   ------------------------------
 PD  .                 GL:   PERMANENT DATUM
 EPD .F              5189:   ELEVATION PERMANENT DATUM
 LMF .                 KB:   LOG MEASURED FROM
 DAPD.F                10:   FEET ABOVE PERMANENT DATUM
 DMF .                 KB:   DRILLING MEASURED FROM
 EKB .F              5199:   KELLING BUSHING
 EGL .F              5189:   GROUND LEVEL
 DATE.        05-OCT-1982:   RUN DATE
 RUN .                  1:   RUN NUMBER
 DD  .F              3200:   DEPTH DRILLER
 DL  .F              3142:   DEPTH LOGGER
 BLI .F              3139:   BOTTOM LOG INTERVAL
 TLI .F               484:   TOP LOG INTERVAL
 CS  .IN            9.625:   CASING SIZE
 CBD .F               482:   CASING BOTTOM DRILLER
 CBL .F               484:   CASING BOTTOM LOGGER
 BS  .IN            7.875:   BIT SIZE
 BSD .F              3200:   BIT SIZE AT DEPTH
 DFT .        KCL/POLYMER:   DRILLING FLUID TYPE
 DFD .                8.6:   DRILLING FLUID DENSITY
 DFV .                 38:   DRILLING FLUID VISCOSITY
 DFPH.                8.5:   DRILLING FLUID PH
 DFL .                6.8:   DRILLING FLUID LOSS
 MSS .           MUD TANK:   MUD SAMPLE SOURCE
 RMS .OHMM            .40:   RESISTIVITY MUD SAMPLE
 MST .F                64:   MUD SAMPLE TEMPERATURE
 RMF .OHMM            .34:   RESISTIVITY MUD FILTRATE SAMPLE
 MFST.F                64:   MUD FILTRATE SAMPLE TEMPERATURE
 RMC .OHMM            .36:   RESISTIVITY MUD CAKE
 MCST.F                64:   MUD CAKE SAMPLE TEMPERATURE
 MFSS.               MEAS:   MUD FILTRATE SAMPLE SOURCE
 MCSS.               CALC:   MUD CAKE SAMPLE SOURCE
 RMB .OHMM             .2:   RESISTIVITY MUD AT BHT
 BHT .F               125:   BOTTOM HOLE TEMPERATURE
 TCS .HRS            2300:   TIME CURCULATED STOPPED
 TLAB.HRS            0500:   TIME LOGGER AT BOTTOM
 MRT .F               125:   MAXIMUM RECORDED TEMPERATURE
 LUN .               8043:   LOGGING UNIT NUMBER
 LUL .                GLT:   LOGGING UNIT LOCATION
 ENGI.            NEUFFER:   RECORDING ENGINEER
 WITN.             STRONG:   WITNESSED BY
 CLNT.            A2DTECH:   CLIENT CODE
 ORIG.           5" PRINT:   ORIGIN OF DATA
 UWI .       490251090100:   UNIQUE WELL ID
 DICO. A2D Technologies, Inc.:   DIGITIZING COMPANY
~OTHER INFORMATION
~A    DEPT    DPHI          GRD     NPHI       CALD       CORR       RHOB        ILD        ILM       SFLU        SPR   
# ...
 2244.5000  -999.2500    87.6106     0.3276  -999.2500     0.1716     1.7223     2.8365     2.4725     2.8087   -73.8102
 2245.0000  -999.2500    87.6106     0.3417  -999.2500     0.1236     1.6337     2.7975     2.2136     2.4822   -73.9666
 2245.5000  -999.2500    87.3156     0.3650  -999.2500     0.0939     1.4618     2.9155     2.2441     2.1594   -73.9718
 2246.0000  -999.2500    84.9558     0.4220  -999.2500     0.0541     1.2930     2.8753     2.8179     1.8674   -73.9761
 2246.5000  -999.2500    83.1858     0.4695  -999.2500     0.0163     1.2697     2.8357     3.3484     2.1442   -74.1323
 2247.0000  -999.2500    83.7758     0.4583  -999.2500     0.0307     1.3229     2.8355     3.4656     2.4208   -74.4407
 2247.5000  -999.2500    85.5457     0.4180  -999.2500     0.0838     1.4444     2.8386     3.3001     2.8466   -74.7499
 2248.0000  -999.2500    87.6106     0.3732  -999.2500     0.2122     1.7233     2.9961     3.1453     3.1358   -74.7542
 2248.5000  -999.2500    89.6755     0.3691  -999.2500     0.2190     1.8246     3.1660     3.1668     3.0925   -74.7585
 2249.0000  -999.2500    89.9826     0.3732  -999.2500     0.1977     1.8020     3.3226     3.0800     2.9258   -74.6118
 2249.5000  -999.2500    86.9338     0.3723  -999.2500     0.1718     1.7112     3.4910     3.0812     2.9664   -74.6161
 2250.0000  -999.2500    85.5457     0.3874  -999.2500     0.1284     1.5956     3.6846     3.1653     2.9868   -74.4674
 2250.5000  -999.2500    85.8311     0.4246  -999.2500     0.1291     1.5986     3.6077     3.2085     2.9455   -74.4548
 2251.0000  -999.2500    86.1178     0.4662  -999.2500     0.1191     1.6038     3.5817     3.1606     2.8452   -74.3768
 2251.5000  -999.2500    87.2874     0.4730  -999.2500     0.1004     1.5273     3.6303     3.0980     2.7867   -74.2988
 2252.0000  -999.2500    87.5762     0.4403  -999.2500     0.0400     1.3924     3.7054     3.2058     2.9048   -74.2208
 2252.5000  -999.2500    83.4361     0.4326  -999.2500     0.0330     1.3824     3.7814     3.3175     2.8644   -74.2021
 2253.0000  -999.2500    81.6480     0.4320  -999.2500     0.0436     1.4004     3.8327     3.3416     2.7669   -74.2111
 2253.5000  -999.2500    81.0576     0.4282  -999.2500     0.0466     1.4067     3.8844     3.3619     2.7476   -74.2183
 2254.0000  -999.2500    79.8694     0.4196  -999.2500     0.0404     1.3456     3.8564     3.1583     2.7285   -74.2249
 2254.5000  -999.2500    76.9113     0.4238  -999.2500     0.0350     1.3388     3.7241     2.8273     2.7473   -74.2326
 2255.0000  -999.2500    71.0012     0.4391  -999.2500     0.0425     1.3898     3.5965     2.5644     2.8047   -74.2415
 2255.5000  -999.2500    67.4531     0.4659  -999.2500     0.0615     1.4873     3.4257     2.3613     2.8435   -74.5526
 2256.0000  -999.2500    67.1499     0.5013  -999.2500     0.0923     1.5443     3.3295     2.5470     2.8617   -74.5597
 2256.5000  -999.2500    67.1416     0.5254  -999.2500     0.1061     1.5232     3.1511     2.5641     2.8807   -74.5669
 2257.0000  -999.2500    67.4263     0.5319  -999.2500     0.1023     1.4602     3.0642     2.4935     2.8011   -74.5758
 2257.5000  -999.2500    67.4180     0.5233  -999.2500     0.0657     1.3822     3.0422     2.4585     2.7052   -74.5829
 2258.0000  -999.2500    67.7047     0.5201  -999.2500     0.0226     1.2441     3.1059     2.4920     2.5412   -74.5897
 2258.5000  -999.2500    71.8242     0.5216  -999.2500     0.0078     1.2020     3.1907     2.6879     2.4527   -74.5973
 2259.0000  -999.2500    76.8307     0.5186  -999.2500     0.0047     1.1930     3.2787     2.8203     2.5751   -74.4524
 2259.5000  -999.2500    80.3623     0.4985  -999.2500     0.0062     1.2019     3.3235     2.7426     2.6104   -74.3093
 2260.0000  -999.2500    83.3038     0.4637  -999.2500     0.0182     1.2830     3.3222     2.6125     2.5560   -74.3165
 2260.5000  -999.2500    82.9985     0.4492  -999.2500     0.0440     1.3385     3.3441     2.5583     2.4345   -74.3237
 2261.0000  -999.2500    80.0404     0.4525  -999.2500     0.0591     1.3962     3.3197     2.5753     2.3026   -74.3325
 2261.5000  -999.2500    77.3773     0.4649  -999.2500     0.0636     1.4164     3.2506     2.5925     2.3020   -74.3397
 2262.0000  -999.2500    76.1888     0.4832  -999.2500     0.0483     1.3924     3.1829     2.5210     2.3497   -74.3468
 2262.5000  -999.2500    75.5888     0.5107  -999.2500     0.0270     1.3151     3.1164     2.5030     2.3329   -74.5061
 2263.0000  -999.2500    75.5805     0.5169  -999.2500     0.0102     1.2286     3.0940     2.5197     2.3001   -74.6668
 2263.5000  -999.2500    75.8673     0.5146  -999.2500     0.0040     1.2032     3.0930     2.6267     2.3315   -74.6740
 2264.0000  -999.2500    76.7418     0.4898  -999.2500     0.0085     1.2317     3.1827     2.8124     2.3963   -74.6811
 2264.5000  -999.2500    76.7336     0.4721  -999.2500     0.0286     1.2932     3.4757     2.9713     2.4973   -74.6885
 2265.0000  -999.2500    76.7253     0.4579  -999.2500     0.0524     1.3635     3.7229     3.1829     2.7126   -74.6972
 2265.5000  -999.2500    76.7168     0.4496  -999.2500     0.0759     1.4214     4.0432     3.5540     3.0716   -74.3986
 2266.0000  -999.2500    77.2988     0.4334  -999.2500     0.0827     1.5099     4.2482     4.1928     3.4782   -74.1036
 2266.5000  -999.2500    78.1734     0.3990  -999.2500     0.1194     1.6772     4.4811     4.6171     3.9934   -73.8067
 2267.0000  -999.2500    79.6401     0.3647  -999.2500     0.1935     1.8542     4.5423     4.8781     4.5847   -73.5099
 2267.5000  -999.2500    81.6946     0.3392  -999.2500     0.2018     1.8722     4.4782     4.9106     4.8780   -73.0629
 2268.0000  -999.2500    81.0964     0.3520  -999.2500     0.1910     1.7281     4.3512     4.0182     5.1188   -72.6142
 2268.5000  -999.2500    80.2032     0.3927  -999.2500     0.1210     1.6133     4.2344     3.3110     4.9093   -72.3176
 2269.0000  -999.2500    79.6047     0.4575  -999.2500     0.0784     1.5375     4.3516     3.8532     4.0154   -72.0205
 2269.5000  -999.2500    80.7745     0.4946  -999.2500     0.0464     1.5360     4.5030     4.5779     3.4237   -71.7237
 2270.0000  -999.2500    83.1262     0.4453  -999.2500     0.0752     1.7362     4.6962     4.7790     3.1719   -71.2867
 2270.5000  -999.2500    84.5928     0.4048  -999.2500     0.1071     2.0018     4.6257     5.7064     3.4696   -70.8279
 2271.0000     0.2965    86.0574     0.3585    13.9260     0.1504     2.1788     4.5294     6.2839     4.2687   -70.5311
 2271.5000     0.2052    88.4090     0.3219    12.6203     0.1799     2.3123     4.5279     6.1535     5.1088   -70.2343
 2272.0000     0.2037    91.3506     0.3190    11.6789     0.1600     2.3168     4.6579     5.6596     5.4356   -70.2432
 2272.5000     0.2046    97.9553     0.3169    10.7071     0.1478     2.3197     4.8480     5.6223     5.3595   -70.4041
 2273.0000     0.1898   102.8365     0.3113    10.4636     0.1550     2.3557     5.0167     5.7385     5.2119   -70.5632
 2273.5000     0.1533   103.7152     0.3037    10.4782     0.2031     2.4055     5.0499     5.4283     5.3939   -71.0263
 2274.0000     0.1377   103.7049     0.3001    10.7356     0.2456     2.4389     4.8429     5.1334     5.4300   -71.3374
 2274.5000     0.1518    93.6650     0.3019    12.0295     0.2516     2.3729     4.4873     4.8243     5.3167   -71.8023
 2275.0000     0.1833    93.0668     0.3093    12.4946     0.2409     2.3053     4.3336     4.5639     4.8577   -72.2653
 2275.5000     0.2385    93.6506     0.3282    12.9189     0.1800     2.2003     4.2728     4.2290     4.5632   -72.5764
 2276.0000     0.2736    94.8202     0.3459    13.2370     0.1275     2.1912     4.6400     4.0564     4.3163   -72.8894
 2276.5000     0.2476    95.9898     0.3445    12.9176     0.1624     2.2925     5.1092     4.1686     4.5925   -73.0484
 2277.0000     0.1930    96.5736     0.3132    12.5529     0.2535     2.3862     5.4731     4.4347     5.0232   -72.7498
 2277.5000     0.1574    95.9733     0.2951    12.3702     0.2526     2.4072     5.3219     4.6853     5.9291   -72.6068
