~VERSION INFORMATION
 VERS.                2.0:   CWLS LOG ASCII STANDARD - VERSION 2.0
 WRAP.                 NO:   ONE LINE PER DEPTH STEP
~WELL INFORMATION
#MNEM.UNIT      DATA TYPE    INFORMATION
#----------   ------------   ------------------------------
 STRT.F            8.5000:   START DEPTH
 STOP.F         2140.0000:   STOP DEPTH
 STEP.F            0.5000:   STEP LENGTH
 NULL.          -999.2500:   NO VALUE
 COMP. LAWRENCE/ALLISON INC:   COMPANY
 WELL.   11-61 SHX #61-11:   WELL
 FLD .             TEAPOT:   FIELD
 LOC .      S11 T38N R78W:   LOCATION
 CNTY.            NATRONA:   COUNTY
 STAT.            WYOMING:   STATE
 CTRY. UNITED STATES OF AMERICA:   COUNTRY
 SRVC.      NL McCullough:   SERVICE COMPANY
 DATE.        04-MAY-1988:   LOGDATE
 API .       490251115600:   API NUMBER
~CURVE INFORMATION
#MNEM.UNIT       API CODE    CURVE DESCRIPTION
#----------   ------------   ------------------------------
 DEPT.F                  :   
 GRR .GAPI   81 310 01 00:   GAMMY RAY
 ROP .FT/HR  91 810 01 00:   RAT OF DRILLING PENETRATION
 TGAS.TC/CC  91 830 01 00:   TOTAL GAS UNIT
~PARAMETER INFORMATION
#MNEM.UNIT          VALUE    DESCRIPTION
#----------   ------------   ------------------------------
 PD  .                 GL:   PERMANENT DATUM
 EPD .F              5135:   ELEVATION PERMANENT DATUM
 LMF .                 KB:   LOG MEASURED FROM
 DAPD.F                 8:   FEET ABOVE PERMANENT DATUM
 DMF .                 KB:   DRILLING MEASURED FROM
 EKB .F              5143:   KELLING BUSHING
 EGL .F              5135:   GROUND LEVEL
 DATE.        04-MAY-1988:   RUN DATE
 RUN .                  1:   RUN NUMBER
 DD  .F              2140:   DEPTH DRILLER
 DL  .F               572:   DEPTH LOGGER
 BLI .F               568:   BOTTOM LOG INTERVAL
 CS  .IN              5.5:   CASING SIZE
 CBD .F               622:   CASING BOTTOM DRILLER
 BSD .F              2140:   BIT SIZE AT DEPTH
 DFT .         KCL/ WATER:   DRILLING FLUID TYPE
 TCS .HRS               1:   TIME CURCULATED STOPPED
 ENGI.               DALY:   RECORDING ENGINEER
 WITN.           MR. LOWL:   WITNESSED BY
 CLNT.            A2DTECH:   CLIENT CODE
 ORIG.           5" PRINT:   ORIGIN OF DATA
 UWI .       490251115600:   UNIQUE WELL ID
 DICO. A2D Technologies, Inc.:   DIGITIZING COMPANY
~OTHER INFORMATION
~A    DEPT      GRR       ROP       TGAS   
# ...
 1191.5000  -999.2500     0.2814     0.1775
 1192.0000  -999.2500     0.2815     0.1728
 1192.5000  -999.2500     0.2910     0.1680
 1193.0000  -999.2500     0.2911     0.1493
 1193.5000  -999.2500     0.2912     0.1254
 1194.0000  -999.2500     0.2913     0.1015
 1194.5000  -999.2500     0.2928     0.0775
 1195.0000  -999.2500     0.3011     0.0536
 1195.5000  -999.2500     0.3105     0.0297
 1196.0000  -999.2500     0.3106     0.0058
 1196.5000  -999.2500     0.3107    -0.0181
 1197.0000  -999.2500     0.3202    -0.0421
 1197.5000  -999.2500     0.3256    -0.0660
 1198.0000  -999.2500     0.3298    -0.0899
 1198.5000  -999.2500     0.3299    -0.1138
 1199.0000  -999.2500     0.3300    -0.1377
 1199.5000  -999.2500     0.3301    -0.1617
 1200.0000  -999.2500     0.3302    -0.1856
 1200.5000  -999.2500     0.3303    -0.2095
 1201.0000  -999.2500     0.3304    -0.2334
 1201.5000  -999.2500     0.3305    -0.2573
 1202.0000  -999.2500     0.3306    -0.2813
 1202.5000  -999.2500     0.3307    -0.3052
 1203.0000  -999.2500     0.2742    -0.3291
 1203.5000  -999.2500     0.2743    -0.3530
 1204.0000  -999.2500     0.2744    -0.3769
 1204.5000  -999.2500     0.2750    -0.4009
 1205.0000  -999.2500     0.2757    -0.4248
 1205.5000  -999.2500     0.2763    -0.4487
 1206.0000  -999.2500     0.2769    -0.4726
 1206.5000  -999.2500     0.2776    -0.4965
 1207.0000  -999.2500     0.2782    -0.5205
 1207.5000  -999.2500     0.2788    -0.5444
 1208.0000  -999.2500     0.2795    -0.5040
 1208.5000  -999.2500     0.2801    -0.4454
 1209.0000  -999.2500     0.2807    -0.3868
 1209.5000  -999.2500     0.2813    -0.3282
 1210.0000  -999.2500     0.2820    -0.2696
 1210.5000  -999.2500     0.2826    -0.2109
 1211.0000  -999.2500     0.2832    -0.1646
 1211.5000  -999.2500     0.2839    -0.1654
 1212.0000  -999.2500     0.2845    -0.1661
 1212.5000  -999.2500     0.2851    -0.1668
 1213.0000  -999.2500     0.2858    -0.1675
 1213.5000  -999.2500     0.2864    -0.1683
 1214.0000  -999.2500     0.2870    -0.1690
 1214.5000  -999.2500     0.2876    -0.1697
 1215.0000  -999.2500     0.2883    -0.1705
 1215.5000  -999.2500     0.2889    -0.1712
 1216.0000  -999.2500     0.2895    -0.1719
 1216.5000  -999.2500     0.2902    -0.1726
 1217.0000  -999.2500     0.2908    -0.1734
 1217.5000  -999.2500     0.2914    -0.1741
 1218.0000  -999.2500     0.2921    -0.1748
 1218.5000  -999.2500     0.2927    -0.1756
 1219.0000  -999.2500     0.2933    -0.1763
 1219.5000  -999.2500     0.2940    -0.1770
 1220.0000  -999.2500     0.2946    -0.1777
 1220.5000  -999.2500     0.2952    -0.1785
 1221.0000  -999.2500     0.2958    -0.1792
 1221.5000  -999.2500     0.2965    -0.1799
 1222.0000  -999.2500     0.2966    -0.1807
 1222.5000  -999.2500     0.2967    -0.1814
 1223.0000  -999.2500     0.2968    -0.1821
 1223.5000  -999.2500     0.2969    -0.1828
 1224.0000  -999.2500     0.3064    -0.1836
 1224.5000  -999.2500     0.3547    -0.1843
 1225.0000  -999.2500     0.3821    -0.1850
 1225.5000  -999.2500     0.3822    -0.1858
 1226.0000  -999.2500     0.3728    -0.1865
 1226.5000  -999.2500     0.3729    -0.1872
 1227.0000  -999.2500     0.3730    -0.1880
 1227.5000  -999.2500     0.3731    -0.1887
 1228.0000  -999.2500     0.3732    -0.1894
 1228.5000  -999.2500     0.3733    -0.1901
 1229.0000  -999.2500     0.3734    -0.1909
 1229.5000  -999.2500     0.3735    -0.1916
 1230.0000  -999.2500     0.3736    -0.1923
 1230.5000  -999.2500     0.3642    -0.1931
 1231.0000  -999.2500     0.3643    -0.1938
 1231.5000  -999.2500     0.3644    -0.1945
 1232.0000  -999.2500     0.3645    -0.1952
 1232.5000  -999.2500     0.3635    -0.1960
 1233.0000  -999.2500     0.3553    -0.1967
 1233.5000  -999.2500     0.3459    -0.1974
 1234.0000  -999.2500     0.3461    -0.1982
 1234.5000  -999.2500     0.3461    -0.1989
 1235.0000  -999.2500     0.3462    -0.1996
 1235.5000  -999.2500     0.3463    -0.2003
 1236.0000  -999.2500     0.3464    -0.2011
 1236.5000  -999.2500     0.3465    -0.2018
 1237.0000  -999.2500     0.3466    -0.2025
 1237.5000  -999.2500     0.3412    -0.2033
 1238.0000  -999.2500     0.3374    -0.2040
 1238.5000  -999.2500     0.3375    -0.2048
 1239.0000  -999.2500     0.3375    -0.1964
 1239.5000  -999.2500     0.3376    -0.1867
 1240.0000  -999.2500     0.3377    -0.1770
 1240.5000  -999.2500     0.3378    -0.1672
 1241.0000  -999.2500     0.3379    -0.1575
 1241.5000  -999.2500     0.3380    -0.1477
 1242.0000  -999.2500     0.3381    -0.1380
 1242.5000  -999.2500     0.2911    -0.1283
 1243.0000  -999.2500     0.2628    -0.1185
 1243.5000  -999.2500     0.2629    -0.1088
 1244.0000  -999.2500     0.2630    -0.0991
 1244.5000  -999.2500     0.2631    -0.0893
 1245.0000  -999.2500     0.2632    -0.0796
 1245.5000  -999.2500     0.2633    -0.0699
 1246.0000  -999.2500     0.2634    -0.0601
 1246.5000  -999.2500     0.2635    -0.0504
 1247.0000  -999.2500     0.2636    -0.0406
 1247.5000  -999.2500     0.2637    -0.0309
 1248.0000  -999.2500     0.2638    -0.0212
 1248.5000  -999.2500     0.2639    -0.0114
 1249.0000  -999.2500     0.2640    -0.0017
 1249.5000  -999.2500     0.2641     0.0080
 1250.0000  -999.2500     0.2642     0.0178
 1250.5000  -999.2500     0.2643     0.0275
 1251.0000  -999.2500     0.2644     0.0372
 1251.5000  -999.2500     0.2644     0.0470
 1252.0000  -999.2500     0.2740     0.0567
 1252.5000  -999.2500     0.2646     0.0664
 1253.0000  -999.2500     0.2647     0.0762
 1253.5000  -999.2500     0.2743     0.0859
 1254.0000  -999.2500     0.2743     0.0957
 1254.5000  -999.2500     0.2839     0.1054
 1255.0000  -999.2500     0.2840     0.1151
 1255.5000  -999.2500     0.2935     0.1249
 1256.0000  -999.2500     0.2936     0.1346
 1256.5000  -999.2500     0.2937     0.1443
 1257.0000  -999.2500     0.2762     0.1541
 1257.5000  -999.2500     0.2764     0.1638
 1258.0000  -999.2500     0.2766     0.1735
 1258.5000  -999.2500     0.2768     0.1833
 1259.0000  -999.2500     0.2770     0.1930
 1259.5000  -999.2500     0.2772     0.2028
 1260.0000  -999.2500     0.2774     0.2125
 1260.5000  -999.2500     0.2776     0.2248
 1261.0000  -999.2500     0.2777     0.2479
 1261.5000  -999.2500     0.2874     0.2709
 1262.0000  -999.2500     0.2875     0.2940
 1262.5000  -999.2500     0.2877     0.3170
 1263.0000  -999.2500     0.2879     0.3401
 1263.5000  -999.2500     0.2881     0.3631
 1264.0000  -999.2500     0.2883     0.3862
 1264.5000  -999.2500     0.2885     0.4092
 1265.0000  -999.2500     0.2887     0.4323
 1265.5000  -999.2500     0.2889     0.4554
 1266.0000  -999.2500     0.2891     0.4784
 1266.5000  -999.2500     0.2893     0.5015
 1267.0000  -999.2500     0.2894     0.5245
 1267.5000  -999.2500     0.2896     0.5476
 1268.0000  -999.2500     0.2898     0.5706
 1268.5000  -999.2500     0.2900     0.5937
 1269.0000  -999.2500     0.2902     0.6167
 1269.5000  -999.2500     0.2904     0.6398
 1270.0000  -999.2500     0.2906     0.6629
 1270.5000  -999.2500     0.2934     0.6859
 1271.0000  -999.2500     0.3004     0.7090
 1271.5000  -999.2500     0.3006     0.7320
 1272.0000  -999.2500     0.3046     0.7551
 1272.5000  -999.2500     0.3104     0.7781
 1273.0000  -999.2500     0.3106     0.8012
 1273.5000  -999.2500     0.3108     0.8242
 1274.0000  -999.2500     0.3109     0.8473
 1274.5000  -999.2500     0.3112     0.8704
 1275.0000  -999.2500     0.3114     0.8934
 1275.5000  -999.2500     0.3115     0.9165
 1276.0000  -999.2500     0.3117     0.9395
 1276.5000  -999.2500     0.3119     0.9626
 1277.0000  -999.2500     0.3121     0.9856
 1277.5000  -999.2500     0.3123     1.0087
 1278.0000  -999.2500     0.3125     1.0317
 1278.5000  -999.2500     0.3126     1.0548
 1279.0000  -999.2500     0.3128     1.0779
 1279.5000  -999.2500     0.3130     1.1009
 1280.0000  -999.2500     0.3132     1.1240
 1280.5000  -999.2500     0.3134     1.1470
 1281.0000  -999.2500     0.3136     1.1701
 1281.5000  -999.2500     0.3138     1.1931
 1282.0000  -999.2500     0.3140     1.2162
