~VERSION INFORMATION
 VERS.                2.0:   CWLS LOG ASCII STANDARD - VERSION 2.0
 WRAP.                 NO:   ONE LINE PER DEPTH STEP
~WELL INFORMATION
#MNEM.UNIT      DATA TYPE    INFORMATION
#----------   ------------   ------------------------------
 STRT.F          672.0000:   START DEPTH
 STOP.F         2343.5000:   STOP DEPTH
 STEP.F            0.5000:   STEP LENGTH
 NULL.          -999.2500:   NO VALUE
 COMP. FENIX & SCISSON INC:   COMPANY
 WELL.   23 SHX-33 #23-33:   WELL
 FLD .             TEAPOT:   FIELD
 LOC .      S33 T39N R78W:   LOCATION
 CNTY.            NATRONA:   COUNTY
 STAT.            WYOMING:   STATE
 CTRY. UNITED STATES OF AMERICA:   COUNTRY
 SRVC.            Unknown:   SERVICE COMPANY
 DATE.        01-MAY-1978:   LOGDATE
 API .       490251062700:   API NUMBER
~CURVE INFORMATION
#MNEM.UNIT       API CODE    CURVE DESCRIPTION
#----------   ------------   ------------------------------
 DEPT.F                  :   
 IL  .OHMM   05 120 00 00:   INDUCTION LOG
 CIL .MMHO   05 110 00 00:   CONDUCTIVITY INDUCTION LOG
 CALD.IN     45 280 60 00:   CALIPER FROM DENSITY LOG
 GRD .GAPI   45 310 01 00:   GAMMA RAY FROM DENSITY LOG
 DPHI.DEC    45 890 12 00:   DENSITY POROSITY SANDSTONE
 RHOB.G/C3   45 350 01 00:   BULK DENSITY
 CORR.G/C3   45 356 01 00:   DENSITY CORRECTION
~PARAMETER INFORMATION
#MNEM.UNIT          VALUE    DESCRIPTION
#----------   ------------   ------------------------------
 PD  .                 GL:   PERMANENT DATUM
 EPD .F              5163:   ELEVATION PERMANENT DATUM
 LMF .                 KB:   LOG MEASURED FROM
 DAPD.F                10:   FEET ABOVE PERMANENT DATUM
 DMF .                 KB:   DRILLING MEASURED FROM
 EKB .F              5173:   KELLING BUSHING
 EGL .F              5163:   GROUND LEVEL
 DATE.           5-1-1978:   RUN DATE
 RUN .                  1:   RUN NUMBER
 DD  .F              2331:   DEPTH DRILLER
 DL  .F              2260:   DEPTH LOGGER
 BLI .F              2250:   BOTTOM LOG INTERVAL
 TLI .F               690:   TOP LOG INTERVAL
 CS  .IN            9.625:   CASING SIZE
 CBD .F               683:   CASING BOTTOM DRILLER
 CBL .F               690:   CASING BOTTOM LOGGER
 BS  .IN             8.75:   BIT SIZE
 BSD .F              2331:   BIT SIZE AT DEPTH
 DFT .                OIL:   DRILLING FLUID TYPE
 BHT .F               104:   BOTTOM HOLE TEMPERATURE
 TCS .HRS               5:   TIME CURCULATED STOPPED
 MRT .F               104:   MAXIMUM RECORDED TEMPERATURE
 LUN .               2958:   LOGGING UNIT NUMBER
 LUL .               CASP:   LOGGING UNIT LOCATION
 ENGI.             MILLER:   RECORDING ENGINEER
 WITN.           MCGINLEY:   WITNESSED BY
 CLNT.            A2DTECH:   CLIENT CODE
 ORIG.       2", 5" PRINT:   ORIGIN OF DATA
 UWI .       490251062700:   UNIQUE WELL ID
 DICO. A2D Technologies, Inc.:   DIGITIZING COMPANY
~OTHER INFORMATION
~A   DEPT       IL        CIL       CALD         GRD      DPHI       RHOB       CORR   
# ...
 1400.0000     7.7619   116.9201    10.0233    93.0181    -0.0340     2.6059     0.0656
 1400.5000     7.8534   115.3813    10.0420    94.2540    -0.0291     2.6053     0.0625
 1401.0000     7.9449   113.8402    10.0609    95.5207    -0.0241     2.5971     0.0593
 1401.5000     8.0365   112.3175    10.0777    96.6086    -0.0190     2.5887     0.0562
 1402.0000     8.1293   111.9856    10.0180    96.4303    -0.0185     2.5803     0.0532
 1402.5000     8.2219   112.6996     9.9531    94.4371    -0.0190     2.5752     0.0537
 1403.0000     8.1593   113.4013     9.8886    92.4740    -0.0233     2.5738     0.0606
 1403.5000     8.1158   114.1028     9.8237    90.7710    -0.0365     2.5773     0.0672
 1404.0000     8.0731   114.8036     9.7966    89.9693    -0.0361     2.5935     0.0710
 1404.5000     8.0310   115.5044     9.7888    89.2307    -0.0317     2.6082     0.0680
 1405.0000     7.9888   116.2052     9.8198    88.7614    -0.0275     2.6020     0.0637
 1405.5000     7.9461   116.9060     9.7900    88.9656    -0.0251     2.5954     0.0595
 1406.0000     7.9069   117.6068     9.8306    89.5970    -0.0229     2.5896     0.0552
 1406.5000     7.8556   118.3076     9.8977    91.2176    -0.0189     2.5888     0.0532
 1407.0000     7.8446   119.0084     9.9656    93.0924    -0.0176     2.5810     0.0545
 1407.5000     7.8149   119.7092    10.0336    96.1519    -0.0227     2.5704     0.0560
 1408.0000     7.7860   120.4100    10.0982    98.3467    -0.0238     2.5905     0.0572
 1408.5000     7.7575   121.1108    10.0848    99.2375    -0.0182     2.5842     0.0552
 1409.0000     7.7273   121.8116    10.0652    98.1742    -0.0189     2.5758     0.0501
 1409.5000     7.6706   122.5124    10.0928    96.7238    -0.0186     2.5765     0.0458
 1410.0000     7.6201   123.2132    10.1411    95.2482    -0.0154     2.5766     0.0460
 1410.5000     7.5711   123.9140    10.1901    96.7730    -0.0163     2.5707     0.0479
 1411.0000     7.5220   124.6148    10.2390    98.7759    -0.0179     2.5691     0.0497
 1411.5000     7.4724   124.6043    10.2882    99.8460    -0.0194     2.5744     0.0515
 1412.0000     7.4580   124.4277    10.3423    97.0959    -0.0210     2.5786     0.0533
 1412.5000     7.4739   124.2511    10.3774    94.8842    -0.0225     2.5805     0.0551
 1413.0000     7.4897   124.0745    10.3275    93.5282    -0.0242     2.5823     0.0570
 1413.5000     7.5055   123.8979    10.2800    93.5003    -0.0226     2.5841     0.0587
 1414.0000     7.5215   123.7374    10.3202    93.4549    -0.0206     2.5848     0.0613
 1414.5000     7.5360   124.7025    10.4148    93.4113    -0.0224     2.5841     0.0611
 1415.0000     7.5270   125.5958    10.5118    93.3732    -0.0238     2.5810     0.0611
 1415.5000     7.4560   126.4868    10.5562    93.4909    -0.0227     2.5840     0.0611
 1416.0000     7.3844   127.3808    10.5421    95.3197    -0.0214     2.5867     0.0611
 1416.5000     7.3133   130.8081    10.5219    97.7239    -0.0202     2.5849     0.0610
 1417.0000     7.2415   130.8081    10.5009    97.5721    -0.0189     2.5830     0.0640
 1417.5000     7.2126   130.8081    10.4786    97.7890    -0.0190     2.5812     0.0658
 1418.0000     7.2120   130.8081    10.4748    99.0822    -0.0202     2.5792     0.0676
 1418.5000     7.2121   130.8081    10.4874   100.4538    -0.0187     2.5801     0.0691
 1419.0000     7.2121   130.8081    10.5047   101.7784    -0.0166     2.5817     0.0672
 1419.5000     7.2123   130.8081    10.5217    98.6764    -0.0196     2.5805     0.0621
 1420.0000     7.2131   130.8081    10.5366    95.1090    -0.0178     2.5742     0.0573
 1420.5000     7.2027   132.2002    10.5186    93.3154    -0.0122     2.5681     0.0595
 1421.0000     7.1692   133.5284    10.4981    93.3096    -0.0141     2.5622     0.0652
 1421.5000     7.0931   134.8511    10.4779    94.4476    -0.0170     2.5723     0.0708
 1422.0000     7.0200   136.1727    10.4819    96.9733    -0.0199     2.5675     0.0764
 1422.5000     6.9473   137.4943    10.4908    98.5986    -0.0228     2.5630     0.0771
 1423.0000     6.8746   138.8889    10.4952    96.2342    -0.0243     2.5902     0.0771
 1423.5000     6.8015   139.1673    10.4382    93.0630    -0.0247     2.5824     0.0770
 1424.0000     6.7296   139.5398    10.3801    94.2512    -0.0249     2.5850     0.0770
 1424.5000     6.7149   139.9122    10.3368    95.5439    -0.0235     2.5906     0.0770
 1425.0000     6.7031   140.2847    10.3397    96.8503    -0.0209     2.5898     0.0774
 1425.5000     6.6909   140.6571    10.3743    99.1804    -0.0183     2.5841     0.0796
 1426.0000     6.6787   141.0296    10.3984   101.4308    -0.0169     2.5784     0.0819
 1426.5000     6.6665   141.4020    10.4266   103.4649    -0.0162     2.5728     0.0851
 1427.0000     6.6542   141.7745    10.5100   102.4697    -0.0204     2.5727     0.0838
 1427.5000     6.6420   142.1469    10.5526    99.8824    -0.0246     2.5766     0.0809
 1428.0000     6.6298   142.5194    10.4201    97.3035    -0.0241     2.5806     0.0782
 1428.5000     6.6175   142.8918    10.4168    95.4611    -0.0240     2.5849     0.0754
 1429.0000     6.6053   142.5750    10.4174    98.0714    -0.0257     2.5869     0.0727
 1429.5000     6.5931   142.1810    10.4175   101.3487    -0.0258     2.5889     0.0699
 1430.0000     6.5808   141.7871    10.4175   104.7993    -0.0259     2.5881     0.0672
 1430.5000     6.5682   141.3932    10.4174   104.7101    -0.0311     2.5868     0.0673
 1431.0000     6.5657   140.9992    10.4166    99.6859    -0.0353     2.5931     0.0684
 1431.5000     6.5653   140.6053    10.4599    94.9533    -0.0365     2.5993     0.0694
 1432.0000     6.5960   140.2113    10.5151    90.2486    -0.0322     2.6052     0.0705
 1432.5000     6.6469   139.8990    10.5105    85.7266    -0.0259     2.5990     0.0716
 1433.0000     6.6981   139.8990    10.5015    85.7294    -0.0198     2.5782     0.0726
 1433.5000     6.7494   139.8990    10.5017    90.0243    -0.0146     2.5761     0.0737
 1434.0000     6.8006   139.8990    10.5229    94.9210    -0.0133     2.5760     0.0748
 1434.5000     6.8519   138.5556    10.5334    97.6043    -0.0142     2.5690     0.0758
 1435.0000     6.9031   137.9317    10.5432    97.7908    -0.0150     2.5699     0.0769
 1435.5000     6.9287   137.9927    10.5532    98.9235    -0.0145     2.5766     0.0780
 1436.0000     6.9161   138.0536    10.5631   100.0027    -0.0129     2.5742     0.0790
 1436.5000     6.9039   138.1146    10.5730   100.7305    -0.0113     2.5697     0.0771
 1437.0000     6.8917   138.1756    10.5830   100.0775    -0.0098     2.5653     0.0747
 1437.5000     6.8795   138.2365    10.5929    98.9937    -0.0069     2.5682     0.0724
 1438.0000     6.8673   138.2975    10.6028    98.4722    -0.0033     2.5788     0.0700
 1438.5000     6.8552   138.3585    10.6129   100.4619     0.0006     2.5645     0.0676
 1439.0000     6.8430   138.4194    10.6163   100.6060     0.0057     2.5545     0.0652
 1439.5000     6.8308   138.4804    10.6163    99.9163    -0.0003     2.5448     0.0636
 1440.0000     6.8186   138.5414    10.6138    99.5320    -0.0046     2.5383     0.0680
 1440.5000     6.8065   138.6023    10.6032    99.1212    -0.0063     2.5436     0.0723
 1441.0000     6.7943   138.6633    10.5930    97.0857    -0.0094     2.5497     0.0751
 1441.5000     6.7821   138.7240    10.5829    94.7654    -0.0127     2.5557     0.0737
 1442.0000     6.7700   138.7845    10.5728    96.6844    -0.0159     2.5618     0.0719
 1442.5000     6.7578   138.8462    10.5626    99.1832    -0.0192     2.5679     0.0701
 1443.0000     6.7456   139.1448    10.5526    98.7593    -0.0225     2.5732     0.0684
 1443.5000     6.7335   139.9983    10.5423    98.3748    -0.0242     2.5791     0.0666
 1444.0000     6.7213   140.8513    10.5254    98.8483    -0.0245     2.5851     0.0648
 1444.5000     6.7093   141.7054    10.4955   101.5129    -0.0249     2.5830     0.0631
 1445.0000     6.6978   142.5589    10.5488   104.1888    -0.0252     2.5864     0.0613
