~VERSION INFORMATION
 VERS.                2.0:   CWLS LOG ASCII STANDARD - VERSION 2.0
 WRAP.                 NO:   ONE LINE PER DEPTH STEP
~WELL INFORMATION
#MNEM.UNIT      DATA TYPE    INFORMATION
#----------   ------------   ------------------------------
 STRT.F            0.0000:   START DEPTH
 STOP.F          520.0000:   STOP DEPTH
 STEP.F            0.5000:   STEP LENGTH
 NULL.          -999.2500:   NO VALUE
 COMP. LAWRENCE/ALLISON INC:   COMPANY
 WELL.   NPR #3 #67-13 SX:   WELL
 FLD .             TEAPOT:   FIELD
 LOC .       S3 T38N R78W:   LOCATION
 CNTY.            NATRONA:   COUNTY
 STAT.            WYOMING:   STATE
 CTRY. UNITED STATES OF AMERICA:   COUNTRY
 SRVC.           Gearhart:   SERVICE COMPANY
 DATE.        06-JUL-1988:   LOGDATE
 API .       490251123000:   API NUMBER
~CURVE INFORMATION
#MNEM.UNIT       API CODE    CURVE DESCRIPTION
#----------   ------------   ------------------------------
 DEPT.F                  :   
 GRR .GAPI   07 310 01 00:   GAMMA RAY FROM RES. LOG.
 RILD.OHMM   07 120 46 00:   INDUCTION LOG DEEP RESISTIVITY
 RILM.OHMM   07 120 44 00:   INDUCTION LOG MEDIUM RESISTIVITY
~PARAMETER INFORMATION
#MNEM.UNIT          VALUE    DESCRIPTION
#----------   ------------   ------------------------------
 PD  .                 GL:   PERMANENT DATUM
 EPD .F              5168:   ELEVATION PERMANENT DATUM
 LMF .                 KB:   LOG MEASURED FROM
 DAPD.F                10:   FEET ABOVE PERMANENT DATUM
 DMF .                 KB:   DRILLING MEASURED FROM
 EKB .F              5178:   KELLING BUSHING
 EGL .F              5168:   GROUND LEVEL
 DATE.             7-6-88:   RUN DATE
 RUN .                  1:   RUN NUMBER
 DD  .F               520:   DEPTH DRILLER
 DL  .F               524:   DEPTH LOGGER
 BLI .F             515.5:   BOTTOM LOG INTERVAL
 TLI .F                50:   TOP LOG INTERVAL
 CS  .IN            9.625:   CASING SIZE
 CBD .F                50:   CASING BOTTOM DRILLER
 CBL .F                50:   CASING BOTTOM LOGGER
 BS  .IN             8.75:   BIT SIZE
 BSD .F               520:   BIT SIZE AT DEPTH
 DFT .                AIR:   DRILLING FLUID TYPE
 TLAB.HRS            0015:   TIME LOGGER AT BOTTOM
 MRT .F                70:   MAXIMUM RECORDED TEMPERATURE
 LUN .               7597:   LOGGING UNIT NUMBER
 LUL .           GILLETTE:   LOGGING UNIT LOCATION
 ENGI.          HUCKFELDT:   RECORDING ENGINEER
 WITN.              FIVAS:   WITNESSED BY
 CLNT.            A2DTECH:   CLIENT CODE
 ORIG.       2", 5" PRINT:   ORIGIN OF DATA
 UWI .       490251123000:   UNIQUE WELL ID
 DICO. A2D Technologies, Inc.:   DIGITIZING COMPANY
~OTHER INFORMATION
~A    DEPT      GRR      RILD       RILM   
    0.0000    21.1268  -999.2500  -999.2500
    0.5000    21.1268  -999.2500  -999.2500
    1.0000    21.1268  -999.2500  -999.2500
    1.5000    21.5292  -999.2500  -999.2500
    2.0000    16.8343  -999.2500  -999.2500
    2.5000    11.4688  -999.2500  -999.2500
    3.0000     9.8591  -999.2500  -999.2500
    3.5000     9.4567  -999.2500  -999.2500
    4.0000    11.6298  -999.2500  -999.2500
    4.5000    17.3038  -999.2500  -999.2500
    5.0000    22.9779  -999.2500  -999.2500
    5.5000    28.6519  -999.2500  -999.2500
    6.0000    34.8088  -999.2500  -999.2500
    6.5000    37.7977  -999.2500  -999.2500
    7.0000    38.0184  -999.2500  -999.2500
    7.5000    41.0076  -999.2500  -999.2500
    8.0000    43.0775  -999.2500  -999.2500
    8.5000    44.9695  -999.2500  -999.2500
    9.0000    46.3971  -999.2500  -999.2500
    9.5000    51.6975  -999.2500  -999.2500
   10.0000    60.8698  -999.2500  -999.2500
   10.5000    68.8757  -999.2500  -999.2500
   11.0000    80.9612  -999.2500  -999.2500
   11.5000    88.8361  -999.2500  -999.2500
   12.0000    88.5844  -999.2500  -999.2500
   12.5000    88.4837  -999.2500  -999.2500
   13.0000    88.4870  -999.2500  -999.2500
   13.5000    88.1765  -999.2500  -999.2500
   14.0000    86.7463  -999.2500  -999.2500
   14.5000    85.4151  -999.2500  -999.2500
   15.0000    84.7940  -999.2500  -999.2500
   15.5000    83.9234  -999.2500  -999.2500
   16.0000    82.1020  -999.2500  -999.2500
   16.5000    80.1285  -999.2500  -999.2500
   17.0000    78.1320  -999.2500  -999.2500
   17.5000    74.4852  -999.2500  -999.2500
   18.0000    71.7665  -999.2500  -999.2500
   18.5000    69.4079  -999.2500  -999.2500
   19.0000    66.6672  -999.2500  -999.2500
   19.5000    63.7773  -999.2500  -999.2500
   20.0000    61.4833  -999.2500  -999.2500
   20.5000    62.1932  -999.2500  -999.2500
   21.0000    63.2213  -999.2500  -999.2500
   21.5000    63.7247  -999.2500  -999.2500
   22.0000    63.8381  -999.2500  -999.2500
   22.5000    63.7763  -999.2500  -999.2500
   23.0000    64.8860  -999.2500  -999.2500
   23.5000    66.1536  -999.2500  -999.2500
   24.0000    67.2918  -999.2500  -999.2500
   24.5000    67.8005  -999.2500  -999.2500
   25.0000    67.0918  -999.2500  -999.2500
   25.5000    65.8462  -999.2500  -999.2500
   26.0000    65.0682  -999.2500  -999.2500
   26.5000    65.5729  -999.2500  -999.2500
   27.0000    66.4982  -999.2500  -999.2500
   27.5000    67.2916  -999.2500  -999.2500
   28.0000    68.2508  -999.2500  -999.2500
   28.5000    69.4985  -999.2500  -999.2500
   29.0000    70.6196  -999.2500  -999.2500
   29.5000    71.0576  -999.2500  -999.2500
   30.0000    71.0361  -999.2500  -999.2500
   30.5000    70.4862  -999.2500  -999.2500
   31.0000    69.7888  -999.2500  -999.2500
   31.5000    68.8372  -999.2500  -999.2500
   32.0000    68.3286  -999.2500  -999.2500
   32.5000    70.0246  -999.2500  -999.2500
   33.0000    72.3943  -999.2500  -999.2500
   33.5000    74.3710  -999.2500  -999.2500
   34.0000    76.8714  -999.2500  -999.2500
   34.5000    79.4410  -999.2500  -999.2500
   35.0000    82.1937  -999.2500  -999.2500
   35.5000    84.7008  -999.2500  -999.2500
   36.0000    85.5810  -999.2500  -999.2500
   36.5000    86.3531  -999.2500  -999.2500
   37.0000    88.1093  -999.2500  -999.2500
   37.5000    89.8342  -999.2500  -999.2500
   38.0000    91.4486  -999.2500  -999.2500
   38.5000    92.0189  -999.2500  -999.2500
   39.0000    91.4902  -999.2500  -999.2500
   39.5000    91.3284  -999.2500  -999.2500
   40.0000    90.2393  -999.2500  -999.2500
   40.5000    88.3720  -999.2500  -999.2500
   41.0000    88.8390  -999.2500  -999.2500
   41.5000    89.5843  -999.2500  -999.2500
   42.0000    87.6094  -999.2500  -999.2500
   42.5000    86.3753  -999.2500  -999.2500
   43.0000    87.7278  -999.2500  -999.2500
   43.5000    89.1809  -999.2500  -999.2500
   44.0000    88.8964  -999.2500  -999.2500
   44.5000    86.4285  -999.2500  -999.2500
   45.0000    85.8149  -999.2500  -999.2500
   45.5000    86.9215  -999.2500  -999.2500
   46.0000    88.0282  -999.2500  -999.2500
   46.5000    89.0040  -999.2500  -999.2500
   47.0000    89.7510  -999.2500  -999.2500
   47.5000    90.4980  -999.2500  -999.2500
   48.0000    91.2450  -999.2500  -999.2500
   48.5000    91.9920  -999.2500  -999.2500
   49.0000   103.9839  -999.2500  -999.2500
   49.5000   126.5594  -999.2500  -999.2500
   50.0000   147.0825  -999.2500  -999.2500
   50.5000   145.9557  -999.2500  -999.2500
   51.0000   144.9229  -999.2500  -999.2500
   51.5000   143.8900  -999.2500  -999.2500
   52.0000   144.1784  -999.2500  -999.2500
   52.5000   142.5447  -999.2500  -999.2500
   53.0000   141.9442  -999.2500  -999.2500
   53.5000   140.7198  -999.2500  -999.2500
   54.0000   139.5059    18.2847    77.2928
   54.5000   138.7104     2.0046    22.4324
   55.0000   137.1647     2.0046     8.6285
   55.5000   135.0012    10.0029     8.3780
   56.0000   131.8928    10.2214     8.1794
   56.5000   129.4996    10.3795     8.0138
   57.0000   131.4532     9.8951     8.1249
   57.5000   133.5845     9.4914     8.2229
   58.0000   136.0668     9.1042     8.3155
   58.5000   138.3382     8.7328     8.3771
   59.0000   140.6105     8.3765     8.4718
   59.5000   145.4865     8.2072     8.5491
   60.0000   146.1315     8.1546     8.5117
   60.5000   141.2121     8.0882     8.3926
   61.0000   141.1478     8.0477     8.3230
   61.5000   141.1056     8.1225     8.3525
   62.0000   141.2307     8.1510     8.2475
   62.5000   140.1213     8.1532     8.1523
   63.0000   138.7975     8.1769     8.0502
   63.5000   139.2659     8.2142     7.9404
   64.0000   140.3299     8.2417     7.9423
   64.5000   141.8181     8.1650     7.9520
   65.0000   142.7323     8.2021     7.9717
   65.5000   141.1743     8.2299     7.9836
   66.0000   139.2489     8.2423     8.0054
   66.5000   137.3886     8.4307     8.0111
   67.0000   135.6317     8.6180     8.0186
   67.5000   135.7441     8.7997     8.0101
   68.0000   136.4053     8.9964     8.0194
   68.5000   136.6629     9.2008     8.2778
   69.0000   135.3805     9.2469     8.5189
   69.5000   131.8618     9.3265     8.7894
   70.0000   129.5736     9.4067     8.8669
   70.5000   129.7947     9.4877     8.9533
   71.0000   131.1698     9.5514     8.9533
   71.5000   135.0526     9.5514     8.9533
   72.0000   139.2813     9.4423     8.9533
   72.5000   140.2811     9.3517     8.9533
   73.0000   140.9221     9.2620     8.8650
   73.5000   141.0210     9.1731     8.7881
   74.0000   138.9680     9.0851     8.7120
   74.5000   137.2513     9.0364     8.6364
   75.0000   136.5168     9.0558     8.5616
   75.5000   138.0512     9.0872     8.4705
   76.0000   140.4650     9.1202     8.4758
   76.5000   140.9872     9.1202     8.4905
   77.0000   141.8829     9.1202     8.5052
   77.5000   142.7871     9.1202     8.5199
   78.0000   141.8132     9.2916     8.5347
   78.5000   140.3482     9.4538     8.5491
   79.0000   139.6186     9.6188     8.6606
   79.5000   139.5556     9.7866     8.8458
   80.0000   139.5959    10.0029     9.0351
   80.5000   139.1536    10.0397     9.2049
   81.0000   137.7249    10.1532     9.3365
   81.5000   136.8297    10.2840     9.5514
   82.0000   138.3672    10.4090     9.6660
   82.5000   139.9810    10.6023     9.8007
   83.0000   139.6223    10.7992     9.9109
   83.5000   137.9876    10.9998    10.1349
   84.0000   133.7769    11.1756    10.3795
   84.5000   129.3138    11.4250    10.5393
   85.0000   128.1046    11.6971    10.7628
   85.5000   127.2780    11.9778    10.9912
   86.0000   125.9512    12.2636    11.2353
   86.5000   124.8217    12.5579    11.4908
   87.0000   123.5577    12.8575    11.7039
   87.5000   123.7946    13.1660    12.2347
   88.0000   125.8176    13.4392    12.8367
   88.5000   126.8503    13.4399    12.8782
   89.0000   124.8871    13.4399    12.9363
   89.5000   122.8397    13.4401    13.0760
   90.0000   122.8103    13.4408    12.9958
   90.5000   122.8950    13.4404    12.9198
