~VERSION INFORMATION
 VERS.                2.0:   CWLS LOG ASCII STANDARD - VERSION 2.0
 WRAP.                 NO:   ONE LINE PER DEPTH STEP
~WELL INFORMATION
#MNEM.UNIT      DATA TYPE    INFORMATION
#----------   ------------   ------------------------------
 STRT.F            0.0000:   START DEPTH
 STOP.F         1283.5000:   STOP DEPTH
 STEP.F            0.5000:   STEP LENGTH
 NULL.          -999.2500:   NO VALUE
 COMP.      U.S. NAVY NPR:   COMPANY
 WELL. NAVAL PETROLEUM RESERVE 3 ST-11 #88-11:   WELL
 FLD .             TEAPOT:   FIELD
 LOC .      S11 T38N R78W:   LOCATION
 CNTY.            NATRONA:   COUNTY
 STAT.            WYOMING:   STATE
 CTRY. UNITED STATES OF AMERICA:   COUNTRY
 SRVC.       Schlumberger:   SERVICE COMPANY
 DATE.        01-NOV-1958:   LOGDATE
 API .       490250632600:   API NUMBER
~CURVE INFORMATION
#MNEM.UNIT       API CODE    CURVE DESCRIPTION
#----------   ------------   ------------------------------
 DEPT.F                  :   
 GRN .GAPI   35 310 01 00:   GAMMA RAY
 NEUT.NAPI   35 330 01 00:   NEUTRON
 ASN .OHMM   01 041 16 00:   AMPLIFIED SHORT NORMAL
 LAT .OHMM   01 070 18 00:   LATERAL 18"
 LN  .OHMM   01 060 64 00:   LONG NORMAL 64"
 SPR .MV     01 010 01 00:   SPONTANEOUS POTENTIAL
 CALM.IN     15 280 01 00:   CALIPER FROM MICRO LOG
~PARAMETER INFORMATION
#MNEM.UNIT          VALUE    DESCRIPTION
#----------   ------------   ------------------------------
 LMF .                 KB:   LOG MEASURED FROM
 DMF .                 KB:   DRILLING MEASURED FROM
 EKB .F              5289:   KELLING BUSHING
 EGL .F              5279:   GROUND LEVEL
 DATE.        01-NOV-1958:   RUN DATE
 RUN .                  1:   RUN NUMBER
 DD  .F              1280:   DEPTH DRILLER
 DL  .F              1283:   DEPTH LOGGER
 BLI .F              1282:   BOTTOM LOG INTERVAL
 TLI .F               150:   TOP LOG INTERVAL
 CBD .F                45:   CASING BOTTOM DRILLER
 BS  .IN            7.875:   BIT SIZE
 BSD .F              1280:   BIT SIZE AT DEPTH
 DFT .                GEL:   DRILLING FLUID TYPE
 DFD .                9.1:   DRILLING FLUID DENSITY
 DFV .                 63:   DRILLING FLUID VISCOSITY
 DFL .                2.1:   DRILLING FLUID LOSS
 RMS .OHMM            2.4:   RESISTIVITY MUD SAMPLE
 MST .F                56:   MUD SAMPLE TEMPERATURE
 RMF .OHMM           1.45:   RESISTIVITY MUD FILTRATE SAMPLE
 MFST.F                79:   MUD FILTRATE SAMPLE TEMPERATURE
 RMC .OHMM            1.7:   RESISTIVITY MUD CAKE
 MCST.F                79:   MUD CAKE SAMPLE TEMPERATURE
 MFSS.               MEAS:   MUD FILTRATE SAMPLE SOURCE
 MCSS.               MEAS:   MUD CAKE SAMPLE SOURCE
 RMB .OHMM            1.6:   RESISTIVITY MUD AT BHT
 BHT .F                79:   BOTTOM HOLE TEMPERATURE
 TCS .HRS               1:   TIME CURCULATED STOPPED
 MRT .F                79:   MAXIMUM RECORDED TEMPERATURE
 LUN .               2544:   LOGGING UNIT NUMBER
 LUL .                 NC:   LOGGING UNIT LOCATION
 ENGI.            EARNEST:   RECORDING ENGINEER
 WITN.             MARTIN:   WITNESSED BY
 CLNT.            A2DTECH:   CLIENT CODE
 ORIG.         2.5" PRINT:   ORIGIN OF DATA
 UWI .       490250632600:   UNIQUE WELL ID
 DICO. A2D Technologies, Inc.:   DIGITIZING COMPANY
~OTHER INFORMATION
~A    DEPT       GRN     NEUT        ASN        LAT         LN        SPR       CALM   
# ...
  773.5000     5.2275   289.8712    10.5729    11.3155     8.9504   -17.6535     8.0660
  774.0000     5.4267   280.4403    10.2348    11.4130     8.6184   -16.9313     8.0936
  774.5000     5.6058   275.6310     9.6869    11.2267     8.2629   -15.8707     8.1066
  775.0000     5.7449   291.2647     9.0353    11.0054     7.8512   -14.7711     8.0786
  775.5000     5.7641   282.5205     8.3536    10.8068     7.4395   -13.9451     8.0676
  776.0000     5.5832   269.1246     7.5543    10.4601     7.1637   -13.1191     8.0408
  776.5000     5.6223   263.8841     7.2572    10.1902     6.9740   -12.8402     8.0141
  777.0000     5.4146   274.6760     6.9588     9.9185     6.8401   -12.8349     8.0417
  777.5000     5.3295   266.4185     6.7963     9.7826     6.8421   -13.1031     8.0693
  778.0000     4.9892   263.3937     7.1229     9.6467     6.7079   -13.0977     8.0969
  778.5000     4.8587   258.1299     7.2865     9.5109     6.4382   -12.8188     8.1517
  779.0000     5.1201   255.8514     7.3413     9.5109     6.4402   -12.8134     8.1793
  779.5000     5.7866   255.0656     7.3147     9.3750     6.3061   -12.8079     8.2068
  780.0000     6.1813   245.9192     7.1250     9.3750     6.3082   -12.5289     8.2073
  780.5000     6.2110   262.3655     6.9625     9.2391     6.1742   -12.5234     8.2077
  781.0000     6.0741   268.3815     6.6897     9.2391     6.0376   -12.2444     8.2081
  781.5000     5.9882   251.2664     6.5525     9.2391     5.9064   -11.9653     8.2085
  782.0000     6.0036   246.0637     6.4721     9.2391     5.7724   -11.8724     8.2160
  782.5000     5.4314   255.8291     6.4212     9.2516     5.6384   -11.6809     8.2365
  783.0000     5.3906   274.5990     6.3621     9.5109     5.6144   -11.6754     8.2369
  783.5000     5.3292   281.5987     6.3135     9.6714     5.5065   -11.6699     8.2373
  784.0000     5.2669   297.9788     6.3565     9.9493     5.4707   -11.6644     8.2377
  784.5000     5.2479   308.3881     6.4322    10.2271     5.3745   -11.6590     8.2381
  785.0000     5.2763   317.3048     6.5254    10.3691     5.3769   -11.6524     8.2385
  785.5000     5.3462   285.1727     6.6370    10.6470     5.3232   -11.9206     8.2118
  786.0000     5.1753   269.3893     6.6819    10.7889     5.2450   -11.9153     8.2122
  786.5000     5.1198   288.3110     6.7245    10.8082     5.2471   -12.1835     8.2126
  787.0000     5.3542   307.6341     6.6978    10.6662     5.2491   -12.1782     8.2130
  787.5000     5.5842   305.6288     6.6553    10.3884     5.2511   -12.4468     8.2134
  788.0000     5.7014   292.8100     6.5903    10.1902     5.2535   -12.7149     8.2138
  788.5000     5.8006   293.2070     6.5093     9.9185     5.2555   -12.9828     8.2142
  789.0000     5.8397   302.1063     6.4283     9.6467     5.2573   -13.2511     8.2146
  789.5000     5.9188   304.2423     6.3745     9.3750     5.2593   -13.5192     8.1878
  790.0000     5.7180   302.7102     6.3207     9.2391     5.2613   -13.2219     8.1873
  790.5000     5.7375   294.4610     6.3212     9.1033     5.2635   -12.9301     8.1614
  791.0000     5.9377   284.7191     6.3489     8.8315     5.2654   -12.6821     8.1346
  791.5000     5.8638   270.4992     6.3766     8.5598     5.2675   -12.6766     8.1302
  792.0000     5.8800   267.4738     6.4315     8.2880     5.2695   -12.6018     8.0749
  792.5000     6.1162   267.2712     6.4869     7.8804     5.2715   -12.3921     8.0468
  793.0000     6.1928   261.4590     6.5413     7.4728     5.2736   -12.2918     8.0275
  793.5000     5.8378   253.1058     6.5990     7.3259     5.2756   -12.1076     8.0279
  794.0000     5.8007   250.8971     6.6591     7.0652     5.2776   -12.1021     8.0283
  794.5000     5.8524   262.1742     6.7655     6.9293     5.2797   -12.3702     8.0559
  795.0000     5.9490   266.4812     6.8152     6.9293     5.2817   -12.2189     8.0563
  795.5000     5.7280   261.9542     6.8158     6.7935     5.2838   -12.0857     8.0568
  796.0000     5.5871   270.1245     6.8522     6.7935     5.4218   -11.8057     8.0300
  796.5000     5.4062   276.0558     6.9823     6.8412     5.4732   -11.8003     8.0576
  797.0000     5.4002   281.9871     7.1112     6.9293     5.5618   -11.7950     8.0580
  797.5000     5.3845   284.9905     7.2106     6.9293     5.6998   -11.7896     8.0584
  798.0000     5.6847   281.1469     7.2938     6.9955     5.8378   -12.0579     8.0588
  798.5000     5.4605   275.6989     7.3499     7.0652     5.8398   -12.3261     8.0592
  799.0000     5.2619   271.9967     7.4174     7.0652     5.9207   -12.8678     8.0596
  799.5000     5.4020   270.5898     7.4452     7.0652     5.9802   -13.4096     8.0600
  800.0000     5.7133   266.5692     7.4729     7.2011     5.9822   -13.4043     8.0876
  800.5000     5.8393   259.4395     7.5006     7.2011     5.8480   -13.3988     8.0893
  801.0000     5.7866   256.2913     7.5283     7.0652     5.8502   -13.3678     8.1156
  801.5000     5.8990   255.1840     7.5017     6.9293     5.9882   -12.8407     8.1432
  802.0000     5.4962   253.2120     7.4207     6.7935     6.1261   -12.5617     8.1436
  802.5000     5.5354   243.4702     7.3669     6.6576     6.1281   -12.5562     8.1609
  803.0000     5.6595   247.8843     7.2587     6.5217     6.2661   -12.2772     8.1716
  803.5000     5.5336   253.0654     7.1506     6.5217     6.2681   -12.2717     8.1720
  804.0000     5.4768   244.8123     7.0420     6.5217     6.1341   -12.2663     8.1996
  804.5000     5.6639   233.5739     6.9855     6.5120     6.1284   -12.2608     8.1882
  805.0000     5.5810   245.5836     6.8777     6.3859     6.0022   -12.2553     8.1733
  805.5000     5.6500   249.1605     6.8188     6.5217     5.8682   -12.1167     8.1737
  806.0000     5.6892   229.7090     6.7728     6.5217     5.7343   -12.5179     8.1741
  806.5000     5.5883   237.6207     6.7734     6.5217     5.7365   -12.7860     8.1473
  807.0000     5.3874   257.3750     6.7739     6.5217     5.6023   -12.7796     8.1478
  807.5000     5.3890   271.8056     6.8016     6.5217     5.5616   -12.5007     8.1482
  808.0000     5.5096   266.8369     6.8022     6.5217     5.4703   -12.2218     8.1486
  808.5000     5.4137   281.6913     6.8137     6.6576     5.4727   -12.2165     8.1490
  809.0000     5.4040   292.3222     6.8426     6.6576     5.4748   -12.4851     8.1494
  809.5000     5.4514   282.3778     6.9258     6.6576     5.6128   -12.7532     8.1498
  810.0000     5.3520   275.6174     7.0091     6.6576     5.6148   -13.0213     8.1230
  810.5000     5.2466   277.8131     7.0651     6.5217     5.6168   -13.0158     8.1506
  811.0000     5.0000   272.5454     7.0773     6.6576     5.7552   -13.0103     8.1510
  811.5000     4.8792   271.7558     7.0778     6.6576     5.7572   -13.0049     8.1514
  812.0000     4.9783   288.1320     7.0783     6.6576     5.8952   -12.9994     8.1518
  812.5000     5.2974   297.9146     7.0516     6.6576     5.8972   -12.9939     8.1522
  813.0000     5.3966   299.2405     6.9979     6.6576     5.8991   -12.9885     8.1526
  813.5000     5.4962   286.3205     6.9984     6.6576     5.9011   -12.9830     8.1530
  814.0000     5.4108   281.9881     7.0147     6.6576     5.9031   -12.7040     8.1534
  814.5000     5.1940   288.3790     7.1094     6.6576     5.9051   -12.6985     8.1538
  815.0000     5.2880   294.5188     7.2369     6.6576     5.9071   -12.6930     8.1814
  815.5000     5.5376   306.1890     7.3480     6.6576     5.7732   -12.6875     8.1818
  816.0000     5.7314   313.2099     7.4315     6.6576     5.7752   -12.6821     8.1822
  816.5000     5.1578   319.0670     7.4591     6.6744     5.7773   -12.6766     8.1827
  817.0000     5.3824   314.5457     7.3421     6.7041     5.7793   -12.3976     8.2103
  817.5000     5.5083   300.3218     7.0252     6.7339     5.7813   -12.3911     8.2107
  818.0000     5.4475   294.1580     6.7539     6.7636     5.6472   -12.3858     8.1839
  818.5000     5.3066   327.1035     6.5641     6.7837     5.6127   -12.6540     8.2115
