~VERSION INFORMATION
 VERS.                2.0:   CWLS LOG ASCII STANDARD - VERSION 2.0
 WRAP.                 NO:   ONE LINE PER DEPTH STEP
~WELL INFORMATION
#MNEM.UNIT      DATA TYPE    INFORMATION
#----------   ------------   ------------------------------
 STRT.F           88.0000:   START DEPTH
 STOP.F          893.0000:   STOP DEPTH
 STEP.F            0.5000:   STEP LENGTH
 NULL.          -999.2500:   NO VALUE
 COMP.          U.S. NAVY:   COMPANY
 WELL. RES 3 TEAPOT DOM #24S-35:   WELL
 FLD .        TEAPOT DOME:   FIELD
 LOC .      S35 T39N R78W:   LOCATION
 CNTY.            NATRONA:   COUNTY
 STAT.            WYOMING:   STATE
 CTRY. UNITED STATES OF AMERICA:   COUNTRY
 SRVC.       Schlumberger:   SERVICE COMPANY
 DATE.        26-JUL-1963:   LOGDATE
 API .       490250654800:   API NUMBER
~CURVE INFORMATION
#MNEM.UNIT       API CODE    CURVE DESCRIPTION
#----------   ------------   ------------------------------
 DEPT.F                  :   
 CALS.IN     60 280 50 00:   CALIPER FROM SONIC LOG
 DT  .US/F   60 520 00 00:   INTERVAL TRANSIT TIME
 GR  .GAPI   30 310 01 00:   GAMMA RAY
 ASN .OHMM   05 041 16 00:   AMPLIFIED SHORT NORMAL 16"
 CILD.MMHO   05 110 46 00:   CONDUCTIVITY INDUCTION LOG DEEP
 ILD .OHMM   05 120 46 00:   INDUCTION LOG DEEP
 SPR .MV     05 010 01 00:   SPONTANEOUS POTENTIAL FROM RES.
~PARAMETER INFORMATION
#MNEM.UNIT          VALUE    DESCRIPTION
#----------   ------------   ------------------------------
 PD  .                 GL:   PERMANENT DATUM
 EPD .F              5116:   ELEVATION PERMANENT DATUM
 LMF .                 KB:   LOG MEASURED FROM
 DAPD.F                 5:   FEET ABOVE PERMANENT DATUM
 DMF .                 KB:   DRILLING MEASURED FROM
 EKB .F              5121:   KELLING BUSHING
 EGL .F              5116:   GROUND LEVEL
 DATE.        26-JUL-1963:   RUN DATE
 RUN .                  1:   RUN NUMBER
 DD  .F               900:   DEPTH DRILLER
 DL  .F               894:   DEPTH LOGGER
 BLI .F               893:   BOTTOM LOG INTERVAL
 TLI .F                88:   TOP LOG INTERVAL
 CBD .F                10:   CASING BOTTOM DRILLER
 BS  .IN             6.75:   BIT SIZE
 BSD .F               900:   BIT SIZE AT DEPTH
 DFT .            GEL-OIL:   DRILLING FLUID TYPE
 DFD .                9.5:   DRILLING FLUID DENSITY
 DFV .                 92:   DRILLING FLUID VISCOSITY
 DFPH.                9.5:   DRILLING FLUID PH
 DFL .                5.8:   DRILLING FLUID LOSS
 MSS .           FLOWLINE:   MUD SAMPLE SOURCE
 RMS .OHMM           4.05:   RESISTIVITY MUD SAMPLE
 MST .F                75:   MUD SAMPLE TEMPERATURE
 RMF .OHMM           3.91:   RESISTIVITY MUD FILTRATE SAMPLE
 MFST.F                75:   MUD FILTRATE SAMPLE TEMPERATURE
 RMC .OHMM           3.54:   RESISTIVITY MUD CAKE
 MCST.F                75:   MUD CAKE SAMPLE TEMPERATURE
 MFSS.               MEAS:   MUD FILTRATE SAMPLE SOURCE
 MCSS.               MEAS:   MUD CAKE SAMPLE SOURCE
 TCS .HRS             0.5:   TIME CURCULATED STOPPED
 LUN .               4507:   LOGGING UNIT NUMBER
 LUL .               CSPR:   LOGGING UNIT LOCATION
 ENGI.             KNOBEL:   RECORDING ENGINEER
 WITN.          JORGENSON:   WITNESSED BY
 CLNT.            A2DTECH:   CLIENT CODE
 ORIG.           5" PRINT:   ORIGIN OF DATA
 UWI .       490250654800:   UNIQUE WELL ID
 DICO. A2D Technologies, Inc.:   DIGITIZING COMPANY
~OTHER INFORMATION
~A   DEPT     CALS         DT         GR          ASN      CILD         ILD      SPR   
# ...
  452.0000     6.2157   113.5377  -999.2500     4.0538   431.7763     2.0273   -15.7569
  452.5000     6.1708   121.4600  -999.2500     3.7965   453.0349     2.1000   -15.6230
  453.0000     6.1108   124.7791  -999.2500     3.5241   447.7415     2.2482   -15.4932
  453.5000     6.0358   127.7198  -999.2500     3.4482   419.6828     2.5468   -15.5145
  454.0000  -999.2500   136.3219  -999.2500     3.4330   381.7608     2.9209   -15.5314
  454.5000     6.0372    96.4700  -999.2500     3.4933   347.9982     3.6734   -15.5484
  455.0000     6.0988    67.1093  -999.2500     3.7413   302.8853     4.2748   -16.1790
  455.5000     6.0539    50.1260  -999.2500     4.1284   256.6172     4.8066   -16.9440
  456.0000     6.0395    49.9728  -999.2500     5.0663   190.6223     5.4014   -17.5642
  456.5000     6.0250    49.8951  -999.2500     6.7454   143.5991     6.4559   -18.3353
  457.0000  -999.2500    50.7684  -999.2500     8.0160   122.3690     8.0392   -19.2615
  457.5000  -999.2500    90.0411  -999.2500     8.7269   104.9325     9.3952   -19.7309
  458.0000  -999.2500   131.3219  -999.2500     9.4227    98.0881    10.2232   -20.2003
  458.5000  -999.2500   173.4334  -999.2500     9.6349    97.3737     9.9938   -20.2173
  459.0000  -999.2500   150.0200  -999.2500     9.6645   103.4613     9.2236   -20.0876
  459.5000  -999.2500   149.6852  -999.2500     9.6340   114.0976     8.0992   -19.6521
  460.0000     6.0305    97.6528  -999.2500     9.5734   132.2708     7.3411   -19.2165
  460.5000     6.0616    96.8959  -999.2500     9.4652   164.2054     6.3564   -18.6194
  461.0000     6.1231    97.2025  -999.2500     9.2705   180.9116     5.8997   -17.8930
  461.5000     6.1999    98.4330  -999.2500     8.3021   188.5131     5.5192   -17.3066
  462.0000     6.2766   104.9641  -999.2500     7.0917   194.6006     5.3654   -17.0256
  462.5000     6.3837   111.1506  -999.2500     6.0779   196.8910     5.2870   -16.4440
  463.0000     6.4909   110.7710  -999.2500     6.2139   197.6639     5.4345   -16.4609
  463.5000     6.5372   110.0895  -999.2500     6.2138   197.6783     5.8094   -16.6287
  464.0000     6.5395   110.2388  -999.2500     6.2614   196.1785     6.1086   -17.2489
  464.5000     6.5541   108.7266  -999.2500     6.7883   190.1228     6.5347   -17.8734
  465.0000     6.5548   104.1961  -999.2500     8.2254   174.9625     7.0842   -18.3429
  465.5000     6.5556    98.6844  -999.2500     8.7396   141.7155     7.6856   -18.6615
  466.0000     6.5411    98.5233  -999.2500     9.0874   120.3663     8.1359   -18.8416
  466.5000     6.5115    99.1328  -999.2500     9.2991   114.3107     8.5856   -19.0251
  467.0000     6.4970    99.5874  -999.2500     9.5107   111.2900     8.8100   -19.3198
  467.5000     6.4978    99.8176  -999.2500     9.6319   110.5455     9.0338   -19.3368
  468.0000     6.4985   100.1067  -999.2500     9.7373   109.8009     9.1813   -19.6596
  468.5000     6.5145   100.2560  -999.2500     9.9339   108.2977     9.3051   -19.9782
  469.0000     6.5456    99.9513  -999.2500    10.0021   106.7980     9.4771   -20.2968
  469.5000     6.5616    99.6472  -999.2500    10.0779   105.2947     9.6253   -20.4646
  470.0000     6.5623    99.3431  -999.2500    10.1537   105.3125     9.6973   -20.7874
  470.5000     6.5783    99.0390  -999.2500    10.2056   105.3267     9.7707   -20.9552
  471.0000     6.5790    98.9613  -999.2500    10.2811   105.3445     9.9190   -21.1230
  471.5000     6.5949    99.0351  -999.2500    10.3566   105.3587     9.9154   -21.2911
  472.0000     6.5046    99.4097  -999.2500    10.5077   104.6131     9.9881   -21.3119
  472.5000     6.4293    99.9358  -999.2500    10.5832   103.8695    10.0608   -21.3289
  473.0000     6.3379   100.4629  -999.2500    10.6587   103.0349    10.2084   -21.4966
  473.5000     6.2292   100.7616  -999.2500    10.6585   102.3806    10.2048   -21.9703
  474.0000     6.0822    99.9029  -999.2500    10.7340   101.6361    10.2946   -22.2889
  474.5000  -999.2500    99.0207  -999.2500    10.8096   100.8953    10.4048   -22.6075
  475.0000     6.1141    97.8864  -999.2500    10.9922   100.7840    10.4985   -23.0769
  475.5000     6.2820    96.9785  -999.2500    11.1118    99.4096    10.6460   -23.5506
  476.0000     6.3282    95.9197  -999.2500    11.2629    99.4238    10.6432   -23.5675
  476.5000     6.2227    95.0118  -999.2500    11.3384    98.6798    10.6404   -23.2828
  477.0000     6.2539    94.8587  -999.2500    11.4495    97.9363    10.6375   -22.9981
  477.5000     6.3458    95.1583  -999.2500    11.5651    97.9514    10.6340   -22.7134
  478.0000     6.4225    95.6844  -999.2500    11.6406    97.9667    10.6312   -23.0362
  478.5000     6.3929    96.5879  -999.2500    11.7161    97.9818    10.6284   -23.8073
  479.0000     6.3936    97.7932  -999.2500    11.8672    97.2399    10.7009   -24.2810
  479.5000     6.3640    98.4702  -999.2500    12.0183    96.4947    10.7731   -24.4487
  480.0000     6.3647    98.2315  -999.2500    12.0938    96.1052    10.7703   -24.4657
  480.5000     6.3959    97.7105  -999.2500    12.1693    95.0064    10.8430   -24.3318
  481.0000     6.4291    96.8781  -999.2500    12.3204    94.2654    10.9157   -24.0471
  481.5000     6.5039    95.7438  -999.2500    12.3203    93.5205    10.9884   -24.0683
  482.0000     6.5807    94.9114  -999.2500    12.3958    92.7764    10.9848   -24.0852
  482.5000     6.5814    94.1545  -999.2500    12.4713    92.0318    10.9813   -24.1026
  483.0000     6.5212    93.8503  -999.2500    12.6224    90.5321    11.0547   -24.4250
  483.5000     6.5221    93.7727  -999.2500    12.7735    90.5463    11.0512   -24.5927
  484.0000     6.5381    93.6195  -999.2500    13.0003    89.0431    11.1269   -24.9113
  484.5000     6.5540    94.3720  -999.2500    13.1514    88.2986    11.3470   -25.2342
  485.0000     6.5700    94.8226  -999.2500    13.3025    87.5541    11.3441   -25.4020
  485.5000     6.5859    94.3656  -999.2500    13.3781    86.0544    11.4924   -25.8714
  486.0000     6.5867    94.2143  -999.2500    13.5292    84.5524    11.7154   -26.0412
  486.5000     6.5874    94.1990  -999.2500    13.6803    83.0479    12.0902   -26.3620
  487.0000     6.6034    93.9075  -999.2500    13.8314    80.0307    12.9182   -26.0730
  487.5000     6.6041    93.2260  -999.2500    14.1339    75.4961    12.9909   -25.4909
  488.0000     6.6049    90.5068  -999.2500    14.2850    74.7481    12.3832   -24.8889
  488.5000     6.6208    89.2971  -999.2500    13.0746    78.5594    11.6251   -23.5682
  489.0000     6.6217    88.6916  -999.2500    11.8641    87.6784    11.0180   -22.5294
  489.5000     6.6071    91.4813  -999.2500    10.8050    96.0421    10.2417   -21.3397
  490.0000     6.5926    92.6112  -999.2500    10.2390   103.6435     9.1990   -20.3050
  490.5000     6.5936    96.4580  -999.2500     9.8062   112.0037     8.7430   -19.7187
  491.0000     6.6399   100.2294  -999.2500     9.1404   121.3659     8.4380   -19.2789
  491.5000     6.7167   103.5479  -999.2500     8.5351   136.3149     7.9813   -18.9984
  492.0000     6.7782   107.3001  -999.2500     8.1718   142.3989     7.7519   -18.7137
  492.5000     6.7941   109.2038  -999.2500     8.0658   143.9306     7.5225   -18.7349
  493.0000     6.7795   108.5973  -999.2500     7.9295   145.4658     7.3686   -18.7518
  493.5000     6.7804   107.6894  -999.2500     7.5793   144.7212     7.3651   -18.7692
  494.0000     6.7660   106.7815  -999.2500     7.5207   144.7354     7.3623   -18.7899
  494.5000     6.7444   106.1001  -999.2500     7.4298   143.2322     7.5106   -18.5052
  495.0000     6.7219   105.5695  -999.2500     7.3237   140.9702     7.8846   -18.5222
  495.5000     6.7226   105.1900  -999.2500     7.9741   138.7118     8.2595   -18.3883
  496.0000     6.7082   105.2638  -999.2500     8.1707   136.4498     8.5594   -18.2544
  496.5000     6.7091   105.0346  -999.2500     7.9889   134.9466     8.5529   -17.8231
  497.0000     6.7099   104.6550  -999.2500     7.8829   133.4433     8.3258   -17.5383
