~VERSION INFORMATION
 VERS.                2.0:   CWLS LOG ASCII STANDARD - VERSION 2.0
 WRAP.                 NO:   ONE LINE PER DEPTH STEP
~WELL INFORMATION
#MNEM.UNIT      DATA TYPE    INFORMATION
#----------   ------------   ------------------------------
 STRT.F            0.0000:   START DEPTH
 STOP.F         1283.5000:   STOP DEPTH
 STEP.F            0.5000:   STEP LENGTH
 NULL.          -999.2500:   NO VALUE
 COMP.      U.S. NAVY NPR:   COMPANY
 WELL. NAVAL PETROLEUM RESERVE 3 ST-11 #88-11:   WELL
 FLD .             TEAPOT:   FIELD
 LOC .      S11 T38N R78W:   LOCATION
 CNTY.            NATRONA:   COUNTY
 STAT.            WYOMING:   STATE
 CTRY. UNITED STATES OF AMERICA:   COUNTRY
 SRVC.       Schlumberger:   SERVICE COMPANY
 DATE.        01-NOV-1958:   LOGDATE
 API .       490250632600:   API NUMBER
~CURVE INFORMATION
#MNEM.UNIT       API CODE    CURVE DESCRIPTION
#----------   ------------   ------------------------------
 DEPT.F                  :   
 GRN .GAPI   35 310 01 00:   GAMMA RAY
 NEUT.NAPI   35 330 01 00:   NEUTRON
 ASN .OHMM   01 041 16 00:   AMPLIFIED SHORT NORMAL
 LAT .OHMM   01 070 18 00:   LATERAL 18"
 LN  .OHMM   01 060 64 00:   LONG NORMAL 64"
 SPR .MV     01 010 01 00:   SPONTANEOUS POTENTIAL
 CALM.IN     15 280 01 00:   CALIPER FROM MICRO LOG
~PARAMETER INFORMATION
#MNEM.UNIT          VALUE    DESCRIPTION
#----------   ------------   ------------------------------
 LMF .                 KB:   LOG MEASURED FROM
 DMF .                 KB:   DRILLING MEASURED FROM
 EKB .F              5289:   KELLING BUSHING
 EGL .F              5279:   GROUND LEVEL
 DATE.        01-NOV-1958:   RUN DATE
 RUN .                  1:   RUN NUMBER
 DD  .F              1280:   DEPTH DRILLER
 DL  .F              1283:   DEPTH LOGGER
 BLI .F              1282:   BOTTOM LOG INTERVAL
 TLI .F               150:   TOP LOG INTERVAL
 CBD .F                45:   CASING BOTTOM DRILLER
 BS  .IN            7.875:   BIT SIZE
 BSD .F              1280:   BIT SIZE AT DEPTH
 DFT .                GEL:   DRILLING FLUID TYPE
 DFD .                9.1:   DRILLING FLUID DENSITY
 DFV .                 63:   DRILLING FLUID VISCOSITY
 DFL .                2.1:   DRILLING FLUID LOSS
 RMS .OHMM            2.4:   RESISTIVITY MUD SAMPLE
 MST .F                56:   MUD SAMPLE TEMPERATURE
 RMF .OHMM           1.45:   RESISTIVITY MUD FILTRATE SAMPLE
 MFST.F                79:   MUD FILTRATE SAMPLE TEMPERATURE
 RMC .OHMM            1.7:   RESISTIVITY MUD CAKE
 MCST.F                79:   MUD CAKE SAMPLE TEMPERATURE
 MFSS.               MEAS:   MUD FILTRATE SAMPLE SOURCE
 MCSS.               MEAS:   MUD CAKE SAMPLE SOURCE
 RMB .OHMM            1.6:   RESISTIVITY MUD AT BHT
 BHT .F                79:   BOTTOM HOLE TEMPERATURE
 TCS .HRS               1:   TIME CURCULATED STOPPED
 MRT .F                79:   MAXIMUM RECORDED TEMPERATURE
 LUN .               2544:   LOGGING UNIT NUMBER
 LUL .                 NC:   LOGGING UNIT LOCATION
 ENGI.            EARNEST:   RECORDING ENGINEER
 WITN.             MARTIN:   WITNESSED BY
 CLNT.            A2DTECH:   CLIENT CODE
 ORIG.         2.5" PRINT:   ORIGIN OF DATA
 UWI .       490250632600:   UNIQUE WELL ID
 DICO. A2D Technologies, Inc.:   DIGITIZING COMPANY
~OTHER INFORMATION
~A    DEPT       GRN     NEUT        ASN        LAT         LN        SPR       CALM   
# ...
  500.5000     4.9389   389.9045     7.8254     7.4762     6.7156   -12.5740     8.1973
  501.0000     5.0379   380.1516     7.7174     7.3437     6.8057   -12.4651     8.1981
  501.5000     5.2369   376.3694     7.6359     7.2111     6.8098   -12.2813     8.1989
  502.0000     4.8960   377.2408     7.5815     7.0786     6.8773   -12.2717     8.1997
  502.5000     4.8350   381.0757     7.5238     6.9461     6.8180   -12.1505     8.2005
  503.0000     4.8980   383.9852     7.4375     6.9497     6.6861   -11.9790     8.2285
  503.5000     5.2893   387.4569     7.3322     6.8169     6.5542   -11.6959     8.2565
  504.0000     5.4951   391.1195     7.2228     6.8207     6.5591   -11.5623     8.2573
  504.5000     5.2545   388.0946     7.1135     6.8240     6.6991   -11.4032     8.2581
  505.0000     5.3139   371.6354     7.0380     6.8274     6.7031   -11.6672     8.2589
  505.5000     5.2733   367.8642     6.9490     6.8308     6.5711   -11.6576     8.2597
  506.0000     5.3928   362.4235     6.9102     6.8342     6.4387   -11.9216     8.2527
  506.5000     5.5522   377.4874     6.9110     6.8877     6.1713   -11.9120     8.2340
  507.0000     5.6336   382.2640     6.9484     6.9769     6.0390   -12.1760     8.2622
  507.5000     5.7510   374.4162     7.0211     6.9803     5.9071   -12.3192     8.2630
  508.0000     5.4824   376.6157     7.0489     6.9837     5.9114   -12.4304     8.2638
  508.5000     5.2388   384.7858     7.0380     6.9871     5.9155   -12.4208     8.2646
  509.0000     5.1622   386.2389     6.9986     6.9905     5.7834   -12.4094     8.2656
  509.5000     5.0631   394.6317     6.9164     6.9939     5.7875   -12.4141     8.2664
  510.0000     4.9680   399.7903     6.7663     6.9973     5.7915   -12.4465     8.2399
  510.5000     4.8729   394.0173     6.5048     7.0014     5.6596   -12.4398     8.2408
  511.0000     5.0068   391.6278     6.3016     6.8682     5.6637   -12.1596     8.2416
  511.5000     4.9861   372.8586     6.1372     6.8722     5.6678   -11.8792     8.2424
  512.0000     4.7455   362.9657     5.9947     6.8755     5.6719   -11.5988     8.2432
  512.5000     4.4850   360.2032     5.8595     6.8789     5.6760   -11.5919     8.2440
  513.0000     4.2444   359.3609     5.7515     6.8822     5.6801   -11.5851     8.2448
  513.5000     4.2038   358.2481     5.6706     6.8856     5.6841   -11.5783     8.1623
  514.0000     4.5092   360.4475     5.6440     6.8889     5.6520   -11.5714     8.1104
  514.5000     4.7176   365.6323     5.5904     7.0282     5.5557   -11.5646     8.0840
  515.0000     5.0720   380.5196     5.5911     7.1674     5.4238   -11.5578     8.0778
  515.5000     5.1874   406.6019     5.6461     7.1707     5.4285   -11.5509     8.0228
  516.0000     5.3088   399.7949     5.7283     7.3099     5.3658   -11.5429     8.1155
  516.5000     5.2727   393.7040     5.9534     7.3133     5.2729   -11.8098     8.1327
  517.0000     5.0176   389.9409     6.0557     7.5884     5.1799   -11.8032     8.1333
  517.5000     5.0190   386.5115     6.1039     7.7276     5.0870   -11.7965     8.1066
  518.0000     4.9583   383.2613     6.1504     7.8668     4.9940   -12.0635     8.0800
  518.5000     4.7377   385.5639     6.2070     7.8702     4.9011   -12.3304     8.0806
  519.0000     4.8172   389.8265     6.2908     7.5915     4.8081   -12.6028     8.0812
  519.5000     4.9366   390.5218     6.3581     7.1834     4.7280   -13.1378     8.0817
  520.0000     5.0759   376.3721     6.4132     7.0471     4.7311   -13.1672     8.0822
  520.5000     5.1353   365.8837     6.4953     6.7749     4.7338   -13.1239     8.0828
  521.0000     5.1548   360.6197     6.4688     6.6448     4.7366   -12.7733     8.1105
  521.5000     4.9142   359.0875     6.4423     6.3673     4.8752   -12.2024     8.1382
  522.0000     4.5736   373.9747     6.3886     6.2337     4.8779   -12.0091     8.1388
  522.5000     4.6963   376.9458     6.2534     6.1005     4.9883   -12.0023     8.1665
  523.0000     4.8841   374.5216     6.1721     5.8318     5.0198   -11.9954     8.1670
  523.5000     4.9919   365.1371     6.1460     5.6986     5.0225   -11.7150     8.1947
  524.0000     4.9125   357.3968     6.1467     5.7012     5.0251   -11.4334     8.1953
  524.5000     4.8707   376.7866     6.1474     5.5680     5.0275   -11.4268     8.1925
  525.0000     4.9700   379.7078     6.1481     5.5707     5.0304   -11.1466     8.1691
  525.5000     4.8504   369.7934     6.0965     5.5734     5.0331   -11.4141     8.1311
  526.0000     4.8341   367.3195     5.9393     5.5761     5.0357   -11.4069     8.0818
  526.5000     5.0081   364.5715     5.8281     5.7147     5.0384   -11.4002     8.0620
  527.0000     5.1075   360.1248     5.8247     5.7174     5.0411   -11.3936     8.0626
  527.5000     5.1270   356.3535     5.8673     5.7201     5.0438   -11.4027     8.0736
  528.0000     4.9864   351.8358     5.9621     5.7228     5.0465   -11.6539     8.1181
  528.5000     5.0058   361.4987     6.0443     5.7255     5.0492   -11.6964     8.1058
  529.0000     5.0252   365.1908     6.0993     5.7283     5.0520   -11.9142     8.0920
  529.5000     4.9409   366.6439     6.1543     5.8668     5.0547   -12.2635     8.0653
  530.0000     5.1673   363.3691     6.1821     5.8696     5.0574   -12.8207     8.0660
  530.5000     5.3035   355.3695     6.2100     5.8723     5.0601   -13.1042     8.0392
  531.0000     5.0508   381.4519     6.2106     5.8755     5.0628   -13.2538     7.9854
  531.5000     4.5787   361.6747     6.2113     5.7423     5.0656   -12.9734     8.0676
  532.0000     4.5016   345.7194     6.2120     5.7449     5.0683   -12.4182     8.1225
  532.5000     4.6043   334.7279     6.1854     5.7475     5.0710   -12.1380     8.1774
  533.0000     4.7403   339.1402     6.1540     5.6141     5.0737   -12.1313     8.2051
  533.5000     4.7460   343.9253     6.0650     5.4811     5.0769   -11.8512     8.2328
  534.0000     4.6591   335.6677     5.9185     5.4837     5.0795   -11.8445     8.2334
  534.5000     4.7386   337.1208     5.8252     5.3505     5.0822   -11.8379     8.2339
  535.0000     4.6380   340.0665     5.7699     5.3533     5.0848   -11.5577     8.2072
  535.5000     4.7974   346.7440     5.7276     5.3560     5.0873   -11.2774     8.2078
  536.0000     4.7315   347.4915     5.6594     5.3587     5.0900   -11.2705     8.2083
  536.5000     4.6134   338.3651     5.5389     5.3614     5.0927   -11.2637     8.2089
  537.0000     4.6503   328.5026     5.5395     5.3641     5.0955   -11.2568     8.2094
  537.5000     4.9325   332.9001     5.4857     5.3668     5.0869   -11.3298     8.2100
  538.0000     4.8717   337.5899     5.4865     5.3696     4.9650   -11.5179     8.2105
  538.5000     4.6250   338.4796     5.4872     5.3723     4.9677   -11.7834     8.2111
  539.0000     4.4519   348.5992     5.5422     5.3750     4.9704   -12.0502     8.2116
  539.5000     4.1525   352.9117     5.5972     5.3777     4.9731   -12.4641     8.2121
  540.0000     4.0319   334.4847     5.6522     5.5168     4.8394   -12.8558     8.2127
  540.5000     4.2113   326.3441     5.7376     5.5195     4.8426   -12.8492     8.2132
  541.0000     4.5507   345.5423     5.8197     5.5221     4.8453   -13.1170     8.2138
  541.5000     4.8102   339.5320     5.8811     5.6606     4.8480   -13.1095     8.2144
  542.0000     4.9496   334.2680     5.9330     5.6630     4.8508   -13.1028     8.2150
  542.5000     5.0090   349.6290     5.8843     5.6659     4.8535   -12.8226     8.2427
  543.0000     5.0847   360.5907     5.7731     5.6686     4.8567   -12.8160     8.2704
  543.5000     5.2279   356.5842     5.7111     5.6712     4.8589   -12.5357     8.2981
  544.0000     5.0859   340.9633     5.8460     5.6775     4.8620   -12.5289     8.2714
  544.5000     4.9667   337.8377     5.9443     5.8125     4.8646   -12.2485     8.2720
  545.0000     4.9860   340.7343     6.0009     5.8152     4.8387   -12.1824     8.2725
  545.5000     4.9657   337.7093     6.0402     5.7926     4.7718   -11.6877     8.2187
