~VERSION INFORMATION
 VERS.                2.0:   CWLS LOG ASCII STANDARD - VERSION 2.0
 WRAP.                 NO:   ONE LINE PER DEPTH STEP
~WELL INFORMATION
#MNEM.UNIT      DATA TYPE    INFORMATION
#----------   ------------   ------------------------------
 STRT.F          566.5000:   START DEPTH
 STOP.F         2065.5000:   STOP DEPTH
 STEP.F            0.5000:   STEP LENGTH
 NULL.          -999.2500:   NO VALUE
 COMP. LAWRENCE/ALLISON INC:   COMPANY
 WELL.      NPR 3 #25-X-3:   WELL
 FLD .             TEAPOT:   FIELD
 LOC .       S3 T38N R78W:   LOCATION
 CNTY.            NATRONA:   COUNTY
 STAT.            WYOMING:   STATE
 CTRY. UNITED STATES OF AMERICA:   COUNTRY
 SRVC.            Unknown:   SERVICE COMPANY
 DATE.        26-SEP-1987:   LOGDATE
 API .       490251119000:   API NUMBER
~CURVE INFORMATION
#MNEM.UNIT       API CODE    CURVE DESCRIPTION
#----------   ------------   ------------------------------
 DEPT.F                  :   
 ROP .MIN/FT 91 810 01 00:   RATE OF DRILLING PENETRATION
 TGAS.UNITS  91 830 01 00:   TOTAL GAS FROM HOTWIRE
~PARAMETER INFORMATION
#MNEM.UNIT          VALUE    DESCRIPTION
#----------   ------------   ------------------------------
 DATE.        26-SEP-1987:   RUN DATE
 RUN .                  1:   RUN NUMBER
 DD  .F              2066:   DEPTH DRILLER
 TLI .F               566:   TOP LOG INTERVAL
 WITN. R. HUSK/R. PETERSON:   WITNESSED BY
 CLNT.            A2DTECH:   CLIENT CODE
 ORIG.           5" PRINT:   ORIGIN OF DATA
 UWI .       490251119000:   UNIQUE WELL ID
 DICO. A2D Technologies, Inc.:   DIGITIZING COMPANY
~OTHER INFORMATION
~A   DEPT        ROP       TGAS 
# ...
  809.5000     0.4060   315.5953
  810.0000     0.4062   315.5899
  810.5000     0.4064   315.5845
  811.0000     0.4066   315.5791
  811.5000     0.4068   315.5737
  812.0000     0.4071   315.5683
  812.5000     0.4073   315.5629
  813.0000     0.4075   315.5575
  813.5000     0.4077   315.5521
  814.0000     0.4079   315.5467
  814.5000     0.4081   315.5413
  815.0000     0.4084   315.5359
  815.5000     0.4086   315.5305
  816.0000     0.4088   315.5251
  816.5000     0.4090   315.5196
  817.0000     0.4092   315.5142
  817.5000     0.4095   315.5088
  818.0000     0.4099   315.5034
  818.5000     0.3998   315.4980
  819.0000     0.3792   315.4926
  819.5000     0.3691   315.4872
  820.0000     0.3696   315.4818
  820.5000     0.3594   315.4764
  821.0000     0.3389   315.4710
  821.5000     0.3394   315.4656
  822.0000     0.3292   315.4602
  822.5000     0.3297   315.4547
  823.0000     0.3300   315.4493
  823.5000     0.3198   315.4439
  824.0000     0.3191   315.4385
  824.5000     0.3183   315.4331
  825.0000     0.3174   315.4277
  825.5000     0.3166   315.4223
  826.0000     0.3157   315.4169
  826.5000     0.3149   315.4115
  827.0000     0.3141   315.4061
  827.5000     0.3132   315.4007
  828.0000     0.3124   315.3953
  828.5000     0.3115   315.3899
  829.0000     0.3107   315.3845
  829.5000     0.3098   315.3791
  830.0000     0.3090   315.3737
  830.5000     0.3081   315.3683
  831.0000     0.3073   315.3629
  831.5000     0.3064   315.3574
  832.0000     0.3056   315.3520
  832.5000     0.3048   315.3466
  833.0000     0.3039   315.3412
  833.5000     0.3031   315.3358
  834.0000     0.3022   315.3304
  834.5000     0.3014   315.3250
  835.0000     0.3005   315.3196
  835.5000     0.2997   315.3142
  836.0000     0.2988   315.3088
  836.5000     0.2980   315.3034
  837.0000     0.2971   315.2980
  837.5000     0.2963   315.2925
  838.0000     0.2955   315.2871
  838.5000     0.2946   315.2817
  839.0000     0.2938   315.2763
  839.5000     0.2929   315.2709
  840.0000     0.2921   315.2655
  840.5000     0.2912   315.2601
  841.0000     0.3014   315.2547
  841.5000     0.3018   315.2493
  842.0000     0.3022   315.2439
  842.5000     0.3443   315.2385
  843.0000     0.3864   315.2331
  843.5000     0.4285   315.2277
  844.0000     0.4393   315.2223
  844.5000     0.4188   315.2169
  845.0000     0.3877   315.2115
  845.5000     0.3568   315.2061
  846.0000     0.3467   315.2007
  846.5000     0.3366   315.1953
  847.0000     0.3266   315.1898
  847.5000     0.3165   315.1844
  848.0000     0.3169   315.1790
  848.5000     0.3164   315.1736
  849.0000     0.3158   315.1682
  849.5000     0.3153   315.1628
  850.0000     0.3148   315.1574
  850.5000     0.3142   315.1520
  851.0000     0.3137   315.1466
  851.5000     0.3132   315.1412
  852.0000     0.3127   315.1358
  852.5000     0.3121   315.1304
  853.0000     0.3116   315.1249
  853.5000     0.3111   315.1195
  854.0000     0.3105   315.1141
  854.5000     0.3100   315.1087
  855.0000     0.3095   315.1033
  855.5000     0.3089   315.0979
  856.0000     0.3084   315.0925
  856.5000     0.3079   315.0871
  857.0000     0.3074   315.0817
  857.5000     0.3068   315.0763
  858.0000     0.3063   315.0709
  858.5000     0.3058   315.0655
  859.0000     0.3052   315.0601
  859.5000     0.3047   315.0547
  860.0000     0.3042   315.0493
  860.5000     0.3036   315.0439
  861.0000     0.3031   315.0385
  861.5000     0.3026   315.0331
  862.0000     0.3021   315.0276
  862.5000     0.3015   315.0222
  863.0000     0.3010   315.0168
  863.5000     0.3005   315.0114
  864.0000     0.2999   315.0060
  864.5000     0.2994   315.0006
  865.0000     0.2989   314.9952
  865.5000     0.2983   314.9898
  866.0000     0.2978   314.9844
  866.5000     0.2973   314.9790
  867.0000     0.2968   314.9736
  867.5000     0.2962   314.9682
  868.0000     0.2957   314.9627
  868.5000     0.2952   314.9573
  869.0000     0.2946   314.9519
  869.5000     0.2941   314.9465
  870.0000     0.2936   314.9411
  870.5000     0.2930   314.9357
  871.0000     0.2925   314.9303
  871.5000     0.2920   314.9249
  872.0000     0.2915   314.9195
  872.5000     0.2909   314.9141
  873.0000     0.2904   314.9087
  873.5000     0.2899   314.9033
  874.0000     0.2893   314.8979
  874.5000     0.2888   314.8925
  875.0000     0.2883   314.8871
  875.5000     0.2877   314.8817
  876.0000     0.2872   314.8763
  876.5000     0.2867   314.8708
  877.0000     0.2862   314.8654
  877.5000     0.2655   314.8600
  878.0000     0.2553   314.8546
  878.5000     0.2557   314.8492
  879.0000     0.2561   314.8438
  879.5000     0.2565   314.8384
  880.0000     0.2568   314.8330
  880.5000     0.2885   314.8276
  881.0000     0.3306   314.8222
  881.5000     0.4041   314.8168
  882.0000     0.4671   314.8114
  882.5000     0.4778   314.8060
  883.0000     0.4156   314.8005
  883.5000     0.3324   314.7951
  884.0000     0.2910   314.7897
  884.5000     0.2810   314.7843
  885.0000     0.2918   314.7789
  885.5000     0.2927   314.7735
  886.0000     0.3014   314.7681
  886.5000     0.3101   314.7627
  887.0000     0.3188   314.7573
  887.5000     0.3275   314.7519
  888.0000     0.3358   314.7465
  888.5000     0.3047   314.7411
  889.0000     0.2946   314.7357
  889.5000     0.2951   314.7303
  890.0000     0.2640   314.7249
  890.5000     0.2645   314.7195
  891.0000     0.2649   314.7141
  891.5000     0.2547   314.7086
  892.0000     0.2552   314.7032
  892.5000     0.2555   314.6978
  893.0000     0.2559   314.6924
  893.5000     0.2563   314.6870
  894.0000     0.2566   314.6816
  894.5000     0.2576   314.6762
  895.0000     0.2585   314.6708
  895.5000     0.2595   314.6654
  896.0000     0.2605   314.6600
  896.5000     0.2615   314.6546
  897.0000     0.2625   314.6492
  897.5000     0.2634   356.4241
  898.0000     0.2644   457.3519
  898.5000     0.2654   558.2797
  899.0000     0.2664   659.2074
  899.5000     0.2673   760.1352
  900.0000     0.2683   777.9021
  900.5000     0.2693   704.7297
  901.0000     0.2703   631.5573
  901.5000     0.2713   558.3849
  902.0000     0.2722   485.2125
  902.5000     0.2732   412.0401
  903.0000     0.2533   338.8677
  903.5000     0.2539   265.6954
  904.0000     0.2857   237.7809
  904.5000     0.3383   238.0250
  905.0000     0.4223   238.2691
  905.5000     0.5063   238.5132
  906.0000     0.5172   238.7572
  906.5000     0.4967   239.0013
  907.0000     0.4554   239.2454
  907.5000     0.4141   239.4895
  908.0000     0.4147   239.7336
  908.5000     0.4673   239.9776
  909.0000     0.5827   240.2217
  909.5000     0.6771   240.4658
  910.0000     0.7401   240.7099
  910.5000     0.7511   240.9539
  911.0000     0.6785   241.1980
  911.5000     0.5954   241.4421
  912.0000     0.5541   241.6862
  912.5000     0.5337   241.9303
  913.0000     0.5132   242.1743
  913.5000     0.5451   242.4184
  914.0000     0.5560   242.6625
  914.5000     0.6087   242.9066
  915.0000     0.7136   243.1507
  915.5000     0.7558   243.3947
  916.0000     0.7557   243.6388
  916.5000     0.7542   243.8829
  917.0000     0.7526   244.1270
  917.5000     0.7511   244.3711
  918.0000     0.7496   244.6151
  918.5000     0.7480   244.8592
  919.0000     0.7465   245.1033
  919.5000     0.7449   245.3474
  920.0000     0.7434   245.5915
  920.5000     0.7418   245.8355
  921.0000     0.7403   246.0796
  921.5000     0.7387   246.3237
  922.0000     0.7372   246.5678
  922.5000     0.7356   246.8119
  923.0000     0.7341   247.0559
  923.5000     0.7325   247.3000
  924.0000     0.7323   247.5441
  924.5000     0.7329   247.7882
  925.0000     0.7228   248.0322
  925.5000     0.6817   248.2763
  926.0000     0.6404   248.5204
  926.5000     0.6095   248.7645
  927.0000     0.5994   249.0086
  927.5000     0.6000   249.2526
  928.0000     0.6005   249.4967
  928.5000     0.6010   249.7408
  929.0000     0.6014   249.9849
  929.5000     0.5913   250.2290
  930.0000     0.5814   250.4730
  930.5000     0.5611   241.8496
