~VERSION INFORMATION
 VERS.                2.0:   CWLS LOG ASCII STANDARD - VERSION 2.0
 WRAP.                 NO:   ONE LINE PER DEPTH STEP
~WELL INFORMATION
#MNEM.UNIT      DATA TYPE    INFORMATION
#----------   ------------   ------------------------------
 STRT.F            0.0000:   START DEPTH
 STOP.F          675.0000:   STOP DEPTH
 STEP.F            0.5000:   STEP LENGTH
 NULL.          -999.2500:   NO VALUE
 COMP.       F D SERV INC:   COMPANY
 WELL. NAVEL PETROLEUM RESERVE 3 SX-2 #18-1-2:   WELL
 FLD .             TEAPOT:   FIELD
 LOC .       S2 T38N R78W:   LOCATION
 CNTY.            NATRONA:   COUNTY
 STAT.            WYOMING:   STATE
 CTRY. UNITED STATES OF AMERICA:   COUNTRY
 SRVC.     Atlas Wireline:   SERVICE COMPANY
 DATE.        23-DEC-1991:   LOGDATE
 API .       490252247200:   API NUMBER
~CURVE INFORMATION
#MNEM.UNIT       API CODE    CURVE DESCRIPTION
#----------   ------------   ------------------------------
 DEPT.F                  :   
 GRR .GAPI   07 310 01 00:   GAMMA RAY FROM RES. LOG.
 SPR .MV     07 010 01 00:   SPONTANEOUS POTENTIAL
 SFL .OHMM   07 220 01 00:   SHALLOW FOCUSED LOG RESISTIVITY
 ILD .OHMM   07 120 46 00:   INDUCTION LOG DEEP
 ILM .OHMM   07 120 44 00:   INDUCTION LOG MEDIUM
~PARAMETER INFORMATION
#MNEM.UNIT          VALUE    DESCRIPTION
#----------   ------------   ------------------------------
 PD  .                 GL:   PERMANENT DATUM
 EPD .F              5148:   ELEVATION PERMANENT DATUM
 LMF .                 KB:   LOG MEASURED FROM
 DAPD.F                10:   FEET ABOVE PERMANENT DATUM
 DMF .                 KB:   DRILLING MEASURED FROM
 EKB .F              5158:   KELLING BUSHING
 EGL .F              5148:   GROUND LEVEL
 DATE.        23-DEC-1991:   RUN DATE
 RUN .                  1:   RUN NUMBER
 DD  .F               630:   DEPTH DRILLER
 DL  .F               678:   DEPTH LOGGER
 BLI .F               675:   BOTTOM LOG INTERVAL
 CS  .IN            9.625:   CASING SIZE
 CBD .F                44:   CASING BOTTOM DRILLER
 CBL .F                48:   CASING BOTTOM LOGGER
 BS  .IN             8.75:   BIT SIZE
 BSD .F               680:   BIT SIZE AT DEPTH
 DFT .           CHEM GEL:   DRILLING FLUID TYPE
 DFD .                9.7:   DRILLING FLUID DENSITY
 DFV .                 79:   DRILLING FLUID VISCOSITY
 DFPH.                  9:   DRILLING FLUID PH
 DFL .                 10:   DRILLING FLUID LOSS
 MSS .           MUD TANK:   MUD SAMPLE SOURCE
 RMS .OHMM            .82:   RESISTIVITY MUD SAMPLE
 MST .F                54:   MUD SAMPLE TEMPERATURE
 RMF .OHMM           1.02:   RESISTIVITY MUD FILTRATE SAMPLE
 MFST.F                54:   MUD FILTRATE SAMPLE TEMPERATURE
 RMC .OHMM            .51:   RESISTIVITY MUD CAKE
 MCST.F                54:   MUD CAKE SAMPLE TEMPERATURE
 MFSS.               CALC:   MUD FILTRATE SAMPLE SOURCE
 MCSS.               CALC:   MUD CAKE SAMPLE SOURCE
 RMB .OHMM            .43:   RESISTIVITY MUD AT BHT
 BHT .F               102:   BOTTOM HOLE TEMPERATURE
 TCS .HRS               2:   TIME CURCULATED STOPPED
 MRT .F               102:   MAXIMUM RECORDED TEMPERATURE
 LUN .            HL-6307:   LOGGING UNIT NUMBER
 LUL .             CASPER:   LOGGING UNIT LOCATION
 ENGI.            WADDELL:   RECORDING ENGINEER
 WITN.              FJVAS:   WITNESSED BY
 CLNT.            A2DTECH:   CLIENT CODE
 ORIG.      2" & 5" PRINT:   ORIGIN OF DATA
 UWI .       490252247200:   UNIQUE WELL ID
 DICO. A2D Technologies, Inc.:   DIGITIZING COMPANY
~OTHER INFORMATION
~A    DEPT      GRR       SPR        SFL        ILD        ILM   
# ...
  610.0000    96.1417   -67.6081     9.8443     7.1673     8.5725
  610.5000    95.3564   -67.7717     9.9029     7.8179     8.8633
  611.0000    96.0194   -67.9441     9.9585     7.8528     9.1409
  611.5000    96.9324   -67.8316    10.0145     7.8878     9.2177
  612.0000    97.9588   -67.6290    10.0708     7.9230     9.2898
  612.5000    99.0150   -67.4242    10.1217     7.9560     9.3624
  613.0000    99.3289   -67.2130    10.3680     8.1326     9.4524
  613.5000    99.4474   -67.3083    10.6484     8.2999     9.6306
  614.0000    99.3441   -67.5471    10.9272     8.4697     9.8122
  614.5000    98.2133   -67.7871    11.1225     8.6428     9.9916
  615.0000    97.7107   -67.9919    11.3232     8.8195    10.1628
  615.5000    97.2002   -68.0283    11.4680     8.9833    10.3369
  616.0000    96.7887   -68.0678    11.5615     9.0535    10.5139
  616.5000    96.7971   -68.1077    11.6558     9.1243    10.6940
  617.0000    96.7949   -68.1478    11.7508     9.1956    10.8771
  617.5000    96.8992   -68.1878    11.8486     9.2674    11.0634
  618.0000    97.4717   -68.2278    11.9240     9.3399    11.1496
  618.5000   100.3218   -68.2678    12.0213     9.4190    11.2076
  619.0000   101.5231   -68.3078    12.1193     9.5260    11.2659
  619.5000   101.4195   -68.3475    12.2181     9.6340    11.3245
  620.0000    98.1695   -68.3863    12.2960     9.7432    11.3834
  620.5000    94.8645   -68.4382    12.1356     9.8536    11.4426
  621.0000    95.1156   -68.4883    11.9589     9.9653    11.5023
  621.5000    96.6726   -68.5381    12.0692    10.0284    11.5550
  622.0000    97.2951   -68.5878    12.2438     9.9493    11.6042
  622.5000    97.0978   -68.6376    12.4104     9.8948    11.6536
  623.0000    95.1698   -68.6871    12.5790     9.8443    11.7034
  623.5000    92.2262   -68.7361    12.7602     9.7554    11.7393
  624.0000    91.3601   -68.7917    12.5586     9.6729    11.7049
  624.5000    95.0749   -69.0091    12.3326     9.6634    11.6726
  625.0000    98.5048   -69.2366    12.1106     9.6634    11.6405
  625.5000   100.7660   -69.4635    11.9589     9.6635    11.6086
  626.0000    97.4744   -69.6904    12.1337     9.6635    11.5767
  626.5000    92.9013   -69.9172    12.2694     9.6636    11.5450
  627.0000    91.6390   -70.1299    12.4066     9.6640    11.4916
  627.5000    94.4966   -70.3334    12.5260     9.6651    11.3944
  628.0000    97.6117   -70.5402    12.3534     9.5732    11.2980
  628.5000    99.2298   -70.6378    12.2038     9.4785    11.2025
  629.0000    99.1884   -70.7096    12.0560     9.3976    11.1044
  629.5000    98.1521   -70.7796    11.9100     9.2623    10.9076
  630.0000    97.8639   -70.8499    11.7692     9.1231    10.6559
  630.5000   100.0432   -70.9205    11.6326     8.9859    10.4100
  631.0000   102.3587   -70.9952    11.4984     8.8509    10.1928
  631.5000   102.5261   -70.9219    11.2983     8.7178    10.0745
  632.0000   101.3280   -70.8013    11.0108     8.5868     9.9576
  632.5000   101.2137   -70.6795    10.8989     8.4577     9.8420
  633.0000   101.3983   -70.5580    10.8995     8.3689     9.7277
  633.5000   101.5974   -70.4365    10.9011     8.3040     9.6177
  634.0000   101.4794   -70.3148    10.7690     8.2396     9.5126
  634.5000   101.1516   -70.1933    10.6778     8.1757     9.4086
  635.0000   100.1768   -70.0742    10.5895     8.1123     9.3119
  635.5000    99.0482   -70.0865    10.4071     8.0494     9.2650
  636.0000    99.4910   -70.3077    10.4600     7.9870     9.2210
  636.5000   102.2599   -70.5258    10.5039     7.9251     9.1771
  637.0000   104.6989   -70.7447    10.3693     7.8636     9.1335
  637.5000   104.7937   -70.9642    10.2675     7.8027     9.0901
  638.0000   104.4289   -71.1813    10.2147     7.7367     9.0469
  638.5000   104.1781   -71.3109    10.2680     7.6918     9.0039
  639.0000   105.9164   -71.4563    10.3080     7.6290     8.9611
  639.5000   109.7323   -71.6052    10.3482     7.5668     8.9185
  640.0000   110.9777   -71.4405    10.3886     7.5050     8.8484
  640.5000   106.2124   -71.2419    10.4071     7.4438     8.7253
  641.0000   101.5618   -71.0427    10.2534     7.3831     8.6039
  641.5000    99.4104   -70.8443    10.1406     7.3228     8.4842
  642.0000   100.5380   -70.6459    10.0290     7.2631     8.3662
  642.5000   102.7468   -70.4473     9.9187     7.2038     8.2494
  643.0000   103.4787   -70.2449     9.8096     7.1450     8.1513
  643.5000   104.4795   -70.1330     9.7019     7.0863     8.0789
  644.0000   106.7112   -70.0419     9.5940     7.0405     8.0073
  644.5000   107.1824   -69.9515     9.5257     6.9802     7.9364
  645.0000   106.3968   -69.8608     9.4446     6.9214     7.8814
  645.5000   105.7875   -69.7701     9.3743     6.8629     7.8280
  646.0000   105.5615   -69.6795     9.3174     6.8050     7.7759
  646.5000   106.8620   -69.5887     9.2608     6.7478     7.7367
  647.0000   108.3202   -69.4981     9.2045     6.6893     7.5768
  647.5000   109.7582   -69.4088     9.1409     6.5476     7.4266
  648.0000   110.9847   -69.3215     9.2417     6.3609     7.2375
  648.5000   111.2999   -69.2366     9.3986     6.1941     6.9413
  649.0000   109.7867   -69.1525     9.2802     6.0912     6.6572
  649.5000   108.2327   -69.0709     8.4796     5.9971     6.3848
  650.0000   106.8794   -68.9455     7.4989     5.9687     6.2517
  650.5000   107.4779   -68.6141     7.0586     6.0344     6.6218
  651.0000   108.5988   -68.4066     7.6299     6.0785     6.8981
  651.5000   108.0998   -68.2063     8.7676     6.1230     7.1859
  652.0000   107.2492   -68.0099     9.5166     6.3159     7.4948
  652.5000   108.4799   -67.8331     9.7569     6.5818     7.9023
  653.0000   110.0017   -67.7786    10.0034     6.8587     8.3320
  653.5000   111.1975   -67.7775    10.1405     7.1473     8.7069
  654.0000   111.9220   -67.7774    10.2666     7.4475     8.9109
  654.5000    20.6463   -67.7759    10.3942     7.6831     9.1198
  655.0000  -999.2500   -67.8487    10.5234     7.7427     9.3139
  655.5000  -999.2500   -67.9344    10.6542     7.8027     9.3345
  656.0000  -999.2500   -68.0205    10.7967     7.8087     9.3551
  656.5000  -999.2500   -68.1064    10.7700     7.8087     9.3758
  657.0000  -999.2500   -68.1925    10.7368     7.8087     9.3965
  657.5000  -999.2500   -68.2797    10.7037     7.7984     9.3562
  658.0000  -999.2500   -68.3796    10.6369     7.6958     9.3092
  658.5000  -999.2500   -67.8685    10.5667     7.5946     9.2623
  659.0000  -999.2500   -67.2594    10.4970     7.4947     9.2158
  659.5000  -999.2500   -66.6853    10.4277     7.3961     9.1695
  660.0000  -999.2500   -66.1042    10.3589     7.3306     9.1234
  660.5000  -999.2500   -65.6122    10.3179     7.2691     9.0776
  661.0000  -999.2500   -65.2417    10.4500     7.2080     9.0320
  661.5000  -999.2500   -64.4044    10.5581     7.1479     8.9866
  662.0000  -999.2500   -63.5494    10.6894  -999.2500     8.9731
  662.5000  -999.2500   -62.9397    10.5854  -999.2500     8.9731
  663.0000  -999.2500   -62.8786    10.4231  -999.2500     8.9731
  663.5000  -999.2500   -63.1767    10.2634  -999.2500     8.9740
  664.0000  -999.2500   -63.4810    10.1217  -999.2500     8.7252
  664.5000  -999.2500   -63.7840    10.1217  -999.2500     8.3816
  665.0000  -999.2500   -63.7154     9.8900  -999.2500     8.0512
  665.5000  -999.2500   -61.9961     9.4422  -999.2500     7.7726
  666.0000  -999.2500   -60.3376     9.0147  -999.2500     7.4211
  666.5000  -999.2500   -58.6750     8.6519  -999.2500     7.0848
  667.0000  -999.2500   -57.8521     8.4075  -999.2500     6.7640
  667.5000  -999.2500   -57.3738     8.1700  -999.2500     6.3771
  668.0000  -999.2500   -56.7786     7.9390  -999.2500     5.8384
  668.5000  -999.2500   -56.8893     7.7045  -999.2500     5.3453
  669.0000  -999.2500   -96.4987     7.3899  -999.2500     4.8938
  669.5000  -999.2500  -999.2500     7.0162  -999.2500  -999.2500
  670.0000  -999.2500  -999.2500     6.0775  -999.2500  -999.2500
  670.5000  -999.2500  -999.2500     5.2558  -999.2500  -999.2500
