~VERSION INFORMATION
 VERS.                2.0:   CWLS LOG ASCII STANDARD - VERSION 2.0
 WRAP.                 NO:   ONE LINE PER DEPTH STEP
~WELL INFORMATION
#MNEM.UNIT      DATA TYPE    INFORMATION
#----------   ------------   ------------------------------
 STRT.F           80.0000:   START DEPTH
 STOP.F          660.0000:   STOP DEPTH
 STEP.F            0.5000:   STEP LENGTH
 NULL.          -999.2500:   NO VALUE
 COMP. U S NAVY-INTEX OIL:   COMPANY
 WELL.    NPR #3 #34 S-11:   WELL
 FLD .             TEAPOT:   FIELD
 LOC .      S11 T38N R78W:   LOCATION
 CNTY.            NATRONA:   COUNTY
 STAT.            WYOMING:   STATE
 CTRY. UNITED STATES OF AMERICA:   COUNTRY
 SRVC.       Schlumberger:   SERVICE COMPANY
 DATE.        10-JUL-1962:   LOGDATE
 API .       490250635000:   API NUMBER
~CURVE INFORMATION
#MNEM.UNIT       API CODE    CURVE DESCRIPTION
#----------   ------------   ------------------------------
 DEPT.F                  :   
 SPR .MV     05 010 01 00:   SPONTANEOUS POTENTIAL FROM RES.
 ASN .OHMM   05 041 16 00:   AMPLIFIED SHORT NORMAL 16"
 ILD .OHMM   05 120 46 00:   INDUCTION LOG DEEP
 GR  .GAPI   30 310 01 00:   GAMMA RAY
 CALM.IN     15 280 01 00:   CALIPER FROM MICRO LOG
 CILD.MMHO   05 110 46 00:   CONDUCTIVITY INDUCTION LOG DEEP
~PARAMETER INFORMATION
#MNEM.UNIT          VALUE    DESCRIPTION
#----------   ------------   ------------------------------
 CLNT.            A2DTECH:   CLIENT CODE
 UWI .       490250635000:   UNIQUE WELL ID
 DICO. A2D Technologies, Inc.:   DIGITIZING COMPANY
~OTHER INFORMATION
~A   DEPT      SPR        ASN        ILD         GR       CALM        CILD  
# ...
  548.0000   -71.3760    17.5355    15.8756    71.9735     7.3441    51.8131
  548.5000   -71.3838    17.5333    15.7963    63.6154     7.3428    51.8501
  549.0000   -71.3929    17.5310    15.7926    72.7081     7.3416    51.8870
  549.5000   -71.4005    17.5288    15.7889    68.5988     7.3404    51.9240
  550.0000   -71.4371    17.5266    15.7991    78.9084     7.3395    51.9609
  550.5000   -71.8707    17.5235    15.8559    74.6472     7.3474    51.9979
  551.0000   -72.0281    17.5204    15.9262    62.0419     7.3538    51.0586
  551.5000   -72.6443    17.5933    15.9198    57.6308     7.3532    50.7760
  552.0000   -73.4133    17.5903    15.9901    52.4610     7.3528    50.4935
  552.5000   -73.8765    17.5961    16.2115    46.6842     7.3523    50.2109
  553.0000   -73.5752    17.6602    16.4330    53.3505     7.3519    49.9283
  553.5000   -72.8152    17.7324    16.4278    55.7679     7.3514    49.6457
  554.0000   -72.6667    17.7294    16.4995    48.0185     7.3510    49.3632
  554.5000   -72.8242    17.7265    16.4930    54.0778     7.3505    49.0806
  555.0000   -72.5229    17.6476    16.4878    56.9478     7.3501    48.7957
  555.5000   -71.9057    17.5688    16.4806    62.5519     7.3492    48.8554
  556.0000   -71.6145    17.4900    16.3928    52.8324     7.3339    48.9156
  556.5000   -71.4661    17.4870    16.0934    70.2700     7.3335    49.7398
  557.0000   -71.4718    17.3323    15.9372    74.8144     7.2873    49.7987
  557.5000   -71.6292    17.2522    15.9320    63.2713     7.2412    50.6105
  558.0000   -71.6337    17.0986    15.8513    61.2882     7.1494    51.4223
  558.5000   -71.6382    16.8674    15.7706    72.5068     7.1033    52.2342
  559.0000   -71.6427    16.6368    15.5389    60.3541     7.0572    53.0460
  559.5000   -71.6472    16.5580    15.2316    53.6668     7.0415    53.8578
  560.0000   -71.6517    16.3274    15.1509    54.5668     7.0258    55.4227
  560.5000   -71.5034    16.1727    15.1457    52.5837     7.0254    56.2349
  561.0000   -71.5079    16.0179    14.9854    51.5121     7.0249    57.1437
  561.5000   -71.5124    15.9391    14.7465    60.5829     7.0093    58.6259
  562.0000   -71.5169    15.7085    14.3736    54.3732     7.0088    59.4377
  562.5000   -71.6743    15.4779    14.2174    56.6388     7.0236    60.2495
  563.0000   -71.6789    15.3232    13.9857    74.1299     7.0231    61.0614
  563.5000   -71.6835    15.3202    13.9805    78.6209     7.0842    61.1202
  564.0000   -71.0774    15.3165    13.9753    78.0034     7.2081    61.1790
  564.5000   -70.6220    15.3136    13.9702    63.5772     7.2805    61.2378
  565.0000   -70.3219    15.3106    14.0405    70.9996     7.3257    61.2967
  565.5000   -70.4793    15.3076    14.0354    72.3574     7.3252    61.3555
  566.0000   -70.3298    15.2288    14.1057    64.3018     7.3400    61.4157
  566.5000   -70.4883    15.2258    14.1005    70.6673     7.3395    61.4878
  567.0000   -70.4928    15.2229    14.1709    72.0225     7.3391    61.5466
  567.5000   -70.6502    15.2199    14.2400    65.7878     7.3538    60.8524
  568.0000   -70.5007    15.2929    14.3104    73.5164     7.3534    60.9113
  568.5000   -70.1994    15.2898    14.4575    66.5256     7.3529    60.9701
  569.0000   -69.5934    15.2934    14.6777    56.0447     7.3525    60.2612
  569.5000   -69.4450    15.4489    14.8248    55.4299     7.3520    58.0757
  570.0000   -69.2966    15.5844    15.0450    56.9342     7.3364    57.3796
  570.5000   -68.8222    15.7343    15.0398    49.9435     7.3359    55.9338
  571.0000   -67.7359    15.7246    15.0346    47.5293     7.3355    56.0392
  571.5000   -66.1003    15.7134    15.0295    42.6387     7.3198    56.9251
  572.0000   -65.6450    15.4764    14.8650    45.2586     7.3193    58.3845
  572.5000   -66.1093    15.0878    14.4136    57.7923     7.3009    59.9493
  573.0000   -66.8783    14.7750    13.9553    57.7818     7.2727    61.5142
  573.5000   -68.8706    14.3864    13.6480    59.8547     7.2266    63.8320
  574.0000   -70.4042    14.1495    13.2652    70.8083     7.1804    66.1499
  574.5000   -70.5616    13.9125    12.8824    66.8524     7.1343    68.4677
  575.0000   -70.2603    13.5998    12.4240    71.0908     7.1795    70.0326
  575.5000   -69.5003    13.3629    12.1923    78.8270     7.2248    71.5974
  576.0000   -68.1287    13.1259    12.0361    83.6682     7.2549    73.1627
  576.5000   -67.9801    12.9647    12.0309    77.1300     7.2696    74.0689
  577.0000   -67.6789    12.8794    12.0257    69.6841     7.2691    74.8006
  577.5000   -67.6835    12.7923    12.0204    72.2532     7.2686    74.8595
  578.0000   -67.6881    12.7830    12.0141    75.2959     7.2682    74.9183
  578.5000   -67.6723    12.6978    12.0089    64.0924     7.2677    74.9771
  579.0000   -67.5441    12.6885    12.0806    60.3431     7.2673    73.5299
  579.5000   -67.3957    12.6792    12.2265    50.1152     7.2668    72.8357
  580.0000   -66.9426    12.7481    12.2200    61.5760     7.2664    72.8945
  580.5000   -66.7931    12.8147    11.9883    67.3345     7.2658    72.1988
  581.0000   -66.9517    12.9548    11.9076    61.8612     7.2654    72.2591
  581.5000   -67.1080    12.9456    11.7514    63.6690     7.2649    72.3193
  582.0000   -66.8067    12.8604    11.6707    61.2306     7.2645    73.1445
  582.5000   -66.0478    12.7750    11.5899    81.8575     7.2640    73.9563
  583.0000   -65.2878    12.6897    11.4215    76.3842     7.2636    74.7682
  583.5000   -65.1382    12.5267    11.2762    80.7743     7.2631    75.5800
  584.0000   -65.6026    12.4415    11.2711    83.6496     7.2322    76.3918
  584.5000   -65.6071    12.3564    11.3427    79.9972     7.1861    77.2036
  585.0000   -65.3058    12.2712    11.3363    74.8248     7.1248    78.7685
  585.5000   -65.6264    12.2619    11.2556    77.3966     7.0787    79.5803
  586.0000   -66.8644    12.1768    11.1749    82.6946     7.0478    79.6391
  586.5000   -67.0024    12.0157    11.0942    85.4320     7.0169    80.4518
  587.0000   -66.2424    11.9306    11.0135    85.2372     7.0012    81.2651
  587.5000   -65.6342    11.9213    11.0083    95.1062     7.0008    81.3363
  588.0000   -65.6398    11.9879    11.0030    98.7376     6.9851    81.3951
  588.5000   -65.6443    11.9784    10.9967    89.9259     6.9693    81.4540
  589.0000   -65.8018    11.9689    10.9915    98.5042     6.9689    81.5128
  589.5000   -65.8063    11.9577    11.0619    90.2058     6.9684    81.5716
  590.0000   -65.8108    11.9484    11.2078    70.7720     6.9680    80.8627
  590.5000   -65.9682    12.0173    11.2794    69.8510     6.9675    80.1832
  591.0000   -65.9727    12.1574    11.2730    63.4673     6.9671    79.4879
  591.5000   -66.1301    12.2999    11.3446    67.7056     6.9820    78.0418
  592.0000   -66.1346    12.4423    11.4139    76.7999     6.9814    77.3476
  592.5000   -66.1391    12.4330    11.4841    81.9487     6.9963    76.6681
  593.0000   -65.9806    12.4237    11.4789    78.1446     7.0414    76.7270
  593.5000   -65.3634    12.4144    11.3225    64.7805     7.1779    77.5388
  594.0000   -64.4718    12.3293    11.2407    66.4393     7.2840    77.5976
  594.5000   -64.1694    12.1617    11.0089    74.3195     7.2988    79.1625
  595.0000   -64.0222    12.0068    10.8527    87.2074     7.2983    79.9743
  595.5000   -63.8738    11.8439    10.6209    88.9780     7.2979    81.5391
  596.0000   -63.4196    11.6828    10.5403    86.7328     7.2974    83.1040
  596.5000   -63.2700    11.5218    10.3085    92.8027     7.2969    83.9158
  597.0000   -63.1216    11.5125    10.2278    84.5858     7.2964    84.7944
  597.5000   -62.9744    11.4273    10.0716    89.4311     7.2960    86.3072
  598.0000   -62.8260    11.4180     9.9909    78.3719     7.2955    87.1190
  598.5000   -62.8305    11.4088     9.9857    63.4554     7.3104    87.1778
  599.0000   -62.6820    11.4757     9.9804    74.8295     7.3098    87.2367
  599.5000   -62.8395    11.6178    10.0509    68.7493     7.3094    87.2955
