~VERSION INFORMATION
 VERS.                2.0:   CWLS LOG ASCII STANDARD - VERSION 2.0
 WRAP.                 NO:   ONE LINE PER DEPTH STEP
~WELL INFORMATION
#MNEM.UNIT      DATA TYPE    INFORMATION
#----------   ------------   ------------------------------
 STRT.F           14.0000:   START DEPTH
 STOP.F          608.0000:   STOP DEPTH
 STEP.F            0.1000:   STEP LENGTH
 NULL.          -999.2500:   NO VALUE
 COMP. FENIX & SCISSON INC:   COMPANY
 WELL. NAVAL PETROLEUM RESERVE 3 S-15 #72-15:   WELL
 FLD .             TEAPOT:   FIELD
 LOC .      S15 T38N R78W:   LOCATION
 CNTY.            NATRONA:   COUNTY
 STAT.            WYOMING:   STATE
 CTRY. UNITED STATES OF AMERICA:   COUNTRY
 SRVC.           BIRDWELL:   SERVICE COMPANY
 DATE.        21-JUL-1978:   LOGDATE
 API .       490251067300:   API NUMBER
~CURVE INFORMATION
#MNEM.UNIT       API CODE    CURVE DESCRIPTION
#----------   ------------   ------------------------------
 DEPT.F                  :   
 ILD .OHMM   05 120 46 00:   INDUCTION LOG DEEP
 SN  .OHMM   05 040 16 00:   SHORT NORMAL 16"
 SPR .MV     05 010 01 00:   SPONTANEOUS POTENTIAL FROM RES.
 CALD.IN     45 280 60 00:   CALIPER FROM DENSITY LOG
 DPHI.DEC    45 890 12 00:   DENSITY POROSITY SANDSTONE
 DRHO.G/C3   45 356 01 00:   DENSITY CORRECTION
 GRD .GAPI   45 310 01 00:   GAMMA RAY FROM DENSITY LOG
 RHOB.G/C3   45 350 01 00:   BULK DENSITY
~PARAMETER INFORMATION
#MNEM.UNIT          VALUE    DESCRIPTION
#----------   ------------   ------------------------------
 PD  .                 GL:   PERMANENT DATUM
 EPD .F              5238:   ELEVATION PERMANENT DATUM
 LMF .                 KB:   LOG MEASURED FROM
 DAPD.F                 4:   FEET ABOVE PERMANENT DATUM
 DMF .                 KB:   DRILLING MEASURED FROM
 EKB .F              5242:   KELLING BUSHING
 EGL .F              5238:   GROUND LEVEL
 DATE.        21-JUL-1978:   RUN DATE
 RUN .                  1:   RUN NUMBER
 DD  .F               597:   DEPTH DRILLER
 DL  .F               615:   DEPTH LOGGER
 BLI .F               608:   BOTTOM LOG INTERVAL
 TLI .F                35:   TOP LOG INTERVAL
 CS  .IN            8.625:   CASING SIZE
 CBD .F                40:   CASING BOTTOM DRILLER
 CBL .F                35:   CASING BOTTOM LOGGER
 BS  .IN            7.875:   BIT SIZE
 BSD .F               597:   BIT SIZE AT DEPTH
 DFT .                KCL:   DRILLING FLUID TYPE
 DFD .                8.6:   DRILLING FLUID DENSITY
 DFV .                 33:   DRILLING FLUID VISCOSITY
 DFPH.                9.0:   DRILLING FLUID PH
 MSS .            MUD PIT:   MUD SAMPLE SOURCE
 MFSS.               MEAS:   MUD FILTRATE SAMPLE SOURCE
 MCSS.               MEAS:   MUD CAKE SAMPLE SOURCE
 BHT .F                74:   BOTTOM HOLE TEMPERATURE
 TCS .HRS               2:   TIME CURCULATED STOPPED
 MRT .F                74:   MAXIMUM RECORDED TEMPERATURE
 LUN .               2958:   LOGGING UNIT NUMBER
 LUL .             CASPER:   LOGGING UNIT LOCATION
 ENGI.             MILLER:   RECORDING ENGINEER
 WITN.           MCGINLEY:   WITNESSED BY
 CLNT.            A2DTECH:   CLIENT CODE
 ORIG.           5" PRINT:   ORIGIN OF DATA
 UWI .       490251067300:   UNIQUE WELL ID
 DICO. A2D Technologies, Inc.:   DIGITIZING COMPANY
~OTHER INFORMATION
~A   DEPT      ILD         SN        SPR       CALD       DPHI       DRHO         GRD      RHOB   
# ...
  556.7000    10.1666     9.9689   -18.1409     7.9086     0.1171     0.0217    75.7665     2.4862
  556.8000    10.1187     9.9687   -18.1409     7.8941     0.1168     0.0228    75.8532     2.4862
  556.9000    10.0620     9.9684   -18.1409     7.8940     0.1166     0.0228    76.0355     2.4862
  557.0000    10.0272     9.9681   -18.1509     7.8940     0.1163     0.0228    76.3136     2.4862
  557.1000    10.0184     9.9679   -18.1814     7.8939     0.1163     0.0228    76.6829     2.4862
  557.2000     9.9582     9.9676   -18.2119     7.8938     0.1163     0.0228    77.1209     2.4862
  557.3000     9.9065     9.9673   -18.2424     7.8937     0.1164     0.0228    77.7224     2.4862
  557.4000     9.8897     9.9670   -18.2729     7.8936     0.1170     0.0228    78.7526     2.4866
  557.5000     9.8897     9.9668   -18.2909     7.8935     0.1181     0.0228    79.8491     2.4872
  557.6000     9.8897     9.9580   -18.3128     7.8934     0.1190     0.0228    80.6408     2.4878
  557.7000     9.8897     9.9298   -18.4408     7.8933     0.1199     0.0228    81.0395     2.4884
  557.8000     9.8897     9.8973   -18.5568     7.8932     0.1209     0.0228    81.4927     2.4884
  557.9000     9.8897     9.8735   -18.6787     7.8931     0.1219     0.0228    81.8134     2.4868
  558.0000     9.8589     9.8454   -18.8006     7.8931     0.1229     0.0228    82.1177     2.4846
  558.1000     9.8216     9.8175   -18.8906     7.8930     0.1253     0.0228    82.3638     2.4819
  558.2000     9.8216     9.7896   -18.8906     7.8929     0.1259     0.0235    82.2399     2.4788
  558.3000     9.8216     9.7601   -18.8906     7.8928     0.1259     0.0242    82.0916     2.4749
  558.4000     9.8216     9.7084   -18.9885     7.8927     0.1259     0.0242    81.9921     2.4743
  558.5000     9.8216     9.6924   -19.1104     7.8813     0.1259     0.0242    81.8682     2.4737
  558.6000     9.7989     9.6921   -19.1904     7.8774     0.1256     0.0242    81.7443     2.4737
  558.7000     9.7541     9.6849   -19.2044     7.8773     0.1249     0.0242    81.6205     2.4741
  558.8000     9.7541     9.6574   -19.3403     7.8772     0.1241     0.0242    81.4853     2.4741
  558.9000     9.7541     9.6245   -19.3403     7.8771     0.1231     0.0242    81.3728     2.4749
  559.0000     9.7541     9.6027   -19.3403     7.8770     0.1220     0.0242    81.2489     2.4763
  559.1000     9.7541     9.5754   -19.3923     7.8769     0.1205     0.0242    81.1819     2.4778
  559.2000     9.7466     9.5575   -19.4903     7.8769     0.1195     0.0242    81.1813     2.4790
  559.3000     9.7193     9.5541   -19.4903     7.8768     0.1184     0.0242    81.1789     2.4804
  559.4000     9.6870     9.5271   -19.4903     7.8767     0.1173     0.0242    81.0550     2.4831
  559.5000     9.6649     9.5001   -19.4903     7.8766     0.1162     0.0243    80.9311     2.4847
  559.6000     9.6377     9.4732   -19.4903     7.8765     0.1150     0.0257    80.7372     2.4869
  559.7000     9.6203     9.4462   -19.4903     7.8764     0.1139     0.0257    80.5750     2.4894
  559.8000     9.6203     9.4248   -19.4903     7.8763     0.1127     0.0256    80.5595     2.4920
  559.9000     9.6203     9.4245   -19.4903     7.8762     0.1106     0.0256    80.4229     2.4951
  560.0000     9.5960     9.4243   -19.4903     7.8761     0.1085     0.0256    80.3117     2.4993
  560.1000     9.5691     9.4240   -19.5622     7.8760     0.1072     0.0256    80.1048     2.5021
  560.2000     9.5541     9.4099   -19.6402     7.8760     0.1064     0.0256    79.9686     2.5034
  560.3000     9.5426     9.3833   -19.6402     7.8759     0.1057     0.0256    79.9680     2.5036
  560.4000     9.4884     9.3567   -19.6402     7.8758     0.1055     0.0256    79.9670     2.5038
  560.5000     9.4884     9.3301   -19.6402     7.8757     0.1058     0.0256    79.8431     2.5040
  560.6000     9.4773     9.3035   -19.7221     7.8756     0.1065     0.0256    79.7192     2.5038
  560.7000     9.4454     9.2931   -19.7901     7.8863     0.1077     0.0256    79.6640     2.5035
  560.8000     9.4231     9.2929   -19.7901     7.8905     0.1088     0.0266    79.6634     2.5031
  560.9000     9.4192     9.2926   -19.7901     7.8904     0.1099     0.0271    79.6627     2.5028
  561.0000     9.3583     9.2924   -19.7901     7.8903     0.1112     0.0271    79.6621     2.5025
  561.1000     9.3583     9.2434   -19.7901     7.8902     0.1119     0.0271    79.6615     2.5022
  561.2000     9.3583     9.2279   -19.7901     7.8902     0.1114     0.0271    79.6609     2.5019
  561.3000     9.3583     9.2276   -19.7901     7.8901     0.1106     0.0276    79.7144     2.5014
  561.4000     9.3499     9.2274   -19.7901     7.8900     0.1099     0.0282    79.8901     2.5010
  561.5000     9.2939     9.2265   -19.7901     7.8899     0.1094     0.0285    80.2624     2.5010
  561.6000     9.2454     9.2003   -19.7901     7.8903     0.1089     0.0285    80.6286     2.5004
  561.7000     9.2118     9.1742   -19.7901     7.8964     0.1084     0.0285    81.0925     2.4997
  561.8000     9.1859     9.1628   -19.7901     7.9024     0.1079     0.0285    81.5850     2.4991
  561.9000     9.1538     9.1626   -19.7901     7.9046     0.1079     0.0288    82.0776     2.4987
  562.0000     9.1033     9.1623   -19.7901     7.9045     0.1087     0.0292    82.5821     2.4986
  562.1000     9.1033     9.1620   -19.7901     7.9044     0.1109     0.0296    83.2753     2.4980
  562.2000     9.1033     9.1618   -19.7901     7.9044     0.1131     0.0300    83.7060     2.4980
  562.3000     9.1033     9.1277   -19.7901     7.9043     0.1141     0.0300    84.1985     2.4979
  562.4000     9.1033     9.0872   -19.7901     7.9042     0.1151     0.0300    84.5856     2.4977
  562.5000     9.0981     9.0616   -19.7901     7.9041     0.1154     0.0300    84.8819     2.4971
  562.6000     9.0407     9.0359   -19.7901     7.9040     0.1149     0.0300    85.3840     2.4964
  562.7000     8.9965     9.0102   -19.7901     7.9047     0.1142     0.0300    85.8669     2.4964
  562.8000     8.9785     8.9845   -19.7901     7.9189     0.1134     0.0300    86.3595     2.4960
  562.9000     8.9576     8.9590   -19.7901     7.9188     0.1124     0.0300    86.7204     2.4957
  563.0000     8.9073     8.9336   -19.7901     7.9187     0.1117     0.0300    86.9663     2.4955
  563.1000     8.8554     8.9098   -19.7901     7.9186     0.1108     0.0299    87.2335     2.4949
  563.2000     8.8554     8.9096   -19.7901     7.9185     0.1099     0.0299    87.7936     2.4949
  563.3000     8.8191     8.8884   -19.7901     7.9185     0.1091     0.0299    88.1122     2.4954
  563.4000     8.7697     8.8631   -19.7901     7.9184     0.1082     0.0299    88.2449     2.4956
  563.5000     8.7205     8.8284   -19.7901     7.9183     0.1080     0.0299    87.9365     2.4959
  563.6000     8.6716     8.7786   -19.7901     7.9182     0.1077     0.0299    86.9352     2.4964
  563.7000     8.6142     8.7256   -19.7901     7.9181     0.1080     0.0299    84.7740     2.4964
  563.8000     8.6142     8.6799   -19.7901     7.9180     0.1089     0.0299    82.7434     2.4969
  563.9000     8.5857     8.6309   -19.7901     7.9179     0.1103     0.0299    81.8413     2.4976
  564.0000     8.5376     8.5822   -19.7901     7.9178     0.1116     0.0310    81.4119     2.4979
  564.1000     8.4897     8.5220   -19.7901     7.9177     0.1130     0.0314    80.9679     2.4979
  564.2000     8.4376     8.4272   -19.7901     7.9176     0.1145     0.0314    80.3693     2.4979
  564.3000     8.3949     8.3797   -19.7901     7.9193     0.1148     0.0314    79.9438     2.4985
  564.4000     8.3478     8.2955   -19.7901     7.9326     0.1140     0.0314    79.5234     2.4991
  564.5000     8.2804     8.2284   -19.7901     7.9211     0.1133     0.0314    79.9586     2.4993
  564.6000     8.1977     8.1666   -19.7901     7.9173     0.1125     0.0314    80.9442     2.4993
  564.7000     8.1513     8.0749   -19.7901     7.9172     0.1118     0.0314    81.9077     2.4993
