~VERSION INFORMATION
 VERS.                2.0:   CWLS LOG ASCII STANDARD - VERSION 2.0
 WRAP.                 NO:   ONE LINE PER DEPTH STEP
~WELL INFORMATION
#MNEM.UNIT      DATA TYPE    INFORMATION
#----------   ------------   ------------------------------
 STRT.F          648.0000:   START DEPTH
 STOP.F         2443.0000:   STOP DEPTH
 STEP.F            0.5000:   STEP LENGTH
 NULL.          -999.2500:   NO VALUE
 COMP.    FENIX & SCISSON:   COMPANY
 WELL.  NPR #3 SHX-11 #22:   WELL
 FLD .             TEAPOT:   FIELD
 LOC .      S11 T38N R78W:   LOCATION
 CNTY.            NATRONA:   COUNTY
 STAT.            WYOMING:   STATE
 CTRY. UNITED STATES OF AMERICA:   COUNTRY
 SRVC.           BIRDWELL:   SERVICE COMPANY
 DATE.        23-APR-1978:   LOGDATE
 API .       490251061300:   API NUMBER
~CURVE INFORMATION
#MNEM.UNIT       API CODE    CURVE DESCRIPTION
#----------   ------------   ------------------------------
 DEPT.F                  :   
 CALD.IN     45 280 60 00:   CALIPER FROM DENSITY LOG
 CORR.G/C3   45 356 01 00:   DENSITY CORRECTION
 DPHI.DEC    45 890 12 00:   DENSITY POROSITY SANDSTONE
 GRD .GAPI   45 310 01 00:   GAMMA RAY FROM DENSITY LOG
 RHOB.G/C3   45 350 01 00:   BULK DENSITY
~PARAMETER INFORMATION
#MNEM.UNIT          VALUE    DESCRIPTION
#----------   ------------   ------------------------------
 PD  .                 GL:   PERMANENT DATUM
 EPD .F              5166:   ELEVATION PERMANENT DATUM
 LMF .                 KB:   LOG MEASURED FROM
 DMF .                 KB:   DRILLING MEASURED FROM
 EKB .F              5176:   KELLING BUSHING
 EGL .F              5166:   GROUND LEVEL
 DATE.        23-APR-1978:   RUN DATE
 RUN .                  1:   RUN NUMBER
 DD  .F              2450:   DEPTH DRILLER
 DL  .F              2450:   DEPTH LOGGER
 BLI .F              2443:   BOTTOM LOG INTERVAL
 TLI .F               670:   TOP LOG INTERVAL
 CS  .IN            9.625:   CASING SIZE
 CBD .F               660:   CASING BOTTOM DRILLER
 CBL .F               670:   CASING BOTTOM LOGGER
 BS  .IN             8.75:   BIT SIZE
 BSD .F              2450:   BIT SIZE AT DEPTH
 DFT .               MIST:   DRILLING FLUID TYPE
 LUN .               2958:   LOGGING UNIT NUMBER
 LUL .             CASPER:   LOGGING UNIT LOCATION
 ENGI.             MILLER:   RECORDING ENGINEER
 WITN.          MC GINLEY:   WITNESSED BY
 CLNT.            A2DTECH:   CLIENT CODE
 ORIG.           5" PRINT:   ORIGIN OF DATA
 UWI .       490251061300:   UNIQUE WELL ID
 DICO. A2D Technologies, Inc.:   DIGITIZING COMPANY
~OTHER INFORMATION
~A   DEPT     CALD       CORR       DPHI        GRD       RHOB   
# ...
 1990.0000     9.2126     0.0303     0.0177   112.8176     2.5025
 1990.5000     9.1980     0.0243     0.0228   121.8018     2.4979
 1991.0000     9.1986     0.0227     0.0325   122.0902     2.4926
 1991.5000     9.1990     0.0166     0.0373   114.4298     2.4908
 1992.0000     9.1994     0.0120     0.0379   112.7693     2.4866
 1992.5000     9.1999     0.0104     0.0355   112.0083     2.4858
 1993.0000     9.2004     0.0103     0.0328   114.5456     2.4903
 1993.5000     9.2007     0.0117     0.0316   119.4824     2.4895
 1994.0000     9.2012     0.0161     0.0338   123.2157     2.4880
 1994.5000     9.2017     0.0177     0.0344   125.7530     2.4864
 1995.0000     9.1871     0.0235     0.0338   127.5408     2.4864
 1995.5000     9.1877     0.0234     0.0311   129.0436     2.4894
 1996.0000     9.1880     0.0203     0.0254   127.3652     2.4976
 1996.5000     9.1885     0.0112     0.0194   124.6552     2.5051
 1997.0000     9.2039    -0.0025     0.0327   124.4939     2.5171
 1997.5000     9.2043    -0.0011     0.0345   124.4825     2.4825
 1998.0000     9.2049     0.0079     0.0300   125.0904     2.4960
 1998.5000     9.2053     0.0093     0.0279   124.9067     2.4945
 1999.0000     9.1908     0.0090     0.0264   124.2956     2.4944
 1999.5000     9.1912    -0.0059     0.0255   123.8345     2.4991
 2000.0000     9.1766    -0.0015     0.0279   123.9730     2.5004
 2000.5000     9.1526     0.0029     0.0312   124.5585     2.4981
 2001.0000     9.1614     0.0028     0.0316   126.0464     2.4951
 2001.5000     9.1462    -0.0003     0.0277   128.1339     2.4943
 2002.0000     9.1461     0.0026     0.0268   129.1720     2.4942
 2002.5000     9.1310     0.0026     0.0280   129.1229     2.4942
 2003.0000     9.1308    -0.0021     0.0322   127.4973     2.4957
 2003.5000     9.1157    -0.0036     0.0313   126.2865     2.4972
 2004.0000     9.1006    -0.0038     0.0263   125.0757     2.4963
 2004.5000     9.1004     0.0022     0.0254   125.9639     2.4933
 2005.0000     9.0853     0.0036     0.0281   129.0981     2.5008
 2005.5000     9.0852     0.0035     0.0312   129.3894     2.5031
 2006.0000     9.0701     0.0049     0.0321   128.6255     2.4948
 2006.5000     9.0699     0.0079     0.0282   125.3158     2.4925
 2007.0000     9.0697     0.0032     0.0270   124.2499     2.4939
 2007.5000     9.0696    -0.0044     0.0284   124.8404     2.4984
 2008.0000     9.0694    -0.0166     0.0331   126.6282     2.5014
 2008.5000     9.0693    -0.0211     0.0415   125.8672     2.4848
 2009.0000     9.0542    -0.0167     0.0442   118.6594     2.4772
 2009.5000     9.0540    -0.0213     0.0459   117.7485  -999.2500
 2010.0000     9.0539    -0.0425     0.0533   120.8827  -999.2500
 2010.5000     9.0537    -0.0531     0.0765   119.5220  -999.2500
 2011.0000     9.0536    -0.0532  -999.2500   117.5616  -999.2500
 2011.5000     9.0589  -999.2500  -999.2500   117.7001  -999.2500
 2012.0000     9.0683  -999.2500  -999.2500   120.6844  -999.2500
 2012.5000     9.0681  -999.2500  -999.2500   122.3222  -999.2500
 2013.0000     9.0679  -999.2500  -999.2500   124.1099  -999.2500
 2013.5000     9.0678  -999.2500  -999.2500   127.3969  -999.2500
 2014.0000     9.0677  -999.2500  -999.2500   130.1341  -999.2500
 2014.5000     9.0675  -999.2500  -999.2500   138.0159  -999.2500
 2015.0000     9.0674  -999.2500  -999.2500   147.4499  -999.2500
 2015.5000     9.0672  -999.2500  -999.2500   147.7412  -999.2500
 2016.0000     9.0671  -999.2500     0.0394   146.5275  -999.2500
 2016.5000     9.0669  -999.2500     0.0154   144.4992  -999.2500
 2017.0000     9.0668  -999.2500     0.0587   143.2036  -999.2500
 2017.5000     9.0516  -999.2500     0.0386   143.1922  -999.2500
 2018.0000     9.0365     0.0178     0.0407   143.6306  -999.2500
 2018.5000     9.0364     0.0283     0.0383   144.9784     2.4820
 2019.0000     9.0362     0.0297     0.0323   146.7534     2.4850
 2019.5000     9.0361     0.0236     0.0281   146.1424     2.4887
 2020.0000     9.0359     0.0129     0.0347   144.9316     2.5029
 2020.5000     9.0358     0.0083     0.0411   146.1196     2.4819
 2021.0000     9.0356     0.0113     0.0445   148.5367     2.4676
 2021.5000     9.0205     0.0234     0.0409   150.4418     2.4683
 2022.0000     9.0203     0.0367     0.0371   150.8831     2.4707
 2022.5000     9.0202     0.0411     0.0289   151.0188     2.4795
 2023.0000     9.0201     0.0380     0.0265   152.2068     2.4945
 2023.5000     9.0199     0.0289     0.0272   153.0921     2.4997
 2024.0000     9.0197     0.0223     0.0214   152.6310     2.5019
 2024.5000     9.0196     0.0166     0.0193   152.1698     2.5057
 2025.0000     9.0195     0.0166     0.0181   152.3112     2.5109
 2025.5000     9.0193     0.0135     0.0194   152.7689     2.5131
 2026.0000     9.0191     0.0104     0.0218   154.3817     2.5116
 2026.5000     9.0340     0.0042     0.0239   156.1694     2.5093
 2027.0000     9.0338     0.0011     0.0288   157.9572     2.5063
 2027.5000     9.0337     0.0010     0.0285   157.9710     2.5017
 2028.0000     9.0335    -0.0005     0.0273   151.0671     2.5002
 2028.5000     9.0334     0.0024     0.0285   150.1269     2.5032
 2029.0000     9.0332     0.0038     0.0300   154.3106     2.5016
 2029.5000     9.0331     0.0037     0.0304   156.0983     2.4986
 2030.0000     9.0329     0.0036     0.0268   156.3868     2.4963
 2030.5000     9.0328     0.0035     0.0244   155.4730     2.4933
 2031.0000     9.0326     0.0034     0.0265   153.5126     2.5000
 2031.5000     9.0325     0.0033     0.0289   151.7021     2.5037
 2032.0000     9.0323     0.0032     0.0317   150.4914     2.5007
 2032.5000     9.0322     0.0032     0.0308   152.0666     2.4962
 2033.0000     9.0320     0.0031     0.0281   155.5632     2.4931
 2033.5000     9.0319     0.0045     0.0266   153.4529     2.5006
 2034.0000     9.0317     0.0059     0.0257   153.1445     2.4938
 2034.5000     9.0324     0.0058     0.0246   146.8334     2.5051
 2035.0000     9.0464     0.0042     0.0222   148.1685     2.5013
 2035.5000     9.0462     0.0026     0.0222   149.6564     2.5027
 2036.0000     9.0611     0.0025     0.0270   149.4951     2.5110
 2036.5000     9.0609     0.0040     0.0307   149.0340     2.5042
 2037.0000     9.0608     0.0039     0.0295   148.7226     2.4974
 2037.5000     9.0457     0.0038     0.0259   149.6081     2.4944
 2038.0000     9.0455     0.0037     0.0292   152.4523     2.5048
 2038.5000     9.0603     0.0051     0.0371   155.7450     2.5018
 2039.0000     9.0602     0.0050     0.0359   153.1893     2.4898
 2039.5000     9.0593     0.0079     0.0332   157.6814     2.4875
 2040.0000     9.0449     0.0078     0.0290   161.2740     2.4957
 2040.5000     9.0298     0.0077     0.0266   159.9190     2.4987
 2041.0000     9.0296     0.0061     0.0272   157.2148     2.4994
 2041.5000     9.0295     0.0061     0.0303   157.5090     2.4986
 2042.0000     9.0293     0.0045     0.0342   156.1526     2.4956
 2042.5000     9.0292     0.0028     0.0366   150.5623     2.4933
 2043.0000     9.0290     0.0028     0.0321   149.3947     2.4888
 2043.5000     9.0289     0.0027     0.0294   151.3367     2.4857
 2044.0000     9.0287     0.0026     0.0346   150.1317     2.4970
 2044.5000     9.0281     0.0040     0.0325   148.1306     2.5015
 2045.0000     9.0135     0.0054     0.0286   145.1715     2.4834
 2045.5000     9.0133     0.0083     0.0268   137.2199     2.4819
 2046.0000     9.0132     0.0128     0.0293   137.5141     2.4869
 2046.5000     8.9981     0.0142     0.0308   146.6525     2.4938
 2047.0000     8.9974     0.0156     0.0317   150.3950     2.4983
 2047.5000     8.9828     0.0155     0.0304   150.6906     2.4968
 2048.0000     8.9677     0.0185     0.0239   149.0344     2.4982
 2048.5000     8.9525     0.0183     0.0212   141.5311     2.5057
 2049.0000     8.9488     0.0122     0.0288   140.4774     2.5117
 2049.5000     8.9308     0.0061     0.0306   141.5199     2.5099
 2050.0000     8.9222     0.0015     0.0258   144.0630     2.4974
 2050.5000     8.9432    -0.0001     0.0240   152.7516     2.5003
