~VERSION INFORMATION
 VERS.                2.0:   CWLS LOG ASCII STANDARD - VERSION 2.0
 WRAP.                 NO:   ONE LINE PER DEPTH STEP
~WELL INFORMATION
#MNEM.UNIT      DATA TYPE    INFORMATION
#----------   ------------   ------------------------------
 STRT.F            4.0000:   START DEPTH
 STOP.F         1997.5000:   STOP DEPTH
 STEP.F            0.5000:   STEP LENGTH
 NULL.          -999.2500:   NO VALUE
 COMP. LAWRENCE/ALLISON INC:   COMPANY
 WELL. NPR 3 66 SX #32-11:   WELL
 FLD .             TEAPOT:   FIELD
 LOC .      S11 T38N R78W:   LOCATION
 CNTY.            NATRONA:   COUNTY
 STAT.            WYOMING:   STATE
 CTRY. UNITED STATES OF AMERICA:   COUNTRY
 SRVC.      NL McCullough:   SERVICE COMPANY
 DATE.        16-SEP-1988:   LOGDATE
 API .       490251108600:   API NUMBER
~CURVE INFORMATION
#MNEM.UNIT       API CODE    CURVE DESCRIPTION
#----------   ------------   ------------------------------
 DEPT.F                  :   
 ROP .MIN/FT 91 810 01 00:   RATE OF DRILLING PENETRATION
 GR  .GAPI   81 310 01 00:   GAMMA RAY FROM CEMENT BOND LOG
 TGAS.UNITS  91 830 01 00:   TOTAL GAS FROM HOTWIRE
~PARAMETER INFORMATION
#MNEM.UNIT          VALUE    DESCRIPTION
#----------   ------------   ------------------------------
 PD  .                 GL:   PERMANENT DATUM
 EPD .F              5170:   ELEVATION PERMANENT DATUM
 LMF .                 KB:   LOG MEASURED FROM
 DMF .                 KB:   DRILLING MEASURED FROM
 EKB .F              5170:   KELLING BUSHING
 EGL .F              5170:   GROUND LEVEL
 DATE.        16-SEP-1988:   RUN DATE
 RUN .                  1:   RUN NUMBER
 DD  .F               837:   DEPTH DRILLER
 DL  .F               737:   DEPTH LOGGER
 BLI .F               733:   BOTTOM LOG INTERVAL
 CS  .IN              5.5:   CASING SIZE
 CBD .F               836:   CASING BOTTOM DRILLER
 BSD .F               837:   BIT SIZE AT DEPTH
 DFT .              WATER:   DRILLING FLUID TYPE
 TCS .HRS             1.5:   TIME CURCULATED STOPPED
 ENGI.          BANGERTER:   RECORDING ENGINEER
 WITN.               LOWE:   WITNESSED BY
 CLNT.            A2DTECH:   CLIENT CODE
 ORIG.           5" PRINT:   ORIGIN OF DATA
 UWI .       490251108600:   UNIQUE WELL ID
 DICO. A2D Technologies, Inc.:   DIGITIZING COMPANY
~OTHER INFORMATION
~A    DEPT     ROP          GR      TGAS   
# ...
 1915.0000     0.2733  -999.2500   213.5945
 1915.5000     0.2733  -999.2500   214.6313
 1916.0000     0.2733  -999.2500   214.6313
 1916.5000     0.2733  -999.2500   215.8581
 1917.0000     0.2733  -999.2500   452.0737
 1917.5000     0.2733  -999.2500   451.0369
 1918.0000     0.2733  -999.2500   448.9631
 1918.5000     0.2733  -999.2500   223.9631
 1919.0000     0.2733  -999.2500   216.6705
 1919.5000     0.2733  -999.2500   214.5795
 1920.0000     0.2733  -999.2500   213.5945
 1920.5000     0.2733  -999.2500   162.1245
 1921.0000     0.2733  -999.2500   161.4332
 1921.5000     0.2733  -999.2500   160.7419
 1922.0000     0.2733  -999.2500   160.0506
 1922.5000     0.2733  -999.2500   159.3593
 1923.0000     0.2733  -999.2500   158.8922
 1923.5000     0.2733  -999.2500   158.8154
 1924.0000     0.2733  -999.2500   158.7385
 1924.5000     0.2733  -999.2500   158.6616
 1925.0000     0.2733  -999.2500   158.5848
 1925.5000     0.2733  -999.2500   158.5079
 1926.0000     0.2733  -999.2500   158.4310
 1926.5000     0.2733  -999.2500   158.3542
 1927.0000     0.2733  -999.2500   158.2773
 1927.5000     0.2733  -999.2500   158.2004
 1928.0000     0.2733  -999.2500   158.1236
 1928.5000     0.2733  -999.2500   158.0357
 1929.0000     0.2733  -999.2500   157.8328
 1929.5000     0.2733  -999.2500   157.5961
 1930.0000     0.2733  -999.2500   157.3593
 1930.5000     0.2733  -999.2500   157.1226
 1931.0000     0.2733  -999.2500   156.8859
 1931.5000     0.2733  -999.2500   156.6491
 1932.0000     0.2733  -999.2500   155.0351
 1932.5000     0.2733  -999.2500   150.5374
 1933.0000     0.2733  -999.2500   150.6366
 1933.5000     0.2733  -999.2500   150.7358
 1934.0000     0.2733  -999.2500   150.8350
 1934.5000     0.2733  -999.2500   150.9375
 1935.0000     0.2733  -999.2500   151.0417
 1935.5000     0.2733  -999.2500   151.1458
 1936.0000     0.2733  -999.2500   151.2500
 1936.5000     0.2733  -999.2500   156.2181
 1937.0000     0.2733  -999.2500   194.1263
 1937.5000     0.2733  -999.2500   253.6541
 1938.0000     0.2733  -999.2500   222.5033
 1938.5000     0.2733  -999.2500   193.1597
 1939.0000     0.2733  -999.2500   176.0389
 1939.5000     0.2733  -999.2500   163.9183
 1940.0000     0.2733  -999.2500   158.9734
 1940.5000     0.2733  -999.2500   154.0286
 1941.0000     0.2733  -999.2500   149.6137
 1941.5000     0.2733  -999.2500   147.5290
 1942.0000     0.2733  -999.2500   145.4443
 1942.5000     0.2733  -999.2500   143.7500
 1943.0000     0.2733  -999.2500   143.7500
 1943.5000     0.2733  -999.2500   143.7500
 1944.0000     0.2733  -999.2500   143.5507
 1944.5000     0.2733  -999.2500   142.9767
 1945.0000     0.2733  -999.2500   142.4026
 1945.5000     0.2733  -999.2500   141.8286
 1946.0000     0.2733  -999.2500   141.1250
 1946.5000     0.2733  -999.2500   140.3705
 1947.0000     0.2733  -999.2500   139.5833
 1947.5000     0.2733  -999.2500   139.5833
 1948.0000     0.2733  -999.2500   139.5833
 1948.5000     0.2733  -999.2500   142.5551
 1949.0000     0.2733  -999.2500   142.5138
 1949.5000     0.2733  -999.2500   142.4725
 1950.0000     0.2733  -999.2500   141.7431
 1950.5000     0.2731  -999.2500   140.3257
 1951.0000     0.2730  -999.2500   139.4622
 1951.5000     0.2728  -999.2500   135.5111
 1952.0000     0.2726  -999.2500   130.9886
 1952.5000     0.2725  -999.2500   129.8394
 1953.0000     0.2723  -999.2500   129.7982
 1953.5000     0.2721  -999.2500   128.5994
 1954.0000     0.2720  -999.2500   127.6514
 1954.5000     0.2718  -999.2500   126.3184
 1955.0000     0.2717  -999.2500   125.5046
 1955.5000     0.2715  -999.2500   126.8892
 1956.0000     0.2713  -999.2500   128.9791
 1956.5000     0.2712  -999.2500   131.0692
 1957.0000     0.2710  -999.2500   364.2114
 1957.5000     0.2708  -999.2500   461.7589
 1958.0000     0.2707  -999.2500   218.1409
 1958.5000     0.2705  -999.2500   197.4587
 1959.0000     0.2703  -999.2500   195.3545
 1959.5000     0.2702  -999.2500   193.2503
 1960.0000     0.2700  -999.2500   193.2103
 1960.5000     0.2699  -999.2500   195.2346
 1961.0000     0.2697  -999.2500   195.0498
 1961.5000     0.2695  -999.2500   194.8677
 1962.0000     0.2694  -999.2500   194.6857
 1962.5000     0.2692  -999.2500   194.5037
 1963.0000     0.2690  -999.2500   194.3217
 1963.5000     0.2689  -999.2500   194.1397
 1964.0000     0.2687  -999.2500   193.9577
 1964.5000     0.2685  -999.2500   193.7756
 1965.0000     0.2684  -999.2500   193.5936
 1965.5000     0.2682  -999.2500   193.4116
 1966.0000     0.2681  -999.2500   193.2296
 1966.5000     0.2679  -999.2500   193.0476
 1967.0000     0.2677  -999.2500   192.8655
 1967.5000     0.2676  -999.2500   192.6835
 1968.0000     0.2674  -999.2500   192.5015
 1968.5000     0.2672  -999.2500   192.3195
 1969.0000     0.2671  -999.2500   192.1375
 1969.5000     0.2669  -999.2500   191.9555
 1970.0000     0.2667  -999.2500   191.7734
 1970.5000     0.2666  -999.2500   191.5914
 1971.0000     0.2664  -999.2500   191.4094
 1971.5000     0.2663  -999.2500   191.2274
 1972.0000     0.2661  -999.2500   191.0454
 1972.5000     0.2659  -999.2500   190.8634
 1973.0000     0.2658  -999.2500   190.6813
 1973.5000     0.2656  -999.2500   190.4993
 1974.0000     0.2654  -999.2500   190.3173
 1974.5000     0.2653  -999.2500   190.1353
 1975.0000     0.2651  -999.2500   189.9533
 1975.5000     0.2649  -999.2500   189.7712
 1976.0000     0.2648  -999.2500   189.5892
 1976.5000     0.2646  -999.2500   192.9728
 1977.0000     0.2645  -999.2500   345.7682
 1977.5000     0.2643  -999.2500   592.5342
 1978.0000     0.2641  -999.2500   602.4217
 1978.5000     0.2640  -999.2500   595.0179
 1979.0000     0.2638  -999.2500   291.6230
 1979.5000     0.2636  -999.2500   275.1219
 1980.0000     0.2635  -999.2500   262.7586
 1980.5000     0.2633  -999.2500   250.3015
 1981.0000     0.2631  -999.2500   246.0267
 1981.5000     0.2630  -999.2500   240.0130
 1982.0000     0.2628  -999.2500   238.1333
 1982.5000     0.2627  -999.2500   238.1897
 1983.0000     0.2625  -999.2500   239.0953
 1983.5000     0.2623  -999.2500   245.4952
 1984.0000     0.2622  -999.2500   251.8965
 1984.5000     0.2620  -999.2500   258.2974
 1985.0000     0.2618  -999.2500   263.2758
 1985.5000     0.2617  -999.2500   263.3276
 1986.0000     0.2615  -999.2500   264.5179
 1986.5000     0.2613  -999.2500   270.0348
 1987.0000     0.2612  -999.2500   279.2165
 1987.5000     0.2610  -999.2500   292.6953
 1988.0000     0.2609  -999.2500   320.1366
 1988.5000     0.2607  -999.2500   360.0967
 1989.0000     0.2605  -999.2500   398.6830
 1989.5000     0.2604  -999.2500   487.0139
 1990.0000     0.2602  -999.2500   896.8902
 1990.5000     0.2600  -999.2500  -999.2500
 1991.0000     0.2599  -999.2500  -999.2500
 1991.5000     0.2597  -999.2500  -999.2500
 1992.0000     0.2595  -999.2500  -999.2500
 1992.5000     0.2594  -999.2500  -999.2500
 1993.0000     0.2592  -999.2500  -999.2500
 1993.5000     0.2591  -999.2500  -999.2500
 1994.0000     0.2589  -999.2500  -999.2500
 1994.5000     0.2587  -999.2500  -999.2500
 1995.0000     0.2586  -999.2500  -999.2500
 1995.5000     0.2584  -999.2500  -999.2500
 1996.0000     0.2582  -999.2500  -999.2500
 1996.5000     0.2581  -999.2500  -999.2500
 1997.0000     0.2579  -999.2500  -999.2500
 1997.5000     0.2577  -999.2500  -999.2500
