~VERSION INFORMATION
 VERS.                2.0:   CWLS LOG ASCII STANDARD - VERSION 2.0
 WRAP.                 NO:   ONE LINE PER DEPTH STEP
~WELL INFORMATION
#MNEM.UNIT      DATA TYPE    INFORMATION
#----------   ------------   ------------------------------
 STRT.F           21.0000:   START DEPTH
 STOP.F          495.0000:   STOP DEPTH
 STEP.F            0.5000:   STEP LENGTH
 NULL.          -999.2500:   NO VALUE
 COMP. FENIX & SCISSON U.S. NAVY:   COMPANY
 WELL.        NPR #42-S-3:   WELL
 FLD .             TEAPOT:   FIELD
 LOC .       S3 T38N R78W:   LOCATION
 CNTY.            NATRONA:   COUNTY
 STAT.            WYOMING:   STATE
 CTRY. UNITED STATES OF AMERICA:   COUNTRY
 SRVC.              Welex:   SERVICE COMPANY
 DATE.        05-MAY-1977:   LOGDATE
 API .       490251034800:   API NUMBER
~CURVE INFORMATION
#MNEM.UNIT       API CODE    CURVE DESCRIPTION
#----------   ------------   ------------------------------
 DEPT.F                  :   
 SPR .MV     07 010 01 00:   SPONTANEOUS POTENTIAL
 SGRD.OHMM   07 221 05 00:   SHALLOW SHORT GUARD RESISTIVITY
 ILD .OHMM   07 120 46 00:   INDUCTION LOG DEEP
 ILM .OHMM   07 120 44 00:   INDUCTION LOG MEDIUM
 GRD .GAPI   45 310 01 00:   GAMMA RAY FROM DENSITY LOG
 CALD.IN     45 280 60 00:   CALIPER FROM DENSITY LOG
 CORR.G/C3   45 356 01 00:   DENSITY CORRECTION
 RHOB.G/C3   45 350 01 00:   BULK DENSITY
 DPHI.DEC    45 890 12 00:   DENSITY POROSITY SANDSTONE
~PARAMETER INFORMATION
#MNEM.UNIT          VALUE    DESCRIPTION
#----------   ------------   ------------------------------
 PD  .                 GL:   PERMANENT DATUM
 EPD .F              5120:   ELEVATION PERMANENT DATUM
 LMF .                 GL:   LOG MEASURED FROM
 DMF .                 GL:   DRILLING MEASURED FROM
 EGL .F              5120:   GROUND LEVEL
 DATE.        05-MAY-1977:   RUN DATE
 RUN .                  1:   RUN NUMBER
 DD  .F               490:   DEPTH DRILLER
 DL  .F               495:   DEPTH LOGGER
 BLI .F               493:   BOTTOM LOG INTERVAL
 TLI .F                20:   TOP LOG INTERVAL
 CS  .IN            8.625:   CASING SIZE
 CBD .F                25:   CASING BOTTOM DRILLER
 CBL .F                25:   CASING BOTTOM LOGGER
 BS  .IN            7.875:   BIT SIZE
 BSD .F               490:   BIT SIZE AT DEPTH
 DFT .            KCL MUD:   DRILLING FLUID TYPE
 DFD .                8.8:   DRILLING FLUID DENSITY
 DFV .                 34:   DRILLING FLUID VISCOSITY
 DFPH.                8.0:   DRILLING FLUID PH
 DFL .                8.4:   DRILLING FLUID LOSS
 MSS .           FLOWLINE:   MUD SAMPLE SOURCE
 RMS .OHMM           0.26:   RESISTIVITY MUD SAMPLE
 MST .F                60:   MUD SAMPLE TEMPERATURE
 RMF .OHMM           0.14:   RESISTIVITY MUD FILTRATE SAMPLE
 MFST.F                60:   MUD FILTRATE SAMPLE TEMPERATURE
 RMC .OHMM           0.41:   RESISTIVITY MUD CAKE
 MCST.F                60:   MUD CAKE SAMPLE TEMPERATURE
 MFSS.           FANN KIT:   MUD FILTRATE SAMPLE SOURCE
 MCSS.            FANNKIT:   MUD CAKE SAMPLE SOURCE
 RMB .OHMM           0.21:   RESISTIVITY MUD AT BHT
 BHT .F                71:   BOTTOM HOLE TEMPERATURE
 TCS .HRS            0130:   TIME CURCULATED STOPPED
 MRT .F                71:   MAXIMUM RECORDED TEMPERATURE
 LUN .               8611:   LOGGING UNIT NUMBER
 LUL .             CASPER:   LOGGING UNIT LOCATION
 ENGI.            C. DOAK:   RECORDING ENGINEER
 WITN.            R. LYON:   WITNESSED BY
 CLNT.            A2DTECH:   CLIENT CODE
 ORIG.           5" PRINT:   ORIGIN OF DATA
 UWI .       490251034800:   UNIQUE WELL ID
 DICO. A2D Technologies, Inc.:   DIGITIZING COMPANY
~OTHER INFORMATION
~A   DEPT      SPR       SGRD        ILD        ILM         GRD        CALD       CORR       RHOB       DPHI 
   21.0000  -999.2500  -999.2500  -999.2500  -999.2500    88.4101     8.1536     0.0397     2.3487     0.1924
   21.5000  -999.2500  -999.2500  -999.2500  -999.2500    89.0801     8.1387     0.0391     2.3450     0.1937
   22.0000  -999.2500  -999.2500  -999.2500  -999.2500    95.4800     8.0791     0.0322     2.3285     0.2104
   22.5000  -999.2500  -999.2500  -999.2500  -999.2500   101.1957     8.0045     0.0247     2.3113     0.2194
   23.0000  -999.2500  -999.2500  -999.2500  -999.2500   106.3100     7.9449     0.0195     2.3109     0.2161
   23.5000  -999.2500  -999.2500  -999.2500  -999.2500   110.9731     7.9302     0.0218     2.3697     0.1915
   24.0000  -999.2500  -999.2500  -999.2500  -999.2500   114.1324     8.1102     0.0277     2.4391     0.1508
   24.5000  -999.2500  -999.2500  -999.2500  -999.2500   114.7354     8.3350     0.0269     2.4536     0.1328
   25.0000  -999.2500  -999.2500  -999.2500  -999.2500   114.1353     8.1882     0.0254     2.4476     0.1354
   25.5000   -33.2311     7.8355     0.3285     5.1590   114.1748     7.9614     0.0232     2.4454     0.1373
   26.0000   -35.0301     6.8323     0.5743     5.0166   116.0935     8.0366     0.0240     2.4491     0.1334
   26.5000   -35.6436     9.3799     1.0738     5.0149   118.5010     8.2165     0.0254     2.4581     0.1280
   27.0000   -36.3934     9.7748     2.4426     5.1891   120.9084     7.9024     0.0262     2.4679     0.1190
   27.5000   -36.9993     9.9085     4.2990     5.4815   123.1656     7.7230     0.0277     2.4821     0.1127
   28.0000   -37.4564    10.1139     5.4447     6.2956   124.8211     7.7683     0.0284     2.4927     0.1070
   28.5000   -38.0623    10.3949     5.7824     7.4184   126.0256     7.9033     0.0284     2.4994     0.1046
   29.0000   -38.6682    10.7602     5.8627     8.5123   126.1774     7.9485     0.0262     2.4956     0.1079
   29.5000   -38.8504    11.2101     6.2811     8.8696   125.8360     7.9788     0.0240     2.4829     0.1135
   30.0000   -39.2875    11.6009     7.2097     8.6845   124.5266     7.9941     0.0202     2.4732     0.1195
   30.5000   -39.7446    11.6797     8.2187     8.4454   124.6784     7.9944     0.0180     2.4680     0.1237
   31.0000   -39.9041    11.5174     8.6847     6.8653   124.9806     7.9797     0.0172     2.4635     0.1261
   31.5000   -40.0636    11.5155     8.7448     5.7668   125.5836     7.9500     0.0172     2.4613     0.1279
   32.0000   -40.0744    11.5135     8.0505     4.8936   126.4873     7.8755     0.0172     2.4622     0.1282
   32.5000   -40.2364    11.6715     7.1110     5.2411   127.5414     7.8308     0.0180     2.4703     0.1199
   33.0000   -40.5447    11.6690     7.8857     6.2249   128.5995     7.8162     0.0172     2.4778     0.1156
   33.5000   -40.5553    11.6671     8.7448     7.6000   128.1228     7.8808     0.0172     2.4793     0.1168
   34.0000   -40.5660    11.7464     8.7610     8.6607   126.9446     7.9665     0.0165     2.4793     0.1189
   34.5000   -40.7255    11.4245     7.8839     8.8388   126.0438     7.9668     0.0142     2.4786     0.1188
   35.0000   -41.0364    11.1119     7.4028     8.4189   125.1430     7.9521     0.0135     2.4749     0.1218
   35.5000   -41.1959    11.8460     7.2596     7.3829   124.2422     7.9224     0.0120     2.4644     0.1269
   36.0000   -41.2066    12.8386     7.2596     6.2550   123.7922     7.8928     0.0120     2.4553     0.1311
   36.5000   -41.3661    12.1472     7.2596     5.4101   124.0948     7.8632     0.0135     2.4547     0.1307
   37.0000   -41.8232    12.3138     7.2596     5.1535   125.0164     7.8485     0.0142     2.4599     0.1278
   37.5000   -41.9953    12.8317     7.2596     5.2610   126.7293     7.8488     0.0150     2.4637     0.1254
   38.0000   -42.4424    12.3949     7.2596     5.7107   129.0619     7.8492     0.0165     2.4690     0.1224
   38.5000   -42.6019    11.9709     7.2097     6.2441   129.8152     7.8794     0.0180     2.4727     0.1194
   39.0000   -42.9102    11.8066     7.1602     6.5959   127.5611     7.9096     0.0195     2.4742     0.1197
   39.5000   -43.2185    11.8046     7.0621     6.9676   126.9607     7.9548     0.0180     2.4727     0.1211
   40.0000   -43.6756    11.8848     7.0136     6.7293   127.4136     7.9700     0.0157     2.4694     0.1272
   40.5000   -43.9866    12.0473     6.9654     6.3661   129.8211     7.9104     0.0135     2.4571     0.1319
   41.0000   -44.2948    12.1291     6.8228     6.5624   129.3714     7.8509     0.0120     2.4518     0.1340
   41.5000   -44.4543    12.2950     6.7294     7.1032   131.3281     7.8213     0.0120     2.4518     0.1337
   42.0000   -44.9114    12.4750     6.6372     7.5554   133.5852     7.8385     0.0112     2.4519     0.1331
   42.5000   -45.2197    12.2904     6.5014     7.3983   135.8423     7.9117     0.0105     2.4526     0.1328
   43.0000   -45.5432    11.7904     6.4124     7.1947   138.2498     7.9420     0.0097     2.4526     0.1328
   43.5000   -45.9878    11.3890     6.2811     7.0938   139.0031     7.9572     0.0097     2.4526     0.1325
   44.0000   -46.1473    11.0013     6.1525     6.9943   138.5535     7.9725     0.0097     2.4543     0.1327
   44.5000   -46.3067    10.7003     6.1103     6.9914   135.5474     7.9877     0.0097     2.4482     0.1342
   45.0000   -46.4662    10.4735     6.1525     7.0867   131.7291     7.9880     0.0082     2.4385     0.1378
   45.5000   -46.6257    10.2629     6.1951     7.1821   127.2800     7.9734     0.0060     2.4362     0.1423
   46.0000   -46.7878    10.1911     6.2380     7.3298   123.0709     7.9437     0.0045     2.4407     0.1390
   46.5000   -46.7985    10.5464     6.3246     7.4805   122.3201     7.9290     0.0068     2.4490     0.1333
   47.0000   -46.9580    11.1425     6.4124     7.6897   120.8182     7.9143     0.0090     2.4550     0.1282
   47.5000   -47.2663    12.7877     6.5014     8.1196   118.8648     7.9147     0.0120     2.4641     0.1222
   48.0000   -47.2770    13.1430     6.5916     8.8779   117.3625     7.9150     0.0150     2.4734     0.1189
   48.5000   -47.2879    12.7829     6.6372     9.5750   116.0105     7.9303     0.0172     2.4775     0.1174
   49.0000   -47.3010    12.0119     6.6832     7.9455   114.6346     7.9306     0.0180     2.4790     0.1174
   49.5000   -47.4605    10.5354     6.8228     6.9124   113.3071     7.9159     0.0187     2.4783     0.1186
   50.0000   -47.7403     9.1774     6.8794     8.1061   112.4059     7.9012     0.0187     2.4783     0.1186
   50.5000   -48.5120    11.4868     6.9378     8.8029   112.4077     7.8715     0.0186     2.4821     0.1165
   51.0000   -48.9712    13.4922     6.9961     8.6199   113.6122     7.8569     0.0165     2.4881     0.1099
   51.5000   -49.2746    13.2106     7.0163     8.3256   115.8693     7.8572     0.0165     2.4942     0.1078
   52.0000   -49.4291    12.4976     7.1543     8.0970   117.8256     7.8575     0.0165     2.4979     0.1060
   52.5000   -49.8812    11.9872     7.2024     8.0393   118.2782     7.8578     0.0172     2.5008     0.1029
   53.0000   -49.8870    11.6573     7.3511     8.0371   119.0736     7.8431     0.0180     2.5046     0.0998
   53.5000   -50.0595    11.0281     7.4008     8.1465   121.2890     7.8134     0.0180     2.5091     0.0951
   54.0000   -50.4951    11.3327     7.5536     8.3146   124.1476     7.8138     0.0195     2.5158     0.0921
   54.5000   -50.5008    11.4073     7.6044     8.4855   127.4573     7.8440     0.0187     2.5218     0.0909
   55.0000   -50.6553    11.3252     7.6554     8.5425   130.3159     7.8618     0.0195     2.5241     0.0903
   55.5000   -50.9587    11.5570     7.6535     8.0815   129.7159     7.8896     0.0180     2.5271     0.0909
   56.0000   -51.1132    12.0411     7.6520     7.9687   127.3113     7.8899     0.0165     2.5241     0.0927
   56.5000   -51.4286    13.0753     7.6505     7.9118   125.6587     7.8902     0.0157     2.5173     0.0957
   57.0000   -51.8701    12.6270     7.7552     8.0745   125.8266     7.8904     0.0150     2.5032     0.0981
