~VERSION INFORMATION
 VERS.                2.0:   CWLS LOG ASCII STANDARD - VERSION 2.0
 WRAP.                 NO:   ONE LINE PER DEPTH STEP
~WELL INFORMATION
#MNEM.UNIT      DATA TYPE    INFORMATION
#----------   ------------   ------------------------------
 STRT.F           30.0000:   START DEPTH
 STOP.F         1178.5000:   STOP DEPTH
 STEP.F            0.5000:   STEP LENGTH
 NULL.          -999.2500:   NO VALUE
 COMP. FENIX & SCISSON INC:   COMPANY
 WELL.     64-S-14 #14-14:   WELL
 FLD .        TEAPOT DOME:   FIELD
 LOC .      S14 T38N R78W:   LOCATION
 CNTY.            NATRONA:   COUNTY
 STAT.            WYOMING:   STATE
 CTRY. UNITED STATES OF AMERICA:   COUNTRY
 SRVC.            Unknown:   SERVICE COMPANY
 DATE.        19-APR-1978:   LOGDATE
 API .       490251061400:   API NUMBER
~CURVE INFORMATION
#MNEM.UNIT       API CODE    CURVE DESCRIPTION
#----------   ------------   ------------------------------
 DEPT.F                  :   
 SPR .MV     05 010 01 00:   SPONTANEOUS POTENTIAL
 SN  .OHMM   05 040 16 00:   SHORT NORMAL 16'
 ILD .OHMM   05 120 46 00:   INDUCTION LOG DEEP
 CALD.IN     45 280 60 00:   CALIPER
 GRD .GAPI   45 310 01 00:   GAMMA RAY FROM DENSITY LOG
 RHOB.G/C3   45 350 01 00:   BULK DENSITY
 DPHI.DEC    45 890 12 00:   DENSITY POROSITY SANDSTONE
 CORR.G/C3   45 356 01 00:   DENSITY CORRECTION
~PARAMETER INFORMATION
#MNEM.UNIT          VALUE    DESCRIPTION
#----------   ------------   ------------------------------
 PD  .                 GL:   PERMANENT DATUM
 EPD .F              5235:   ELEVATION PERMANENT DATUM
 LMF .                 KB:   LOG MEASURED FROM
 DMF .                 KB:   DRILLING MEASURED FROM
 EKB .F              5299:   KELLING BUSHING
 EGL .F              5295:   GROUND LEVEL
 DATE.          4-19-1978:   RUN DATE
 RUN .                  1:   RUN NUMBER
 DD  .F              1180:   DEPTH DRILLER
 DL  .F              1182:   DEPTH LOGGER
 BLI .F              1176:   BOTTOM LOG INTERVAL
 TLI .F                50:   TOP LOG INTERVAL
 CS  .IN            8.625:   CASING SIZE
 CBD .F                40:   CASING BOTTOM DRILLER
 CBL .F                50:   CASING BOTTOM LOGGER
 BS  .IN            7.875:   BIT SIZE
 BSD .F              1180:   BIT SIZE AT DEPTH
 DFT .                KCL:   DRILLING FLUID TYPE
 DFD .                8.7:   DRILLING FLUID DENSITY
 DFV .                 33:   DRILLING FLUID VISCOSITY
 DFPH.               10.5:   DRILLING FLUID PH
 DFL .               12.3:   DRILLING FLUID LOSS
 MSS .            MUD PIT:   MUD SAMPLE SOURCE
 RMS .OHMM            .54:   RESISTIVITY MUD SAMPLE
 MST .F                62:   MUD SAMPLE TEMPERATURE
 RMF .OHMM            .65:   RESISTIVITY MUD FILTRATE SAMPLE
 MFST.F                60:   MUD FILTRATE SAMPLE TEMPERATURE
 RMC .OHMM            .35:   RESISTIVITY MUD CAKE
 MCST.F                60:   MUD CAKE SAMPLE TEMPERATURE
 MFSS.           MEASURED:   MUD FILTRATE SAMPLE SOURCE
 RMB .OHMM            .42:   RESISTIVITY MUD AT BHT
 BHT .F                80:   BOTTOM HOLE TEMPERATURE
 TCS .HRS               2:   TIME CURCULATED STOPPED
 MRT .F                80:   MAXIMUM RECORDED TEMPERATURE
 LUN .               2955:   LOGGING UNIT NUMBER
 LUL .               CASP:   LOGGING UNIT LOCATION
 ENGI.             MILLER:   RECORDING ENGINEER
 WITN.           MCGINLEY:   WITNESSED BY
 CLNT.            A2DTECH:   CLIENT CODE
 ORIG.      2" & 5" PRINT:   ORIGIN OF DATA
 UWI .       490251061400:   UNIQUE WELL ID
 DICO. A2D Technologies, Inc.:   DIGITIZING COMPANY
~OTHER INFORMATION
~A   DEPT      SPR         SN        ILD       CALD         GRD      RHOB       DPHI       CORR   
# ...
  151.5000   -44.4213     5.4498     5.2515     7.9148    84.1217     2.4239     0.1457     0.0145
  152.0000   -44.4350     5.4441     5.2473     7.9095    83.7680     2.4148     0.1492     0.0130
  152.5000   -44.4486     5.4455     5.2188     7.9132    85.5039     2.4116     0.1505     0.0163
  153.0000   -44.4622     5.3507     5.1797     7.9295    85.7855     2.4136     0.1492     0.0194
  153.5000   -44.4758     5.2821     5.1409     7.9452    84.4417     2.4183     0.1473     0.0226
  154.0000   -44.4895     5.2144     5.1024     7.9609    83.1485     2.4212     0.1453     0.0258
  154.5000   -44.5031     5.1475     5.0642     7.9767    82.2814     2.4237     0.1440     0.0269
  155.0000   -44.5167     5.1007     5.0263     7.9924    83.0225     2.4261     0.1439     0.0274
  155.5000   -44.5303     5.0890     4.9886     8.0081    84.2485     2.4283     0.1438     0.0279
  156.0000   -44.5440     5.0773     4.9513     8.0238    84.9956     2.4257     0.1437     0.0284
  156.5000   -44.5576     5.0656     4.9142     8.0395    82.2775     2.4236     0.1437     0.0266
  157.0000   -44.5712     5.0429     4.8774     8.0552    79.8282     2.4242     0.1437     0.0238
  157.5000   -44.5850     5.0023     4.8409     8.0710    80.0254     2.4232     0.1461     0.0209
  158.0000   -44.5988     4.9622     4.8046     8.0874    81.0200     2.4196     0.1483     0.0180
  158.5000   -44.6438     4.9223     4.7687     8.0777    82.0051     2.4137     0.1505     0.0151
  159.0000   -44.7118     4.8827     4.7330     8.0618    82.9889     2.4079     0.1527     0.0152
  159.5000   -44.7800     4.8435     4.6975     8.0373    83.9252     2.4042     0.1545     0.0164
  160.0000   -44.8485     4.8046     4.6624     7.9806    84.2681     2.4024     0.1546     0.0176
  160.5000   -44.9172     4.7660     4.6274     7.9262    84.0675     2.4042     0.1534     0.0188
  161.0000   -44.9869     4.7441     4.5928     7.8863    83.9392     2.4068     0.1523     0.0200
  161.5000   -44.9899     4.7441     4.5733     7.8776    84.6766     2.4094     0.1511     0.0197
  162.0000   -44.9776     4.7441     4.5733     7.8689    86.2452     2.4090     0.1508     0.0171
  162.5000   -44.9648     4.7441     4.5733     7.8419    90.0171     2.4065     0.1540     0.0080
  163.0000   -44.9521     4.7646     4.6072     7.8140    93.6715     2.4039     0.1549     0.0099
  163.5000   -44.9394     4.8463     4.6828     7.7862    97.0383     2.4022     0.1536     0.0141
  164.0000   -44.9268     4.9293     4.7596     7.7582    94.8513     2.4065     0.1492     0.0184
  164.5000   -44.9141     5.0136     4.8376     7.7314    90.5590     2.4260     0.1423     0.0196
  165.0000   -44.9015     5.1080     4.9171     7.7485    87.3633     2.4447     0.1354     0.0166
  165.5000   -44.8888     5.2138     4.9980     7.7678    86.0467     2.4486     0.1301     0.0191
  166.0000   -44.8762     5.3218     5.0801     7.7861    84.6904     2.4568     0.1253     0.0144
  166.5000   -44.8635     5.4319     5.1401     7.8093    83.4969     2.4659     0.1216     0.0048
  167.0000   -44.8509     5.5444     5.1911     7.8099    87.0595     2.4543     0.1267     0.0048
  167.5000   -44.8382     5.6465     5.2427     7.8102    92.2478     2.4461     0.1329     0.0123
  168.0000   -44.8256     5.6465     5.2947     7.8231    97.4667     2.4404     0.1391     0.0102
  168.5000   -44.8129     5.6465     5.3473     7.8598   100.7295     2.4324     0.1424     0.0108
  169.0000   -44.8003     5.6524     5.3967     7.8962   103.5701     2.4268     0.1390     0.0180
  169.5000   -44.7876     5.6991     5.4217     7.9297   106.4249     2.4369     0.1343     0.0253
  170.0000   -44.7750     5.7462     5.4467     7.9338   109.3450     2.4462     0.1324     0.0221
  170.5000   -44.7623     5.7937     5.4719     7.9371   109.1646     2.4456     0.1339     0.0166
  171.0000   -44.7497     5.8416     5.4972     7.9405   105.8230     2.4446     0.1353     0.0124
  171.5000   -44.7370     5.8899     5.5226     7.9440   103.0212     2.4435     0.1352     0.0125
  172.0000   -44.7244     5.9163     5.5481     7.9474   100.3471     2.4434     0.1335     0.0123
  172.5000   -44.7117     5.9254     5.5737     7.9471    99.7291     2.4448     0.1321     0.0119
  173.0000   -44.6991     5.9345     5.5995     7.9326    99.1989     2.4473     0.1310     0.0115
  173.5000   -44.6864     5.9436     5.6253     7.9185    98.6454     2.4497     0.1298     0.0111
  174.0000   -44.6738     5.9528     5.6465     7.9043    99.1194     2.4503     0.1288     0.0106
  174.5000   -44.6611     5.9656     5.5950     7.8908   100.6561     2.4440     0.1360     0.0130
  175.0000   -44.6485     5.9015     5.5186     7.9056    99.9473     2.4378     0.1376     0.0167
  175.5000   -44.6358     5.7956     5.4428     7.9220    97.1109     2.4375     0.1355     0.0204
  176.0000   -44.6232     5.6916     5.3680     7.9383    96.7229     2.4436     0.1314     0.0242
  176.5000   -44.6106     5.5895     5.2943     7.9546    94.7909     2.4502     0.1273     0.0266
  177.0000   -44.6045     5.4892     5.2214     7.9709    91.2421     2.4558     0.1258     0.0265
  177.5000   -44.6044     5.3936     5.1509     7.9871    87.6839     2.4580     0.1251     0.0246
  178.0000   -44.6044     5.3936     5.1520     8.0035    84.1176     2.4599     0.1245     0.0226
  178.5000   -44.6044     5.4432     5.1994     8.0056    81.1494     2.4615     0.1240     0.0206
  179.0000   -44.6044     5.4933     5.2473     7.9986    81.9663     2.4605     0.1247     0.0186
  179.5000   -44.6044     5.6408     5.3881     7.9914   100.3363     2.4591     0.1255     0.0167
  180.0000   -44.6044     5.7852     5.5261     7.9842   106.8431     2.4567     0.1276     0.0147
  180.5000   -44.6044     5.9333     5.6676     7.9770   100.6924     2.4536     0.1289     0.0127
  181.0000   -44.6044     6.0852     5.8127     7.9698    94.7016     2.4505     0.1305     0.0107
  181.5000   -44.6044     6.2410     5.9616     7.9626    89.6334     2.4472     0.1345     0.0088
  182.0000   -44.6044     6.4158     6.1217     7.9555    89.4018     2.4400     0.1385     0.0085
  182.5000   -44.6044     6.3957     6.0650     7.9498    97.4210     2.4328     0.1410     0.0088
  183.0000   -44.6044     6.3689     5.9902     7.9523   103.7409     2.4305     0.1405     0.0119
  183.5000   -44.6044     6.3423     5.9163     7.9556   105.0881     2.4333     0.1399     0.0149
  184.0000   -44.6044     6.3158     5.8433     7.9590   105.0667     2.4348     0.1392     0.0179
  184.5000   -44.6044     6.2495     5.7712     7.9624   104.4953     2.4353     0.1365     0.0209
  185.0000   -44.6044     6.1463     5.7509     7.9657   100.8846     2.4412     0.1338     0.0222
  185.5000   -44.6044     6.0448     5.7509     7.9691    95.6767     2.4481     0.1311     0.0213
  186.0000   -44.6044     5.9450     5.7367     7.9725    90.4697     2.4514     0.1292     0.0206
  186.5000   -44.6044     5.8469     5.6295     7.9759    85.1996     2.4516     0.1286     0.0286
  187.0000   -44.6044     5.7504     5.5244     7.9792    83.2755     2.4583     0.1237     0.0306
  187.5000   -44.6044     5.6553     5.4212     7.9826    84.6147     2.4652     0.1215     0.0275
  188.0000   -44.6044     5.5927     5.3199     7.9860    86.4368     2.4607     0.1262     0.0243
  188.5000   -44.6044     5.5870     5.2876     7.9897    88.2580     2.4558     0.1289     0.0225
  189.0000   -44.6044     5.5814     5.2770     7.9791    89.3645     2.4509     0.1310     0.0225
  189.5000   -44.6044     5.5757     5.2664     7.9656    87.2928     2.4484     0.1320     0.0225
  190.0000   -44.6044     5.5700     5.2559     7.9521    84.9482     2.4468     0.1321     0.0225
  190.5000   -44.6044     5.5644     5.2473     7.9389    83.2734     2.4483     0.1297     0.0226
  191.0000   -44.6044     5.5587     5.2606     7.9308    83.2961     2.4516     0.1273     0.0225
  191.5000   -44.6044     5.5530     5.2741     7.9339    83.8587     2.4551     0.1270     0.0193
