~VERSION INFORMATION
 VERS.                2.0:   CWLS LOG ASCII STANDARD - VERSION 2.0
 WRAP.                 NO:   ONE LINE PER DEPTH STEP
~WELL INFORMATION
#MNEM.UNIT      DATA TYPE    INFORMATION
#----------   ------------   ------------------------------
 STRT.F            0.0000:   START DEPTH
 STOP.F         1110.0000:   STOP DEPTH
 STEP.F            0.5000:   STEP LENGTH
 NULL.          -999.2500:   NO VALUE
 COMP. FENIX & SCISSON INC:   COMPANY
 WELL. NAVAL PETROLEUM RESERVE 3 SX-1 #63-14:   WELL
 FLD .       TEA POT DOME:   FIELD
 LOC .      S14 T38N R78W:   LOCATION
 CNTY.            NATRONA:   COUNTY
 STAT.            WYOMING:   STATE
 CTRY. UNITED STATES OF AMERICA:   COUNTRY
 SRVC.            Unknown:   SERVICE COMPANY
 DATE.        15-APR-1978:   LOGDATE
 API .       490251061500:   API NUMBER
~CURVE INFORMATION
#MNEM.UNIT       API CODE    CURVE DESCRIPTION
#----------   ------------   ------------------------------
 DEPT.F                  :   
 NPHI.DEC    42 890 03 00:   NEUTRON POROSITY SANDSTONE
 GRD .GAPI   45 310 01 00:   GAMMA RAY FROM DENSITY LOG
 CALD.IN     45 280 60 00:   CALIPER FROM DENSITY LOG
 RHOB.G/C3   45 350 01 00:   BULK DENSITY
 DPHI.DEC    45 890 12 00:   DENSITY POROSITY SANDSTONE
 CORR.G/C3   45 356 01 00:   DENSITY CORRECTION
 SPR .MV     05 010 01 00:   SPONTANEOUS POTENTIAL FROM RES.
 SN  .OHMM   05 040 16 00:   SHORT NORMAL 16"
 ILD .OHMM   05 120 46 00:   INDUCTION LOG DEEP
~PARAMETER INFORMATION
#MNEM.UNIT          VALUE    DESCRIPTION
#----------   ------------   ------------------------------
 PD  .                 GL:   PERMANENT DATUM
 EPD .F              5253:   ELEVATION PERMANENT DATUM
 LMF .                 KB:   LOG MEASURED FROM
 DAPD.F                 4:   FEET ABOVE PERMANENT DATUM
 DMF .                 KB:   DRILLING MEASURED FROM
 EKB .F              5257:   KELLING BUSHING
 EGL .F              5253:   GROUND LEVEL
 DATE.          4-15-1978:   RUN DATE
 RUN .                  1:   RUN NUMBER
 DD  .F              1095:   DEPTH DRILLER
 DL  .F              1102:   DEPTH LOGGER
 BLI .F              1100:   BOTTOM LOG INTERVAL
 TLI .F               850:   TOP LOG INTERVAL
 CS  .IN            9.625:   CASING SIZE
 CBD .F                40:   CASING BOTTOM DRILLER
 CBL .F                40:   CASING BOTTOM LOGGER
 BS  .IN            7.875:   BIT SIZE
 BSD .F              1095:   BIT SIZE AT DEPTH
 DFT .                KCL:   DRILLING FLUID TYPE
 DFD .                8.6:   DRILLING FLUID DENSITY
 DFV .                 30:   DRILLING FLUID VISCOSITY
 DFPH.                 10:   DRILLING FLUID PH
 DFL .                  8:   DRILLING FLUID LOSS
 MSS .           FLOWLINE:   MUD SAMPLE SOURCE
 RMS .OHMM            .46:   RESISTIVITY MUD SAMPLE
 MST .F                58:   MUD SAMPLE TEMPERATURE
 RMF .OHMM             .5:   RESISTIVITY MUD FILTRATE SAMPLE
 MFST.F                60:   MUD FILTRATE SAMPLE TEMPERATURE
 RMC .OHMM             .5:   RESISTIVITY MUD CAKE
 MCST.F                60:   MUD CAKE SAMPLE TEMPERATURE
 MFSS.           MEASURED:   MUD FILTRATE SAMPLE SOURCE
 RMB .OHMM            .33:   RESISTIVITY MUD AT BHT
 BHT .F                80:   BOTTOM HOLE TEMPERATURE
 TCS .HRS               6:   TIME CURCULATED STOPPED
 MRT .F                80:   MAXIMUM RECORDED TEMPERATURE
 LUN .               2958:   LOGGING UNIT NUMBER
 LUL .               CASP:   LOGGING UNIT LOCATION
 ENGI.             MILLER:   RECORDING ENGINEER
 WITN.           MCGINLEY:   WITNESSED BY
 CLNT.            A2DTECH:   CLIENT CODE
 ORIG.      2" & 5" PRINT:   ORIGIN OF DATA
 UWI .       490251061500:   UNIQUE WELL ID
 DICO. A2D Technologies, Inc.:   DIGITIZING COMPANY
~OTHER INFORMATION
~A    DEPT    NPHI         GRD      CALD       RHOB       DPHI       CORR        SPR         SN        ILD   
# ...
  511.0000  -999.2500    83.1244     7.9695     2.2921     0.2027     0.0486   -44.4059     8.5679    10.5866
  511.5000  -999.2500    84.2309     7.9753     2.3200     0.1933     0.0586   -44.9479     8.4254    10.6422
  512.0000  -999.2500    85.3749     8.0119     2.3653     0.1621     0.0745   -45.4526     8.2847    10.1928
  512.5000  -999.2500    87.8266     8.0590     2.3752     0.1579     0.0851   -45.9853     8.1456     9.5602
  513.0000  -999.2500    97.6539     8.0584     2.3857     0.1526     0.0697   -46.8657     8.0013     8.9668
  513.5000  -999.2500   105.3764     8.0355     2.3959     0.1473     0.0512   -47.8168     7.6884     8.4102
  514.0000  -999.2500   104.1873     8.0075     2.4115     0.1401     0.0408   -48.7869     7.2779     7.8882
  514.5000  -999.2500   101.0666     8.0147     2.4284     0.1216     0.0497   -49.4177     6.8887     7.3986
  515.0000  -999.2500   102.7864     8.0391     2.4316     0.1265     0.0584   -49.4081     6.5206     6.9393
  515.5000  -999.2500   103.2572     8.0436     2.4153     0.1364     0.0634   -49.4082     6.1809     6.5086
  516.0000  -999.2500    96.1449     7.9766     2.4199     0.1337     0.0383   -49.4110     5.8976     5.9578
  516.5000  -999.2500    95.4490     7.9901     2.4248     0.1296     0.0422   -49.4141     5.7419     5.9875
  517.0000  -999.2500   101.3784     8.0353     2.4296     0.1252     0.0488   -49.4173     5.7759     6.0433
  517.5000  -999.2500   101.3419     8.0380     2.4182     0.1291     0.0546   -49.4204     5.8157     6.0977
  518.0000  -999.2500   100.9396     8.0030     2.4125     0.1350     0.0535   -49.4235     5.9034     6.1522
  518.5000  -999.2500   102.0267     7.9677     2.4138     0.1355     0.0526   -49.4266     5.9914     6.1806
  519.0000  -999.2500   100.5603     8.0446     2.4153     0.1360     0.0556   -49.4297     6.0797     6.0844
  519.5000  -999.2500    98.6434     8.0687     2.4155     0.1416     0.0589   -49.4328     6.1251     6.0205
  520.0000  -999.2500    99.5170     8.0455     2.4148     0.1304     0.0621   -49.4359     6.1320     5.9572
  520.5000  -999.2500   101.4314     8.0220     2.4140     0.1324     0.0654   -49.4390     6.1373     5.8946
  521.0000  -999.2500   102.2037     7.9967     2.4147     0.1350     0.0684   -49.4421     6.1426     5.8327
  521.5000  -999.2500    99.1271     7.9369     2.4160     0.1342     0.0663   -49.4452     6.1479     5.7947
  522.0000  -999.2500    96.6283     7.8814     2.4167     0.1312     0.0654   -49.4483     6.1533     5.8403
  522.5000  -999.2500    96.2302     7.9223     2.4156     0.1327     0.0699   -49.4515     6.1586     5.8735
  523.0000  -999.2500    96.0887     7.9662     2.4151     0.1340     0.0706   -49.4546     6.1639     5.9069
  523.5000  -999.2500    95.4251     7.9971     2.4136     0.1354     0.0701   -49.4577     6.1693     5.9405
  524.0000  -999.2500    94.7776     7.9591     2.4108     0.1368     0.0664   -49.4608     6.1745     5.9743
  524.5000  -999.2500    94.3038     7.9214     2.4099     0.1382     0.0572   -49.4639     6.1804     6.0121
  525.0000  -999.2500    94.9524     7.9550     2.4099     0.1396     0.0524   -49.4670     6.1648     5.9966
  525.5000  -999.2500    95.9603     7.9964     2.4111     0.1400     0.0492   -49.4701     6.1466     5.9791
  526.0000  -999.2500    96.9977     8.0384     2.4216     0.1328     0.0474   -49.4732     6.1287     5.9616
  526.5000  -999.2500    97.3400     8.0360     2.4366     0.1255     0.0556   -49.4763     6.1108     5.9442
  527.0000  -999.2500    92.2219     7.9962     2.4523     0.1182     0.0638   -49.4795     6.0929     5.9269
  527.5000  -999.2500    87.2254     7.9555     2.4532     0.1128     0.0719   -49.4826     6.0751     5.9096
  528.0000  -999.2500    85.0622     7.9675     2.4521     0.1112     0.0788   -49.4857     6.0574     5.8923
  528.5000  -999.2500    88.7675     8.0172     2.4471     0.1112     0.0732   -49.4888     6.0396     5.8751
  529.0000  -999.2500    90.3301     8.0487     2.4411     0.1192     0.0638   -49.4919     6.0217     5.8579
  529.5000  -999.2500    90.8635     7.9891     2.4420     0.1200     0.0548   -49.4950     6.0121     5.8483
  530.0000  -999.2500    91.6026     7.9317     2.4416     0.1180     0.0545   -49.4981     6.0831     5.9173
  530.5000  -999.2500    93.3616     7.9087     2.4390     0.1198     0.0545   -49.5012     6.1329     5.9658
  531.0000  -999.2500    94.2381     7.9633     2.4410     0.1232     0.0545   -49.5043     6.1832     6.0147
  531.5000  -999.2500    94.9451     8.0163     2.4410     0.1219     0.0546   -49.5075     6.2338     6.0640
  532.0000  -999.2500    95.0412     8.0699     2.4417     0.1203     0.0546   -49.5106     6.2849     6.1136
  532.5000  -999.2500    95.0536     8.1148     2.4442     0.1187     0.0545   -49.5137     6.3364     6.1637
  533.0000  -999.2500    95.6398     8.0099     2.4458     0.1171     0.0533   -49.5168     6.3883     6.2142
  533.5000  -999.2500    96.9066     7.9582     2.4426     0.1168     0.0508   -49.5199     6.4407     6.2652
  534.0000  -999.2500    96.6945     7.9583     2.4394     0.1207     0.0475   -49.5230     6.4935     6.3165
  534.5000  -999.2500    94.2542     7.9755     2.4397     0.1221     0.0408   -49.5261     6.5467     6.3683
  535.0000  -999.2500    91.8592     8.0312     2.4428     0.1197     0.0441   -49.5292     6.6003     6.4204
  535.5000  -999.2500    90.7934     8.0723     2.4450     0.1159     0.0473   -49.5323     6.6544     6.4731
  536.0000  -999.2500    92.1861     8.0234     2.4449     0.1120     0.0504   -49.5354     6.7089     6.5261
  536.5000  -999.2500    94.0290     7.9757     2.4450     0.1186     0.0488   -49.5386     6.7639     6.5796
  537.0000  -999.2500    93.0393     7.9269     2.4450     0.1171     0.0469   -49.5417     6.8193     6.6335
  537.5000  -999.2500    90.8298     7.9462     2.4392     0.1156     0.0451   -49.5448     6.8752     6.6878
  538.0000  -999.2500    88.6263     7.9928     2.4367     0.1196     0.0432   -49.5479     6.9029     6.7154
  538.5000  -999.2500    88.7194     8.0356     2.4518     0.1140     0.0424   -49.5510     6.9029     6.7148
  539.0000  -999.2500    91.3820     8.0039     2.4527     0.1114     0.0509   -49.5541     6.9030     6.7149
  539.5000  -999.2500    93.8130     7.9696     2.4513     0.1121     0.0557   -49.5572     6.9028     6.7147
  540.0000  -999.2500    94.2368     7.9376     2.4500     0.1109     0.0581   -49.5603     6.9033     6.7017
  540.5000  -999.2500    94.5616     7.9745     2.4487     0.1192     0.0556   -49.5634     6.8140     6.6283
  541.0000  -999.2500    95.8733     8.0173     2.4507     0.1169     0.0532   -49.5666     6.7394     6.5557
  541.5000  -999.2500    97.3055     8.0601     2.4565     0.1134     0.0558   -49.5697     6.6656     6.4840
  542.0000  -999.2500    98.7328     8.0928     2.4627     0.1099     0.0605   -49.5728     6.5926     6.4130
  542.5000  -999.2500    96.4678     8.0380     2.4572     0.1074     0.0647   -49.5759     6.5204     6.3427
  543.0000  -999.2500    94.2980     7.9831     2.4478     0.1112     0.0634   -49.5790     6.4490     6.2733
  543.5000  -999.2500    93.7497     7.9884     2.4384     0.1159     0.0582   -49.5821     6.4125     6.2378
  544.0000  -999.2500    93.5357     8.0419     2.4370     0.1206     0.0501   -49.5852     6.4218     6.2470
  544.5000  -999.2500    93.3214     8.0574     2.4360     0.1234     0.0470   -49.5883     6.4281     6.2532
  545.0000  -999.2500    92.5907     7.9995     2.4378     0.1217     0.0478   -49.5914     6.4344     6.2594
  545.5000  -999.2500    90.7595     7.9826     2.4387     0.1200     0.0485   -49.5945     6.4406     6.2657
  546.0000  -999.2500    90.0999     7.9672     2.4373     0.1218     0.0478   -49.5976     6.4469     6.2719
  546.5000  -999.2500    91.2634     7.9504     2.4360     0.1236     0.0469   -49.6009     6.4532     6.2782
  547.0000  -999.2500    93.3882     7.9314     2.4381     0.1236     0.0461   -49.6086     6.4595     6.2844
