~VERSION INFORMATION
 VERS.                2.0:   CWLS LOG ASCII STANDARD - VERSION 2.0
 WRAP.                 NO:   ONE LINE PER DEPTH STEP
~WELL INFORMATION
#MNEM.UNIT      DATA TYPE    INFORMATION
#----------   ------------   ------------------------------
 STRT.F           15.0000:   START DEPTH
 STOP.F          531.0000:   STOP DEPTH
 STEP.F            0.1000:   STEP LENGTH
 NULL.          -999.2500:   NO VALUE
 COMP. LAWRENCE/ALLISON INC:   COMPANY
 WELL.   NPR 3 #42-61SX10:   WELL
 FLD .          N.P.R. #3:   FIELD
 LOC .      S10 T38N R78W:   LOCATION
 CNTY.            NATRONA:   COUNTY
 STAT.            WYOMING:   STATE
 CTRY. UNITED STATES OF AMERICA:   COUNTRY
 SRVC.           Gearhart:   SERVICE COMPANY
 DATE.        06-JUL-1986:   LOGDATE
 API .       490251109500:   API NUMBER
~CURVE INFORMATION
#MNEM.UNIT       API CODE    CURVE DESCRIPTION
#----------   ------------   ------------------------------
 DEPT.F                  :   
 GRR .GAPI   07 310 01 00:   GAMMA RAY
 RILD.OHMM   07 120 46 00:   INDUCTION LOG DEEP
 RILM.OHMM   07 120 44 00:   INDUCTION LOG MEDIUM
~PARAMETER INFORMATION
#MNEM.UNIT          VALUE    DESCRIPTION
#----------   ------------   ------------------------------
 PD  .                 GL:   PERMANENT DATUM
 EPD .F              5196:   ELEVATION PERMANENT DATUM
 LMF .                 KB:   LOG MEASURED FROM
 DAPD.F                 5:   FEET ABOVE PERMANENT DATUM
 DMF .                 KB:   DRILLING MEASURED FROM
 EKB .F              5201:   KELLING BUSHING
 EGL .F              5196:   GROUND LEVEL
 DATE.        06-JUL-1986:   RUN DATE
 RUN .                  1:   RUN NUMBER
 DD  .F               548:   DEPTH DRILLER
 DL  .F               541:   DEPTH LOGGER
 BLI .F               531:   BOTTOM LOG INTERVAL
 TLI .F                15:   TOP LOG INTERVAL
 CS  .IN            8.625:   CASING SIZE
 CBD .F                47:   CASING BOTTOM DRILLER
 CBL .F                47:   CASING BOTTOM LOGGER
 BS  .IN            7.875:   BIT SIZE
 BSD .F               548:   BIT SIZE AT DEPTH
 DFT .                AIR:   DRILLING FLUID TYPE
 BHT .F                82:   BOTTOM HOLE TEMPERATURE
 TCS .HRS            2000:   TIME CURCULATED STOPPED
 TLAB.HRS            2130:   TIME LOGGER AT BOTTOM
 MRT .F                82:   MAXIMUM RECORDED TEMPERATURE
 LUN .               7609:   LOGGING UNIT NUMBER
 LUL .           GILLETTE:   LOGGING UNIT LOCATION
 ENGI.              BAUER:   RECORDING ENGINEER
 WITN.           JENNINGS:   WITNESSED BY
 CLNT.            A2DTECH:   CLIENT CODE
 ORIG.           5" PRINT:   ORIGIN OF DATA
 UWI .       490251109500:   UNIQUE WELL ID
 DICO. A2D Technologies, Inc.:   DIGITIZING COMPANY
~OTHER INFORMATION
~A   DEPT      GRR       RILD       RILM   
# ...
  324.4000    74.6773    19.2152    19.0824
  324.5000    75.0413    19.1745    19.0409
  324.6000    75.5444    19.1745    19.0409
  324.7000    76.0475    19.1745    19.0172
  324.8000    76.6434    19.1730    18.9077
  324.9000    77.0541    19.0402    18.9077
  325.0000    77.5573    19.0402    18.8196
  325.1000    78.0605    19.0402    18.7755
  325.2000    78.5637    19.0402    18.7755
  325.3000    79.0803    19.0402    18.7755
  325.4000    79.3246    19.0402    18.7755
  325.5000    79.5756    18.9327    18.6687
  325.6000    79.9658    18.9069    18.6441
  325.7000    80.3829    18.9069    18.5826
  325.8000    80.6011    18.8685    18.5137
  325.9000    80.5996    18.7746    18.4968
  326.0000    80.5985    18.7746    18.3842
  326.1000    80.5973    18.7746    18.3842
  326.2000    80.5960    18.6954    18.3842
  326.3000    80.5948    18.6431    18.3266
  326.4000    80.5936    18.6094    18.2556
  326.5000    80.5922    18.5126    18.2556
  326.6000    80.1538    18.5126    18.2556
  326.7000    79.6483    18.4164    18.1579
  326.8000    79.2550    18.3096    18.0525
  326.9000    79.0016    18.2543    17.9477
  327.0000    78.7481    18.2253    17.8751
  327.1000    78.4474    18.1265    17.8648
  327.2000    78.4464    18.1265    17.7501
  327.3000    78.4452    18.0363    17.7501
  327.4000    78.4440    17.9996    17.6792
  327.5000    78.4427    17.9534    17.6259
  327.6000    78.4415    17.8493    17.5977
  327.7000    78.4403    17.7485    17.4954
  327.8000    78.4391    17.7485    17.3802
  327.9000    78.4379    17.6642    17.2930
  328.0000    78.4366    17.6242    17.2586
  328.1000    78.5000    17.5829    17.2132
  328.2000    79.0448    17.4809    17.1379
  328.3000    79.2751    17.3783    17.1337
  328.4000    79.7044    17.3783    17.0180
  328.5000    80.2077    17.2997    16.9355
  328.6000    80.7830    17.1993    16.8989
  328.7000    81.5195    17.1359    16.8573
  328.8000    82.0908    17.1202    16.7807
  328.9000    82.9618    17.0159    16.7795
  329.0000    83.8045    16.9222    16.6633
  329.1000    84.5600    16.8240    16.6633
  329.2000    85.2568    16.7785    16.6052
  329.3000    85.7545    16.7467    16.5468
  329.4000    86.0529    16.6610    16.5286
  329.5000    86.4611    16.6610    16.4310
  329.6000    86.8128    16.6610    16.4310
  329.7000    87.0638    16.6610    16.4310
  329.8000    87.3148    16.6131    16.3764
  329.9000    87.5737    16.5444    16.3161
  330.0000    87.5725    16.5444    16.3161
  330.1000    87.3802    16.5444    16.3161
  330.2000    86.9888    16.5444    16.2257
  330.3000    86.4831    16.4806    16.2019
  330.4000    85.9775    16.4285    16.2019
  330.5000    85.4289    16.4285    16.2019
  330.6000    85.1970    16.4285    16.2019
  330.7000    84.7657    16.4285    16.2019
  330.8000    84.2601    16.4285    16.2019
  330.9000    83.7545    16.4285    16.2019
  331.0000    83.2672    16.4285    16.2019
  331.1000    82.9788    16.4285    16.1729
  331.2000    83.1951    16.4285    16.0886
  331.3000    83.6104    16.4285    16.0886
  331.4000    84.1136    16.4285    16.0886
  331.5000    84.6168    16.4285    16.0886
  331.6000    85.1151    16.4285    16.0886
  331.7000    85.4141    16.4285    16.0886
  331.8000    85.8211    16.4285    16.0886
  331.9000    86.1735    16.4285    16.0886
  332.0000    86.5222    16.4285    16.0886
  332.1000    86.9808    16.3762    16.0267
  332.2000    87.2403    16.3135    15.9760
  332.3000    87.2391    16.3135    15.9760
  332.4000    86.8568    16.3135    15.9760
  332.5000    85.8016    16.3135    15.9760
  332.6000    84.2871    16.3135    15.9760
  332.7000    82.7725    16.2653    15.9760
  332.8000    81.1260    16.1993    15.9760
  332.9000    80.4343    16.1993    15.9760
  333.0000    79.6764    16.1993    15.9760
  333.1000    79.0424    16.1160    15.9760
  333.2000    78.6076    16.0859    15.9760
  333.3000    78.3542    16.0859    15.9200
  333.4000    78.0652    16.0859    15.8643
  333.5000    77.8473    16.0807    15.8643
  333.6000    77.5939    15.9733    15.8643
  333.7000    77.3405    15.9733    15.8643
  333.8000    77.0871    15.9140    15.8643
  333.9000    76.8379    15.8615    15.8113
  334.0000    76.8364    15.8615    15.7533
  334.1000    76.6320    15.8598    15.7533
  334.2000    76.5289    15.7504    15.7533
  334.3000    76.4305    15.7504    15.7533
  334.4000    76.2213    15.7504    15.7533
  334.5000    76.5251    15.7504    15.7033
  334.6000    77.0101    15.7334    15.6431
  334.7000    77.5133    15.6402    15.6431
  334.8000    78.1533    15.6402    15.6431
  334.9000    78.8250    15.6402    15.5588
  335.0000    79.3586    15.5891    15.5337
  335.1000    80.1819    15.5307    15.5337
  335.2000    80.6399    15.5174    15.5337
  335.3000    80.9667    15.4219    15.5337
  335.4000    81.3411    15.4219    15.5337
  335.5000    81.7038    15.4219    15.5337
  335.6000    81.7197    15.3750    15.4711
  335.7000    82.0065    15.3140    15.4250
  335.8000    82.2217    15.3140    15.4250
  335.9000    82.4727    15.3140    15.4250
  336.0000    82.5038    15.3140    15.4250
  336.1000    82.3072    15.2524    15.4250
  336.2000    82.3060    15.2068    15.3654
  336.3000    82.3045    15.2068    15.3171
  336.4000    82.1008    15.2068    15.2945
  336.5000    81.9969    15.2068    15.2099
  336.6000    81.8992    15.1307    15.2099
  336.7000    81.6892    15.1003    15.2099
  336.8000    81.6879    15.1003    15.1538
  336.9000    81.6867    15.0793    15.1035
  337.0000    81.4962    14.9946    15.1035
  337.1000    81.3789    14.9946    15.1035
  337.2000    81.3777    14.9946    15.1035
  337.3000    81.3765    14.9946    15.1035
  337.4000    81.3752    14.9590    15.0503
  337.5000    81.3740    14.8896    14.9979
  337.6000    81.3728    14.8896    14.9979
  337.7000    81.2488    14.8896    14.9979
  337.8000    81.1347    14.8218    14.9979
  337.9000    81.3857    14.7854    14.9979
  338.0000    81.6731    14.7854    14.9979
  338.1000    81.8876    14.7854    14.9654
  338.2000    82.4636    14.7854    14.8930
  338.3000    83.0003    14.7854    14.8930
  338.4000    83.3075    14.7854    14.8930
  338.5000    83.8106    14.7854    14.8930
  338.6000    84.4138    14.7854    14.8930
  338.7000    84.6149    14.7854    14.8632
  338.8000    85.0150    14.7854    14.7888
  338.9000    85.3264    14.7854    14.7888
  339.0000    85.3680    14.7854    14.7888
  339.1000    85.6293    14.7854    14.7888
  339.2000    85.8699    14.7854    14.7888
  339.3000    86.1209    14.7854    14.7888
  339.4000    86.2363    14.7854    14.7888
  339.5000    86.2351    14.7854    14.7888
  339.6000    86.1753    14.7854    14.7888
  339.7000    85.6219    14.7854    14.7888
  339.8000    85.1641    14.7854    14.7888
  339.9000    84.4831    14.7854    14.7888
  340.0000    83.8473    14.7854    14.7888
  340.1000    83.4107    14.7854    14.7888
  340.2000    83.1572    14.7854    14.7888
  340.3000    82.8664    14.7854    14.7888
  340.4000    82.8653    14.7854    14.7888
  340.5000    82.8641    14.7854    14.7667
  340.6000    82.9716    14.7854    14.6853
  340.7000    83.2226    14.7854    14.6853
  340.8000    83.4760    14.8365    14.6853
  340.9000    83.9792    14.8896    14.6853
  341.0000    84.2809    14.8896    14.6853
  341.1000    84.6804    14.8896    14.6853
  341.2000    85.1836    14.8896    14.6853
  341.3000    85.6446    14.8896    14.6853
  341.4000    85.9065    14.8896    14.6853
  341.5000    86.1466    14.9197    14.7378
  341.6000    86.3976    14.9946    14.7888
  341.7000    86.7835    14.9946    14.7888
  341.8000    87.2049    14.9946    14.7888
  341.9000    87.4559    14.9946    14.7888
  342.0000    87.7312    14.9946    14.8568
  342.1000    87.5023    15.0215    14.8930
  342.2000    87.0742    15.1003    14.8930
  342.3000    86.5685    15.1003    14.8930
  342.4000    86.0628    15.1790    14.8930
  342.5000    85.5572    15.2068    14.9769
