~VERSION INFORMATION
 VERS.                2.0:   CWLS LOG ASCII STANDARD - VERSION 2.0
 WRAP.                 NO:   ONE LINE PER DEPTH STEP
~WELL INFORMATION
#MNEM.UNIT      DATA TYPE    INFORMATION
#----------   ------------   ------------------------------
 STRT.F            6.0000:   START DEPTH
 STOP.F         1351.5000:   STOP DEPTH
 STEP.F            0.5000:   STEP LENGTH
 NULL.          -999.2500:   NO VALUE
 COMP. BROWN JOHN E&C INC:   COMPANY
 WELL. NAVAL PETROLEUM RESERVE 3 STX- #71-10:   WELL
 FLD .             TEAPOT:   FIELD
 LOC .      S10 T38N R78W:   LOCATION
 CNTY.            NATRONA:   COUNTY
 STAT.            WYOMING:   STATE
 CTRY. UNITED STATES OF AMERICA:   COUNTRY
 SRVC.           BIRDWELL:   SERVICE COMPANY
 DATE.        02-MAR-1978:   LOGDATE
 API .       490251058900:   API NUMBER
~CURVE INFORMATION
#MNEM.UNIT       API CODE    CURVE DESCRIPTION
#----------   ------------   ------------------------------
 DEPT.F                  :   
 GRD .GAPI   45 310 01 00:   GAMMA RAY FROM DENSITY LOG
 CALD.IN     45 280 60 00:   CALIPER
 RHOB.G/C3   45 350 01 00:   BULK DENSITY
 DPOR.DEC    45 890 12 00:   DENSITY POROSITY SANDSTONE
 CORR.G/C3   45 356 01 00:   DENSITY CORRECTION
~PARAMETER INFORMATION
#MNEM.UNIT          VALUE    DESCRIPTION
#----------   ------------   ------------------------------
 PD  .                 GL:   PERMANENT DATUM
 EPD .F              5162:   ELEVATION PERMANENT DATUM
 LMF .                 KB:   LOG MEASURED FROM
 DAPD.F                10:   FEET ABOVE PERMANENT DATUM
 DMF .                 KB:   DRILLING MEASURED FROM
 EKB .F              5172:   KELLING BUSHING
 EGL .F              5162:   GROUND LEVEL
 DATE.           3-2-1978:   RUN DATE
 RUN .                  1:   RUN NUMBER
 DD  .F              1357:   DEPTH DRILLER
 DL  .F              1352:   DEPTH LOGGER
 BLI .F              1350:   BOTTOM LOG INTERVAL
 TLI .F                20:   TOP LOG INTERVAL
 CS  .IN                7:   CASING SIZE
 CBD .F              1140:   CASING BOTTOM DRILLER
 CBL .F              1140:   CASING BOTTOM LOGGER
 BS  .IN             6.25:   BIT SIZE
 BSD .F              1357:   BIT SIZE AT DEPTH
 DFT .           AIR MIST:   DRILLING FLUID TYPE
 TCS .HRS              12:   TIME CURCULATED STOPPED
 MRT .F                75:   MAXIMUM RECORDED TEMPERATURE
 LUN .               2958:   LOGGING UNIT NUMBER
 LUL .               CASP:   LOGGING UNIT LOCATION
 ENGI.             MILLER:   RECORDING ENGINEER
 WITN.           MCGINLEY:   WITNESSED BY
 CLNT.            A2DTECH:   CLIENT CODE
 ORIG.       2", 5" PRINT:   ORIGIN OF DATA
 UWI .       490251058900:   UNIQUE WELL ID
 DICO. A2D Technologies, Inc.:   DIGITIZING COMPANY
~OTHER INFORMATION
~A    DEPT      GRD      CALD       RHOB       DPOR       CORR   
# ...
 1165.0000   121.5262     7.2117     2.4155     0.1440     0.0891
 1165.5000   116.2439     7.2877     2.3902     0.1851     0.0274
 1166.0000   112.5348     7.2878     2.3725     0.2090    -0.0030
 1166.5000   112.2529     7.3000     2.2850     0.2850     0.0261
 1167.0000   112.4538     6.8570     2.2017     0.3230     0.0856
 1167.5000   113.2506     6.7147     2.1182     0.3653     0.3246
 1168.0000   114.2314     6.5588     2.0445     0.1596     0.3225
 1168.5000   113.6847     6.4520     2.4960     0.0700     0.0645
 1169.0000   113.3798     6.4493     2.4960     0.0772     0.0500
 1169.5000   113.1888     6.4499     2.5253     0.0783     0.0491
 1170.0000   112.9988     6.4500     2.5270     0.0796     0.0473
 1170.5000   112.8847     6.4500     2.5064     0.0830     0.0455
 1171.0000   113.5231     6.4500     2.5103     0.0877     0.0469
 1171.5000   114.1990     6.4500     2.4981     0.0900     0.0484
 1172.0000   113.1447     6.4500     2.4963     0.0880     0.0499
 1172.5000   108.0065     6.4500     2.4999     0.0858     0.0515
 1173.0000   106.3207     6.4500     2.5050     0.0836     0.0563
 1173.5000   108.9459     6.4500     2.5045     0.0834     0.0613
 1174.0000   112.6494     6.4500     2.5033     0.0832     0.0665
 1174.5000   113.8147     6.4500     2.5119     0.0752     0.0620
 1175.0000   114.5370     6.4500     2.5217     0.0755     0.0529
 1175.5000   115.3191     6.4500     2.5243     0.0752     0.0476
 1176.0000   116.7796     6.4500     2.5080     0.0888     0.0553
 1176.5000   119.8530     6.4500     2.4973     0.0773     0.0618
 1177.0000   115.4898     6.4500     2.5109     0.0758     0.0631
 1177.5000   112.2549     6.4500     2.5169     0.0780     0.0644
 1178.0000   110.1499     6.4500     2.5146     0.0813     0.0674
 1178.5000   106.4963     6.4500     2.5123     0.0808     0.0765
 1179.0000   106.1414     6.4500     2.5114     0.0753     0.0838
 1179.5000   107.5508     6.4500     2.5228     0.0688     0.0710
 1180.0000   110.8376     6.4500     2.5391     0.0652     0.0532
 1180.5000   114.1633     6.4500     2.5297     0.0732     0.0517
 1181.0000   114.8572     6.4500     2.5196     0.0772     0.0503
 1181.5000   109.4561     6.4500     2.5182     0.0804     0.0434
 1182.0000   107.5955     6.4500     2.5174     0.0847     0.0403
 1182.5000   111.4148     6.4500     2.5081     0.0868     0.0555
 1183.0000   115.6373     6.4500     2.5010     0.0781     0.0607
 1183.5000   116.6619     6.4500     2.5149     0.0750     0.0643
 1184.0000   114.4596     6.4500     2.5246     0.0746     0.0677
 1184.5000   108.9992     6.4500     2.5236     0.0648     0.0592
 1185.0000   109.4774     6.4500     2.5297     0.0688     0.0467
 1185.5000   112.5855     6.4500     2.5301     0.0762     0.0341
 1186.0000   114.7938     6.4500     2.5172     0.0811     0.0333
 1186.5000   116.9889     6.4500     2.5046     0.0835     0.0347
 1187.0000   117.8080     6.4500     2.5031     0.0850     0.0365
 1187.5000   111.4776     6.4500     2.5039     0.0857     0.0383
 1188.0000   108.9738     6.4500     2.4974     0.0848     0.0395
 1188.5000   111.4154     6.4500     2.5007     0.0840     0.0394
 1189.0000   110.6747     6.4500     2.5040     0.0845     0.0393
 1189.5000   110.9401     6.4500     2.4992     0.0898     0.0462
 1190.0000   111.6392     6.4500     2.4939     0.0922     0.0536
 1190.5000   111.7388     6.4500     2.4957     0.0912     0.0534
 1191.0000   111.5023     6.4500     2.4925     0.0942     0.0534
 1191.5000   111.3706     6.4500     2.4873     0.0972     0.0536
 1192.0000   109.5349     6.4500     2.4824     0.0987     0.0757
 1192.5000   107.9226     6.4500     2.4690     0.0985     0.1062
 1193.0000   110.7948     6.4500     2.4677     0.0944     0.1125
 1193.5000   116.5687     6.4500     2.4861     0.1015     0.0908
 1194.0000   118.5262     6.4500     2.4918     0.1129     0.0718
 1194.5000   115.2770     6.4501     2.4622     0.1180     0.1203
 1195.0000   111.5038     6.4505     2.4346     0.1073     0.0950
 1195.5000   110.1341     6.4469     2.4671     0.0946     0.0429
 1196.0000   111.3375     6.3793     2.5142     0.0837     0.0377
 1196.5000   114.0528     6.3111     2.4878     0.0749     0.0414
 1197.0000   114.7898     6.2905     2.5104     0.0716     0.0404
 1197.5000   112.6804     6.2905     2.5286     0.0723     0.0392
 1198.0000   112.9825     6.2909     2.5247     0.0760     0.0382
 1198.5000   113.4504     6.2912     2.5209     0.0703     0.0371
 1199.0000   112.5944     6.2916     2.5263     0.0677     0.0360
 1199.5000   112.7387     6.2919     2.5321     0.0796     0.0369
 1200.0000   112.1133     6.2922     2.5145     0.0742     0.0400
 1200.5000   110.4683     6.2926     2.5210     0.0693     0.0401
 1201.0000   111.5881     6.2929     2.5274     0.0733     0.0376
 1201.5000   109.9116     6.2932     2.5255     0.0779     0.0383
 1202.0000   109.4569     6.2936     2.5169     0.0816     0.0393
 1202.5000   111.9385     6.2939     2.5111     0.0785     0.0395
 1203.0000   114.5735     6.2942     2.5144     0.0755     0.0395
 1203.5000   114.1003     6.2946     2.5159     0.0724     0.0395
 1204.0000   113.2646     6.2949     2.5177     0.0757     0.0394
 1204.5000   111.1000     6.2952     2.5272     0.0747     0.0410
 1205.0000   107.7489     6.2956     2.5207     0.0760     0.0435
 1205.5000   105.3155     6.2959     2.5152     0.0723     0.0460
 1206.0000   104.3444     6.2962     2.5246     0.0680     0.0486
 1206.5000   105.2065     6.2966     2.5304     0.0698     0.0494
 1207.0000   106.2592     6.2969     2.5278     0.0688     0.0494
 1207.5000   106.7918     6.2972     2.5270     0.0673     0.0494
 1208.0000   105.7328     6.2976     2.5292     0.0672     0.0462
 1208.5000   105.7964     6.2979     2.5339     0.0724     0.0391
 1209.0000   106.6529     6.2982     2.5295     0.0760     0.0383
 1209.5000   107.5138     6.2986     2.5185     0.0727     0.0395
 1210.0000   105.8533     6.2989     2.5165     0.0692     0.0407
 1210.5000   103.8197     6.2992     2.5275     0.0668     0.0407
 1211.0000   104.1835     6.2996     2.5296     0.0750     0.0385
 1211.5000   109.3185     6.2999     2.5255     0.0802     0.0363
 1212.0000   113.6656     6.3002     2.5202     0.0787     0.0373
 1212.5000   115.4871     6.3006     2.5068     0.0844     0.0404
 1213.0000   110.5891     6.3009     2.5012     0.0793     0.0432
 1213.5000   106.5276     6.3012     2.5131     0.0769     0.0397
 1214.0000   107.0517     6.3016     2.5160     0.0796     0.0381
 1214.5000   108.0742     6.3019     2.5143     0.0852     0.0397
 1215.0000   108.4895     6.3022     2.5025     0.0703     0.0413
 1215.5000   106.2298     6.3026     2.5139     0.0698     0.0411
 1216.0000   103.5938     6.3029     2.5297     0.0709     0.0406
 1216.5000   103.0160     6.3032     2.5282     0.0712     0.0401
 1217.0000   108.6956     6.3036     2.5277     0.0712     0.0397
 1217.5000   109.1733     6.3039     2.5274     0.0712     0.0386
 1218.0000   107.7066     6.3042     2.5268     0.0740     0.0391
 1218.5000   107.7552     6.3046     2.5194     0.0758     0.0441
 1219.0000   108.6851     6.3049     2.5225     0.0704     0.0475
 1219.5000   109.6014     6.3052     2.5271     0.0691     0.0473
 1220.0000   110.1787     6.3056     2.5243     0.0744     0.0415
 1220.5000   109.8179     6.3059     2.5271     0.0741     0.0353
 1221.0000   106.6057     6.3063     2.5314     0.0772     0.0292
 1221.5000   103.3638     6.3066     2.5184     0.0824     0.0231
 1222.0000   105.1104     6.3069     2.5130     0.0824     0.0206
 1222.5000   107.7621     6.3073     2.5094     0.0835     0.0237
 1223.0000   107.9029     6.3076     2.5059     0.0844     0.0304
 1223.5000   107.9057     6.3079     2.5021     0.0778     0.0372
 1224.0000   107.8891     6.3082     2.5132     0.0723     0.0440
 1224.5000   108.9674     6.3086     2.5206     0.0697     0.0507
 1225.0000   110.1762     6.3089     2.5275     0.0688     0.0554
 1225.5000   107.9132     6.3092     2.5340     0.0615     0.0548
