~VERSION INFORMATION
 VERS.                2.0:   CWLS LOG ASCII STANDARD - VERSION 2.0
 WRAP.                 NO:   ONE LINE PER DEPTH STEP
~WELL INFORMATION
#MNEM.UNIT      DATA TYPE    INFORMATION
#----------   ------------   ------------------------------
 STRT.F           30.0000:   START DEPTH
 STOP.F          440.0000:   STOP DEPTH
 STEP.F            0.5000:   STEP LENGTH
 NULL.          -999.2500:   NO VALUE
 COMP. LAWRENCE/ALLISON INC:   COMPANY
 WELL. NPR #3 #52-31 SX 10:   WELL
 FLD .             TEAPOT:   FIELD
 LOC .      S10 T38N R78W:   LOCATION
 CNTY.            NATRONA:   COUNTY
 STAT.            WYOMING:   STATE
 CTRY. UNITED STATES OF AMERICA:   COUNTRY
 SRVC.           Gearhart:   SERVICE COMPANY
 DATE.        27-SEP-1988:   LOGDATE
 API .       490251124800:   API NUMBER
~CURVE INFORMATION
#MNEM.UNIT       API CODE    CURVE DESCRIPTION
#----------   ------------   ------------------------------
 DEPT.F                  :   
 GRR .GAPI   07 310 01 00:   GAMMA RAY FROM RES. LOG.
 RLL .OHMM   07 220 00 00:   LATEROLOG RESISTIVITY
 ILD .OHMM   07 120 46 00:   INDUCTION LOG DEEP
 ILM .OHMM   07 120 44 00:   INDUCTION LOG MEDIUM
 SPR .MV     07 010 01 00:   SPONTANEOUS POTENTIAL
~PARAMETER INFORMATION
#MNEM.UNIT          VALUE    DESCRIPTION
#----------   ------------   ------------------------------
 PD  .                 GL:   PERMANENT DATUM
 EPD .F              5179:   ELEVATION PERMANENT DATUM
 LMF .                 KB:   LOG MEASURED FROM
 DAPD.F                 8:   FEET ABOVE PERMANENT DATUM
 DMF .                 KB:   DRILLING MEASURED FROM
 EKB .F              5187:   KELLING BUSHING
 EDF .F              5185:   DRILLING FLOOR
 EGL .F              5179:   GROUND LEVEL
 DATE.            9-27-88:   RUN DATE
 RUN .                  1:   RUN NUMBER
 DD  .F               441:   DEPTH DRILLER
 DL  .F               442:   DEPTH LOGGER
 BLI .F               441:   BOTTOM LOG INTERVAL
 TLI .F                40:   TOP LOG INTERVAL
 CS  .IN            9.625:   CASING SIZE
 CBD .F                50:   CASING BOTTOM DRILLER
 CBL .F                50:   CASING BOTTOM LOGGER
 BS  .IN             8.75:   BIT SIZE
 BSD .F               441:   BIT SIZE AT DEPTH
 DFT .                MUD:   DRILLING FLUID TYPE
 MSS .           MUD TANK:   MUD SAMPLE SOURCE
 RMS .OHMM              2:   RESISTIVITY MUD SAMPLE
 MST .F                64:   MUD SAMPLE TEMPERATURE
 RMF .OHMM            2.4:   RESISTIVITY MUD FILTRATE SAMPLE
 MFST.F                66:   MUD FILTRATE SAMPLE TEMPERATURE
 RMC .OHMM              3:   RESISTIVITY MUD CAKE
 MCST.F                67:   MUD CAKE SAMPLE TEMPERATURE
 MFSS.                  M:   MUD FILTRATE SAMPLE SOURCE
 MCSS.                  M:   MUD CAKE SAMPLE SOURCE
 RMB .OHMM            1.3:   RESISTIVITY MUD AT BHT
 BHT .F                70:   BOTTOM HOLE TEMPERATURE
 TCS .HRS            0910:   TIME CURCULATED STOPPED
 TLAB.HRS            1113:   TIME LOGGER AT BOTTOM
 MRT .F                70:   MAXIMUM RECORDED TEMPERATURE
 LUN .               7597:   LOGGING UNIT NUMBER
 LUL .           GILLETTE:   LOGGING UNIT LOCATION
 ENGI.         WEATHERMON:   RECORDING ENGINEER
 WITN.             STRONG:   WITNESSED BY
 CLNT.            A2DTECH:   CLIENT CODE
 ORIG.       2", 5" PRINT:   ORIGIN OF DATA
 UWI .       490251124800:   UNIQUE WELL ID
 DICO. A2D Technologies, Inc.:   DIGITIZING COMPANY
~OTHER INFORMATION
~A   DEPT       GRR       RLL        ILD        ILM        SPR   
# ...
   91.0000    96.3356     8.9385    12.0214    11.2416   -94.2494
   91.5000    96.1323     8.6648    11.9055    11.1820   -94.1578
   92.0000    94.9818     8.6854    11.7160    11.0608   -94.0708
   92.5000    93.8854     8.7045    11.5295    10.9405   -93.9839
   93.0000    92.7909     8.7235    11.3460    10.8214   -93.8970
   93.5000    91.6966     8.7426    11.1653    10.6794   -93.8103
   94.0000    90.6017     8.7458    10.9876    10.4568   -93.7243
   94.5000    89.5087     8.5138    10.8127    10.2389   -93.6420
   95.0000    88.4083     8.3486    10.6183    10.0255   -93.4632
   95.5000    87.5985     8.3675    10.4074     9.8165   -93.2813
   96.0000    87.3025     8.3927    10.2427     9.6119   -93.1002
   96.5000    88.3678     8.4180    10.2427     9.3336   -92.9158
   97.0000    89.9936     8.4266    10.2427     9.3817   -92.7968
   97.5000    91.8759     8.3022    10.2427     9.4383   -92.6649
   98.0000    94.1605     8.2185    10.2427     9.4953   -92.5372
   98.5000    96.7171     8.1191    10.2427     9.5526   -92.5021
   99.0000    95.6634     8.1715    10.2427     9.5976   -92.6346
   99.5000    93.8030     8.2370    10.2427     9.5464   -92.7647
  100.0000    91.9393     8.3043    10.2427     9.4968   -92.8954
  100.5000    90.2999     8.3483    10.2430     9.4475   -93.0340
  101.0000    90.8457     8.2479    10.2433     9.3985   -92.8743
  101.5000    92.3053     8.1726    10.2437     9.3497   -92.6291
  102.0000    93.7318     8.0980    10.0940     9.3012   -92.3868
  102.5000    94.5019     8.0440     9.9221     9.2529   -92.4270
  103.0000    93.2446     8.0674     9.7243     9.1869   -92.7983
  103.5000    92.0350     8.0860     9.5305     9.1192   -93.1655
  104.0000    92.6858     8.1044     9.3406     8.9622   -93.4178
  104.5000    94.5729     8.1211     9.1544     8.6628   -93.1191
  105.0000    96.0039     7.9443     8.9719     8.3733   -92.8640
  105.5000    94.7860     7.7368     8.7931     8.0935   -92.9490
  106.0000    92.3921     7.4978     8.6178     7.8231   -93.0469
  106.5000    89.9616     7.2457     8.4458     7.5617   -92.7893
  107.0000    89.7970     7.0040     8.2778     7.2622   -92.7411
  107.5000    91.1604     6.8684     8.1191     7.4388   -92.8643
  108.0000    92.4457     6.9487     8.1800     7.6625   -92.9837
  108.5000    92.9297     7.0449     8.2741     7.9762   -91.9301
  109.0000    93.7917     7.1425     8.3696     7.9649   -91.9322
  109.5000    94.9156     7.2414     8.4664     7.9685   -91.9782
  110.0000    96.0412     7.2807     8.5872     7.9697   -91.8722
  110.5000    97.1631     7.3041     8.7456     7.9696   -92.5038
  111.0000    98.2947     7.3300     8.7142     7.9696   -92.4552
  111.5000    98.9539     7.2950     8.6779     7.9696   -92.0167
  112.0000    99.4494     7.2561     8.6416     7.9695   -92.2510
  112.5000    99.9101     7.2174     8.6055     7.9697   -92.2249
  113.0000   100.8331     7.1789     8.5847     7.9546   -90.5707
  113.5000   101.8212     7.1406     8.6575     7.9309   -92.0833
  114.0000   102.7568     7.1285     8.7172     7.8958   -91.9855
  114.5000   101.6118     7.2738     8.7663     7.9607   -91.9302
  115.0000   100.3986     7.3730     8.8285     8.0855   -91.8668
  115.5000   101.4051     7.4735     8.8913     8.2125   -92.1633
  116.0000   102.6079     7.5753     8.9545     8.3415   -92.6293
  116.5000   103.5594     7.6786     9.0181     8.4724   -92.4461
  117.0000   102.8728     7.7504     9.0822     8.6054   -92.3365
  117.5000   102.2122     7.7028     9.1617     8.7458   -92.8775
  118.0000   101.5552     7.6667     9.0984     8.6414   -92.8985
  118.5000   100.8983     7.6308     9.0167     8.5342   -92.6632
  119.0000   100.2412     7.5950     8.9356     8.4284   -92.4370
  119.5000    99.5858     7.5594     8.9098     8.3238   -92.3510
  120.0000    99.1659     7.5240     8.9098     8.1942   -92.2606
  120.5000    99.3252     7.4887     8.9098     8.1953   -92.1698
  121.0000   102.5447     7.4676     8.9098     8.1234   -92.0758
  121.5000   105.7689     7.5568     8.9098     8.0704   -92.0112
  122.0000   109.0153     7.6213     8.9098     8.0445   -91.9535
  122.5000   109.4259     7.6778     8.9096     8.2125   -91.8952
  123.0000   105.9544     7.1633     8.9593     8.3299   -91.8142
  123.5000   102.5114     7.0165     9.0278     8.4300   -91.6621
  124.0000   101.0337     6.9541     9.0966     8.4485   -91.2331
  124.5000   101.3728     6.9292     9.1617     8.4670   -90.8484
  125.0000   101.2713     7.1837     9.1014     8.4855   -91.5635
  125.5000    99.3059     7.4800     9.0325     8.5053   -91.8463
  126.0000    97.3560     7.7532     8.9641     8.4291   -91.8525
  126.5000    97.7338     7.6081     8.9098     8.3481   -91.8517
  127.0000   102.2831     7.4676     8.8883     8.2682   -91.8511
  127.5000   106.5477     7.6218     8.8669     8.1949   -91.8513
  128.0000   106.4494     7.7504     8.8456     8.1307   -91.8334
  128.5000   103.5097     7.6419     8.8274     8.0716   -91.8046
  129.0000   100.5365     7.5732     8.7170     8.0130   -91.7756
  129.5000    99.5297     7.5051     8.5739     7.9548   -91.7465
  130.0000    98.7913     7.3488     8.4332     7.8969   -91.7176
  130.5000    99.6591     7.0882     8.2948     7.8228   -91.6884
  131.0000   101.0859     6.9445     8.1586     7.8235   -91.6597
  131.5000   102.7888     6.8706     8.0247     7.6439   -91.6127
  132.0000   103.6523     6.7968     7.8040     7.4708   -91.5585
  132.5000   101.4535     6.6846     7.5263     7.1331   -91.5050
  133.0000    98.5152     6.4332     7.2618     6.8121   -91.4411
  133.5000    97.5826     6.1936     7.0591     6.5062   -91.1378
  134.0000    97.6460     5.9626     7.0599     6.2072   -90.7955
  134.5000    99.1069     5.8103     7.0623     6.0808   -90.7699
  135.0000   100.5412     5.9314     7.0613     6.2026   -90.9044
  135.5000   101.9665     6.0213     7.0601     6.4071   -91.0459
  136.0000   103.3811     6.1768     7.2206     6.6161   -91.1868
  136.5000   104.3096     6.5075     7.3576     6.8319   -91.3276
  137.0000   103.6503     6.8684     7.4985     7.0626   -91.3874
  137.5000   103.0271     6.8684     7.6420     7.1096   -90.7685
  138.0000   102.4604     6.8303     7.7885     7.1586   -90.7460
  138.5000   103.3226     6.8048     7.9378     7.1950   -90.6383
  139.0000   103.8445     6.8625     8.0444     7.2749   -90.9736
  139.5000   102.9232     6.9289     8.0441     7.3503   -91.3088
  140.0000   101.9925     6.9972     8.0442     7.5303   -91.6327
  140.5000   104.5176     7.3355     8.0446     7.8958   -91.4339
  141.0000   107.9072     7.5373     8.0436     7.7822   -91.2471
  141.5000   108.2280     7.2498     7.9687     7.6051   -91.3641
  142.0000   107.9381     6.9862     7.8566     7.4320   -91.4811
  142.5000   107.6842     6.5578     7.7462     7.2628   -91.5974
  143.0000   109.8089     6.0199     7.5524     7.1069   -91.7134
  143.5000   112.1565     5.8060     7.2671     6.9937   -91.8301
  144.0000   114.5031     5.6679     6.9925     6.8116   -91.9497
  144.5000   116.2128     5.5465     6.7268     6.5986   -92.0313
  145.0000   116.6747     5.7661     6.4728     6.2805   -91.5871
  145.5000   116.2542     5.9746     6.2296     5.8841   -91.1476
  146.0000   113.5093     5.7823     6.0718     5.4935   -90.7117
  146.5000   110.1416     5.4709     5.9164     5.1302   -90.2785
  147.0000   107.2776     5.1762     5.8646     4.6920   -90.0626
  147.5000   105.8941     4.8975     5.8644     4.8290   -90.1720
  148.0000   105.5906     4.7801     5.8642     5.1138   -90.2761
  148.5000   107.6342     5.1659     5.8639     5.4155   -90.3809
  149.0000   110.2901     5.4731     5.8853     5.7349   -90.4853
  149.5000   112.9929     5.7387     6.1387     5.9787   -90.5906
  150.0000   111.4653     5.9405     6.4974     6.2176   -90.6900
  150.5000   109.3460     6.1496     6.8771     6.4660   -90.7833
  151.0000   109.5054     6.3648     7.2790     6.7245   -90.8455
  151.5000   109.8584     6.5855     7.6262     6.9594   -90.9372
