~VERSION INFORMATION
 VERS.                2.0:   CWLS LOG ASCII STANDARD - VERSION 2.0
 WRAP.                 NO:   ONE LINE PER DEPTH STEP
~WELL INFORMATION
#MNEM.UNIT      DATA TYPE    INFORMATION
#----------   ------------   ------------------------------
 STRT.F           20.5000:   START DEPTH
 STOP.F          725.0000:   STOP DEPTH
 STEP.F            0.5000:   STEP LENGTH
 NULL.          -999.2500:   NO VALUE
 COMP. FENIX & SCISSON INC:   COMPANY
 WELL.       NPR 3 #67-27:   WELL
 FLD .             TEAPOT:   FIELD
 LOC .      S27 T39N R78W:   LOCATION
 CNTY.            NATRONA:   COUNTY
 STAT.            WYOMING:   STATE
 CTRY. UNITED STATES OF AMERICA:   COUNTRY
 SRVC.           BIRDWELL:   SERVICE COMPANY
 DATE.        15-SEP-1978:   LOGDATE
 API .       490251069400:   API NUMBER
~CURVE INFORMATION
#MNEM.UNIT       API CODE    CURVE DESCRIPTION
#----------   ------------   ------------------------------
 DEPT.F                  :   
 CALD.IN     45 280 60 00:   CALIPER
 GRD .GAPI   45 310 01 00:   GAMMA RAY FROM DENSITY LOG
 RHOB.G/C3   45 350 01 00:   BULK DENSITY
 DPHI.DEC    45 890 12 00:   DENSITY POROSITY SANDSTONE
 CORR.G/C3   45 356 01 00:   DENSITY CORRECTION
 SPR .MV     05 010 01 00:   SPONTANEOUS POTENTIAL FROM RES.
 ILD .OHMM   05 120 46 00:   INDUCTION LOG DEEP
 SN  .OHMM   05 040 16 00:   SHORT NORMAL 16"
~PARAMETER INFORMATION
#MNEM.UNIT          VALUE    DESCRIPTION
#----------   ------------   ------------------------------
 PD  .                 GL:   PERMANENT DATUM
 EPD .F              5027:   ELEVATION PERMANENT DATUM
 LMF .                 KB:   LOG MEASURED FROM
 DAPD.F                 4:   FEET ABOVE PERMANENT DATUM
 DMF .                 KB:   DRILLING MEASURED FROM
 EKB .F              5031:   KELLING BUSHING
 EGL .F              5027:   GROUND LEVEL
 DATE.            9-15-78:   RUN DATE
 RUN .                  1:   RUN NUMBER
 DD  .F               728:   DEPTH DRILLER
 DL  .F               719:   DEPTH LOGGER
 BLI .F               713:   BOTTOM LOG INTERVAL
 TLI .F                30:   TOP LOG INTERVAL
 CS  .IN            8.625:   CASING SIZE
 CBD .F                34:   CASING BOTTOM DRILLER
 CBL .F                34:   CASING BOTTOM LOGGER
 BS  .IN            7.875:   BIT SIZE
 BSD .F               728:   BIT SIZE AT DEPTH
 DFT .            KCL MUD:   DRILLING FLUID TYPE
 DFD .                  9:   DRILLING FLUID DENSITY
 DFV .                 46:   DRILLING FLUID VISCOSITY
 DFPH.                  9:   DRILLING FLUID PH
 DFL .                7.6:   DRILLING FLUID LOSS
 MSS .          FLOW LINE:   MUD SAMPLE SOURCE
 RMS .OHMM            .34:   RESISTIVITY MUD SAMPLE
 MST .F                68:   MUD SAMPLE TEMPERATURE
 RMF .OHMM             .3:   RESISTIVITY MUD FILTRATE SAMPLE
 MFST.F                68:   MUD FILTRATE SAMPLE TEMPERATURE
 RMC .OHMM            .38:   RESISTIVITY MUD CAKE
 MCST.F                70:   MUD CAKE SAMPLE TEMPERATURE
 MFSS.               MEAS:   MUD FILTRATE SAMPLE SOURCE
 MCSS.               MEAS:   MUD CAKE SAMPLE SOURCE
 RMB .OHMM            .32:   RESISTIVITY MUD AT BHT
 BHT .F                72:   BOTTOM HOLE TEMPERATURE
 TCS .HRS               2:   TIME CURCULATED STOPPED
 MRT .F                72:   MAXIMUM RECORDED TEMPERATURE
 LUN .               2958:   LOGGING UNIT NUMBER
 LUL .               CASP:   LOGGING UNIT LOCATION
 ENGI.           REYNOLDS:   RECORDING ENGINEER
 WITN.           DINSMORE:   WITNESSED BY
 CLNT.            A2DTECH:   CLIENT CODE
 ORIG.           5" PRINT:   ORIGIN OF DATA
 UWI .       490251069400:   UNIQUE WELL ID
 DICO. A2D Technologies, Inc.:   DIGITIZING COMPANY
~OTHER INFORMATION
~A   DEPT     CALD        GRD       RHOB       DPHI       CORR        SPR        ILD         SN   
# ...
  304.0000     7.9220   116.2838     2.4401     0.1494     0.0078   -33.3054    11.6187     9.9772
  304.5000     7.9583   116.1246     2.4442     0.1444     0.0077   -34.0605    11.6091     9.9249
  305.0000     7.9909   115.9635     2.4498     0.1422     0.0076   -34.2255    11.6093     9.9249
  305.5000     7.9901   116.2626     2.4554     0.1398     0.0099   -35.2195    11.6090     9.9239
  306.0000     7.9900   116.9045     2.4609     0.1373     0.0125   -36.2212    11.6090     9.9278
  306.5000     7.9900   117.9447     2.4665     0.1348     0.0121   -37.2265    11.2528     9.9327
  307.0000     7.9900   119.6911     2.4722     0.1323     0.0098   -37.9789    10.7792     9.8228
  307.5000     7.9900   121.3230     2.4819     0.1232     0.0075   -38.5347    10.3254     9.6990
  308.0000     7.9900   122.3994     2.4918     0.1142     0.0052   -39.4280     9.8908     9.3624
  308.5000     7.9900   123.5003     2.5017     0.1089     0.0033   -41.1081     9.4745     9.0375
  309.0000     7.9900   123.9698     2.5115     0.1048     0.0025   -42.3268     9.0508     8.7238
  309.5000     7.9900   124.3039     2.5171     0.1007     0.0016   -43.5539     8.7869     8.4211
  310.0000     7.9900   124.4470     2.5232     0.0971     0.0008   -45.1817     8.5132     8.1288
  310.5000     7.9900   124.3094     2.5289     0.0953    -0.0001   -46.3340     8.2497     7.8450
  311.0000     7.9900   124.1760     2.5283     0.0936    -0.0009   -46.3647     8.0108     7.6150
  311.5000     7.9899   124.0414     2.5252     0.0976    -0.0018   -46.4180     7.9050     7.4606
  312.0000     7.9959   123.9074     2.5213     0.1013    -0.0024   -46.4667     7.7981     7.3126
  312.5000     8.0049   123.7744     2.5172     0.1035    -0.0013   -46.4864     7.6677     7.1884
  313.0000     8.0070   123.7407     2.5193     0.1040    -0.0003   -46.4436     7.6767     7.2838
  313.5000     8.0002   123.8332     2.5227     0.0995     0.0008   -46.4019     7.6894     7.3683
  314.0000     7.9936   123.9247     2.5266     0.0946     0.0019   -46.3603     7.7023     7.4539
  314.5000     7.9868   124.0175     2.5299     0.0932     0.0030   -46.3181     7.7152     7.5289
  315.0000     7.9801   124.0905     2.5279     0.0952     0.0040   -46.3164     7.7282     7.5428
  315.5000     7.9735   123.9131     2.5245     0.0974     0.0051   -46.3446     7.7412     7.5568
  316.0000     7.9759   123.7362     2.5212     0.0996     0.0062   -46.3732     7.7542     7.5708
  316.5000     7.9880   123.5611     2.5192     0.0997     0.0073   -46.4019     7.7673     7.5848
  317.0000     8.0000   123.3853     2.5201     0.0989     0.0075   -46.4305     7.7803     7.5988
  317.5000     8.0121   123.3344     2.5210     0.0980     0.0075   -46.4591     7.7934     7.6128
  318.0000     8.0242   123.6192     2.5201     0.0972     0.0075   -46.4879     7.8063     7.6269
  318.5000     8.0299   123.8995     2.5189     0.0989     0.0075   -46.4998     7.8472     7.6410
  319.0000     8.0300   123.8291     2.5188     0.1005     0.0075   -46.5000     7.8963     7.6552
  319.5000     8.0300   122.9429     2.5215     0.1000     0.0075   -46.5000     7.9458     7.6682
  320.0000     8.0300   122.0796     2.5240     0.0980     0.0075   -46.5000     7.9955     7.6750
  320.5000     8.0299   121.3873     2.5262     0.0959     0.0058   -46.5000     8.0456     7.6819
  321.0000     8.0302   121.0833     2.5268     0.0952     0.0038   -46.5000     8.0960     7.6889
  321.5000     8.0427   120.7513     2.5224     0.0989     0.0018   -46.5000     8.1467     7.6958
  322.0000     8.0564   121.2900     2.5180     0.1025    -0.0002   -46.5000     8.1779     7.7028
  322.5000     8.0691   122.0595     2.5140     0.1052     0.0000   -46.5000     8.1399     7.7098
  323.0000     8.0527   122.7795     2.5136     0.1021     0.0007   -46.5000     8.1126     7.7168
  323.5000     8.0345   123.1610     2.5129     0.0992     0.0013   -46.4999     8.0854     7.7237
  324.0000     8.0164   123.5504     2.5122     0.0992     0.0019   -46.5004     8.0583     7.7308
  324.5000     7.9983   123.9454     2.5114     0.1000     0.0026   -46.5142     8.0312     7.7376
  325.0000     7.9802   124.0449     2.5107     0.1008     0.0032   -46.5285     8.0043     7.6847
  325.5000     7.9622   123.9607     2.5099     0.1017     0.0028   -46.5429     7.9774     7.6314
  326.0000     7.9441   123.8741     2.5092     0.1025     0.0016   -46.5572     7.9507     7.5781
  326.5000     7.9296   123.7898     2.5088     0.1032     0.0022   -46.5715     7.9240     7.5271
  327.0000     7.9300   123.6763     2.5085     0.1034     0.0030   -46.5858     7.8975     7.6141
  327.5000     7.9301   122.9602     2.5083     0.1037     0.0049   -46.6001     7.8818     7.7031
  328.0000     7.9300   122.2297     2.5080     0.1039     0.0093   -46.6145     8.0148     7.7926
  328.5000     7.9247   121.5065     2.5077     0.1031     0.0137   -46.6288     8.1106     7.8831
  329.0000     7.8986   121.0880     2.5074     0.1006     0.0181   -46.6431     8.2075     7.9702
  329.5000     7.8901   121.6754     2.5071     0.0982     0.0225   -46.6574     8.3056     8.0418
  330.0000     7.8900   122.5384     2.5124     0.0957     0.0258   -46.6717     8.4048     8.1139
  330.5000     7.8899   123.4249     2.5216     0.0932     0.0287   -46.6861     8.5052     8.1868
  331.0000     7.8953   123.9579     2.5308     0.0906     0.0317   -46.6997     8.5834     8.2603
  331.5000     7.9030   123.9000     2.5401     0.0874     0.0339   -46.7001     8.6302     8.3345
  332.0000     7.9091   123.0323     2.5495     0.0847     0.0349   -46.7000     8.6772     8.4071
  332.5000     7.8932   122.1915     2.5498     0.0851     0.0359   -46.7000     8.7231     8.3848
  333.0000     7.8774   121.3556     2.5438     0.0894     0.0369   -46.7000     8.7231     8.3624
  333.5000     7.8617   120.5145     2.5331     0.0938     0.0374   -46.7001     8.7231     8.3403
  334.0000     7.8461   119.9799     2.5225     0.0980     0.0353   -46.7028     8.7231     8.3183
  334.5000     7.8305   119.7207     2.5203     0.0984     0.0302   -46.7198     8.7231     8.2964
  335.0000     7.8148   119.4930     2.5182     0.1048     0.0252   -45.9727     8.7231     8.2745
  335.5000     7.7990   119.4981     2.5144     0.1142     0.0209   -45.1031     8.7231     8.2537
  336.0000     7.7830   119.5959     2.5110     0.1138     0.0188   -44.2283     8.7231     8.2685
  336.5000     7.7716   119.7824     2.5151     0.0993     0.0170   -44.0681     8.7231     8.2830
  337.0000     7.8858   120.2579     2.5223     0.1083     0.0234   -44.0310     8.7231     8.2975
  337.5000     7.9448   121.3410     2.5102     0.1185     0.0613   -43.9961     8.7231     8.3120
  338.0000     7.8639   122.4042     2.4911     0.1226     0.1047   -43.9599     8.7231     8.3265
  338.5000     7.8277   123.1181     2.4765     0.1216     0.1379   -43.9235     8.7231     8.3410
  339.0000     7.8183   122.7682     2.4838     0.1283     0.1448   -43.8871     8.7231     8.3556
  339.5000     7.8113   122.3414     2.4884     0.1620     0.2076   -43.8506     8.7231     8.3702
  340.0000     7.8533   121.9282     2.4124     0.1992     0.2890   -43.8142     8.7231     8.3846
  340.5000     7.8985   121.7246     2.3502     0.1598     0.2144   -43.7777     8.7231     8.3993
  341.0000     7.9427   121.8497     2.5272     0.1523     0.0882   -43.7400     8.7231     8.4064
  341.5000     7.9468   121.9734     2.5312     0.1692     0.1160   -43.6973     8.7230     8.3681
  342.0000     7.8138   122.0830     2.4328     0.1784     0.1859   -43.9671     8.7179     8.3415
  342.5000     7.7101   122.6412     2.3662     0.1437     0.1182   -44.2736     8.6947     8.3150
  343.0000     7.7270   123.3053     2.5568     0.1140     0.0544   -44.4910     8.6720     8.2886
  343.5000     7.7417   123.7083     2.5166     0.0951     0.0082   -44.4255     8.6439     8.2536
  344.0000     7.7561   123.3627     2.4827     0.0929     0.0069   -44.3649     8.7443     8.4019
