~VERSION INFORMATION
 VERS.                2.0:   CWLS LOG ASCII STANDARD - VERSION 2.0
 WRAP.                 NO:   ONE LINE PER DEPTH STEP
~WELL INFORMATION
#MNEM.UNIT      DATA TYPE    INFORMATION
#----------   ------------   ------------------------------
 STRT.F           34.0000:   START DEPTH
 STOP.F          604.0000:   STOP DEPTH
 STEP.F            0.5000:   STEP LENGTH
 NULL.          -999.2500:   NO VALUE
 COMP. FENIX & SCISSON INC:   COMPANY
 WELL.       NPR #17 SX-2:   WELL
 FLD .             TEAPOT:   FIELD
 LOC .       S2 T38N R78W:   LOCATION
 CNTY.            NATRONA:   COUNTY
 STAT.            WYOMING:   STATE
 CTRY. UNITED STATES OF AMERICA:   COUNTRY
 SRVC.       Schlumberger:   SERVICE COMPANY
 DATE.        18-MAR-1977:   LOGDATE
 API .       490251032700:   API NUMBER
~CURVE INFORMATION
#MNEM.UNIT       API CODE    CURVE DESCRIPTION
#----------   ------------   ------------------------------
 DEPT.F                  :   
 SPR .MV     07 010 01 00:   SPONTANEOUS POTENTIAL
 ILD .OHMM   07 120 46 00:   INDUCTION LOG DEEP
 ILM .OHMM   07 120 44 00:   INDUCTION LOG MEDIUM
 LL8 .OHMM   07 220 08 00:   LATEROLOG-8 RES.
 CALD.IN     45 280 60 00:   CALIPER FROM DENSITY LOG
 GRD .GAPI   45 310 01 00:   GAMMA RAY FROM DENSITY LOG
 CORR.G/C3   45 356 01 00:   DENSITY CORRECTION
 DPHI.DEC    45 890 12 00:   DENSITY POROSITY SANDSTONE
 RHOB.G/C3   45 350 01 00:   BULK DENSITY
~PARAMETER INFORMATION
#MNEM.UNIT          VALUE    DESCRIPTION
#----------   ------------   ------------------------------
 PD  .                 GL:   PERMANENT DATUM
 EPD .F              5122:   ELEVATION PERMANENT DATUM
 LMF .                 KB:   LOG MEASURED FROM
 DAPD.F                 4:   FEET ABOVE PERMANENT DATUM
 DMF .                 KB:   DRILLING MEASURED FROM
 EKB .F              5126:   KELLING BUSHING
 EGL .F              5122:   GROUND LEVEL
 DATE.        18-MAR-1977:   RUN DATE
 RUN .                  1:   RUN NUMBER
 DD  .F               600:   DEPTH DRILLER
 DL  .F               605:   DEPTH LOGGER
 BLI .F               604:   BOTTOM LOG INTERVAL
 TLI .F                44:   TOP LOG INTERVAL
 CS  .IN            8.625:   CASING SIZE
 CBD .F                40:   CASING BOTTOM DRILLER
 CBL .F                44:   CASING BOTTOM LOGGER
 BS  .IN            7.875:   BIT SIZE
 BSD .F               600:   BIT SIZE AT DEPTH
 DFT .            KCL MUD:   DRILLING FLUID TYPE
 DFD .                8.9:   DRILLING FLUID DENSITY
 DFV .                 39:   DRILLING FLUID VISCOSITY
 DFPH.                8.5:   DRILLING FLUID PH
 DFL .                6.1:   DRILLING FLUID LOSS
 MSS .                PIT:   MUD SAMPLE SOURCE
 RMS .OHMM           0.26:   RESISTIVITY MUD SAMPLE
 MST .F                52:   MUD SAMPLE TEMPERATURE
 RMF .OHMM           0.24:   RESISTIVITY MUD FILTRATE SAMPLE
 MFST.F                52:   MUD FILTRATE SAMPLE TEMPERATURE
 MFSS.               MEAS:   MUD FILTRATE SAMPLE SOURCE
 TCS .HRS            0230:   TIME CURCULATED STOPPED
 LUN .               7711:   LOGGING UNIT NUMBER
 LUL .               CSPR:   LOGGING UNIT LOCATION
 ENGI.             SAYLER:   RECORDING ENGINEER
 WITN.         STUEBINGER:   WITNESSED BY
 CLNT.            A2DTECH:   CLIENT CODE
 ORIG.           5" PRINT:   ORIGIN OF DATA
 UWI .       490251032700:   UNIQUE WELL ID
 DICO. A2D Technologies, Inc.:   DIGITIZING COMPANY
~OTHER INFORMATION
~A   DEPT      SPR        ILD        ILM        LL8       CALD        GRD       CORR       DPHI       RHOB   
# ...
  581.5000   -44.5544    11.9251    11.6342    11.4833     8.0537   106.4967     0.0076     0.0855     2.5077
  582.0000   -44.3934    12.1760    12.2138    11.6437     8.0547   108.1433     0.0106     0.0866     2.5040
  582.5000   -44.2325    12.3462    12.4710    11.8063     8.0557   111.7324     0.0084     0.0899     2.5040
  583.0000   -44.0715    12.4322    12.5579    11.9712     8.0568   112.3254     0.0107     0.0872     2.5071
  583.5000   -43.9106    12.6060    12.6455    12.1384     8.0427   110.5688     0.0175     0.0824     2.5138
  584.0000   -43.7496    12.8713    12.8224    12.1384     8.0289   107.9191     0.0236     0.0788     2.5174
  584.5000   -43.5887    12.8713    12.9117    12.2229     8.0153   105.1212     0.0237     0.0887     2.5065
  585.0000   -43.5768    12.8713    13.0017    12.3080     8.0164   103.9530     0.0230     0.0904     2.5005
  585.5000   -43.2668    12.8713    13.0924    12.3936     8.0174    99.2292     0.0185     0.0919     2.5006
  586.0000   -42.9508    12.8713    13.0924    12.5667     8.0184    79.8345     0.0141     0.0964     2.5006
  586.5000   -42.6429    12.8713    13.0924    12.5667     8.0046  -999.2500     0.0179     0.0928     2.4974
  587.0000   -42.3368    12.9609    13.0924    12.7423     8.0056  -999.2500     0.0217     0.0895     2.5014
  587.5000   -42.6230    13.0512    13.0924    12.9203     8.0067  -999.2500     0.0158     0.0978     2.4948
  588.0000   -42.9091    13.0512    13.1836    13.0102     7.9929  -999.2500     0.0233     0.0915     2.4903
  588.5000   -43.1952    13.0512    13.1836    13.1007     7.9791  -999.2500     0.0211     0.0987     2.4852
  589.0000   -43.4813    13.0512    13.1836    13.1007     7.9801  -999.2500     0.0280     0.0960     2.4950
  589.5000   -43.4693    13.1421    13.2755    13.1919     7.9960  -999.2500     0.0325     0.0888     2.5032
  590.0000   -43.6066    13.2336    13.2755    13.1919     7.9972  -999.2500     0.0243     0.0999     2.4853
  590.5000   -43.5944    13.2336    13.2755    13.1919     7.9983  -999.2500     0.0184     0.1046     2.4770
  591.0000   -43.5824    13.4186    13.2755    13.1919     7.9842  -999.2500     0.0147     0.1058     2.4740
  591.5000   -43.5705    13.4186    13.2755    13.1919     8.0003  -999.2500     0.0072     0.1064     2.4772
  592.0000   -43.5585    13.4186    13.2755    13.1919     8.0014  -999.2500    -0.0002     0.1033     2.4825
  592.5000   -43.5465    13.4186    13.2755    13.1919     8.0172  -999.2500     0.0037     0.1000     2.4848
  593.0000   -43.6841    13.3258    13.3680    13.0102     8.0182  -999.2500     0.0028     0.1016     2.4863
  593.5000   -43.6717    13.2336    13.3680    13.0102     8.0489  -999.2500    -0.0030     0.1042     2.4789
  594.0000   -43.8092    13.2336    13.3680    12.8310     8.0500  -999.2500     0.0003     0.1012     2.4842
  594.5000   -43.9463    13.1421    13.3680    12.7423     8.0359  -999.2500     0.0053     0.0952     2.4909
  595.0000   -43.9338    13.0512    13.2755    12.6542     8.0372  -999.2500    -0.0006     0.1003     2.4850
  595.5000   -44.0739    12.8713    13.0017    12.4799     8.0382  -999.2500    -0.0020     0.1051     2.4783
  596.0000   -44.2080    12.7822    12.7336    12.3080     8.0242  -999.2500     0.0070     0.0967     2.4821
  596.5000   -44.1960    12.6060    12.4710    12.2229     8.0254  -999.2500     0.0101     0.0958     2.4919
  597.0000   -44.1840    12.5188    12.3847    11.9712     8.0265  -999.2500     0.0124     0.0987     2.4881
  597.5000   -44.0230    12.5188    12.2138    11.8063     8.0275  -999.2500     0.0155     0.0957     2.4942
  598.0000   -43.8621    12.5188    12.2138    11.4039     8.0285  -999.2500     0.0133     0.0904     2.5009
  598.5000   -43.7011    12.6938    12.3847    11.2468     8.0296  -999.2500     0.0126     0.0987     2.4943
  599.0000   -43.8411    12.7822    12.4710    11.1691     8.0306  -999.2500     0.0179     0.0966     2.4891
  599.5000  -999.2500  -999.2500  -999.2500  -999.2500     8.0168  -999.2500     0.0202     0.0936     2.4936
  600.0000  -999.2500  -999.2500  -999.2500  -999.2500     8.0178  -999.2500     0.0173     0.0906     2.4989
  600.5000  -999.2500  -999.2500  -999.2500  -999.2500     8.0040  -999.2500     0.0151     0.0939     2.4959
  601.0000  -999.2500  -999.2500  -999.2500  -999.2500     8.0050  -999.2500     0.0136     0.1028     2.4863
  601.5000  -999.2500  -999.2500  -999.2500  -999.2500     8.0061  -999.2500     0.0137     0.1112     2.4744
  602.0000  -999.2500  -999.2500  -999.2500  -999.2500     7.9922  -999.2500     0.0145     0.1231     2.4490
  602.5000  -999.2500  -999.2500  -999.2500  -999.2500     7.9784  -999.2500     0.0161     0.1347     2.4207
  603.0000  -999.2500  -999.2500  -999.2500  -999.2500     7.9498  -999.2500     0.0206     0.1490     2.3879
  603.5000  -999.2500  -999.2500  -999.2500  -999.2500     7.8472  -999.2500     0.0702     0.1756     2.3648
  604.0000  -999.2500  -999.2500  -999.2500  -999.2500     7.0682  -999.2500     0.1783     0.1802     2.3569
