~VERSION INFORMATION
 VERS.                2.0:   CWLS LOG ASCII STANDARD - VERSION 2.0
 WRAP.                 NO:   ONE LINE PER DEPTH STEP
~WELL INFORMATION
#MNEM.UNIT      DATA TYPE    INFORMATION
#----------   ------------   ------------------------------
 STRT.F            0.0000:   START DEPTH
 STOP.F         3139.0000:   STOP DEPTH
 STEP.F            0.5000:   STEP LENGTH
 NULL.          -999.2500:   NO VALUE
 COMP. BROWN JOHN E&C INC:   COMPANY
 WELL.       TX-10 #63-10:   WELL
 FLD .             TEAPOT:   FIELD
 LOC .      S10 T38N R78W:   LOCATION
 CNTY.            NATRONA:   COUNTY
 STAT.            WYOMING:   STATE
 CTRY. UNITED STATES OF AMERICA:   COUNTRY
 SRVC.       Schlumberger:   SERVICE COMPANY
 DATE.        05-OCT-1982:   LOGDATE
 API .       490251090100:   API NUMBER
~CURVE INFORMATION
#MNEM.UNIT       API CODE    CURVE DESCRIPTION
#----------   ------------   ------------------------------
 DEPT.F                  :   
 DPHI.DEC    45 890 12 00:   DENSITY POROSITY  SANDSTONE
 GRD .GAPI   45 310 01 00:   GAMMA RAY FROM DENSITY LOG
 NPHI.DEC    42 890 03 00:   NEUTRON POROSITY SANDSTONE
 CALD.IN     45 280 60 00:   CALIPER FROM DENSITY LOG
 CORR.G/C3   45 356 01 00:   DENSITY CORRECTION
 RHOB.G/C3   45 350 01 00:   BULK DENSITY
 ILD .OHMM   07 120 46 00:   INDUCTION LOG DEEP
 ILM .OHMM   07 120 44 00:   INDUCTION LOG MEDIUM
 SFLU.OHMM   07 220 01 00:   SPHERICALLY FOCUSED LOG UNAVERAGED RESISTIVITY
 SPR .MV     07 010 01 00:   SPONTANEOUS POTENTIAL
~PARAMETER INFORMATION
#MNEM.UNIT          VALUE    DESCRIPTION
#----------   ------------   ------------------------------
 PD  .                 GL:   PERMANENT DATUM
 EPD .F              5189:   ELEVATION PERMANENT DATUM
 LMF .                 KB:   LOG MEASURED FROM
 DAPD.F                10:   FEET ABOVE PERMANENT DATUM
 DMF .                 KB:   DRILLING MEASURED FROM
 EKB .F              5199:   KELLING BUSHING
 EGL .F              5189:   GROUND LEVEL
 DATE.        05-OCT-1982:   RUN DATE
 RUN .                  1:   RUN NUMBER
 DD  .F              3200:   DEPTH DRILLER
 DL  .F              3142:   DEPTH LOGGER
 BLI .F              3139:   BOTTOM LOG INTERVAL
 TLI .F               484:   TOP LOG INTERVAL
 CS  .IN            9.625:   CASING SIZE
 CBD .F               482:   CASING BOTTOM DRILLER
 CBL .F               484:   CASING BOTTOM LOGGER
 BS  .IN            7.875:   BIT SIZE
 BSD .F              3200:   BIT SIZE AT DEPTH
 DFT .        KCL/POLYMER:   DRILLING FLUID TYPE
 DFD .                8.6:   DRILLING FLUID DENSITY
 DFV .                 38:   DRILLING FLUID VISCOSITY
 DFPH.                8.5:   DRILLING FLUID PH
 DFL .                6.8:   DRILLING FLUID LOSS
 MSS .           MUD TANK:   MUD SAMPLE SOURCE
 RMS .OHMM            .40:   RESISTIVITY MUD SAMPLE
 MST .F                64:   MUD SAMPLE TEMPERATURE
 RMF .OHMM            .34:   RESISTIVITY MUD FILTRATE SAMPLE
 MFST.F                64:   MUD FILTRATE SAMPLE TEMPERATURE
 RMC .OHMM            .36:   RESISTIVITY MUD CAKE
 MCST.F                64:   MUD CAKE SAMPLE TEMPERATURE
 MFSS.               MEAS:   MUD FILTRATE SAMPLE SOURCE
 MCSS.               CALC:   MUD CAKE SAMPLE SOURCE
 RMB .OHMM             .2:   RESISTIVITY MUD AT BHT
 BHT .F               125:   BOTTOM HOLE TEMPERATURE
 TCS .HRS            2300:   TIME CURCULATED STOPPED
 TLAB.HRS            0500:   TIME LOGGER AT BOTTOM
 MRT .F               125:   MAXIMUM RECORDED TEMPERATURE
 LUN .               8043:   LOGGING UNIT NUMBER
 LUL .                GLT:   LOGGING UNIT LOCATION
 ENGI.            NEUFFER:   RECORDING ENGINEER
 WITN.             STRONG:   WITNESSED BY
 CLNT.            A2DTECH:   CLIENT CODE
 ORIG.           5" PRINT:   ORIGIN OF DATA
 UWI .       490251090100:   UNIQUE WELL ID
 DICO. A2D Technologies, Inc.:   DIGITIZING COMPANY
~OTHER INFORMATION
~A    DEPT    DPHI          GRD     NPHI       CALD       CORR       RHOB        ILD        ILM       SFLU        SPR   
# ...
 1876.0000     0.1240   117.0265     0.3818    12.8563     0.0280     2.4538     9.6818     8.9414    10.4387   -80.3344
 1876.5000     0.1278   116.0673     0.3806    12.7034     0.0242     2.4508     9.7464     8.9377    10.5076   -80.1900
 1877.0000     0.1281   117.2444     0.3797    12.5657     0.0211     2.4515     9.8786     8.9974    10.5041   -80.1990
 1877.5000     0.1199   118.7166     0.3752    12.3063     0.0195     2.4545     9.9445     9.0560    10.4275   -80.0525
 1878.0000     0.1128   119.5988     0.3608    12.1838     0.0202     2.4634    10.0107     9.0530    10.4241   -80.0616
 1878.5000     0.1090   119.5953     0.3593    12.0157     0.0316     2.4746    10.0774     9.1128    10.4206   -80.0684
 1879.0000     0.1054   119.2976     0.3587    11.8932     0.0391     2.4828    10.0741     9.2364    10.5209   -80.0761
 1879.5000     0.1045   119.2948     0.3563    11.7248     0.0399     2.4768    10.1418     9.2973    10.6318   -80.0836
 1880.0000     0.1166   119.2920     0.3466    11.5719     0.0358     2.4573    10.2088     9.3578    10.8509   -80.0925
 1880.5000     0.1263   118.9936     0.3306    11.4797     0.0147     2.4467    10.2768     9.4856    11.1513   -80.0988
 1881.0000     0.1305   118.1059     0.3265    11.3572     0.0070     2.4445    10.3452     9.4165    11.4600   -80.1064
 1881.5000     0.1210   116.9232     0.3246    11.2192     0.0063     2.4497    10.2000     9.2200    11.7763   -80.1144
 1882.0000     0.1157   116.6248     0.3215    11.1118     0.0100     2.4616    10.0575     8.9655    11.7724   -80.2345
 1882.5000     0.1130   117.2120     0.3185    10.9741     0.0160     2.4706     9.7809     8.8396    11.4477   -80.4331
 1883.0000     0.1122   118.6842     0.3150    10.8668     0.0251     2.4750     9.6442     8.7155    11.1318   -80.4420
 1883.5000     0.1128   122.8112     0.3120    10.8198     0.0296     2.4750     9.5088     8.5932    10.6754   -80.6012
 1884.0000     0.1113   134.6072     0.3102    10.7580     0.0311     2.4787     9.5063     8.5312    10.3810   -80.7599
 1884.5000     0.1092   137.8492     0.3146    10.7265     0.0318     2.4794     9.5038     8.4697    10.0947   -80.7677
 1885.0000     0.1139   136.6665     0.3223    10.6950     0.0310     2.4749     9.5671     8.4662     9.8843   -80.7751
 1885.5000     0.1189   130.1522     0.3338    10.6025     0.0279     2.4659     9.6309     8.5228    10.8097   -80.6303
 1886.0000     0.1210   129.2857     0.3356    10.5103     0.0233     2.4591     9.7694     8.6384    11.2864   -80.4856
 1886.5000     0.1207   129.5786     0.3273    10.4636     0.0171     2.4583    10.0323     8.7556    11.4164   -80.4947
 1887.0000     0.1204   129.6066     0.3255    10.4170     0.0156     2.4582    10.1698     8.9352    11.4117   -80.3482
 1887.5000     0.1183   128.9817     0.3252    10.3548     0.0194     2.4597    10.3792     9.1192    11.4079   -80.2053
 1888.0000     0.1138   126.9141     0.3249    10.3082     0.0231     2.4642    10.5207     9.2429    11.5628   -80.2128
 1888.5000     0.1116   124.8464     0.3240    10.2767     0.0262     2.4679    10.5908     9.4978    11.7199   -80.2217
 1889.0000     0.1145   122.4838     0.3227    10.2604     0.0299     2.4708    10.6614     9.5605    11.8780   -80.2290
 1889.5000     0.1180   119.2355     0.3143    10.2589     0.0291     2.4693    10.6579     9.7573    12.2068   -80.0825
 1890.0000     0.1199   113.9230     0.3099    10.2578     0.0252     2.4625    10.6550     9.8217    12.3736   -80.0916
 1890.5000     0.1219   110.6754     0.3149    10.2870     0.0121     2.4565    10.6522     9.8865    12.1988   -80.0988
 1891.0000     0.1254   110.0826     0.3228    10.3769     0.0077     2.4534    10.6494     9.8824    11.6995   -80.2584
 1891.5000     0.1242   110.6699     0.3240    10.3758     0.0122     2.4550    10.5616     9.8791    11.2942   -80.2660
 1892.0000     0.1151   111.5514     0.3219    10.3136     0.0212     2.4654    10.4249     9.8079    10.9103   -80.1207
 1892.5000     0.1101   113.0235     0.3181    10.2821     0.0394     2.4743    10.2792     9.7372    10.6829   -80.1298
 1893.0000     0.1068   117.1499     0.3137    10.2506     0.0515     2.4810    10.1356     9.7241    10.9787   -80.2890
 1893.5000     0.1062   120.6869     0.3116    10.2475     0.0530     2.4832    10.1329     9.5863    11.3608   -80.2964
 1894.0000     0.1174   122.4548     0.3095    10.2329     0.0218     2.4750    10.2070     9.4618    12.0025   -80.4574
 1894.5000     0.1251   120.0914     0.3074    10.2318     0.0104     2.4637    10.2684     9.3290    11.9984   -80.6166
 1895.0000     0.1251   120.3830     0.3057    10.2306     0.0080     2.4531    10.4084     9.1980    11.9110   -80.7759
 1895.5000     0.1250   122.4451     0.3119    10.2295     0.0065     2.4531    10.4771     9.1287    11.8250   -80.8392
 1896.0000     0.1256   123.9173     0.3157    10.2280     0.0064     2.4531    10.5470     8.9408    11.6589   -80.9424
 1896.5000     0.1268   123.6195     0.3166    10.2424     0.0072     2.4508    10.3995     8.9258    11.5436   -80.9499
 1897.0000     0.1274   123.6161     0.3169    10.2561     0.0086     2.4492    10.3961     8.8124    11.3336   -80.9588
 1897.5000     0.1274   123.9083     0.3254    10.2853     0.0116     2.4492    10.2508     8.6887    11.0871   -80.9660
 1898.0000     0.1268   125.3805     0.3354    10.2993     0.0161     2.4499    10.1076     8.6260    10.7904   -80.9733
 1898.5000     0.1236   127.1469     0.3369    10.3434     0.0237     2.4574     9.9663     8.4974    10.7126   -80.9806
 1899.0000     0.1188   126.8492     0.3263    10.3726     0.0305     2.4648     9.8270     8.4429    10.7090   -80.9879
 1899.5000     0.1144   125.9615     0.3192    10.3867     0.0373     2.4701     9.8244     8.3821    10.7055   -80.9954
 1900.0000     0.1130   126.2537     0.3198    10.4041     0.0441     2.4730     9.8212     8.3793    10.8508   -81.0043
 1900.5000     0.1171   127.1357     0.3263    10.4479     0.0265     2.4670     9.7790     8.3765    11.1503   -80.7058
 1901.0000     0.1212   130.0821     0.3298    10.4916     0.0105     2.4609     9.6799     8.4318    11.3213   -80.7334
 1901.5000     0.1233   130.6700     0.3310    10.5380     0.0036     2.4549     9.6768     8.4297    11.5352   -80.7884
 1902.0000     0.1250   127.7167     0.3225    10.5937     0.0028     2.4519     9.6665     8.3700    11.2163   -80.8434
 1902.5000     0.1241   122.9645     0.3115    10.6231     0.0035     2.4511     9.6706     8.1963    10.7573   -80.8822
 1903.0000     0.1215   121.8115     0.3076    10.6370     0.0075     2.4608     9.6666     8.1378    10.5322   -80.8879
 1903.5000     0.1189   124.7579     0.3097    10.6512     0.0170     2.4668     9.6635     8.0792    10.6020   -80.9053
 1904.0000     0.1162   125.0501     0.3143    10.6805     0.0208     2.4630     9.6596     8.1335    11.1238   -81.2045
 1904.5000     0.1212   124.1617     0.3224    10.6947     0.0200     2.4577     9.6565     8.1878    11.1982   -81.2102
 1905.0000     0.1215   122.9790     0.3321    10.7390     0.0191     2.4576     9.6534     8.2989    11.1164   -81.2158
 1905.5000     0.1197   123.5662     0.3404    10.7985     0.0176     2.4629     9.5179     8.3543    11.0356   -81.0695
 1906.0000     0.1186   123.2370     0.3366    10.8430     0.0167     2.4666     9.5141     8.2941    11.0320   -80.9232
 1906.5000     0.1180   122.3801     0.3230    10.8726     0.0152     2.4605     9.5110     8.1783    10.7278   -80.9301
 1907.0000     0.1189   121.1974     0.3150    10.8865     0.0136     2.4507     9.3776     8.0635    10.4312   -80.9374
 1907.5000     0.1263   120.6047     0.3141    10.9159     0.0105     2.4425     9.2459     7.9509    10.2847   -80.7896
 1908.0000     0.1372   122.9618     0.3222    10.9450     0.0043     2.4355     9.1787     7.9488    10.1403   -80.6433
 1908.5000     0.1366   122.3684     0.3283    10.9591     0.0035     2.4289     9.0499     7.9468    10.1370   -80.6505
 1909.0000     0.1351   120.8907     0.3321    10.9753     0.0042     2.4296     8.9847     7.9442    10.3460   -80.5041
