~VERSION INFORMATION
 VERS.                2.0:   CWLS LOG ASCII STANDARD - VERSION 2.0
 WRAP.                 NO:   ONE LINE PER DEPTH STEP
~WELL INFORMATION
#MNEM.UNIT      DATA TYPE    INFORMATION
#----------   ------------   ------------------------------
 STRT.F           89.0000:   START DEPTH
 STOP.F         1360.0000:   STOP DEPTH
 STEP.F            0.5000:   STEP LENGTH
 NULL.          -999.2500:   NO VALUE
 COMP.           U S NAVY:   COMPANY
 WELL.     NPR 3 #85 S-11:   WELL
 FLD .             TEAPOT:   FIELD
 LOC .      S11 T38N R78W:   LOCATION
 CNTY.            NATRONA:   COUNTY
 STAT.            WYOMING:   STATE
 CTRY. UNITED STATES OF AMERICA:   COUNTRY
 SRVC.       Schlumberger:   SERVICE COMPANY
 DATE.        15-AUG-1966:   LOGDATE
 API .       490250959000:   API NUMBER
~CURVE INFORMATION
#MNEM.UNIT       API CODE    CURVE DESCRIPTION
#----------   ------------   ------------------------------
 DEPT.F                  :   
 SPR .MV     05 010 01 00:   SPONTANEOUS POTENTIAL FROM RES.
 CILD.MMHO   05 110 46 00:   CONDUCTIVITY INDUCTION LOG DEEP
 ASN .OHMM   05 041 16 00:   AMPLIFIED SHORT NORMAL 16"
 ILD .OHMM   05 120 46 00:   INDUCTION LOG DEEP
 GR  .GAPI   30 310 01 00:   GAMMA RAY
~PARAMETER INFORMATION
#MNEM.UNIT          VALUE    DESCRIPTION
#----------   ------------   ------------------------------
 PD  .                 GL:   PERMANENT DATUM
 EPD .F              5288:   ELEVATION PERMANENT DATUM
 LMF .                 KB:   LOG MEASURED FROM
 DAPD.F                 5:   FEET ABOVE PERMANENT DATUM
 DMF .                 KB:   DRILLING MEASURED FROM
 EKB .F            5286.9:   KELLING BUSHING
 EGL .F            5281.9:   GROUND LEVEL
 DATE.        15-AUG-1966:   RUN DATE
 RUN .                  1:   RUN NUMBER
 DD  .F              1360:   DEPTH DRILLER
 DL  .F              1361:   DEPTH LOGGER
 BLI .F              1360:   BOTTOM LOG INTERVAL
 TLI .F                88:   TOP LOG INTERVAL
 CS  .IN            8.625:   CASING SIZE
 CBD .F                12:   CASING BOTTOM DRILLER
 BS  .IN            7.875:   BIT SIZE
 BSD .F              1360:   BIT SIZE AT DEPTH
 DFT .          CHEM- GEL:   DRILLING FLUID TYPE
 DFD .                9.6:   DRILLING FLUID DENSITY
 DFV .                 60:   DRILLING FLUID VISCOSITY
 DFPH.                7.2:   DRILLING FLUID PH
 DFL .                6.4:   DRILLING FLUID LOSS
 MSS .         CIRCULATED:   MUD SAMPLE SOURCE
 RMS .OHMM           1.41:   RESISTIVITY MUD SAMPLE
 MST .F                72:   MUD SAMPLE TEMPERATURE
 RMF .OHMM           0.75:   RESISTIVITY MUD FILTRATE SAMPLE
 MFST.F                73:   MUD FILTRATE SAMPLE TEMPERATURE
 MFSS.               MEAS:   MUD FILTRATE SAMPLE SOURCE
 TCS .HRS             2.5:   TIME CURCULATED STOPPED
 LUN .               3527:   LOGGING UNIT NUMBER
 LUL .              CSPR.:   LOGGING UNIT LOCATION
 ENGI.               HAUG:   RECORDING ENGINEER
 WITN.             TUTTLE:   WITNESSED BY
 CLNT.            A2DTECH:   CLIENT CODE
 ORIG.       2", 5" PRINT:   ORIGIN OF DATA
 UWI .       490250959000:   UNIQUE WELL ID
 DICO. A2D Technologies, Inc.:   DIGITIZING COMPANY
~OTHER INFORMATION
~A   DEPT      SPR       CILD          ASN        ILD       GR   
# ...
 1065.0000   -30.2734   188.1399     7.5518     4.9616    84.4597
 1065.5000   -30.4351   191.1764     7.4457     4.8811    79.7240
 1066.0000   -30.4455   193.4666     7.2794     4.8007    82.3863
 1066.5000   -30.4560   196.5031     7.0980     4.7202    85.3632
 1067.0000   -30.4664   201.7784     7.0069     4.6397    89.1268
 1067.5000   -30.4769   207.0537     6.9293     4.6345    92.7331
 1068.0000   -30.4873   219.0455     6.7675     4.6293    93.0384
 1068.5000   -30.3464   234.0668     6.4326     4.0217    89.2467
 1069.0000   -30.2057   258.9754     6.1610     3.4141    87.5035
 1069.5000   -30.2163   272.4931     5.7842     3.1830    86.0750
 1070.0000   -30.2269   290.8929     5.4976     3.1777    79.9263
 1070.5000   -30.2375   287.9722     4.9704     3.2467    83.6900
 1071.0000   -30.2501   285.7848     4.7891     3.3168    93.1177
 1071.5000   -30.2605   283.5845     4.9085     3.3870    92.4759
 1072.0000   -30.1171   280.6638     5.2384     3.3818    96.5542
 1072.5000   -29.9763   266.5361     5.5684     3.6778    93.8670
 1073.0000   -29.8354   247.9308     6.0487     4.1244    84.7289
 1073.5000   -29.8485   228.5792     6.5290     4.6464    84.6541
 1074.0000   -29.7050   209.9739     6.7687     4.7931    87.8507
 1074.5000   -29.7181   198.0851     6.9633     4.8632    84.5341
 1075.0000   -29.8798   188.4350     7.1729     4.9320    79.0148
 1075.5000   -29.8903   186.2476     7.3242     5.0030    76.1703
 1076.0000   -29.9007   185.5522     7.4454     5.1476    78.5178
 1076.5000   -29.9112   184.8579     7.5516     5.1423    79.8270
 1077.0000   -29.7700   183.3534     7.6804     5.1371    81.2090
 1077.5000   -29.9321   181.8652     7.7698     5.1318    83.8290
 1078.0000   -29.9425   179.0549     7.8741     5.1255    83.0276
 1078.5000   -29.9531   176.8546     7.9635     5.1970    84.5885
 1079.0000   -29.9637   173.9339     8.0528     5.1905    89.4534
 1079.5000   -29.9743   172.4799     8.1572     5.2619    88.3396
 1080.0000   -29.8357   170.3054     8.2766     5.3320    84.3937
 1080.5000   -29.8461   169.5977     8.3659     5.4021    82.4963
 1081.0000   -29.8566   168.9028     8.4854     5.5463    87.6728
 1081.5000   -29.8670   168.2080     8.5747     5.6917    94.7436
 1082.0000   -29.8775   167.5131     8.6339     5.6865    90.7946
 1082.5000   -29.8879   166.8183     8.6932     5.6813    87.1633
 1083.0000   -29.8984   166.8826     8.7525     5.6761    86.6788
 1083.5000   -29.9088   166.1866     8.7516     5.6710    88.2397
 1084.0000   -29.9193   166.2392     8.7669     5.6657    88.0730
 1084.5000   -29.7758   167.0373     8.7820     5.7359    91.6762
 1085.0000   -29.6376   167.0896     8.8389     5.7294    92.2962
 1085.5000   -29.6481   167.1418     8.8380     5.7242    84.7284
 1086.0000   -29.5068   166.4449     8.8071     5.7191    86.9186
 1086.5000   -29.5177   165.7500     8.7009     5.7139    85.4932
 1087.0000   -29.5281   162.8292     8.5647     5.7853    87.0541
 1087.5000   -29.3873   160.6418     8.4285     5.7788    86.0945
 1088.0000   -29.3979   159.9341     8.2922     5.7736    86.8687
 1088.5000   -29.4085   161.4910     8.1259     5.7685    90.4750
 1089.0000   -29.4191   163.7812     7.9596     5.7633    85.1130
 1089.5000   -29.4317   166.8177     7.7783     5.6075    84.4555
 1090.0000   -29.4422   173.5855     7.5368     5.5270    83.6720
 1090.5000   -29.4526   182.5922     7.2652     5.2204    80.8274
 1091.0000   -29.4631   199.8078     6.9786     4.9784    77.4380
 1091.5000   -29.4735   209.5607     6.6620     4.5969    78.6785
 1092.0000   -29.4840   223.7912     6.1888     4.1496    79.5313
 1092.5000   -29.3405   241.1926     5.6721     3.6926    76.7913
 1093.0000   -29.1997   277.2315     5.3216     2.9344    72.4262
 1093.5000   -29.0588   336.7232     4.8988     2.4021    82.6375
 1094.0000   -28.7693   421.0247     4.1761     2.0204    88.4465
 1094.5000   -28.3233   462.1209     3.6940     1.6387    87.3326
 1095.0000   -28.0338   573.3621     3.1969     1.5583    90.3096
 1095.5000   -28.0443   604.7568     2.9103     1.4778    94.8599
 1096.0000   -28.0547   645.8530     2.6988     1.5492    92.6478
 1096.5000   -28.0357   648.5527     2.5325     1.6182    96.0967
 1097.0000   -27.9079   625.8066     2.3963     1.7635    91.3610
 1097.5000   -27.9213   595.0596     2.5909     1.9089    89.9325
 1098.0000   -27.9346   518.9324     2.9810     2.0583    90.2347
 1098.5000   -28.2505   463.4407     3.2057     2.2841    87.5475
 1099.0000   -28.4151   396.9342     3.8815     2.6450    85.3322
 1099.5000   -28.4284   304.4409     4.5422     3.1670    85.7918
 1100.0000   -28.4418   249.2611     5.0526     3.4636    86.6629
 1100.5000   -28.4554   226.9171     5.5636     4.4412    88.7589
 1101.0000   -28.4952   215.0208     5.8265     4.7409    95.3577
 1101.5000   -28.9389   205.3633     5.9611     4.8903    91.8870
 1102.0000   -28.6497   202.4223     6.0506     4.8885    98.0138
 1102.5000   -28.5084   201.7091     6.1099     4.8117   105.4017
 1103.0000   -28.5251   209.9731     6.1546     4.5843    94.8484
 1103.5000   -28.5384   221.9574     6.1998     4.2063    92.1644
 1104.0000   -28.4004   236.9268     6.2428     3.8283    85.5469
 1104.5000   -28.2591   251.8963     6.2116     3.6009    84.7509
 1105.0000   -28.1241   276.5672     6.1203     3.3735    86.3150
 1105.5000   -27.9864   284.2760     5.6375     3.2967    92.2845
 1106.0000   -28.0000   294.2207     5.2902     3.2199    93.0661
 1106.5000   -27.8619   306.5610     4.7622     3.1356    91.6154
 1107.0000   -27.7239   315.5603     4.6559     3.0662    85.7173
 1107.5000   -27.5893   326.0521     4.5345     3.1401    81.0763
 1108.0000   -27.6026   314.9021     4.5487     3.2889    89.0010
 1108.5000   -27.6160   297.7820     4.8641     3.4380    94.9010
 1109.0000   -27.6293   279.9156     5.1945     3.5871    91.7449
 1109.5000   -27.6426   254.5865     5.3141     3.8115    85.9141
 1110.0000   -27.8072   239.7052     5.6445     4.1112    87.9502
 1110.5000   -27.9719   224.8238     6.0202     4.4862    88.4152
 1111.0000   -28.1365   217.4052     6.3054     4.7859    89.6623
 1111.5000   -28.1498   212.2254     6.6401     5.0107    87.4502
 1112.0000   -28.3147   203.3142     7.0845     5.2347    89.3290
 1112.5000   -28.4796   190.6716     7.4146     5.3089    87.5889
 1113.0000   -28.4957   181.6124     7.7474     5.3827    88.6833
 1113.5000   -28.5090   174.1445     7.9574     5.3809    88.2020
 1114.0000   -28.5223   169.9082     8.0468     5.3794    97.0012
 1114.5000   -28.5357   171.4558     8.0914     5.3779    96.0479
 1115.0000   -28.5490   175.2312     8.1354     5.3765    95.2519
 1115.5000   -28.5623   180.4991     8.1044     5.3725    88.7910
 1116.0000   -28.4210   183.5283     7.9981     5.2982    82.4905
 1116.5000   -28.4377   186.5574     7.8617     5.2892    89.8737
 1117.0000   -28.2997   190.3328     7.8005     5.2199   100.7207
 1117.5000   -28.3132   192.6156     7.6942     5.1430   100.8690
 1118.0000   -28.3264   196.3910     7.5578     5.0660   101.8034
 1118.5000   -28.1884   200.1664     7.4063     4.9139   102.5808
 1119.0000   -28.0505   206.1806     7.2699     4.6112   102.5267
 1119.5000   -27.9158   211.4485     7.1182     4.3085    94.5817
 1120.0000   -27.9292   218.9552     6.9799     4.0811    84.4377
 1120.5000   -27.7912   231.9348     6.7645     4.0043    86.8578
 1121.0000   -27.8045   245.4621     6.5924     3.9275    87.7445
 1121.5000   -27.8179   258.6506     6.2260     3.8507    87.8902
 1122.0000   -27.6766   256.4558     5.8336     3.7739    89.9262
 1122.5000   -27.5416   252.7685     5.5616     3.7724    92.2793
 1123.0000   -27.5553   248.3350     5.6059     3.7709    85.6595
 1123.5000   -27.5688   243.9014     5.7707     3.8451    87.6956
 1124.0000   -27.4306   238.7216     5.9656     3.9189    89.4193
 1124.5000   -27.4473   229.0641     6.3111     4.2935    86.5756
 1125.0000   -27.4606   211.1977     6.9728     4.6686    87.1956
 1125.5000   -27.4739   199.3015     7.3936     4.9683    90.8050
