~VERSION INFORMATION
 VERS.                2.0:   CWLS LOG ASCII STANDARD - VERSION 2.0
 WRAP.                 NO:   ONE LINE PER DEPTH STEP
~WELL INFORMATION
#MNEM.UNIT      DATA TYPE    INFORMATION
#----------   ------------   ------------------------------
 STRT.F            8.0000:   START DEPTH
 STOP.F         3200.0000:   STOP DEPTH
 STEP.F            0.5000:   STEP LENGTH
 NULL.          -999.2500:   NO VALUE
 COMP. BROWN JOHN E&C INC:   COMPANY
 WELL.  62 x 15-17 #62-15:   WELL
 FLD .        N.P.R NO. 3:   FIELD
 LOC .      S15 T38N R78W:   LOCATION
 CNTY.            NATRONA:   COUNTY
 STAT.            WYOMING:   STATE
 CTRY. UNITED STATES OF AMERICA:   COUNTRY
 SRVC.      Western Atlas:   SERVICE COMPANY
 DATE.        17-JUN-1986:   LOGDATE
 API .       490251104300:   API NUMBER
~CURVE INFORMATION
#MNEM.UNIT       API CODE    CURVE DESCRIPTION
#----------   ------------   ------------------------------
 DEPT.F                  :   
 GRR .GAPI   07 310 01 00:   GAMMA RAY
 CALR.IN     07 280 01 00:   CALIPER FROM RESISTIVITY
 SPR .MV     07 010 01 00:   SPONTANEOUS POTENTIAL
 RILD.OHMM   07 120 46 00:   INDUCTION LOG DEEP RESISTIVITY
 RILM.OHMM   07 120 44 00:   INDUCTION LOG MEDIUM RESISTIVITY
 RFOC.OHMM   07 220 04 00:   RESISTIVITY FOCUSED LOG
 PORD.DEC    45 890 12 00:   POROSITY DENSITY SANDSTONE
 CNC .DEC    42 890 03 00:   NEUTRON POROSITY SANDSTONE
 CORR.G/C3   45 356 01 00:   DENSITY CORRECTION
 DEN .G/C3   45 350 01 00:   COMPENSATED BULK DENSTIY
~PARAMETER INFORMATION
#MNEM.UNIT          VALUE    DESCRIPTION
#----------   ------------   ------------------------------
 PD  .                 GL:   PERMANENT DATUM
 EPD .F              5242:   ELEVATION PERMANENT DATUM
 LMF .                 KB:   LOG MEASURED FROM
 DAPD.F                11:   FEET ABOVE PERMANENT DATUM
 DMF .                 KB:   DRILLING MEASURED FROM
 EKB .F              5253:   KELLING BUSHING
 EGL .F              5242:   GROUND LEVEL
 DATE.            6-17-86:   RUN DATE
 RUN .                  1:   RUN NUMBER
 DD  .F              3200:   DEPTH DRILLER
 DL  .F              3202:   DEPTH LOGGER
 BLI .F              3200:   BOTTOM LOG INTERVAL
 CS  .IN            8.625:   CASING SIZE
 CBD .F               573:   CASING BOTTOM DRILLER
 CBL .F               573:   CASING BOTTOM LOGGER
 BS  .IN            7.875:   BIT SIZE
 BSD .F              3200:   BIT SIZE AT DEPTH
 DFT .            KCL/GEL:   DRILLING FLUID TYPE
 DFD .                8.9:   DRILLING FLUID DENSITY
 DFV .                 37:   DRILLING FLUID VISCOSITY
 DFPH.                8.5:   DRILLING FLUID PH
 DFL .               10.2:   DRILLING FLUID LOSS
 MSS .           MUD TANK:   MUD SAMPLE SOURCE
 RMS .OHMM            .39:   RESISTIVITY MUD SAMPLE
 MST .F                80:   MUD SAMPLE TEMPERATURE
 RMF .OHMM            .29:   RESISTIVITY MUD FILTRATE SAMPLE
 MFST.F                80:   MUD FILTRATE SAMPLE TEMPERATURE
 RMC .OHMM            .49:   RESISTIVITY MUD CAKE
 MCST.F                80:   MUD CAKE SAMPLE TEMPERATURE
 MFSS.               CALC:   MUD FILTRATE SAMPLE SOURCE
 MCSS.               CALC:   MUD CAKE SAMPLE SOURCE
 RMB .OHMM            .24:   RESISTIVITY MUD AT BHT
 BHT .F               130:   BOTTOM HOLE TEMPERATURE
 TCS .HRS               5:   TIME CURCULATED STOPPED
 MRT .F               130:   MAXIMUM RECORDED TEMPERATURE
 LUN .            HL 6264:   LOGGING UNIT NUMBER
 LUL .           GILLETTE:   LOGGING UNIT LOCATION
 ENGI.      P.H. FAHLSING:   RECORDING ENGINEER
 WITN.             STRONG:   WITNESSED BY
 CLNT.            A2DTECH:   CLIENT CODE
 UWI .       490251104300:   UNIQUE WELL ID
 DICO. A2D Technologies, Inc.:   DIGITIZING COMPANY
~OTHER INFORMATION
~A    DEPT     GRR       CALR        SPR       RILD       RILM       RFOC       PORD        CNC       CORR        DEN   
# ...
 3157.0000  -999.2500     8.2370   -37.8248     2.5489     2.7083     3.3755     0.1171  -999.2500     0.0605     2.4600
 3157.5000  -999.2500     8.2380   -37.9669     2.4950     2.6530     3.2816     0.1141  -999.2500     0.0636     2.4623
 3158.0000  -999.2500     8.2391   -37.9578     2.4468     2.6169     3.1069     0.1138  -999.2500     0.0543     2.4553
 3158.5000  -999.2500     8.2551   -37.9719     2.4301     2.5635     3.0643     0.1177  -999.2500     0.0373     2.4499
 3159.0000  -999.2500     8.2564   -38.0910     2.3969     2.5461     3.0643     0.1225  -999.2500     0.0141     2.4467
 3159.5000  -999.2500     8.2574   -38.2328     2.3805     2.5288     3.1069     0.1237  -999.2500     0.0064     2.4506
 3160.0000  -999.2500     8.2431   -38.2219     2.3643     2.4944     3.1720     0.1207  -999.2500     0.0281     2.4583
 3160.5000  -999.2500     8.2426   -38.3659     2.3320     2.4699     3.1940     0.1157  -999.2500     0.0576     2.4583
 3161.0000  -999.2500     8.2409   -38.3549     2.3161     2.4513     3.0855     0.1150  -999.2500     0.0762     2.4536
 3161.5000  -999.2500     8.2392   -38.4970     2.3003     2.4327     3.0222     0.1217  -999.2500     0.0824     2.4489
 3162.0000  -999.2500     8.2376   -38.7892     2.2846     2.4109     3.0460     0.1226  -999.2500     0.0716     2.4489
 3162.5000  -999.2500     8.2359   -38.9311     2.2534     2.3781     3.0855     0.1208  -999.2500     0.0624     2.4561
 3163.0000  -999.2500     8.2342   -39.0729     2.2226     2.3619     3.1069     0.1169  -999.2500     0.0546     2.4644
 3163.5000  -999.2500     8.2326   -39.2126     2.1922     2.3297     3.0855     0.1135  -999.2500     0.0593     2.4674
 3164.0000  -999.2500     8.2309   -39.2038     2.1772     2.2980     3.0222     0.1121  -999.2500     0.0609     2.4611
 3164.5000  -999.2500     8.2292   -39.1951     2.1475     2.2825     2.9398     0.1130  -999.2500     0.0563     2.4549
 3165.0000  -999.2500     8.2275   -39.0357     2.1328     2.2828     2.8795     0.1191  -999.2500     0.0672     2.4549
 3165.5000  -999.2500     8.2259   -38.8763     2.1183     2.2674     2.8597     0.1189  -999.2500     0.0842     2.4556
 3166.0000  -999.2500     8.2410   -38.7169     2.0749     2.2520     2.8400     0.1174  -999.2500     0.0936     2.4579
 3166.5000  -999.2500     8.2267   -38.4048     2.0608     2.2681     2.8204     0.1178  -999.2500     0.0796     2.4486
 3167.0000  -999.2500     8.2127   -38.3961     2.0609     2.3000     2.7817     0.1226  -999.2500     0.0734     2.4284
 3167.5000  -999.2500     8.2140   -38.2367     2.0922     2.3324     2.7059     0.1355  -999.2500     0.0720     2.4214
 3168.0000  -999.2500     8.2150   -38.0773     2.1635     2.3653     2.6873     0.1385  -999.2500     0.0768     2.4578
 3168.5000  -999.2500     8.2163   -37.9180     2.2397     2.4320     2.8995     0.1085  -999.2500     0.0867     2.5074
 3169.0000  -999.2500     8.2173   -37.7586     2.3187     2.5007     3.1069     0.0875  -999.2500     0.0922     2.5345
 3169.5000  -999.2500     8.2030   -37.5993     2.4004     2.6071     3.2384     0.0671  -999.2500     0.0349     2.5391
 3170.0000  -999.2500     8.2043   -37.5904     2.5022     2.7206     3.1720     0.0890  -999.2500     0.0163     2.5057
 3170.5000  -999.2500     8.1901   -37.4290     2.6084     2.8570     3.1069     0.0965  -999.2500     0.0551     2.4956
 3171.0000  -999.2500     8.1913   -37.4202     2.7380     3.0375     3.3522     0.0878  -999.2500     0.0784     2.5165
 3171.5000  -999.2500     8.1923   -37.1102     2.8345     3.2557     3.9843     0.0749  -999.2500     0.0877     2.5320
 3172.0000  -999.2500     8.1934   -36.9509     2.9575     3.3943     4.8015     0.0701  -999.2500     0.0753     2.5289
 3172.5000  -999.2500     8.1946   -36.7915     3.1087     3.4184     4.5433     0.0755  -999.2500     0.0599     2.5172
 3173.0000  -999.2500     8.1804   -36.6321     3.3701     3.5639     3.5921     0.0803  -999.2500     0.0537     2.5133
 3173.5000  -999.2500     8.1816   -36.4728     3.5867     3.8465     3.2384     0.0842  -999.2500     0.0584     2.5196
 3174.0000  -999.2500     8.1827   -36.3133     3.8173     4.1515     3.6420     0.0819  -999.2500     0.0646     2.5225
 3174.5000  -999.2500     8.1987   -36.3025     4.0069     4.3922     4.4612     0.0771  -999.2500     0.0647     2.5201
 3175.0000  -999.2500     8.1997   -36.5949     4.2059     4.6500     5.2048     0.0780  -999.2500     0.0600     2.5177
 3175.5000  -999.2500  -999.2500   -36.7390     4.4147     4.8704     5.5130  -999.2500  -999.2500     0.0554  -999.2500
 3176.0000  -999.2500  -999.2500   -36.8808     4.6340     5.0427     5.3627  -999.2500  -999.2500     0.0678  -999.2500
 3176.5000  -999.2500  -999.2500   -36.8699     4.8979     5.1493     5.2527  -999.2500  -999.2500     0.0772  -999.2500
 3177.0000  -999.2500  -999.2500   -36.8611     5.0356     5.2581     5.1806  -999.2500  -999.2500     0.0710  -999.2500
 3177.5000  -999.2500  -999.2500   -36.8523     5.1415     5.2953     5.7068  -999.2500  -999.2500     0.0493  -999.2500
 3178.0000  -999.2500  -999.2500   -36.6928     5.2135     5.2960     6.0311  -999.2500  -999.2500     0.0401  -999.2500
 3178.5000  -999.2500  -999.2500   -36.5314     5.2139     5.3335     6.0318  -999.2500  -999.2500     0.0401  -999.2500
 3179.0000  -999.2500  -999.2500   -36.3721     5.1782     5.2975     5.7029  -999.2500  -999.2500     0.0401  -999.2500
 3179.5000  -999.2500  -999.2500   -36.2127     5.1429     5.2616     5.3999  -999.2500  -999.2500     0.0386  -999.2500
 3180.0000  -999.2500  -999.2500   -36.0533     5.0726     5.2260     5.5252  -999.2500  -999.2500     0.0354  -999.2500
 3180.5000  -999.2500  -999.2500   -35.7434     5.0033     5.2269     5.3747  -999.2500  -999.2500     0.0325  -999.2500
 3181.0000  -999.2500  -999.2500   -35.7346     5.0037     5.2639     5.4125  -999.2500  -999.2500     0.0343  -999.2500
 3181.5000  -999.2500  -999.2500   -35.7259     5.1089     5.3012     5.8007  -999.2500  -999.2500     0.0510  -999.2500
 3182.0000  -999.2500  -999.2500   -35.7169     5.2549     5.4132     6.3937  -999.2500  -999.2500     0.0822  -999.2500
 3182.5000  -999.2500  -999.2500   -35.7061     5.4002     5.4516     7.1108  -999.2500  -999.2500     0.0868  -999.2500
 3183.0000  -999.2500  -999.2500   -35.6981     5.4759     5.4902     7.7053  -999.2500  -999.2500     0.0636  -999.2500
 3183.5000  -999.2500  -999.2500   -35.6894     5.4384     5.5291     7.3924  -999.2500  -999.2500    -0.0014  -999.2500
 3184.0000  -999.2500  -999.2500   -35.6791     5.2178     5.5683     6.0487  -999.2500  -999.2500    -0.1383  -999.2500
 3184.5000  -999.2500  -999.2500   -35.8239     4.9374     5.3057     5.3778  -999.2500  -999.2500    -0.1486  -999.2500
 3185.0000  -999.2500  -999.2500   -35.8130     4.7044     5.1258     4.9840  -999.2500  -999.2500     0.0142  -999.2500
 3185.5000  -999.2500  -999.2500   -35.8042     4.5135     4.9178     4.7486  -999.2500  -999.2500     0.1072  -999.2500
 3186.0000  -999.2500  -999.2500   -35.8131     4.3304     4.7183     4.9503  -999.2500  -999.2500     0.1320  -999.2500
 3186.5000  -999.2500  -999.2500   -35.9373     4.2125     4.5269     4.6108  -999.2500  -999.2500     0.1320  -999.2500
 3187.0000  -999.2500  -999.2500   -35.9263     4.1263     4.3734     4.4320  -999.2500  -999.2500     0.1320  -999.2500
 3187.5000  -999.2500  -999.2500   -35.9176     4.0373     4.2252     4.5568  -999.2500  -999.2500     0.1321  -999.2500
 3188.0000  -999.2500  -999.2500   -36.0616     3.9049     4.1096     4.5888  -999.2500  -999.2500     0.1306  -999.2500
 3188.5000  -999.2500  -999.2500   -36.0507     3.7986     3.9948     4.5891  -999.2500  -999.2500     0.1306  -999.2500
 3189.0000  -999.2500  -999.2500   -36.0419     3.6698     3.8899     4.3724  -999.2500  -999.2500     0.1306  -999.2500
 3189.5000  -999.2500  -999.2500   -36.0331     3.5699     3.8105     4.2240  -999.2500  -999.2500     0.1306  -999.2500
 3190.0000  -999.2500  -999.2500   -36.0241     3.4968     3.7586     4.1089  -999.2500  -999.2500     0.1307  -999.2500
