~VERSION INFORMATION
 VERS.                2.0:   CWLS LOG ASCII STANDARD - VERSION 2.0
 WRAP.                 NO:   ONE LINE PER DEPTH STEP
~WELL INFORMATION
#MNEM.UNIT      DATA TYPE    INFORMATION
#----------   ------------   ------------------------------
 STRT.F           66.0000:   START DEPTH
 STOP.F          892.0000:   STOP DEPTH
 STEP.F            0.5000:   STEP LENGTH
 NULL.          -999.2500:   NO VALUE
 COMP. LAWRENCE/ALLISON INC:   COMPANY
 WELL. NPR #3 #31-11 SX 2:   WELL
 FLD .             TEAPOT:   FIELD
 LOC .       S2 T38N R78W:   LOCATION
 CNTY.            NATRONA:   COUNTY
 STAT.            WYOMING:   STATE
 CTRY. UNITED STATES OF AMERICA:   COUNTRY
 SRVC.      Dresser Atlas:   SERVICE COMPANY
 DATE.        10-AUG-1985:   LOGDATE
 API .       490251103900:   API NUMBER
~CURVE INFORMATION
#MNEM.UNIT       API CODE    CURVE DESCRIPTION
#----------   ------------   ------------------------------
 DEPT.F                  :   
 PORD.DEC    45 890 12 00:   POROSITY DENSITY SANDSTONE
 CNC .DEC    42 890 03 00:   NEUTRON POROSITY SANDSTONE
 CORR.G/C3   45 356 01 00:   DENSITY CORRECTION
 DEN .G/C3   45 350 01 00:   COMPENSATED BULK DENSTIY
 CALD.IN     45 280 60 00:   CALIPER FROM DENSITY LOG
 SPR .MV     07 010 01 00:   SPONTANEOUS POTENTIAL
 RILD.OHMM   07 120 46 00:   INDUCTION LOG DEEP RESISTIVITY
 RILM.OHMM   07 120 44 00:   INDUCTION LOG MEDIUM RESISTIVITY
 RFOC.OHMM   07 220 04 00:   RESISTIVITY FOCUSED LOG
~PARAMETER INFORMATION
#MNEM.UNIT          VALUE    DESCRIPTION
#----------   ------------   ------------------------------
 PD  .                 GL:   PERMANENT DATUM
 EPD .F              5110:   ELEVATION PERMANENT DATUM
 LMF .                 GL:   LOG MEASURED FROM
 DMF .                 GL:   DRILLING MEASURED FROM
 EKB .F              5115:   KELLING BUSHING
 EGL .F              5110:   GROUND LEVEL
 DATE.        10-AUG-1985:   RUN DATE
 RUN .                  1:   RUN NUMBER
 DD  .F               899:   DEPTH DRILLER
 DL  .F               895:   DEPTH LOGGER
 BLI .F               892:   BOTTOM LOG INTERVAL
 CS  .IN            8.625:   CASING SIZE
 CBD .F                75:   CASING BOTTOM DRILLER
 CBL .F                78:   CASING BOTTOM LOGGER
 BS  .IN            7.875:   BIT SIZE
 BSD .F               899:   BIT SIZE AT DEPTH
 DFT .                KCL:   DRILLING FLUID TYPE
 MSS .           FLOWLINE:   MUD SAMPLE SOURCE
 RMS .OHMM            .21:   RESISTIVITY MUD SAMPLE
 MST .F                75:   MUD SAMPLE TEMPERATURE
 TCS .HRS            0200:   TIME CURCULATED STOPPED
 MRT .F               100:   MAXIMUM RECORDED TEMPERATURE
 LUN .               6274:   LOGGING UNIT NUMBER
 LUL .               GLTE:   LOGGING UNIT LOCATION
 ENGI.             RAUTIO:   RECORDING ENGINEER
 WITN.        LINDA FIVAS:   WITNESSED BY
 CLNT.            A2DTECH:   CLIENT CODE
 ORIG.           5" PRINT:   ORIGIN OF DATA
 UWI .       490251103900:   UNIQUE WELL ID
 DICO. A2D Technologies, Inc.:   DIGITIZING COMPANY
~OTHER INFORMATION
~A   DEPT     PORD        CNC       CORR        DEN       CALD        SPR       RILD       RILM       RFOC   
# ...
  650.0000     0.1285     0.3014     0.0259     2.4650     8.2222   -31.6512     6.3557     6.3781     7.0146
  650.5000     0.1249     0.3029     0.0048     2.4695     8.2258   -32.0628     6.3763     6.3548     7.2342
  651.0000     0.1210     0.3086    -0.0013     2.4762     8.2293   -32.3946     6.3062     6.2461     7.4233
  651.5000     0.1201     0.3572     0.0091     2.4717     8.2329   -32.7057     5.8398     5.7443     7.6207
  652.0000     0.1455     0.3632     0.0211     2.4451     8.2330   -33.1682     5.4458     5.2829     7.8344
  652.5000     0.1588     0.3548     0.0239     2.4137     8.2318   -33.7948     5.0034     4.9889     6.4009
  653.0000     0.1579     0.3361     0.0253     2.4121     8.2308   -33.9419     4.6375     4.6265     5.0157
  653.5000     0.1500     0.3183     0.0224     2.4324     8.2298   -33.3475     4.5410     4.4988     4.4550
  654.0000     0.1259     0.3021     0.0238     2.4609     8.2288   -32.9001     4.4775     4.4670     4.3318
  654.5000     0.1069     0.2987     0.0283     2.4904     8.2278   -32.4570     4.5082     4.6247     5.1540
  655.0000     0.1057     0.2969     0.0252     2.5008     8.2265   -32.1630     4.9241     5.0414     6.1755
  655.5000     0.1045     0.3042     0.0176     2.5000     8.2255   -32.1738     5.4404     5.5802     6.9499
  656.0000     0.1012     0.3042     0.0239     2.5029     8.2245   -32.0290     5.7517     5.8992     7.4054
  656.5000     0.0988     0.3036     0.0400     2.5082     8.2085   -31.8863     6.2528     6.3241     7.6584
  657.0000     0.0979     0.3024     0.0460     2.5134     8.2075   -31.8971     6.7035     6.7324     7.7103
  657.5000     0.1006     0.3000     0.0444     2.5141     8.1914   -31.7544     7.1364     7.2170     7.6550
  658.0000     0.1022     0.2924     0.0308     2.5111     8.1752   -31.9164     7.3372     7.4718     7.6534
  658.5000     0.1019     0.2927     0.0141     2.5073     8.1592   -32.5302     7.3879     7.6286     7.6515
  659.0000     0.1022     0.3001     0.0201     2.5057     8.1582   -33.1439     7.4904     7.7890     7.6500
  659.5000     0.1040     0.3072     0.0290     2.5057     8.1572   -33.6243     7.5945     7.7877     7.6485
  660.0000     0.1046     0.3024     0.0425     2.5033     8.1562   -34.2223     7.5405     7.7323     7.6470
  660.5000     0.1043     0.2979     0.0443     2.5026     8.1549   -34.6848     7.5925     7.6243     7.6455
  661.0000     0.1034     0.2856     0.0255     2.5041     8.1539   -34.8447     7.6446     7.6766     7.7507
  661.5000     0.1022     0.2795     0.0047     2.5055     8.1529   -35.1559     7.8049     7.8377     7.8582
  662.0000     0.1010     0.2874     0.0016     2.5077     8.1519   -35.3179     7.9201     8.0022     7.9116
  662.5000     0.1001     0.2889     0.0211     2.5093     8.1359   -35.4778     8.1359     8.0571     7.9648
  663.0000     0.0996     0.2886     0.0390     2.5107     8.1348   -35.0326     8.1920     8.1124     8.0211
  663.5000     0.1002     0.2874     0.0496     2.5099     8.1336   -34.4360     7.9654     7.9988     8.1861
  664.0000     0.1043     0.3065     0.0464     2.5053     8.1479   -34.2934     7.7995     7.8323     8.2996
  664.5000     0.1144     0.3049     0.0193     2.4925     8.1466   -34.3041     7.7440     7.6690     8.1829
  665.0000     0.1153     0.2995     0.0147     2.4842     8.1456   -33.8589     7.5827     7.6148     7.9565
  665.5000     0.1105     0.2802     0.0236     2.4939     8.1445   -33.5628     7.5817     7.6138     7.7866
  666.0000     0.1020     0.2754     0.0344     2.5052     8.1434   -33.1197     7.6338     7.6660     7.8430
  666.5000     0.0987     0.2796     0.0445     2.5119     8.1425   -32.6521     7.7421     7.7725     8.3485
  667.0000     0.1030     0.2855     0.0309     2.5104     8.1413   -32.5317     7.9022     7.9354     8.7637
  667.5000     0.1078     0.2995     0.0053     2.5051     8.1403   -32.6938     8.0682     8.1022     9.0723
  668.0000     0.1151     0.3230    -0.0023     2.4983     8.1393   -32.8537     7.3681     6.8535     9.3987
  668.5000     0.1459     0.3387     0.0023     2.4877     8.1383   -32.8623     6.5894     5.7172     9.7900
  669.0000     0.2014     0.3409     0.0291     2.4139     8.1371   -32.4192     6.0931     5.0630    10.1347
  669.5000     0.2087     0.3231     0.0697     2.3447     8.1361   -31.6714     5.7301     4.7026     7.9416
  670.0000     0.1840     0.3106     0.0922     2.3296     8.1351   -30.9236     5.6895     4.9715     5.9270
  670.5000     0.1405     0.2980     0.0921     2.3587     8.1340   -30.3270     5.7686     5.3667     3.8569
  671.0000     0.1211     0.2902     0.0445     2.4544     8.1330   -30.0182     5.8898     5.2918     4.1250
  671.5000     0.0913     0.2833    -0.0044     2.5070     8.1318   -30.0438     6.4027     5.2543     6.0904
  672.0000     0.0838     0.2754     0.0016     2.5251     8.1308   -30.2037     7.4113     5.7917     9.0552
  672.5000     0.0808     0.2824     0.0271     2.5348     8.1298   -30.6662     8.3428     6.7033    10.1201
  673.0000     0.0847     0.2798     0.0481     2.5408     8.1288   -30.9774     8.8202     7.7045    10.1176
  673.5000     0.0859     0.2703     0.0634     2.5355     8.1278   -31.4420     8.9445     8.6151    10.0454
  674.0000     0.0832     0.2719     0.0840     2.5339     8.1117   -31.7532     9.2586     9.2963    10.0434
  674.5000     0.0802     0.2755     0.0990     2.5362     8.1105   -32.3669     9.4534     9.4258    10.0415
  675.0000     0.0775     0.2794     0.1050     2.5406     8.1095   -33.2833     9.3209     9.1653    10.0395
  675.5000     0.0821     0.2915     0.0748     2.5466     8.1085   -33.9047     9.1268     8.9122     9.8982
  676.0000     0.0857     0.2948     0.0261     2.5443     8.0925   -35.2694     8.8129     8.9110     9.9658
  676.5000     0.0869     0.2888     0.0009     2.5368     8.0914   -36.3370     9.1879     9.1613    10.1742
  677.0000     0.0884     0.2761     0.0204     2.5337     8.0902   -37.2533     9.5791     9.4190    10.0310
  677.5000     0.0906     0.2614     0.0414     2.5307     8.0892   -37.8671     9.9870     9.6166     9.7513
  678.0000     0.1117     0.2547     0.0488     2.5284     8.1032   -37.8558    10.4123     9.3511     9.2874
  678.5000     0.1272     0.2568     0.0409     2.5073     8.1022   -37.2813    11.0078    10.0942     9.0305
  679.0000     0.1549     0.2587     0.0216     2.4824     8.1012   -36.6847    11.6377    10.9730    10.4500
  679.5000     0.1727     0.2590     0.0621     2.4282     8.1002   -36.2395    12.4764    12.1802    11.8428
  680.0000     0.1948     0.2593     0.1087     2.3717     8.0989   -35.4917    13.2826    13.4263    14.1112
  680.5000     0.1912     0.2792     0.1252     2.3527     8.0979   -34.1409    14.3422    14.2945    15.2091
  681.0000     0.1871     0.2916     0.1001     2.3598     8.0969   -33.2418    15.1595    14.7974    14.5840
  681.5000     0.1876     0.2922     0.0438     2.3648     8.0959   -32.4939    15.8051    14.7955    13.0441
  682.0000     0.1909     0.2889     0.0347     2.3610     8.0949   -31.8974    16.2499    14.6908    12.1645
  682.5000     0.1873     0.2877     0.0376     2.3655     8.0937   -31.6035    16.5912    14.6889    12.9666
  683.0000     0.1752     0.2859     0.0481     2.3805     8.0927   -31.3095    16.9491    14.6869    13.7823
  683.5000     0.1647     0.2810     0.0495     2.3995     8.0916   -31.1690    17.4164    15.5262    12.5873
  684.0000     0.1656     0.2768     0.0494     2.3947     8.0906   -31.6314    17.7816    16.5287    12.4974
  684.5000     0.1719     0.2707     0.0719     2.3811     8.0746   -31.9426    18.0295    15.9607    13.2106
  685.0000     0.1804     0.2663     0.0959     2.3713     8.0884   -32.4072    18.5364    15.9586    14.4126
  685.5000     0.1843     0.2615     0.1006     2.3675     8.0874   -32.7184    19.3653    17.0416    16.4998
  686.0000     0.1880     0.2618     0.0727     2.3607     8.0714   -32.8783    20.7177    17.9605    17.8094
