~VERSION INFORMATION
 VERS.                2.0:   CWLS LOG ASCII STANDARD - VERSION 2.0
 WRAP.                 NO:   ONE LINE PER DEPTH STEP
~WELL INFORMATION
#MNEM.UNIT      DATA TYPE    INFORMATION
#----------   ------------   ------------------------------
 STRT.F           27.0000:   START DEPTH
 STOP.F          760.0000:   STOP DEPTH
 STEP.F            0.5000:   STEP LENGTH
 NULL.          -999.2500:   NO VALUE
 COMP. FENIX & SCISSON INC:   COMPANY
 WELL.    NPR #3 #33-S-14:   WELL
 FLD .             TEAPOT:   FIELD
 LOC .      S14 T38N R78W:   LOCATION
 CNTY.            NATRONA:   COUNTY
 STAT.            WYOMING:   STATE
 CTRY. UNITED STATES OF AMERICA:   COUNTRY
 SRVC.              Welex:   SERVICE COMPANY
 DATE.        02-FEB-1977:   LOGDATE
 API .       490251027700:   API NUMBER
~CURVE INFORMATION
#MNEM.UNIT       API CODE    CURVE DESCRIPTION
#----------   ------------   ------------------------------
 DEPT.F                  :   
 SPR .MV     07 010 01 00:   SPONTANEOUS POTENTIAL
 SGRD.OHMM   07 220 05 00:   SHALLOW RESISTIVITY
 ILD .OHMM   07 120 46 00:   INDUCTION LOG DEEP
 ILM .OHMM   07 120 44 00:   INDUCTION LOG MEDIUM
 GRD .GAPI   45 310 01 00:   GAMMA RAY FROM DENSITY LOG
 CALD.IN     45 280 60 00:   CALIPER
 RHOB.G/C3   45 350 01 00:   BULK DENSITY
 CORR.G/C3   45 356 01 00:   DENSITY CORRECTION
 DPHI.DEC    45 890 00 00:   DENSITY POROSITY
~PARAMETER INFORMATION
#MNEM.UNIT          VALUE    DESCRIPTION
#----------   ------------   ------------------------------
 PD  .                 GL:   PERMANENT DATUM
 EPD .F              5219:   ELEVATION PERMANENT DATUM
 LMF .                 GL:   LOG MEASURED FROM
 DMF .                 GL:   DRILLING MEASURED FROM
 EKB .F              5224:   KELLING BUSHING
 EGL .F              5219:   GROUND LEVEL
 DATE.           2-2-1977:   RUN DATE
 RUN .                  1:   RUN NUMBER
 DD  .F               761:   DEPTH DRILLER
 DL  .F               762:   DEPTH LOGGER
 BLI .F               760:   BOTTOM LOG INTERVAL
 TLI .F                25:   TOP LOG INTERVAL
 CS  .IN            8.625:   CASING SIZE
 CBD .F              42.5:   CASING BOTTOM DRILLER
 CBL .F                46:   CASING BOTTOM LOGGER
 BS  .IN            7.875:   BIT SIZE
 BSD .F               761:   BIT SIZE AT DEPTH
 DFT .           CHEM-GEL:   DRILLING FLUID TYPE
 DFD .                8.9:   DRILLING FLUID DENSITY
 DFV .                 37:   DRILLING FLUID VISCOSITY
 DFPH.                  7:   DRILLING FLUID PH
 DFL .                8.4:   DRILLING FLUID LOSS
 MSS .          FLOW LINE:   MUD SAMPLE SOURCE
 RMS .OHMM           .231:   RESISTIVITY MUD SAMPLE
 MST .F                45:   MUD SAMPLE TEMPERATURE
 RMF .OHMM           .322:   RESISTIVITY MUD FILTRATE SAMPLE
 MFST.F                45:   MUD FILTRATE SAMPLE TEMPERATURE
 RMC .OHMM           .439:   RESISTIVITY MUD CAKE
 MCST.F                45:   MUD CAKE SAMPLE TEMPERATURE
 MFSS.           MEASURED:   MUD FILTRATE SAMPLE SOURCE
 MCSS.           MEASURED:   MUD CAKE SAMPLE SOURCE
 RMB .OHMM           .182:   RESISTIVITY MUD AT BHT
 BHT .F                57:   BOTTOM HOLE TEMPERATURE
 TCS .HRS             5.5:   TIME CURCULATED STOPPED
 MRT .F                57:   MAXIMUM RECORDED TEMPERATURE
 LUN .               8611:   LOGGING UNIT NUMBER
 LUL .           GILLETTE:   LOGGING UNIT LOCATION
 ENGI.             LAWSON:   RECORDING ENGINEER
 WITN. VOORHEES/RHOADES/JAPP/PETTINGILL/STUEBINGER:   WITNESSED BY
 CLNT.            A2DTECH:   CLIENT CODE
 ORIG.     1", 2.5" PRINT:   ORIGIN OF DATA
 UWI .       490251027700:   UNIQUE WELL ID
 DICO. A2D Technologies, Inc.:   DIGITIZING COMPANY
~OTHER INFORMATION
~A   DEPT      SPR       SGRD        ILD        ILM        GRD       CALD         RHOB      CORR      DPHI   
# ...
  173.0000   -29.4121     7.9467     5.8529     6.2711   109.2775     8.7513     2.4530     0.0734     0.1239
  173.5000   -29.4402     7.9309     5.8252     6.2445   108.3301     8.7750     2.4607     0.0760     0.1223
  174.0000   -29.4683     7.9180     5.7977     6.2181   107.3628     8.7986     2.4683     0.0786     0.1208
  174.5000   -29.4963     7.7736     5.7697     6.1920   108.0446     8.8223     2.4624     0.0794     0.1192
  175.0000   -29.5244     7.6535     5.7423     6.1663   109.5573     8.8459     2.4555     0.0765     0.1218
  175.5000   -29.5524     7.5353     5.7150     6.1393   111.0652     8.8695     2.4485     0.0737     0.1245
  176.0000   -29.5805     7.3523     5.6721     6.1086   111.5173     8.8932     2.4416     0.0709     0.1272
  176.5000   -29.6085     7.4981     5.7094     6.1511   109.8862     8.9170     2.4346     0.0680     0.1299
  177.0000   -29.6366     7.7227     5.7990     6.2036   108.2964     8.9417     2.4277     0.0652     0.1325
  177.5000   -29.6646     7.4048     5.8899     6.2565   107.5180     8.9093     2.4237     0.0624     0.1341
  178.0000   -29.6927     7.4287     5.9823     6.3098   107.9207     8.8680     2.4343     0.0595     0.1306
  178.5000   -29.7208     7.7476     6.0757     6.3636   108.3052     8.8267     2.4446     0.0608     0.1272
  179.0000   -29.7488     8.0802     6.1380     6.4179   108.6991     8.7855     2.4542     0.0643     0.1237
  179.5000   -29.7768     8.4270     6.1836     6.4726   109.0746     8.7442     2.4581     0.0678     0.1200
  180.0000   -29.8047     8.6680     6.2294     6.5278   108.7944     8.7032     2.4616     0.0713     0.1217
  180.5000   -29.8327     8.6008     6.2755     6.5835   106.1606     8.6734     2.4568     0.0748     0.1239
  181.0000   -29.8601     8.5348     6.3218     6.6396   106.7734     8.6752     2.4515     0.0783     0.1256
  181.5000   -29.8881     8.4693     6.3683     6.6962   107.7820     8.6764     2.4474     0.0818     0.1244
  182.0000   -29.9167     8.4045     6.4160     6.7533   107.9052     8.6777     2.4572     0.0854     0.1233
  182.5000   -29.9410     8.3401     6.4578     6.8191   107.1425     8.6789     2.4669     0.0887     0.1214
  183.0000   -30.0270     8.2761     6.3859     6.8014   106.3782     8.6800     2.4694     0.0905     0.1189
  183.5000   -30.2070     8.2215     6.3223     6.7663   105.5690     8.6812     2.4566     0.0924     0.1225
  184.0000   -30.3768     8.5188     6.2593     6.7312   104.6346     8.6824     2.4476     0.0943     0.1270
  184.5000   -30.8116     8.7907     6.1970     6.7016   103.6749     8.6836     2.4383     0.0962     0.1315
  185.0000   -31.2221     8.4151     6.1353     6.5490   102.7109     8.6848     2.4262     0.0981     0.1369
  185.5000   -31.6460     7.8720     5.9499     6.4193   101.7219     8.6860     2.4133     0.0982     0.1449
  186.0000   -32.0693     7.3523     5.3956     6.1089   101.2335     8.6872     2.3946     0.0982     0.1662
  186.5000   -32.4858     7.3523     4.8188     5.5317   104.8386     8.6884     2.3517     0.0982     0.1892
  187.0000   -32.9007     7.0643     4.3036     5.0091   108.3710     8.6896     2.3096     0.0982     0.2068
  187.5000   -33.3563     6.3746     3.8435     4.6261   111.8771     8.6907     2.2673     0.0982     0.2271
  188.0000   -33.4243     5.4262     3.4327     3.8868   115.3702     8.6915     2.2251     0.0982     0.2494
  188.5000   -33.0960     4.2365     3.0657     3.3612   118.9436     8.6953     2.1825     0.0983     0.2921
  189.0000   -32.8255     3.3073     2.7379     2.9067   119.4902     8.7477     2.1431     0.0986     0.2999
  189.5000   -32.1043     2.9116     2.4629     2.7001   116.1845     8.7996     2.1338     0.0860     0.2991
  190.0000   -31.1920     2.7012     2.2044     2.6174   111.5048     8.8512     2.1255     0.0718     0.2979
  190.5000   -30.2873     2.7951     2.2493     2.5714   105.0201     8.9028     2.1806     0.0574     0.2698
  191.0000   -29.3204     2.9518     2.3259     2.6252    99.5106     8.9543     2.2526     0.0521     0.2236
  191.5000   -28.5951     3.1404     2.4161     2.8136    97.3143     9.0079     2.3245     0.0503     0.1928
  192.0000   -28.2802     4.4938     2.7412     3.2038    94.9865     8.9439     2.3959     0.0636     0.1620
  192.5000   -27.8980     6.7661     3.1720     3.8030    95.5630     8.8316     2.4348     0.0805     0.1293
  193.0000   -27.5209     8.5944     3.6706     4.5157    97.0286     8.8065     2.4361     0.0863     0.1283
  193.5000   -27.1431     9.0757     4.2475     5.4591    96.6972     8.8023     2.4368     0.0889     0.1277
  194.0000   -26.7834     9.5301     4.9149     6.0540    95.2791     8.7985     2.4424     0.0915     0.1270
  194.5000   -26.4206    10.4101     5.6859     6.7941    93.7891     8.7946     2.4491     0.0941     0.1253
  195.0000   -26.6786    11.2778     6.4636     7.6079    94.1902     8.7906     2.4535     0.0968     0.1230
  195.5000   -26.9619    12.0126     7.5591     8.3937    94.8640     8.7866     2.4404     0.0994     0.1265
  196.0000   -27.2749    12.5841     8.5304     9.3551    95.5381     8.7826     2.4274     0.1020     0.1344
  196.5000   -27.5864    12.2868     8.2105     9.1341    96.1865     8.7785     2.4142     0.1046     0.1446
  197.0000   -28.0656    11.4556     7.9397     8.5162    97.8270     8.7741     2.3946     0.1073     0.1578
  197.5000   -28.5605    10.8703     7.5037     7.9400    99.9083     8.7713     2.3677     0.1099     0.1705
  198.0000   -29.0756    10.3743     6.7992     7.4029   104.3707     8.8588     2.3403     0.1011     0.1905
  198.5000   -29.5486     8.9406     6.1609     6.9020   109.6818     8.9556     2.3129     0.0912     0.2133
  199.0000   -29.9496     6.4907     5.5824     6.4207   114.1805     9.0524     2.2834     0.0813     0.2164
  199.5000   -29.4512     4.7121     5.2669     5.9574   114.9473     9.1492     2.3197     0.0712     0.2055
  200.0000   -29.0254     3.6357     5.3278     5.6673   108.6313     9.2441     2.3671     0.0611     0.1877
  200.5000   -26.9529     4.8926     5.4318     5.7783   103.4206     9.2873     2.4133     0.0702     0.1649
  201.0000   -25.4881     7.0863     5.5377     6.2098    98.0930     9.2057     2.4345     0.0812     0.1422
  201.5000   -24.6980    10.2634     5.6443     6.6736    95.8542     9.1263     2.4335     0.0923     0.1288
  202.0000   -23.9356    11.0326     5.7559     7.1722    94.6610     9.0466     2.4321     0.0934     0.1297
  202.5000   -23.2062    10.9309     6.2670     7.7081    94.9991     8.9673     2.4307     0.0924     0.1307
  203.0000   -22.3638    10.8703     6.9363     8.2849    95.2976     8.9251     2.4294     0.0913     0.1317
  203.5000   -21.5428    10.9715     7.6769     8.9041    94.8962     8.9276     2.4280     0.0902     0.1327
  204.0000   -20.9956    11.1216     8.4959     9.5695    93.7512     8.9298     2.4267     0.0891     0.1337
  204.5000   -20.6252    11.4705     9.1971    10.0750    92.6123     8.9321     2.4269     0.0881     0.1347
  205.0000   -20.2565    11.8303     9.6326    10.4215    91.4604     8.9344     2.4295     0.0870     0.1328
  205.5000   -19.8859    12.2014    10.0251    10.6905    90.8724     8.9366     2.4368     0.0859     0.1309
  206.0000   -19.5167    12.8195    10.3369    10.9664    90.6187     8.9389     2.4441     0.0849     0.1290
  206.5000   -19.1468    12.7721    10.6585    11.2494    91.2928     8.9412     2.4516     0.0819     0.1275
  207.0000   -18.7771    12.5841    10.9913    11.5398    92.1789     8.9447     2.4520     0.0772     0.1262
  207.5000   -18.4073    13.0593    11.3355    11.8376    93.2141     8.8851     2.4516     0.0724     0.1249
  208.0000   -18.0371    14.2214    11.6909    12.1431    94.5758     8.8046     2.4473     0.0676     0.1276
  208.5000   -17.6672    16.4941    11.9178    12.5841    95.9326     8.7231     2.4331     0.0628     0.1329
  209.0000   -17.2973    18.0954    11.9380    12.5592    97.2884     8.6917     2.4192     0.0580     0.1382
