~VERSION INFORMATION
 VERS.                2.0:   CWLS LOG ASCII STANDARD - VERSION 2.0
 WRAP.                 NO:   ONE LINE PER DEPTH STEP
~WELL INFORMATION
#MNEM.UNIT      DATA TYPE    INFORMATION
#----------   ------------   ------------------------------
 STRT.F           40.0000:   START DEPTH
 STOP.F          534.0000:   STOP DEPTH
 STEP.F            0.5000:   STEP LENGTH
 NULL.          -999.2500:   NO VALUE
 COMP. LAWRENCE/ALLISON INC:   COMPANY
 WELL.   55-41 SX FI #3-3:   WELL
 FLD .             TEAPOT:   FIELD
 LOC .       S3 T38N R78W:   LOCATION
 CNTY.            NATRONA:   COUNTY
 STAT.            WYOMING:   STATE
 CTRY. UNITED STATES OF AMERICA:   COUNTRY
 SRVC.      Dresser Atlas:   SERVICE COMPANY
 DATE.        12-DEC-1983:   LOGDATE
 API .       490251089400:   API NUMBER
~CURVE INFORMATION
#MNEM.UNIT       API CODE    CURVE DESCRIPTION
#----------   ------------   ------------------------------
 DEPT.F                  :   
 RILD.OHMM   07 120 46 00:   INDUCTION LOG DEEP RESISTIVITY
 RILM.OHMM   07 120 44 00:   INDUCTION LOG MEDIUM RESISTIVITY
 RFOC.OHMM   07 220 04 00:   RESISTIVITY FOCUSED LOG
 CALD.IN     45 280 60 00:   CALIPER FROM DENSITY LOG
 GRD .GAPI   45 310 01 00:   GAMMA RAY FROM DENSITY LOG
 CORR.G/C3   45 356 01 00:   DENSITY CORRECTION
 DPHI.DEC    45 890 12 00:   DENSITY POROSITY SANDSTONE
 RHOB.G/C3   45 350 01 00:   BULK DENSITY
~PARAMETER INFORMATION
#MNEM.UNIT          VALUE    DESCRIPTION
#----------   ------------   ------------------------------
 PD  .                 GL:   PERMANENT DATUM
 EPD .F              5161:   ELEVATION PERMANENT DATUM
 LMF .                 KB:   LOG MEASURED FROM
 DAPD.F                10:   FEET ABOVE PERMANENT DATUM
 DMF .                 KB:   DRILLING MEASURED FROM
 EKB .F              5171:   KELLING BUSHING
 EGL .F              5161:   GROUND LEVEL
 DATE.        12-DEC-1983:   RUN DATE
 RUN .                  1:   RUN NUMBER
 DD  .F               490:   DEPTH DRILLER
 DL  .F               489:   DEPTH LOGGER
 BLI .F               487:   BOTTOM LOG INTERVAL
 CS  .IN            10.75:   CASING SIZE
 CBD .F                52:   CASING BOTTOM DRILLER
 CBL .F                46:   CASING BOTTOM LOGGER
 BS  .IN             8.75:   BIT SIZE
 BSD .F               490:   BIT SIZE AT DEPTH
 DFT .           AIR FOAM:   DRILLING FLUID TYPE
 TCS .HRS               3:   TIME CURCULATED STOPPED
 MRT .F                72:   MAXIMUM RECORDED TEMPERATURE
 LUN .               6274:   LOGGING UNIT NUMBER
 LUL .               GLTE:   LOGGING UNIT LOCATION
 ENGI.             RAUTIO:   RECORDING ENGINEER
 WITN.             GROOMS:   WITNESSED BY
 CLNT.            A2DTECH:   CLIENT CODE
 ORIG.           5" PRINT:   ORIGIN OF DATA
 UWI .       490251089400:   UNIQUE WELL ID
 DICO. A2D Technologies, Inc.:   DIGITIZING COMPANY
~OTHER INFORMATION
~A   DEPT     RILD       RILM       RFOC       CALD         GRD      CORR       DPHI       RHOB   
# ...
  445.0000     8.7328     8.4367  -999.2500    11.6908    82.0996     0.0061     0.1353     2.4551
  445.5000     8.4417     8.0440  -999.2500    11.6904    84.1048     0.0144     0.1383     2.4507
  446.0000     7.9935     7.6695  -999.2500    11.6752    84.9972     0.0227     0.1395     2.4485
  446.5000     7.3127     7.2622  -999.2500    11.6747    85.2219     0.0242     0.1398     2.4493
  447.0000     6.2018     6.2015  -999.2500    11.6743    84.5565     0.0198     0.1392     2.4508
  447.5000     5.5576     5.1518  -999.2500    11.6738    83.4459     0.0199     0.1329     2.4548
  448.0000     5.4087     5.0145  -999.2500    11.6733    81.4452     0.0192     0.1248     2.4694
  448.5000     5.4499     4.9146  -999.2500    11.6581    78.9993     0.0185     0.1209     2.4823
  449.0000     5.4906     5.1959  -999.2500    11.6577    75.8858     0.0178     0.1188     2.4839
  449.5000     5.7650     5.6468  -999.2500    11.6573    73.2174     0.0149     0.1182     2.4854
  450.0000     6.1278     6.0528  -999.2500    11.6416    69.4362     0.0092     0.1179     2.4869
  450.5000     6.5831     6.4494  -999.2500    11.6363    69.3152     0.0008     0.1176     2.4884
  451.0000     6.9537     6.9103  -999.2500    11.6311    69.4571    -0.0036     0.1157     2.4915
  451.5000     7.6257     7.6157  -999.2500    11.6258    70.5911     0.0002     0.1117     2.4990
  452.0000     8.4995     8.2784  -999.2500    11.6206    72.3709     0.0145     0.1009     2.5185
  452.5000     8.9855     8.9987  -999.2500    11.6153    73.9392     0.0199     0.0928     2.5275
  453.0000     9.4716     9.4505  -999.2500    11.6101    75.5299     0.0261     0.0889     2.5328
  453.5000     9.7362     9.7220  -999.2500    11.6049    77.0756     0.0330     0.0889     2.5313
  454.0000     9.8713     9.8667  -999.2500    11.6024    76.7745     0.0410     0.0904     2.5254
  454.5000    10.0082     9.9458  -999.2500    11.6178    73.7802     0.0493     0.0966     2.5179
  455.0000    10.0774    10.0861  -999.2500    11.6184    68.6121     0.0442     0.1020     2.5112
  455.5000    10.1471    10.1756  -999.2500    11.6190    66.1711     0.0315     0.0996     2.5068
  456.0000    10.2878    10.4573  -999.2500    11.6196    69.9628     0.0249     0.0972     2.5046
  456.5000    10.3589    10.6105  -999.2500    11.6201    73.0851     0.0189     0.1041     2.5001
  457.0000    10.5753    10.8404  -999.2500    11.6207    74.2045     0.0153     0.1091     2.4972
  457.5000    10.7961    11.0752  -999.2500    11.6213    73.0984     0.0146     0.1097     2.4971
  458.0000    11.0215    11.2375  -999.2500    11.6367    70.6570     0.0132     0.1061     2.5010
  458.5000    11.2517    11.4021  -999.2500    11.6373    68.6607     0.0095     0.1049     2.4988
  459.0000    11.4866    11.6491  -999.2500    11.6380    67.5546     0.0058     0.1121     2.4876
  459.5000    11.6460    11.7386  -999.2500    11.6386    67.3387     0.0021     0.1217     2.4786
  460.0000    11.8075    11.9929  -999.2500    11.6392    66.4551    -0.0015     0.1252     2.4719
  460.5000    11.8892    12.0851  -999.2500    11.6397    64.6814     0.0053     0.1239     2.4704
  461.0000    12.0541    12.2621  -999.2500    11.6402    63.5752     0.0129     0.1201     2.4767
  461.5000    12.1374    12.3564  -999.2500    11.6408    65.3623     0.0212     0.1159     2.4841
  462.0000    12.2213    12.3658  -999.2500    11.6415    69.1523     0.0250     0.1171     2.4773
  462.5000    12.3058    12.4609  -999.2500    11.6421    68.4913     0.0183     0.1356     2.4609
  463.0000    12.3909    12.5566  -999.2500    11.6426    66.0499     0.0035     0.1412     2.4459
  463.5000    12.4765    12.6531  -999.2500    11.6433    62.7183    -0.0070     0.1433     2.4362
  464.0000    12.4765    12.6628  -999.2500    11.6438    63.3926    -0.0084     0.1439     2.4415
  464.5000    12.4765    12.6725  -999.2500    11.6445    65.4022    -0.0008     0.1367     2.4595
  465.0000    12.4765    12.7700  -999.2500    11.6450    67.6344     0.0037     0.1292     2.4663
  465.5000    12.4765    12.6919  -999.2500    11.6456    69.6440     0.0068     0.1271     2.4708
  466.0000    12.4765    12.7020  -999.2500    11.6462    72.5438     0.0099     0.1262     2.4731
  466.5000    12.3909    12.7118  -999.2500    11.6468    74.9985     0.0123     0.1214     2.4769
  467.0000    12.3909    12.7236  -999.2500    11.6474    74.3375     0.0154     0.1193     2.4814
  467.5000    12.4337    12.7333  -999.2500    11.6480    70.1157     0.0176     0.1190     2.4845
  468.0000    12.3564    12.6532  -999.2500    11.6486    67.0066     0.0184     0.1169     2.4845
  468.5000    12.2799    12.6653  -999.2500    11.6491    65.2328     0.0177     0.1139     2.4890
  469.0000    12.2904    12.5856  -999.2500    11.6498    66.1297     0.0216     0.1109     2.4958
  469.5000    12.2988    12.5088  -999.2500    11.6503    68.8070     0.0254     0.1091     2.5003
  470.0000    12.2206    12.4324  -999.2500    11.6509    70.8166     0.0255     0.1085     2.4951
  470.5000    12.1450    12.2717  -999.2500    11.6515    73.2713     0.0225     0.1124     2.4922
  471.0000    11.9891    12.1968  -999.2500    11.6521    75.7260     0.0196     0.1138     2.4952
  471.5000    11.9129    12.0414  -999.2500    11.6527    77.7356     0.0182     0.1104     2.4997
  472.0000    11.7579    11.8858  -999.2500    11.6533    78.8550     0.0190     0.1090     2.4975
  472.5000    11.6049    11.8949  -999.2500    11.6539    79.0826     0.0198     0.1198     2.4893
  473.0000    11.5351    11.7411  -999.2500    11.6545    78.2007     0.0214     0.1204     2.4751
  473.5000    11.4618    11.5894  -999.2500    11.6403    76.2044     0.0222     0.1189     2.4760
  474.0000    11.3146    11.5183  -999.2500    11.6556    74.4306     0.0223     0.1150     2.4884
  474.5000    11.2427    11.2917  -999.2500    11.6562    73.3245     0.0201     0.1105     2.5032
  475.0000    11.0222    11.2226  -999.2500    11.6568    72.6632     0.0165     0.1063     2.5045
  475.5000    10.9540    11.0016  -999.2500    11.6575    72.0025     0.0083     0.1072     2.5015
  476.0000    10.8096    10.7812  -999.2500    11.6580    71.7864     0.0024     0.1140     2.4881
  476.5000    10.6690    10.5656  -999.2500    11.6586    72.0158    -0.0005     0.1203     2.4784
  477.0000    10.6030    10.2832  -999.2500    11.6593    72.6901     0.0048     0.1212     2.4792
  477.5000    10.4665     9.8587  -999.2500    11.6599    74.0320     0.0101     0.1212     2.4822
  478.0000    10.3305     8.8607  -999.2500    11.6604    76.0417     0.0169     0.1206     2.4875
  478.5000    10.1961     8.2203  9821.2393    11.6610    78.9415     0.0215     0.1179     2.4913
  479.0000    10.0636     8.1686  9764.0107    11.6616    79.6158     0.0268     0.1125     2.5033
  479.5000    10.0013     8.2329  9640.2266    11.6621    78.0646     0.0291     0.1026     2.5093
  480.0000     9.9395     8.5280    54.7450    11.6776    75.4006     0.0178     0.0993     2.5124
  480.5000     9.8080     8.8336    24.5732    11.6781    73.6231     0.0066     0.1250     2.4862
  481.0000     9.7451     9.0250    18.7849    11.6787    72.7433     0.0046     0.1238     2.4750
  481.5000     9.6892     9.1572    19.6016    11.6794    72.7500     0.0152     0.1199     2.4758
  482.0000     9.6960     9.1642    23.4916    11.6799    72.9940     0.0205     0.1094     2.4923
  482.5000     9.7028     9.1712    24.8499    11.6805    73.6721     0.0213     0.0995     2.5088
  483.0000     9.7107     9.1153    24.0268    11.6812    74.5505     0.0184     0.1025     2.4991
  483.5000     9.7846     9.0579    24.3962    11.6817    75.2507     0.0155     0.1180     2.4842
  484.0000     9.8589     8.9408    25.9905    11.6823    76.1810     0.0133     0.1168     2.4756
  484.5000     9.8657     8.9494    27.6939    11.6829    77.5305     0.0126     0.1140     2.4857
  485.0000     9.9406     8.8947    25.6908    11.6835    78.1380     0.0135     0.1126     2.4933
