~VERSION INFORMATION
 VERS.                2.0:   CWLS LOG ASCII STANDARD - VERSION 2.0
 WRAP.                 NO:   ONE LINE PER DEPTH STEP
~WELL INFORMATION
#MNEM.UNIT      DATA TYPE    INFORMATION
#----------   ------------   ------------------------------
 STRT.F           20.0000:   START DEPTH
 STOP.F          500.0000:   STOP DEPTH
 STEP.F            0.5000:   STEP LENGTH
 NULL.          -999.2500:   NO VALUE
 COMP.    FENIX & SCISSON:   COMPANY
 WELL. RES 3 TEAPOT DOM #81SX10-10:   WELL
 FLD .             TEAPOT:   FIELD
 LOC .      S10 T38N R78W:   LOCATION
 CNTY.            NATRONA:   COUNTY
 STAT.            WYOMING:   STATE
 CTRY. UNITED STATES OF AMERICA:   COUNTRY
 SRVC.           BIRDWELL:   SERVICE COMPANY
 DATE.        22-NOV-1978:   LOGDATE
 API .       490251075100:   API NUMBER
~CURVE INFORMATION
#MNEM.UNIT       API CODE    CURVE DESCRIPTION
#----------   ------------   ------------------------------
 DEPT.F                  :   
 ILD .OHMM   05 120 46 00:   INDUCTION LOG DEEP
 SN  .OHMM   05 040 16 00:   SHORT NORMAL 16"
 SPR .MV     05 010 01 00:   SPONTANEOUS POTENTIAL FROM RES.
 CALD.IN     45 280 60 00:   CALIPER FROM DENSITY LOG
 CORR.G/C3   45 356 01 00:   DENSITY CORRECTION
 DPHI.DEC    45 890 10 00:   DENSITY POROSITY LIMESTONE
 GRD .GAPI   45 310 01 00:   GAMMA RAY FROM DENSITY LOG
 RHOB.G/C3   45 350 01 00:   BULK DENSITY
~PARAMETER INFORMATION
#MNEM.UNIT          VALUE    DESCRIPTION
#----------   ------------   ------------------------------
 PD  .                 GL:   PERMANENT DATUM
 EPD .F              5129:   ELEVATION PERMANENT DATUM
 LMF .                 KB:   LOG MEASURED FROM
 DAPD.F                 4:   FEET ABOVE PERMANENT DATUM
 DMF .                 KB:   DRILLING MEASURED FROM
 EKB .F              5133:   KELLING BUSHING
 EGL .F              5129:   GROUND LEVEL
 DATE.        22-NOV-1978:   RUN DATE
 RUN .                  1:   RUN NUMBER
 DD  .F               500:   DEPTH DRILLER
 DL  .F               500:   DEPTH LOGGER
 BLI .F               500:   BOTTOM LOG INTERVAL
 TLI .F                20:   TOP LOG INTERVAL
 CS  .IN            8.625:   CASING SIZE
 CBD .F                40:   CASING BOTTOM DRILLER
 CBL .F                40:   CASING BOTTOM LOGGER
 BS  .IN            7.875:   BIT SIZE
 BSD .F               500:   BIT SIZE AT DEPTH
 DFT .                KCL:   DRILLING FLUID TYPE
 DFD .                8.7:   DRILLING FLUID DENSITY
 DFV .                 36:   DRILLING FLUID VISCOSITY
 DFPH.               11.2:   DRILLING FLUID PH
 DFL .                 94:   DRILLING FLUID LOSS
 MSS .            MUD PIT:   MUD SAMPLE SOURCE
 RMS .OHMM           0.28:   RESISTIVITY MUD SAMPLE
 MST .F                62:   MUD SAMPLE TEMPERATURE
 RMF .OHMM           0.24:   RESISTIVITY MUD FILTRATE SAMPLE
 MFST.F                66:   MUD FILTRATE SAMPLE TEMPERATURE
 RMC .OHMM           0.31:   RESISTIVITY MUD CAKE
 MCST.F                66:   MUD CAKE SAMPLE TEMPERATURE
 MFSS.               MEAS:   MUD FILTRATE SAMPLE SOURCE
 MCSS.               MEAS:   MUD CAKE SAMPLE SOURCE
 RMB .OHMM            0.3:   RESISTIVITY MUD AT BHT
 BHT .F                58:   BOTTOM HOLE TEMPERATURE
 TCS .HRS               1:   TIME CURCULATED STOPPED
 MRT .F                58:   MAXIMUM RECORDED TEMPERATURE
 LUN .               3029:   LOGGING UNIT NUMBER
 LUL .               CASP:   LOGGING UNIT LOCATION
 ENGI.           REYNOLDS:   RECORDING ENGINEER
 WITN.              AMEND:   WITNESSED BY
 CLNT.            A2DTECH:   CLIENT CODE
 ORIG.           5" PRINT:   ORIGIN OF DATA
 UWI .       490251075100:   UNIQUE WELL ID
 DICO. A2D Technologies, Inc.:   DIGITIZING COMPANY
~OTHER INFORMATION
~A   DEPT      ILD         SN        SPR       CALD       CORR       DPHI         GRD      RHOB   
# ...
  222.5000     7.7927     8.0369   -48.4658     7.6991     0.0090     0.1183   105.5172     2.4847
  223.0000     7.6312     7.9257   -48.0327     7.6988     0.0090     0.1183   104.9175     2.4855
  223.5000     7.3695     7.7620   -47.8870     7.6984     0.0045     0.1243   107.7661     2.4847
  224.0000     6.9230     7.6017   -47.7413     7.6982     0.0045     0.1270   110.9145     2.4817
  224.5000     6.5033     7.3306   -48.0465     7.6979     0.0030     0.1309   113.4633     2.4730
  225.0000     6.1089     6.8496   -48.6516     7.6976     0.0045     0.1360   115.1124     2.4598
  225.5000     5.8187     6.4347   -49.5554     7.6973     0.0045     0.1411   111.0645     2.4501
  226.0000     5.5726     5.7985   -50.2489     7.6970     0.0045     0.1447   108.8156     2.4463
  226.5000     5.2787     5.3351   -50.8448     7.6967     0.0045     0.1447   109.1154     2.4425
  227.0000     4.7565     4.7414   -51.0725     7.6964     0.0045     0.1600   112.4138     2.4305
  227.5000     4.1113     4.3625   -51.5225     7.6961     0.0045     0.1711   116.4317     2.4072
  228.0000     3.4325     4.0138   -51.6762     7.6958     0.0075     0.1831   120.0600     2.3613
  228.5000     2.8262     3.5180   -51.6294     7.6955     0.0090     0.1962   111.6642     2.3103
  229.0000     2.5466     3.0931   -51.5352     7.6952     0.0105     0.2362    99.0705     2.2652
  229.5000     2.3922     2.7403   -51.0902     7.6949     0.0150     0.2792    97.4213     2.2404
  230.0000     2.3753     2.6652   -50.9445     7.6946     0.0195     0.2784    99.8701     2.2161
  230.5000     2.5166     2.6466   -50.9903     7.6943     0.0180     0.2418   109.7151     2.2291
  231.0000     2.9854     2.8365   -51.2536     7.6940     0.0104     0.2232   116.0120     2.2801
  231.5000     3.4770     3.3267   -51.7077     7.6937     0.0090     0.2004   119.7601     2.3522
  232.0000     3.9116     3.7951   -51.7130     7.6934     0.0195     0.1677   121.2594     2.3935
  232.5000     4.3701     4.2109   -51.6458     7.6844     0.0165     0.1434   121.1094     2.4362
  233.0000     4.8821     4.7375   -51.4206     7.6778     0.0060     0.1398   118.1109     2.4460
  233.5000     5.1600     5.2282   -51.1261     7.6625     0.0030     0.1368   119.7601     2.4474
  234.0000     5.3785     5.6336   -50.4200     7.6473     0.0030     0.1334   113.1634     2.4519
  234.5000     5.5676     5.9134   -49.9363     7.6470     0.0060     0.1262   125.3473     2.4633
  235.0000     5.6865     6.1643   -49.7382     7.6467     0.0090     0.1214   122.9085     2.4729
  235.5000     5.8024     6.2935   -49.3444     7.6464     0.0150     0.1184   118.1109     2.4811
  236.0000     5.9649     6.4292   -49.1694     7.6611     0.0180     0.1211   112.7136     2.4849
  236.5000     6.0895     6.5599   -48.8928     7.6608     0.0165     0.1217   113.3133     2.4863
  237.0000     6.0754     6.5142   -48.7586     7.6698     0.0135     0.1208   123.6342     2.4855
  237.5000     6.0038     6.3744   -48.6126     7.6751     0.0090     0.1202   126.6567     2.4780
  238.0000     5.9203     6.2432   -48.8276     7.6748     0.0090     0.1271   129.0555     2.4630
  238.5000     5.8218     5.9513   -49.4480     7.6895     0.0108     0.1407   131.7541     2.4487
  239.0000     5.7171     5.7881   -49.9760     7.6892     0.0150     0.1553   134.3028     2.4329
  239.5000     5.5986     5.6293   -50.5808     7.7039     0.0150     0.1622   134.3028     2.4141
  240.0000     5.4775     5.5720   -50.7350     7.7096     0.0150     0.1675   127.2564     2.4044
  240.5000     5.4062     5.4980   -51.1052     7.7183     0.0150     0.1705   108.5157     2.4118
  241.0000     5.3843     5.4741   -51.1934     7.7330     0.0135     0.1564   104.3178     2.4223
  241.5000     5.3847     5.4738   -51.3478     7.7326     0.0135     0.1510   108.2818     2.4276
  242.0000     5.4417     5.4734   -51.3528     7.7323     0.0150     0.1456   123.3583     2.4350
  242.5000     5.4455     5.5694   -51.2069     7.7171     0.0165     0.1396   135.6522     2.4493
  243.0000     5.4780     5.7449   -50.9890     7.7018     0.0210     0.1306   136.2519     2.4665
  243.5000     5.5770     5.9061   -50.6160     7.6865     0.0225     0.1168   136.7016     2.4770
  244.0000     5.6709     6.2426   -50.6007     7.6862     0.0165     0.1114   131.4501     2.4841
  244.5000     5.8031     6.5983   -50.1758     7.6762     0.0090     0.1165   119.1604     2.4957
  245.0000     6.0111     6.9808   -49.8613     7.6706     0.0030     0.1179   116.3118     2.4972
  245.5000     6.2452     7.4229   -49.4310     7.6554    -0.0030     0.1167   116.1619     2.4837
  246.0000     6.4200     7.7916   -49.0995     7.6551    -0.0045     0.1230   119.3103     2.4777
  246.5000     6.6026     8.0103   -48.8441     7.6548    -0.0060     0.1302   122.7586     2.4694
  247.0000     6.7845     8.1217   -48.5490     7.6545    -0.0030     0.1308   124.8576     2.4671
  247.5000     6.9744     8.1776   -48.2534     7.6701     0.0008     0.1305   127.4063     2.4678
  248.0000     7.1697     8.1205   -48.2579     7.6839     0.0030     0.1302   130.1049     2.4686
  248.5000     7.2187     8.0081   -48.4385     7.6835     0.0060     0.1308   131.9081     2.4715
  249.0000     7.3692     7.9522   -48.7171     7.6832     0.0045     0.1308   132.0540     2.4715
  249.5000     7.5229     7.8967   -48.8713     7.6829     0.0030     0.1304   129.5052     2.4715
  250.0000     7.6272     8.0065   -48.8756     7.6826     0.0030     0.1286   127.8561     2.4715
  250.5000     7.2154     8.0236   -49.0290     7.6527     0.0030     0.1268   125.6800     2.4729
  251.0000     7.1655     7.9197   -49.3317     7.6078     0.0031     0.1244   123.0585     2.4745
  251.5000     7.0180     7.7764   -49.0346     7.5928     0.0032     0.1292   120.2099     2.4715
  252.0000     6.9695     7.5399   -48.4338     7.5901     0.0002     0.1289   118.7106     2.4677
  252.5000     6.7788     7.2052   -48.1407     7.5778    -0.0012     0.1280   121.8591     2.4692
  253.0000     6.5933     6.9578   -48.1439     7.5629    -0.0011     0.1280   124.4078     2.4722
  253.5000     6.2374     6.7111   -48.4469     7.5629     0.0004     0.1283   124.2579     2.4715
  254.0000     5.9418     6.3984   -48.9075     7.5778     0.0035     0.1304   123.5082     2.4452
  254.5000     5.6997     6.1787   -50.2524     7.5778     0.0035     0.1460   127.7061     2.4189
  255.0000     5.4674     6.0499   -51.1548     7.5778     0.0036     0.1730   129.2054     2.4002
  255.5000     5.2810     5.9016   -51.7573     7.5623     0.0066     0.1847   129.0555     2.3881
  256.0000     5.1723     5.7999   -52.0630     7.5479     0.0082     0.1814   124.5577     2.3836
  256.5000     5.1365     5.7583   -52.2134     7.5479     0.0038     0.1611   123.5082     2.4152
  257.0000     5.1372     5.7568   -51.9164     7.5479    -0.0022     0.1471   127.7061     2.4392
  257.5000     5.2445     5.8391   -51.4694     7.5479    -0.0051     0.1360   122.3088     2.4512
  258.0000     5.3548     6.0396   -50.8646     7.5479    -0.0065     0.1330   120.5097     2.4580
  258.5000     5.5823     6.2511   -49.9758     7.5479    -0.0035     0.1363   129.3553     2.4610
  259.0000     5.8660     6.5150   -49.0798     7.5522    -0.0019     0.1348   134.4528     2.4625
  259.5000     6.2808     6.7510   -48.1830     7.5629     0.0011     0.1315   134.7526     2.4625
  260.0000     6.5933     7.1255   -47.5063     7.5778     0.0027     0.1321   129.6552     2.4617
  260.5000     6.8734     7.4781   -46.9900     7.5778     0.0013     0.1333   122.6087     2.4617
  261.0000     7.1655     7.7938   -46.6932     7.5928    -0.0017     0.1336   118.7106     2.4632
  261.5000     7.3671     8.1275   -46.6957     7.5843    -0.0031     0.1321   118.7506     2.4685
  262.0000     7.5220     8.4067   -46.8486     7.5778    -0.0015     0.1257   121.4093     2.4745
  262.5000     7.4700     8.5225   -47.0020     7.5778     0.0045     0.1203   124.7076     2.4844
