~VERSION INFORMATION
 VERS.                2.0:   CWLS LOG ASCII STANDARD - VERSION 2.0
 WRAP.                 NO:   ONE LINE PER DEPTH STEP
~WELL INFORMATION
#MNEM.UNIT      DATA TYPE    INFORMATION
#----------   ------------   ------------------------------
 STRT.F           30.5000:   START DEPTH
 STOP.F          692.0000:   STOP DEPTH
 STEP.F            0.5000:   STEP LENGTH
 NULL.          -999.2500:   NO VALUE
 COMP. FENIX & SCISSON INC:   COMPANY
 WELL.   27-S-11-WP #3-11:   WELL
 FLD .  TEAPOT DOME NPR-3:   FIELD
 LOC .      S11 T38N R78W:   LOCATION
 CNTY.            NATRONA:   COUNTY
 STAT.            WYOMING:   STATE
 CTRY. UNITED STATES OF AMERICA:   COUNTRY
 SRVC.       Schlumberger:   SERVICE COMPANY
 DATE.        18-FEB-1978:   LOGDATE
 API .       490251058100:   API NUMBER
~CURVE INFORMATION
#MNEM.UNIT       API CODE    CURVE DESCRIPTION
#----------   ------------   ------------------------------
 DEPT.F                  :   
 CALD.IN     45 280 60 00:   CALIPER FROM DENSITY LOG
 CORR.G/C3   45 356 01 00:   DENSITY CORRECTION
 DPHI.DEC    45 890 12 00:   DENSITY POROSITY SANDSTONE
 GRD .GAPI   45 310 01 00:   GAMMA RAY FROM DENSITY LOG
 RHOB.G/C3   45 350 01 00:   BULK DENSITY
 ILD .OHMM   05 110 46 00:   INDUCTION LOG DEEP
 SN  .OHMM   05 040 16 00:   SHORT NORMAL 16"
 SPR .MV     05 010 01 00:   SPONTANEOUS POTENSIAL FROM RES.
~PARAMETER INFORMATION
#MNEM.UNIT          VALUE    DESCRIPTION
#----------   ------------   ------------------------------
 PD  .                 GL:   PERMANENT DATUM
 EPD .F              5195:   ELEVATION PERMANENT DATUM
 LMF .                 KB:   LOG MEASURED FROM
 DAPD.F                 4:   FEET ABOVE PERMANENT DATUM
 DMF .                 KB:   DRILLING MEASURED FROM
 EKB .F              5199:   KELLING BUSHING
 EGL .F              5195:   GROUND LEVEL
 DATE.        18-FEB-1978:   RUN DATE
 RUN .                  1:   RUN NUMBER
 DD  .F               690:   DEPTH DRILLER
 DL  .F               695:   DEPTH LOGGER
 BLI .F               688:   BOTTOM LOG INTERVAL
 TLI .F                40:   TOP LOG INTERVAL
 CS  .IN            8.625:   CASING SIZE
 CBD .F                40:   CASING BOTTOM DRILLER
 CBL .F                40:   CASING BOTTOM LOGGER
 BS  .IN            7.875:   BIT SIZE
 BSD .F               690:   BIT SIZE AT DEPTH
 DFT .       LIGNO/ SULF.:   DRILLING FLUID TYPE
 DFD .                8.8:   DRILLING FLUID DENSITY
 DFV .                 33:   DRILLING FLUID VISCOSITY
 DFPH.               10.0:   DRILLING FLUID PH
 DFL .                5.0:   DRILLING FLUID LOSS
 MSS .           FLOWLINE:   MUD SAMPLE SOURCE
 RMS .OHMM            1.7:   RESISTIVITY MUD SAMPLE
 MST .F                66:   MUD SAMPLE TEMPERATURE
 RMF .OHMM            2.0:   RESISTIVITY MUD FILTRATE SAMPLE
 MFST.F                58:   MUD FILTRATE SAMPLE TEMPERATURE
 RMC .OHMM            3.0:   RESISTIVITY MUD CAKE
 MCST.F                60:   MUD CAKE SAMPLE TEMPERATURE
 MFSS.               MEAS:   MUD FILTRATE SAMPLE SOURCE
 RMB .OHMM           1.65:   RESISTIVITY MUD AT BHT
 BHT .F                68:   BOTTOM HOLE TEMPERATURE
 TCS .HRS               2:   TIME CURCULATED STOPPED
 MRT .F                68:   MAXIMUM RECORDED TEMPERATURE
 LUN .               2958:   LOGGING UNIT NUMBER
 LUL .             CASPER:   LOGGING UNIT LOCATION
 ENGI.            POINTER:   RECORDING ENGINEER
 WITN.           MCGINLEY:   WITNESSED BY
 CLNT.            A2DTECH:   CLIENT CODE
 ORIG.           5" PRINT:   ORIGIN OF DATA
 UWI .       490251058100:   UNIQUE WELL ID
~OTHER INFORMATION
~A   DEPT     CALD       CORR       DPHI         GRD      RHOB        ILD         SN        SPR   
# ...
  354.5000     7.9033     0.0305     0.1047    93.7654     2.4913     6.7301     7.4074   -34.3928
  355.0000     7.9016     0.0304     0.1114    95.4243     2.4760     6.5789     7.2485   -34.5473
  355.5000     7.8999     0.0287     0.1230    97.5418     2.4569     6.3798     7.1428   -34.7238
  356.0000     7.8982     0.0285     0.1245    97.9832     2.4455     6.0351     7.0387   -34.1381
  356.5000     7.8965     0.0269     0.1261    93.8258     2.4462     5.8203     6.8397   -33.2415
  357.0000     7.8948     0.0252     0.1283    92.1560     2.4362     5.6526     6.5999   -33.2715
  357.5000     7.8931     0.0235     0.1471    90.5479     2.4110     5.4898     6.2800   -33.6005
  358.0000     7.8914     0.0203     0.1399    90.3976     2.3973     5.4068     6.0599   -33.6245
  358.5000     7.9055     0.0217     0.1111    90.3746     2.4154     5.3250     5.8475   -33.6486
  359.0000     7.9034     0.0231     0.1065    90.3415     2.4594     5.2814     5.6821   -33.8251
  359.5000     7.9170     0.0260     0.1020    90.1758     2.4737     5.3492     5.6782   -33.6967
  360.0000     7.9311     0.0258     0.0996    90.6118     2.4759     5.3426     5.6743   -33.4098
  360.5000     7.9290     0.0257     0.0987    93.6466     2.4781     5.4492     5.7503   -33.4399
  361.0000     7.9273     0.0255     0.0988    93.7870     2.4826     5.5192     6.0425   -34.3786
  361.5000     7.9256     0.0254     0.0988    92.8358     2.4840     5.7094     6.5246   -34.7075
  362.0000     7.9239     0.0252     0.0985    90.3662     2.4877     5.9461     7.0574   -34.7315
  362.5000     7.9222     0.0251     0.1019    90.1902     2.4845     6.0292     7.3776   -34.4385
  363.0000     7.9205     0.0249     0.1062    90.1670     2.4806     6.2711     7.5806   -34.1280
  363.5000     7.9188     0.0248     0.1024    90.1439     2.4745     6.6240     7.7904   -33.5902
  364.0000     7.9171     0.0246     0.0990    89.5092     2.4692     6.7562     7.8948   -33.6142
  364.5000     7.9154     0.0260     0.1022    88.7215     2.4683     6.8931     8.0006   -33.6383
  365.0000     7.9137     0.0274     0.1033    88.8513     2.4645     7.0285     8.1077   -34.5770
  365.5000     7.9120     0.0287     0.0978    91.4275     2.4727     7.1688     8.2164   -34.2962
  366.0000     7.9103     0.0301     0.0951    94.9212     2.4825     7.2631     8.2684   -33.7104
  366.5000     7.9086     0.0299     0.0949    95.9742     2.4870     7.3051     8.3792   -33.4236
  367.0000     7.9227     0.0298     0.0949    94.8750     2.4884     7.2429     8.4325   -33.7585
  367.5000     7.9363     0.0296     0.0943    94.8519     2.4883     7.2339     8.4856   -34.3923
  368.0000     7.9500     0.0280     0.0901    94.5229     2.4905     7.2250     8.5394   -35.0262
  368.5000     7.9482     0.0278     0.0886    93.8882     2.4950     7.2667     8.6537   -35.6600
  369.0000     7.9465     0.0261     0.0884    92.9476     2.5002     7.3087     8.7128   -35.9889
  369.5000     7.9295     0.0260     0.0930    91.3954     2.5047     7.4026     8.7636   -35.0983
  370.0000     7.9278     0.0258     0.1006    90.1490     2.4856     7.4977     8.8191   -34.8171
  370.5000     7.9261     0.0257     0.1030    92.5724     2.4772     7.5387     8.8115   -34.8415
  371.0000     7.9241     0.0287     0.0876    94.6899     2.4824     7.5846     8.8054   -35.0254
  371.5000     7.9227     0.0315     0.0870    94.3610     2.4945     7.6260     8.7993   -35.5157
  372.0000     7.9210     0.0344     0.0913    93.4862     2.5035     7.6166     8.7933   -35.8293
  372.5000     7.9193     0.0388     0.0895    91.3380     2.4966     7.5541     8.7872   -35.8584
  373.0000     7.5490     0.0417     0.0920    89.9949     2.5011     7.5448     8.7812   -34.9678
  373.5000     7.5151     0.0476     0.0975    89.8395     2.4957     7.5355     8.7751   -33.0101
  374.0000     7.4995     0.0489     0.1005    91.6308     2.4903     7.5261     8.7691   -32.8757
  374.5000     7.4056     0.0488     0.1048    95.7670     2.4818     7.4124     8.7630   -33.2107
  375.0000     7.4500     0.0471     0.1073    96.3456     2.4734     7.4032     8.7570   -34.9115
  375.5000     7.6326     0.0470     0.1085    96.3224     2.4695     7.3423     8.7510   -36.1551
  376.0000     7.7845     0.0453     0.1092    95.8406     2.4687     7.2819     8.6839   -36.0267
  376.5000     7.8140     0.0467     0.1080    96.2762     2.4694     7.2203     8.4384   -35.1361
  377.0000     7.8426     0.0465     0.1059    97.1705     2.4701     7.2643     8.1997   -34.5444
  377.5000     7.8716     0.0479     0.1108   101.5816     2.4697     7.1522     8.0800   -34.5745
  378.0000     7.8699     0.0508     0.1166   102.6300     2.4637     7.1434     8.0733   -35.2083
  378.5000     7.8840     0.0506     0.1194   101.3824     2.4597     7.0354     8.0677   -35.5372
  379.0000     7.8977     0.0500     0.1273    97.3838     2.4437     6.8807     8.0059   -35.8661
  379.5000     7.8955     0.0488     0.1292    96.4432     2.4362     6.7294     7.8342   -35.5839
  380.0000     7.9096     0.0471     0.1314    97.9491     2.4323     6.6276     7.7200   -34.9996
  380.5000     7.9233     0.0470     0.1402   103.4306     2.4224     6.5274     7.4494   -34.7188
  381.0000     7.9369     0.0468     0.1502   103.7191     2.4109     6.4287     7.1882   -35.6585
  381.5000     7.9348     0.0482     0.1574    97.5740     2.3903     6.1568     6.8879   -35.0778
  382.0000     7.9485     0.0480     0.1625    96.9392     2.3819     5.8132     6.5084   -35.1018
  382.5000     7.9468     0.0479     0.1694    96.9161     2.3659     5.4869     6.0642   -35.5772
  383.0000     7.9297     0.0477     0.1976    96.8929     2.3384     5.2457     5.6110   -34.8450
  383.5000     7.8819     0.0460     0.2281    96.7169     2.3019     4.8275     4.7735   -34.2533
  384.0000     7.8188     0.0459     0.2470    96.0822     2.2525     4.2509     4.3859   -34.2834
  384.5000     7.7249     0.0442     0.2464    94.2242     2.2319     3.5891     4.0540   -34.6123
  385.0000     7.5389     0.0441     0.2428    91.2958     2.2159     3.1165     3.6461   -34.1790
  385.5000     7.3990     0.0500     0.2349    86.3797     2.2074     2.6684     3.4421   -34.0446
  386.0000     7.3819     0.0650     0.2198    83.9101     2.2347     2.3828     3.2140   -34.0747
  386.5000     7.4416     0.0846     0.1867    83.5870     2.2733     2.3142     3.0158   -33.1841
  387.0000     7.5321     0.0928     0.1555    84.5107     2.3560     2.2792     2.9100   -32.9024
  387.5000     7.6687     0.0646     0.1391    93.7843     2.4159     2.2447     2.9080   -33.9944
  388.0000     7.8206     0.0477     0.1294    98.7768     2.4249     2.2577     2.9885   -33.7136
  388.5000     7.9207     0.0354     0.1285   100.9557     2.4302     2.3189     3.1146   -33.4327
  389.0000     7.9866     0.0307     0.1283   101.8200     2.4316     2.4703     3.2233   -34.5508
  389.5000     7.9848     0.0305     0.1271   101.7915     2.4345     2.8516     3.2442   -35.1585
  390.0000     7.9985     0.0304     0.1119   100.0917     2.4405     3.5644     3.4764   -34.8768
  390.5000     7.9814     0.0302     0.0962    99.9157     2.4647     4.0663     4.1383   -34.6020
  391.0000     7.9797     0.0301     0.0944    99.5868     2.4829     4.5744     5.0660   -34.3152
  391.5000     7.9780     0.0299     0.0950    99.2578     2.4965     4.8658     5.4295   -34.9550
  392.0000     7.9763     0.0298     0.0975    96.9411     2.4928     5.0698     5.9012   -35.5888
  392.5000     7.9747     0.0281     0.1024    92.1779     2.4832     5.1693     6.0666   -35.7653
  393.0000     7.9730     0.0280     0.1082    92.7664     2.4778     5.2008     6.1555   -35.6309
  393.5000     7.9866     0.0278     0.1161    94.4253     2.4684     5.1928     6.2281   -35.0512
  394.0000     8.0003     0.0276     0.1295    98.8364     2.4509     5.0432     6.1793   -34.3131
  394.5000     8.0139     0.0275     0.1402   104.7766     2.4206     4.9669     6.0468   -34.1787
