~VERSION INFORMATION
 VERS.                2.0:   CWLS LOG ASCII STANDARD - VERSION 2.0
 WRAP.                 NO:   ONE LINE PER DEPTH STEP
~WELL INFORMATION
#MNEM.UNIT      DATA TYPE    INFORMATION
#----------   ------------   ------------------------------
 STRT.F          672.0000:   START DEPTH
 STOP.F         2343.5000:   STOP DEPTH
 STEP.F            0.5000:   STEP LENGTH
 NULL.          -999.2500:   NO VALUE
 COMP. FENIX & SCISSON INC:   COMPANY
 WELL.   23 SHX-33 #23-33:   WELL
 FLD .             TEAPOT:   FIELD
 LOC .      S33 T39N R78W:   LOCATION
 CNTY.            NATRONA:   COUNTY
 STAT.            WYOMING:   STATE
 CTRY. UNITED STATES OF AMERICA:   COUNTRY
 SRVC.            Unknown:   SERVICE COMPANY
 DATE.        01-MAY-1978:   LOGDATE
 API .       490251062700:   API NUMBER
~CURVE INFORMATION
#MNEM.UNIT       API CODE    CURVE DESCRIPTION
#----------   ------------   ------------------------------
 DEPT.F                  :   
 IL  .OHMM   05 120 00 00:   INDUCTION LOG
 CIL .MMHO   05 110 00 00:   CONDUCTIVITY INDUCTION LOG
 CALD.IN     45 280 60 00:   CALIPER FROM DENSITY LOG
 GRD .GAPI   45 310 01 00:   GAMMA RAY FROM DENSITY LOG
 DPHI.DEC    45 890 12 00:   DENSITY POROSITY SANDSTONE
 RHOB.G/C3   45 350 01 00:   BULK DENSITY
 CORR.G/C3   45 356 01 00:   DENSITY CORRECTION
~PARAMETER INFORMATION
#MNEM.UNIT          VALUE    DESCRIPTION
#----------   ------------   ------------------------------
 PD  .                 GL:   PERMANENT DATUM
 EPD .F              5163:   ELEVATION PERMANENT DATUM
 LMF .                 KB:   LOG MEASURED FROM
 DAPD.F                10:   FEET ABOVE PERMANENT DATUM
 DMF .                 KB:   DRILLING MEASURED FROM
 EKB .F              5173:   KELLING BUSHING
 EGL .F              5163:   GROUND LEVEL
 DATE.           5-1-1978:   RUN DATE
 RUN .                  1:   RUN NUMBER
 DD  .F              2331:   DEPTH DRILLER
 DL  .F              2260:   DEPTH LOGGER
 BLI .F              2250:   BOTTOM LOG INTERVAL
 TLI .F               690:   TOP LOG INTERVAL
 CS  .IN            9.625:   CASING SIZE
 CBD .F               683:   CASING BOTTOM DRILLER
 CBL .F               690:   CASING BOTTOM LOGGER
 BS  .IN             8.75:   BIT SIZE
 BSD .F              2331:   BIT SIZE AT DEPTH
 DFT .                OIL:   DRILLING FLUID TYPE
 BHT .F               104:   BOTTOM HOLE TEMPERATURE
 TCS .HRS               5:   TIME CURCULATED STOPPED
 MRT .F               104:   MAXIMUM RECORDED TEMPERATURE
 LUN .               2958:   LOGGING UNIT NUMBER
 LUL .               CASP:   LOGGING UNIT LOCATION
 ENGI.             MILLER:   RECORDING ENGINEER
 WITN.           MCGINLEY:   WITNESSED BY
 CLNT.            A2DTECH:   CLIENT CODE
 ORIG.       2", 5" PRINT:   ORIGIN OF DATA
 UWI .       490251062700:   UNIQUE WELL ID
 DICO. A2D Technologies, Inc.:   DIGITIZING COMPANY
~OTHER INFORMATION
~A   DEPT       IL        CIL       CALD         GRD      DPHI       RHOB       CORR   
  672.0000  -999.2500  -999.2500  -999.2500    68.8845  -999.2500  -999.2500  -999.2500
  672.5000  -999.2500  -999.2500  -999.2500    68.6677  -999.2500  -999.2500  -999.2500
  673.0000  -999.2500  -999.2500  -999.2500    68.4509  -999.2500  -999.2500  -999.2500
  673.5000  -999.2500  -999.2500  -999.2500    68.3075  -999.2500  -999.2500  -999.2500
  674.0000  -999.2500  -999.2500  -999.2500    68.4216  -999.2500  -999.2500  -999.2500
  674.5000  -999.2500  -999.2500  -999.2500    68.4750  -999.2500  -999.2500  -999.2500
  675.0000  -999.2500  -999.2500  -999.2500    68.6831  -999.2500  -999.2500  -999.2500
  675.5000  -999.2500  -999.2500  -999.2500    74.1775  -999.2500  -999.2500  -999.2500
  676.0000  -999.2500  -999.2500  -999.2500    77.5263  -999.2500  -999.2500  -999.2500
  676.5000  -999.2500  -999.2500  -999.2500    77.6553  -999.2500  -999.2500  -999.2500
  677.0000  -999.2500  -999.2500  -999.2500    77.4572  -999.2500  -999.2500  -999.2500
  677.5000  -999.2500  -999.2500  -999.2500    76.0732  -999.2500  -999.2500  -999.2500
  678.0000  -999.2500  -999.2500  -999.2500    69.3764  -999.2500  -999.2500  -999.2500
  678.5000  -999.2500  -999.2500  -999.2500    69.5309  -999.2500  -999.2500  -999.2500
  679.0000  -999.2500  -999.2500  -999.2500    69.5945  -999.2500  -999.2500  -999.2500
  679.5000  -999.2500  -999.2500     8.7078    69.6395  -999.2500  -999.2500  -999.2500
  680.0000  -999.2500  -999.2500     8.7569    69.7197  -999.2500  -999.2500  -999.2500
  680.5000  -999.2500  -999.2500     8.9143    71.4390  -999.2500  -999.2500  -999.2500
  681.0000  -999.2500  -999.2500     9.0027    75.9162  -999.2500  -999.2500  -999.2500
  681.5000  -999.2500  -999.2500     8.9782    79.1422  -999.2500  -999.2500  -999.2500
  682.0000  -999.2500  -999.2500     8.7559    80.7384  -999.2500  -999.2500     0.3414
  682.5000  -999.2500  -999.2500    11.9915    82.2509  -999.2500  -999.2500     0.3408
  683.0000  -999.2500  -999.2500    12.0590    87.9382  -999.2500  -999.2500     0.3401
  683.5000  -999.2500  -999.2500    12.0974    95.2288  -999.2500     1.9637     0.3396
  684.0000  -999.2500  -999.2500    12.0249   102.6458  -999.2500     1.9776     0.3465
  684.5000  -999.2500  -999.2500    11.9491   106.8838  -999.2500     1.9820     0.3858
  685.0000  -999.2500  -999.2500    11.8937   110.4220     0.1658     1.9797     0.3984
  685.5000  -999.2500  -999.2500    12.2041   121.3685     0.0037     2.3022     0.3822
  686.0000  -999.2500  -999.2500    12.2057   141.8031    -0.0138     2.4138     0.3618
  686.5000  -999.2500  -999.2500    12.1050   140.9923     0.1485     2.3050     0.0592
  687.0000  -999.2500  -999.2500    12.0943   140.1745     0.1823     2.2275     0.0667
  687.5000  -999.2500  -999.2500    12.1288   146.0294     0.1774     2.1665     0.0741
  688.0000  -999.2500  -999.2500    12.1626   149.5210     0.1718     2.1047     0.1136
  688.5000  -999.2500  -999.2500    12.1865   145.7662     0.1783     2.0565     0.1911
  689.0000  -999.2500  -999.2500    12.1915   137.5711     0.1825     2.2702     0.2046
  689.5000  -999.2500  -999.2500    12.0580   129.0293     0.1365     2.2561     0.1601
  690.0000  -999.2500  -999.2500    11.9178   120.1022     0.0917     2.2382     0.1531
  690.5000     7.9386   133.5775    11.9730   118.2954     0.0621     2.4466     0.1392
  691.0000     7.4213   131.8616    12.1244   119.0718     0.0762     2.4249     0.1088
  691.5000     7.2101   132.0874    12.2666   118.4414     0.0892     2.3998     0.0951
  692.0000     7.1339   132.2658    12.2254   118.5944     0.0964     2.4275     0.0987
  692.5000     7.1357   132.4938    12.0454   121.9103     0.1007     2.3865     0.1037
  693.0000     7.1493   132.7196    11.8645   128.8649     0.1015     2.3947     0.1088
  693.5000     7.1619   132.9454    11.6845   135.7803     0.0824     2.3867     0.1132
  694.0000     7.1644   133.1713    11.5046   142.0524     0.0641     2.3800     0.1362
  694.5000     7.1252   133.3971    11.3247   138.3051     0.0613     2.4506     0.1347
  695.0000     7.0875   133.6229    11.1436   131.5256     0.0593     2.4462     0.1351
  695.5000     7.0413   133.8384    10.9583   127.5888     0.0493     2.4436     0.1421
  696.0000     7.0115   136.1154    10.9123   127.1287     0.0282     2.4606     0.1500
  696.5000     7.0097   138.2929    10.9169   127.3858    -0.0011     2.4964     0.1566
  697.0000     6.9780   140.4704    10.9217   128.2205     0.0372     2.5331     0.1512
  697.5000     6.8318   142.6479    10.9263   133.8803     0.0470     2.5532     0.0974
  698.0000     6.6902   144.8254    10.9315   143.1828     0.0251     2.4658     0.0998
  698.5000     6.5488   146.2460    10.9355   148.6982     0.0237     2.4984     0.1112
  699.0000     6.4056   146.8437    10.9217   148.1792     0.0247     2.5072     0.0854
  699.5000     6.3638   147.4415    10.5856   143.9997     0.0182     2.5015     0.0676
  700.0000     6.3646   147.9165    10.1148   139.6075     0.0090     2.5047     0.0656
  700.5000     6.3932   147.2802    10.0189   136.2605     0.0029     2.5224     0.0643
  701.0000     6.4016   146.6439    10.0393   134.0358     0.0056     2.5396     0.0583
  701.5000     6.4445   145.9596    10.0157   131.1698     0.0081     2.5446     0.0532
  702.0000     6.5172   140.8042     9.9840   129.7189     0.0072     2.5366     0.0514
  702.5000     6.6963   135.2285     9.9519   130.8848     0.0030     2.5319     0.0493
  703.0000     6.9267   129.6527     9.9147   132.8701    -0.0003     2.5419     0.0475
  703.5000     7.1587   124.0770     9.9841   135.7007     0.0039     2.5499     0.0451
  704.0000     7.3907   120.6050    10.0340   138.4285     0.0088     2.5470     0.0341
  704.5000     7.6229   117.8051     9.9069   131.6810     0.0137     2.5407     0.0171
  705.0000     7.8487   115.0051     9.7865   129.5358     0.0152     2.5345     0.0175
  705.5000     8.0537   112.2050     9.6997   133.7099     0.0167     2.5282     0.0184
  706.0000     8.1447   111.6825     9.7039   135.3297     0.0183     2.5219     0.0203
  706.5000     8.1420   111.7526     9.8519   135.4761     0.0175     2.5155     0.0222
  707.0000     8.1414   111.8336     9.8350   134.2914     0.0076     2.5200     0.0241
  707.5000     8.1414   111.9130     9.7123   132.1790     0.0091     2.5304     0.0260
  708.0000     8.1414   111.9913     9.7652   130.6578     0.0113     2.5368     0.0274
  708.5000     8.1414   112.0696     9.6929   132.7144     0.0120     2.5302     0.0272
  709.0000     8.1414   112.1479    10.3592   135.4260     0.0114     2.5284     0.0295
  709.5000     8.1414   112.2263    10.3938   136.5163     0.0108     2.5319     0.0338
  710.0000     8.1414   112.3046    10.2139   136.2408     0.0121     2.5280     0.0386
  710.5000     8.1414   112.3829     9.9537   134.0777     0.0138     2.5273     0.0435
  711.0000     8.1414   112.4606     9.9342   132.7172     0.0155     2.5289     0.0473
  711.5000     8.1414   112.5412    10.2750   131.9325     0.0162     2.5285     0.0471
  712.0000     8.1415   112.6048    10.5011   129.4051     0.0140     2.5141     0.0506
  712.5000     8.1416   113.6364    10.2815   128.1312     0.0118     2.5217     0.0574
  713.0000     8.1412   114.7677    10.4065   135.9073     0.0095     2.5294     0.0668
  713.5000     8.1177   115.8990    10.2041   137.1610     0.0072     2.5275     0.0683
  714.0000     8.0379   117.0303     9.9882   133.4830     0.0061     2.5304     0.0696
  714.5000     7.9591   118.1616     9.8999   130.7288     0.0057     2.5338     0.0708
  715.0000     7.8802   118.5960     9.8999   130.6006     0.0061     2.5372     0.0721
  715.5000     7.8012   118.4263     9.9020   129.2178     0.0114     2.5390     0.0715
  716.0000     7.7224   118.2566     9.8684   127.8645     0.0140     2.5376     0.0695
  716.5000     7.6547   118.0869     9.7850   126.9973     0.0070     2.5305     0.0669
  717.0000     7.6564   117.9172     9.6977   127.0593     0.0060     2.5301     0.0644
