~VERSION INFORMATION
 VERS.                2.0:   CWLS LOG ASCII STANDARD - VERSION 2.0
 WRAP.                 NO:   ONE LINE PER DEPTH STEP
~WELL INFORMATION
#MNEM.UNIT      DATA TYPE    INFORMATION
#----------   ------------   ------------------------------
 STRT.F           24.5000:   START DEPTH
 STOP.F          576.0000:   STOP DEPTH
 STEP.F            0.5000:   STEP LENGTH
 NULL.          -999.2500:   NO VALUE
 COMP. FENIX & SCISSON INC:   COMPANY
 WELL.    NPR-3 SX #61-15:   WELL
 FLD .             TEAPOT:   FIELD
 LOC .      S15 T38N R78W:   LOCATION
 CNTY.            NATRONA:   COUNTY
 STAT.            WYOMING:   STATE
 CTRY. UNITED STATES OF AMERICA:   COUNTRY
 SRVC.            Unknown:   SERVICE COMPANY
 DATE.        29-MAY-1978:   LOGDATE
 API .       490251062300:   API NUMBER
~CURVE INFORMATION
#MNEM.UNIT       API CODE    CURVE DESCRIPTION
#----------   ------------   ------------------------------
 DEPT.F                  :   
 GRD .GAPI   45 310 01 00:   GAMMA RAY FROM DENSITY LOG
 CALD.IN     45 280 60 00:   CALIPER FROM DENSITY LOG
 SN  .OHMM   05 040 16 00:   SHORT NORMAL 16'
 SPR .MV     05 010 01 00:   SPONTANEOUS POTENTIAL
 ILD .OHMM   05 120 46 00:   INDUCTION LOG DEEP
 RHOB.G/C3   45 350 01 00:   BULK DENSITY
 DPHI.DEC    45 890 12 00:   DENSITY POROSITY SANDSTONE
 CORR.G/C3   45 356 01 00:   DENSITY CORRECTION
~PARAMETER INFORMATION
#MNEM.UNIT          VALUE    DESCRIPTION
#----------   ------------   ------------------------------
 PD  .                 GL:   PERMANENT DATUM
 EPD .F              5221:   ELEVATION PERMANENT DATUM
 LMF .                 KB:   LOG MEASURED FROM
 DAPD.F                 4:   FEET ABOVE PERMANENT DATUM
 DMF .                 KB:   DRILLING MEASURED FROM
 EKB .F              5225:   KELLING BUSHING
 EGL .F              5221:   GROUND LEVEL
 DATE.          5-29-1978:   RUN DATE
 RUN .                  1:   RUN NUMBER
 DD  .F               565:   DEPTH DRILLER
 DL  .F               578:   DEPTH LOGGER
 BLI .F               570:   BOTTOM LOG INTERVAL
 TLI .F                40:   TOP LOG INTERVAL
 CS  .IN            8.625:   CASING SIZE
 CBD .F                40:   CASING BOTTOM DRILLER
 CBL .F                40:   CASING BOTTOM LOGGER
 BS  .IN            7.875:   BIT SIZE
 BSD .F               565:   BIT SIZE AT DEPTH
 DFT .                KCL:   DRILLING FLUID TYPE
 DFD .                8.7:   DRILLING FLUID DENSITY
 DFV .                 34:   DRILLING FLUID VISCOSITY
 DFPH.                9.5:   DRILLING FLUID PH
 DFL .               10.4:   DRILLING FLUID LOSS
 BHT .F                76:   BOTTOM HOLE TEMPERATURE
 TCS .HRS               3:   TIME CURCULATED STOPPED
 MRT .F                76:   MAXIMUM RECORDED TEMPERATURE
 LUN .               2958:   LOGGING UNIT NUMBER
 LUL .              CASP.:   LOGGING UNIT LOCATION
 ENGI.             MILLER:   RECORDING ENGINEER
 WITN.           MCGINLEY:   WITNESSED BY
 CLNT.            A2DTECH:   CLIENT CODE
 ORIG.      2" , 5" PRINT:   ORIGIN OF DATA
 UWI .       490251062300:   UNIQUE WELL ID
 DICO. A2D Technologies, Inc.:   DIGITIZING COMPANY
~OTHER INFORMATION
~A   DEPT       GRD      CALD         SN        SPR        ILD       RHOB       DPHI       CORR   
# ...
  308.0000    76.1392     7.5344     4.6685   -41.1333     4.2585     2.3792     0.1622     0.0840
  308.5000    80.6299     7.5301     5.0125   -41.1311     4.6847     2.3975     0.1574     0.0650
  309.0000    84.6843     7.8718     5.3819   -41.1290     4.8937     2.3948     0.1508     0.0464
  309.5000    84.5423     7.3705     5.7785   -41.1269     4.9846     2.3937     0.1517     0.0420
  310.0000    84.3103     7.3643     5.9917   -41.1247     4.9846     2.4088     0.1613     0.0365
  310.5000    86.5460     7.3869     5.8958   -41.1226     4.9675     2.4062     0.1707     0.0364
  311.0000    90.5786     7.4074     5.8286   -41.1205     4.9520     2.3865     0.1530     0.0408
  311.5000    95.0859     7.4642     5.8286   -41.1184     4.9366     2.3797     0.1605     0.0554
  312.0000    96.0225     7.5451     5.8286   -41.1162     4.9211     2.3913     0.1466     0.0618
  312.5000    94.4531     7.6334     5.8286   -41.1141     4.9059     2.4025     0.1284     0.0380
  313.0000    92.1625     7.7311     5.9548   -41.1120     4.8927     2.4056     0.1261     0.0588
  313.5000    89.8522     7.8508     6.1343   -41.1098     4.8923     2.4537     0.1231     0.0757
  314.0000    88.5537     7.9720     6.3191   -41.1077     5.2202     2.4690     0.1201     0.0927
  314.5000    88.4938     8.0509     6.5095   -41.1056     5.6865     2.4697     0.1176     0.1109
  315.0000    88.5376     8.1240     6.7057   -41.1034     6.1945     2.4722     0.1115     0.1447
  315.5000    90.0493     8.1968     6.9077   -41.1013     6.7531     2.4810     0.1031     0.1793
  316.0000    92.2663     8.2703     7.1159   -41.0992     6.9421     2.4909     0.0947     0.2183
  316.5000    93.5292     8.2806     7.3303   -41.0971     7.0083     2.5008     0.0824     0.2597
  317.0000    94.2551     8.2751     7.5512   -41.0949     7.0740     2.5107     0.0824     0.2929
  317.5000    94.9808     8.2252     7.7787   -41.0928     7.0735     2.5206     0.0892     0.2935
  318.0000    95.1058     8.1743     7.8965   -41.0907     7.0710     2.5247     0.0845     0.2710
  318.5000    97.3503     8.1169     7.8965   -41.0885     7.0710     2.5181     0.0925     0.2442
  319.0000   100.0282     8.0322     7.8965   -41.0864     7.0213     2.5117     0.1017     0.2174
  319.5000   100.5579     7.8816     7.8967   -41.0843     6.9123     2.5029     0.1044     0.1801
  320.0000    98.2091     7.7287     7.8951   -41.0821     6.8051     2.4945     0.1087     0.1391
  320.5000    95.2349     7.5987     7.9041   -41.0800     6.6994     2.4864     0.1100     0.0970
  321.0000    94.6538     7.5357     7.8178   -41.0779     6.5955     2.4821     0.1096     0.0831
  321.5000    93.8469     7.4709     7.8214   -41.0758     6.4931     2.4752     0.1356     0.0686
  322.0000    92.0979     7.4064     7.6807   -41.0736     6.3923     2.4651     0.1320     0.0418
  322.5000    90.4253     7.3420     7.6825   -41.0715     6.2931     2.4413     0.1284     0.0403
  323.0000    90.0887     7.2784     7.5391   -41.0694     6.2164     2.4444     0.1288     0.0383
  323.5000    91.0028     7.2849     7.4221   -41.0672     6.1030     2.4460     0.1310     0.0370
  324.0000    94.3184     7.3252     7.3069   -41.0651     5.9369     2.4435     0.1331     0.0329
  324.5000    95.4401     7.3582     7.2023   -41.0630     5.7304     2.4402     0.1331     0.0287
  325.0000    95.5547     7.3905     7.0009   -41.0608     5.4266     2.4400     0.1316     0.0247
  325.5000    98.7792     7.4229     6.7324   -41.0587     5.1280     2.4420     0.1338     0.0246
  326.0000   100.3656     7.4551     6.4742   -41.0566     5.0725     2.4421     0.1380     0.0266
  326.5000   100.8878     7.4804     6.2164   -41.0545     5.0754     2.4376     0.1413     0.0302
  327.0000   101.0491     7.4788     6.1030   -41.0523     5.1784     2.4332     0.1400     0.0359
  327.5000   100.5410     7.5465     6.1030   -41.0502     5.3138     2.4296     0.1364     0.0445
  328.0000    98.6209     7.6745     6.1030   -41.0481     5.4527     2.4409     0.1169     0.0586
  328.5000    98.4739     7.8463     6.1851   -41.0459     5.5953     2.4560     0.1028     0.0768
  329.0000    98.2895     8.0196     6.5467   -41.0438     5.7223     2.4713     0.1124     0.0943
  329.5000    98.0639     8.1797     6.9293   -41.0417     6.1992     2.4846     0.1036     0.1122
  330.0000    95.8353     8.2497     7.3343   -41.0395     6.7298     2.4801     0.1121     0.1470
  330.5000    92.5625     8.2929     7.6815   -41.0374     7.3058     2.4752     0.1164     0.1808
  331.0000    89.6112     8.2751     7.7584   -41.0353     7.6111     2.4749     0.1111     0.2144
  331.5000    90.0340     8.2568     7.8657   -41.0332     7.6111     2.4762     0.1068     0.2479
  332.0000    94.3840     8.1747     7.9745   -41.0310     7.5709     2.4800     0.0778     0.2817
  332.5000    97.9197     8.0858     8.0848   -41.0289     7.5292     2.5136     0.0636     0.3007
  333.0000    99.1043     7.9974     8.1966   -41.0268     7.4877     2.5496     0.0849     0.2895
  333.5000   100.3278     7.8491     8.3099   -41.0246     7.4465     2.5473     0.1039     0.2531
  334.0000   101.5591     7.6557     8.4248   -41.0225     7.4055     2.5190     0.1038     0.1833
  334.5000   101.3877     7.4638     8.5413   -41.0204     7.3647     2.4910     0.1034     0.1191
  335.0000   100.2986     7.3846     8.6575   -41.0182     7.3242     2.4908     0.1130     0.0949
  335.5000    98.6475     7.3092     8.6575   -41.0161     7.2838     2.4892     0.1232     0.0745
  336.0000    96.7494     7.2865     8.7375   -41.0140     7.2435     2.4705     0.1224     0.0541
  336.5000    95.4458     7.2943     8.7107   -41.0119     7.2024     2.4596     0.1139     0.0382
  337.0000    96.5192     7.3027     8.6910   -41.0097     7.2023     2.4683     0.1054     0.0385
  337.5000    97.5850     7.3112     8.6711   -41.0076     7.2239     2.4767     0.0970     0.0386
  338.0000    95.4303     7.3195     8.6513   -41.0055     7.3346     2.4852     0.0908     0.0383
  338.5000    93.4601     7.3279     8.6315   -41.0033     7.4471     2.4936     0.1012     0.0358
  339.0000    93.9580     7.3369     8.6118   -41.0012     7.5613     2.5020     0.0962     0.0198
  339.5000    95.7894     7.3745     8.5921   -40.9991     7.6773     2.5030     0.0928     0.0091
  340.0000    98.4787     7.4447     8.5725   -40.9969     7.7950     2.5030     0.1024     0.0249
  340.5000   101.1095     7.5144     8.5529   -40.9948     7.9161     2.5030     0.0938     0.0401
  341.0000   102.5785     7.5843     8.5333   -40.9927     8.0410     2.5024     0.0928     0.0546
  341.5000   102.3962     7.6580     8.5138   -40.9906     8.1925     2.5003     0.0959     0.0684
  342.0000   102.0979     7.8090     8.4943   -40.9884     8.1925     2.4982     0.0996     0.0846
  342.5000   101.8506     7.9707     8.4749   -40.9863     8.1925     2.4961     0.1004     0.1007
  343.0000   102.1996     8.1329     8.4555   -40.9842     8.1925     2.4941     0.1008     0.1173
  343.5000   103.2257     8.2202     8.4362   -40.9820     8.1175     2.4946     0.1004     0.1594
  344.0000   103.6672     8.2769     8.4043   -40.9799     7.8787     2.4971     0.0907     0.2043
  344.5000   102.3869     8.3171     8.3360   -40.9778     7.6556     2.5037     0.0612     0.2491
  345.0000   100.7293     8.2966     8.2683   -40.9757     7.4388     2.5307     0.0664     0.2860
  345.5000   102.3569     8.2256     8.2010   -40.9735     7.2281     2.5533     0.0731     0.2739
  346.0000   105.4237     8.1104     8.1344   -40.9714     7.0234     2.5511     0.0798     0.2359
  346.5000   107.2213     7.9940     8.1042   -40.9693     6.8245     2.5399     0.0864     0.1985
  347.0000   107.0994     7.8776     8.0201   -40.9671     6.6312     2.5268     0.0950     0.1611
  347.5000   107.4172     7.7612     7.9369   -40.9650     6.4434     2.5136     0.1038     0.1289
  348.0000   108.2538     7.6451     7.8546   -40.9629     6.2609     2.5005     0.1126     0.1181
