~VERSION INFORMATION
 VERS.                2.0:   CWLS LOG ASCII STANDARD - VERSION 2.0
 WRAP.                 NO:   ONE LINE PER DEPTH STEP
~WELL INFORMATION
#MNEM.UNIT      DATA TYPE    INFORMATION
#----------   ------------   ------------------------------
 STRT.F           34.5000:   START DEPTH
 STOP.F          880.5000:   STOP DEPTH
 STEP.F            0.5000:   STEP LENGTH
 NULL.          -999.2500:   NO VALUE
 COMP. FENIX & SCISSON INC:   COMPANY
 WELL. NAVAL PETROLEUM RESERVE 3 S-14 #35-14:   WELL
 FLD .             TEAPOT:   FIELD
 LOC .      S14 T38N R78W:   LOCATION
 CNTY.            NATRONA:   COUNTY
 STAT.            WYOMING:   STATE
 CTRY. UNITED STATES OF AMERICA:   COUNTRY
 SRVC.            Unknown:   SERVICE COMPANY
 DATE.        24-APR-1978:   LOGDATE
 API .       490251062000:   API NUMBER
~CURVE INFORMATION
#MNEM.UNIT       API CODE    CURVE DESCRIPTION
#----------   ------------   ------------------------------
 DEPT.F                  :   
 RHOB.G/C3   45 350 01 00:   BULK DENSITY
 DPHI.DEC    45 890 12 00:   DENSITY POROSITY SANDSTONE
 CORR.G/C3   45 356 01 00:   DENSITY CORRECTION
 GRD .GAPI   45 310 01 00:   GAMMA RAY FROM DENSITY LOG
 CALD.IN     45 280 60 00:   CALIPER FROM DENSITY LOG
 SPR .MV     05 010 01 00:   SPONTANEOUS POTENTIAL FROM RES.
 SN  .OHMM   05 040 16 00:   SHORT NORMAL 16"
 ILD .OHMM   05 120 46 00:   INDUCTION LOG DEEP
~PARAMETER INFORMATION
#MNEM.UNIT          VALUE    DESCRIPTION
#----------   ------------   ------------------------------
 PD  .                 GL:   PERMANENT DATUM
 EPD .F              5246:   ELEVATION PERMANENT DATUM
 LMF .                 KB:   LOG MEASURED FROM
 DMF .                 KB:   DRILLING MEASURED FROM
 EKB .F              5250:   KELLING BUSHING
 EGL .F              5246:   GROUND LEVEL
 DATE.          4-24-1978:   RUN DATE
 RUN .                  1:   RUN NUMBER
 DD  .F               880:   DEPTH DRILLER
 DL  .F               880:   DEPTH LOGGER
 BLI .F               884:   BOTTOM LOG INTERVAL
 TLI .F                50:   TOP LOG INTERVAL
 CS  .IN            8.625:   CASING SIZE
 CBD .F                40:   CASING BOTTOM DRILLER
 CBL .F                50:   CASING BOTTOM LOGGER
 BS  .IN            7.875:   BIT SIZE
 BSD .F               880:   BIT SIZE AT DEPTH
 DFT .                KCL:   DRILLING FLUID TYPE
 DFD .                8.6:   DRILLING FLUID DENSITY
 DFV .                 32:   DRILLING FLUID VISCOSITY
 DFPH.                 10:   DRILLING FLUID PH
 DFL .               12.8:   DRILLING FLUID LOSS
 MSS .            MUD PIT:   MUD SAMPLE SOURCE
 RMS .OHMM            .34:   RESISTIVITY MUD SAMPLE
 MST .F                62:   MUD SAMPLE TEMPERATURE
 RMF .OHMM             .3:   RESISTIVITY MUD FILTRATE SAMPLE
 MFST.F                70:   MUD FILTRATE SAMPLE TEMPERATURE
 RMC .OHMM            .58:   RESISTIVITY MUD CAKE
 MCST.F                70:   MUD CAKE SAMPLE TEMPERATURE
 MFSS.           MEASURED:   MUD FILTRATE SAMPLE SOURCE
 RMB .OHMM            .28:   RESISTIVITY MUD AT BHT
 BHT .F                74:   BOTTOM HOLE TEMPERATURE
 TCS .HRS               4:   TIME CURCULATED STOPPED
 MRT .F                74:   MAXIMUM RECORDED TEMPERATURE
 LUN .               2958:   LOGGING UNIT NUMBER
 LUL .              CASP.:   LOGGING UNIT LOCATION
 ENGI.             MILLER:   RECORDING ENGINEER
 WITN.           MCGINLEY:   WITNESSED BY
 CLNT.            A2DTECH:   CLIENT CODE
 ORIG.       2", 5" PRINT:   ORIGIN OF DATA
 UWI .       490251062000:   UNIQUE WELL ID
 DICO. A2D Technologies, Inc.:   DIGITIZING COMPANY
~OTHER INFORMATION
~A   DEPT     RHOB       DPHI       CORR         GRD      CALD        SPR         SN        ILD   
# ...
  682.5000     2.4757     0.1002     0.1182    62.0378     8.2016   -23.8048    11.6122    14.0436
  683.0000     2.4487     0.0989     0.1036    63.4616     8.2780   -23.8048    11.5187    13.7530
  683.5000     2.4595     0.0976     0.1089    65.2884     8.3579   -23.8048    11.4259    13.4685
  684.0000     2.4719     0.1110     0.1116    67.1469     8.3764   -23.8048    11.3339    13.1899
  684.5000     2.3954     0.1272     0.0784    67.9721     8.3768   -23.8048    11.2426    13.0786
  685.0000     2.3941     0.1386     0.0691    67.9925     8.3764   -23.8048    11.1521    13.1236
  685.5000     2.3859     0.1456     0.0646    67.9716     8.3900   -23.8048    11.0830    13.1559
  686.0000     2.3773     0.1598     0.0564    69.6607     8.4125   -23.8048    11.0830    13.1994
  686.5000     2.3770     0.1486     0.0529    72.3408     8.4353   -23.8048    11.0830    13.0382
  687.0000     2.3835     0.1389     0.0590    73.6402     8.4560   -23.8048    11.0831    12.7968
  687.5000     2.4078     0.1338     0.0666    70.7791     8.4563   -23.8048    11.0831    12.5599
  688.0000     2.4027     0.1400     0.0637    67.9194     8.4562   -23.8048    11.0850    12.3273
  688.5000     2.3953     0.1488     0.0559    67.3155     8.4562   -23.8048    11.0157    12.2631
  689.0000     2.3901     0.1466     0.0488    67.1951     8.4562   -23.8048    10.8880    12.2631
  689.5000     2.3941     0.1443     0.0493    67.9240     8.4562   -23.8048    10.7671    12.2631
  690.0000     2.3983     0.1407     0.0496    71.3728     8.4562   -23.8048    10.6845    12.2405
  690.5000     2.4059     0.1353     0.0499    75.0283     8.4562   -23.8048    10.5849    12.1141
  691.0000     2.4155     0.1283     0.0502    75.0035     8.4562   -23.8048    10.6908    11.9890
  691.5000     2.4303     0.1189     0.0505    73.6059     8.4562   -23.8048    10.8249    11.8651
  692.0000     2.4476     0.1096     0.0508    72.1710     8.4562   -23.8048    10.9807    11.7426
  692.5000     2.4651     0.1003     0.0520    70.7339     8.4562   -23.8048    10.8242    11.6046
  693.0000     2.4831     0.0917     0.0555    69.2633     8.4562   -23.8048    10.6427    11.6262
  693.5000     2.4896     0.0880     0.0589    69.5187     8.4562   -23.8048    10.4631    11.6513
  694.0000     2.4930     0.0842     0.0624    71.5032     8.4562   -23.8048    10.2025    11.6765
  694.5000     2.4932     0.0938     0.0616    73.4755     8.4564   -23.8048    10.2081    11.7017
  695.0000     2.4749     0.1035     0.0592    74.7817     8.4576   -23.8048    10.2188    11.7270
  695.5000     2.4522     0.1132     0.0569    75.2506     8.4051   -23.8048    10.2296    11.7523
  696.0000     2.4444     0.1201     0.0610    75.7336     8.3455   -23.8048    10.2404    11.7777
  696.5000     2.4432     0.1141     0.0644    75.9732     8.3093   -23.8048    10.2512    11.8031
  697.0000     2.4415     0.1211     0.0583    75.7353     8.2934   -23.8048    10.2620    11.8286
  697.5000     2.4173     0.1282     0.0577    74.5595     8.2782   -23.8048    10.2728    11.8541
  698.0000     2.4162     0.1300     0.0584    73.1076     8.2625   -23.8048    10.2836    11.8798
  698.5000     2.4145     0.1320     0.0573    72.7583     8.2751   -23.8048    10.2945    11.9057
  699.0000     2.4101     0.1343     0.0532    73.1649     8.3053   -23.8048    10.3053    11.9290
  699.5000     2.4066     0.1370     0.0521    74.0958     8.3435   -23.8048    10.3162    11.8741
  700.0000     2.4134     0.1315     0.0545    74.6057     8.3809   -23.8048    10.3271    11.8218
  700.5000     2.4199     0.1266     0.0569    74.7022     8.4185   -23.8048    10.3379    11.7702
  701.0000     2.4191     0.1369     0.0539    75.1520     8.4360   -23.8045    10.3488    11.7188
  701.5000     2.4070     0.1436     0.0505    76.4020     8.4363   -23.8155    10.3598    11.6676
  702.0000     2.4003     0.1398     0.0490    77.6424     8.4362   -23.8297    10.3710    11.6166
  702.5000     2.4044     0.1363     0.0489    78.9241     8.4312   -23.8439    10.3816    11.5658
  703.0000     2.4081     0.1302     0.0516    78.4450     8.4173   -23.8581    10.3919    11.4984
  703.5000     2.4205     0.1241     0.0550    77.5557     8.4035   -23.8723    10.5883    11.6479
  704.0000     2.4349     0.1182     0.0584    76.6627     8.3898   -23.8865    10.8214    11.8764
  704.5000     2.4398     0.1173     0.0608    76.2099     8.3760   -23.9007    11.1488    12.1094
  705.0000     2.4396     0.1175     0.0597    76.3513     8.3560   -23.9149    11.6913    12.3913
  705.5000     2.4392     0.1212     0.0602    76.4795     8.3334   -23.9291    12.3691    13.2461
  706.0000     2.4390     0.1224     0.0654    76.5817     8.2556   -23.9433    13.1279    14.1595
  706.5000     2.4487     0.0969     0.0729    75.0004     8.1788   -23.9575    13.9315    15.1375
  707.0000     2.4758     0.0811     0.0861    72.8346     8.1007   -23.9717    14.7844    16.1850
  707.5000     2.5054     0.0672     0.1009    70.6355     8.0597   -23.9859    15.6895    17.2972
  708.0000     2.5349     0.0496     0.1189    68.5825     8.0194   -24.0011    16.4598    17.8804
  708.5000     2.5643     0.0306     0.1370    67.7658     7.9794   -23.9808    16.4708    17.8804
  709.0000     2.5863     0.0241     0.1545    67.9490     7.9749   -23.9491    16.4727    17.0478
  709.5000     2.5955     0.0266     0.1547    68.1208     7.9722   -23.9170    15.7080    15.9957
  710.0000     2.5904     0.0291     0.1408    68.2881     7.9692   -23.8851    14.5635    15.0086
  710.5000     2.5850     0.0316     0.1339    68.4568     7.9663   -23.8531    13.5075    14.0824
  711.0000     2.5829     0.0358     0.1398    68.7564     7.9633   -23.8212    12.5290    13.2133
  711.5000     2.5733     0.0462     0.1507    69.6678     7.9603   -23.7893    11.6214    12.3979
  712.0000     2.5489     0.0683     0.1615    71.9071     7.9581   -23.7573    10.7795    11.6327
  712.5000     2.5069     0.0891     0.1660    74.2102     7.9574   -23.7254    10.0968    10.8810
  713.0000     2.4651     0.1097     0.1586    74.9565     7.9939   -23.6935    10.0131    10.8699
  713.5000     2.4304     0.1288     0.1453    75.3725     8.0441   -23.6615     9.9301    10.8576
  714.0000     2.4140     0.1332     0.1233    74.3083     8.1040   -23.6296     9.8477    10.8466
  714.5000     2.4096     0.1356     0.1061    72.8785     8.1821   -23.5977     9.8142    10.8350
  715.0000     2.4100     0.1351     0.0932    71.4517     8.2601   -23.5657     9.7905    10.8234
  715.5000     2.4112     0.1346     0.0805    70.4980     8.3381   -23.5338     9.7668    10.8118
  716.0000     2.4124     0.1341     0.0678    73.5104     8.4158   -23.5019     9.7432    10.8002
  716.5000     2.4136     0.1336     0.0615    76.5758     8.4775   -23.4698     9.7197    10.7886
  717.0000     2.4148     0.1331     0.0590    77.1589     8.4746   -23.4373     9.6961    10.7771
  717.5000     2.4159     0.1326     0.0579    76.4505     8.4728   -23.4093     9.6726    10.7655
  718.0000     2.4172     0.1316     0.0572    74.8772     8.4712   -23.4773     9.6550    10.7540
  718.5000     2.4196     0.1294     0.0612    73.3099     8.4695   -23.5489     9.6852    10.7425
  719.0000     2.4219     0.1270     0.0651    71.7414     8.4679   -23.6200     9.7147    10.7309
  719.5000     2.4204     0.1291     0.0654    70.3380     8.4663   -23.6909     9.7444    10.7194
  720.0000     2.4152     0.1314     0.0624    71.6024     8.4646   -23.7619     9.7741    10.7083
  720.5000     2.4140     0.1334     0.0593    74.7779     8.4630   -23.8329     9.8039    10.6966
  721.0000     2.4162     0.1305     0.0563    76.2190     8.4614   -23.9038     9.8340    10.6815
  721.5000     2.4235     0.1274     0.0562    75.4431     8.4597   -23.9748     9.8779    10.9415
  722.0000     2.4309     0.1314     0.0582    74.9529     8.4581   -24.0458     9.9224    11.2750
  722.5000     2.4381     0.1338     0.0603    75.2477     8.4569   -24.1167     9.9671    11.6187
