~VERSION INFORMATION
 VERS.                2.0:   CWLS LOG ASCII STANDARD - VERSION 2.0
 WRAP.                 NO:   ONE LINE PER DEPTH STEP
~WELL INFORMATION
#MNEM.UNIT      DATA TYPE    INFORMATION
#----------   ------------   ------------------------------
 STRT.F           28.0000:   START DEPTH
 STOP.F          791.0000:   STOP DEPTH
 STEP.F            0.5000:   STEP LENGTH
 NULL.          -999.2500:   NO VALUE
 COMP. LAWRENCE/ALLISON INC:   COMPANY
 WELL.    34-61 SX #11-11:   WELL
 FLD .             TEAPOT:   FIELD
 LOC .      S11 T38N R78W:   LOCATION
 CNTY.            NATRONA:   COUNTY
 STAT.            WYOMING:   STATE
 CTRY. UNITED STATES OF AMERICA:   COUNTRY
 SRVC.           Gearhart:   SERVICE COMPANY
 DATE.        29-JUL-1987:   LOGDATE
 API .       490251112500:   API NUMBER
~CURVE INFORMATION
#MNEM.UNIT       API CODE    CURVE DESCRIPTION
#----------   ------------   ------------------------------
 DEPT.F                  :   
 GRR .GAPI   07 310 01 00:   GAMMA RAY FROM RESISTIVITY
 RILD.OHMM   07 120 46 00:   RESISTIVITY INDUCTION LOG DEEP
 RILM.OHMM   07 120 44 00:   RESISTIVITY INDUCTION LOG MEDIUM
 RLL .OHMM   07 220 00 00:   RESISTIVITY LATEROLOG
~PARAMETER INFORMATION
#MNEM.UNIT          VALUE    DESCRIPTION
#----------   ------------   ------------------------------
 PD  .                 GL:   PERMANENT DATUM
 EPD .F              5172:   ELEVATION PERMANENT DATUM
 LMF .                 KB:   LOG MEASURED FROM
 DAPD.F                 7:   FEET ABOVE PERMANENT DATUM
 DMF .                 KB:   DRILLING MEASURED FROM
 EKB .F              5180:   KELLING BUSHING
 EDF .F              5178:   DRILLING FLOOR
 EGL .F              5172:   GROUND LEVEL
 DATE.        29-JUL-1987:   RUN DATE
 RUN .                  1:   RUN NUMBER
 DD  .F               793:   DEPTH DRILLER
 DL  .F               792:   DEPTH LOGGER
 BLI .F               791:   BOTTOM LOG INTERVAL
 TLI .F                30:   TOP LOG INTERVAL
 CS  .IN            8.625:   CASING SIZE
 CBL .F                50:   CASING BOTTOM LOGGER
 BS  .IN            7.875:   BIT SIZE
 BSD .F               793:   BIT SIZE AT DEPTH
 DFT .                MUD:   DRILLING FLUID TYPE
 DFD .                0.5:   DRILLING FLUID DENSITY
 MSS .           FLOWLINE:   MUD SAMPLE SOURCE
 RMS .OHMM           1.92:   RESISTIVITY MUD SAMPLE
 MST .F                71:   MUD SAMPLE TEMPERATURE
 RMF .OHMM            1.4:   RESISTIVITY MUD FILTRATE SAMPLE
 MFST.F                72:   MUD FILTRATE SAMPLE TEMPERATURE
 RMC .OHMM            2.2:   RESISTIVITY MUD CAKE
 MCST.F                72:   MUD CAKE SAMPLE TEMPERATURE
 MFSS.              CHART:   MUD FILTRATE SAMPLE SOURCE
 MCSS.              CHART:   MUD CAKE SAMPLE SOURCE
 TCS .HRS            2200:   TIME CURCULATED STOPPED
 MRT .F                60:   MAXIMUM RECORDED TEMPERATURE
 LUN .               7397:   LOGGING UNIT NUMBER
 LUL .           GILLETTE:   LOGGING UNIT LOCATION
 ENGI.         WEATHERMON:   RECORDING ENGINEER
 WITN.             STRONG:   WITNESSED BY
 CLNT.            A2DTECH:   CLIENT CODE
 ORIG.           5" PRINT:   ORIGIN OF DATA
 UWI .       490251112500:   UNIQUE WELL ID
 DICO. A2D Technologies, Inc.:   DIGITIZING COMPANY
~OTHER INFORMATION
~A   DEPT      GRR       RILD       RILM        RLL   
# ...
  101.0000    77.9950     4.4537     4.4021     5.4578
  101.5000    77.6937     4.4537     4.4338     5.3806
  102.0000    77.3938     4.4537     4.4341     5.3044
  102.5000    77.7071     4.4537     4.4344     5.1923
  103.0000    77.7130     4.4223     4.3723     5.1552
  103.5000    78.0248     4.3601     4.3417     5.1919
  104.0000    78.3366     4.2987     4.2809     5.3488
  104.5000    78.6483     4.1786     4.2209     5.5726
  105.0000    77.9817     3.8928     4.1618     5.4547
  105.5000    74.9920     3.4930     4.0457     5.4158
  106.0000    72.8573     2.9951     3.7424     5.2639
  106.5000    71.3342     2.6553     3.1795     4.7997
  107.0000    69.8111     2.4562     2.6570     4.2540
  107.5000    69.2039     2.3540     2.2952     3.7436
  108.0000    69.5172     2.3373     2.0636     3.2481
  108.5000    70.7464     2.3540     2.0346     2.7393
  109.0000    71.6698     2.4045     2.0785     2.8486
  109.5000    71.6758     2.5089     2.2314     3.7171
  110.0000    71.0700     2.7123     2.5534     4.9005
  110.5000    71.0775     2.9615     2.8200     5.5677
  111.0000    71.6951     3.3310     3.2041     6.0193
  111.5000    71.3937     3.6009     3.5639     6.1050
  112.0000    72.0128     3.8109     3.7740     5.5666
  112.5000    76.6059     3.9483     3.9133     5.2590
  113.0000    81.1990     4.0047     4.0214     5.0038
  113.5000    83.3456     4.0332     4.0791     4.8981
  114.0000    79.9144     4.0618     4.1084     4.7580
  114.5000    77.8529     4.0618     4.1087     4.5944
  115.0000    77.5531     4.0618     4.0799     4.4973
  115.5000    77.8663     4.0332     4.0228     4.4652
  116.0000    77.8723     3.9764     3.9664     4.4649
  116.5000    77.2651     3.9483     3.8832     4.4330
  117.0000    76.6594     3.8653     3.8017     4.4013
  117.5000    76.0550     3.7573     3.7441     4.4639
  118.0000    75.4495     3.6265     3.6440     4.4955
  118.5000    75.4557     3.4025     3.5675     4.3384
  119.0000    75.4630     3.1698     3.4435     4.3074
  119.5000    74.2457     3.0379     3.2308     4.5621
  120.0000    73.0269     2.8705     2.9675     4.3994
  120.5000    73.0344     2.7085     2.7064     4.0688
  121.0000    73.0403     2.5448     2.4508     3.7631
  121.5000    73.0463     2.4912     2.2352     3.2419
  122.0000    72.7462     2.5089     2.1575     2.7340
  122.5000    71.5291     2.5628     2.1628     3.0194
  123.0000    69.6636     2.6741     2.3830     3.4795
  123.5000    67.4618     2.8502     2.7076     3.8700
  124.0000    66.0424     3.0812     3.0983     4.6870
  124.5000    69.1079     3.4511     3.5960     5.3331
  125.0000    72.7836     3.7840     3.8879     5.8532
  125.5000    75.5419     4.0360     4.1151     6.1799
  126.0000    77.3827     4.2684     4.2942     6.2679
  126.5000    78.9177     4.4537     4.4495     5.7150
  127.0000    79.2295     4.5817     4.5800     5.4765
  127.5000    77.9663     4.6802     4.6821     5.3989
  128.0000    74.2508     4.7134     4.7438     5.3985
  128.5000    73.4369     4.7469     4.7105     5.3982
  129.0000    75.2792     4.6471     4.5792     5.3978
  129.5000    78.0375     4.4223     4.4514     5.3200
  130.0000    75.5969     4.1198     4.2063     5.0944
  130.5000    73.7680     3.7494     3.9465     4.8517
  131.0000    72.5507     3.3546     3.5486     4.6823
  131.5000    73.1683     3.1474     3.2825     4.4868
  132.0000    75.0336     2.9114     2.9684     4.2389
  132.5000    77.5535     2.7903     2.8055     4.0619
  133.0000    79.6097     2.7510     2.7892     4.0330
  133.5000    76.8633     2.9114     2.9944     4.2080
  134.0000    74.1170     3.1031     3.1919     4.4220
  134.5000    72.5924     3.3074     3.4025     4.6470
  135.0000    71.9867     3.5003     3.6013     4.7837
  135.5000    72.6058     3.6835     3.7581     4.9175
  136.0000    73.2234     3.9205     3.9217     5.1311
  136.5000    73.8410     4.0332     4.0348     5.3539
  137.0000    74.5443     4.1198     4.1827     5.5468
  137.5000    76.3008     4.2382     4.2759     5.7877
  138.0000    79.3649     4.3293     4.3630     5.9540
  138.5000    81.8173     4.3911     4.3944     5.4675
  139.0000    80.2942     4.4223     4.3947     5.0209
  139.5000    79.3827     4.3911     4.3950     4.7100
  140.0000    78.1654     4.3293     4.3333     4.4476
  140.5000    76.9481     4.2352     4.2125     4.3867
  141.0000    75.7309     4.0907     4.1241     4.5448
  141.5000    75.7370     3.9764     4.0091     4.7421
  142.0000    77.8849     3.8380     3.8954     4.9480
  142.5000    81.8664     3.6783     3.7841     4.8092
  143.0000    83.3999     3.5503     3.5799     4.3541
  143.5000    79.7376     3.4511     3.3116     4.1429
  144.0000    78.2131     3.3546     3.1071     3.9699
  144.5000    78.8321     3.2609     2.9359     3.5942
  145.0000    80.6729     3.1698     2.9993     3.7274
  145.5000    81.5963     3.0573     3.0858     4.0948
  146.0000    76.8318     2.9530     3.1079     4.4144
  146.5000    72.1296     2.9114     3.0862     4.5736
  147.0000    72.1355     2.8301     2.9987     4.5732
  147.5000    73.9763     2.7510     2.8720     4.4450
  148.0000    75.2056     2.6365     2.7170     4.0530
  148.5000    73.9883     2.5268     2.5492     3.9674
  149.0000    73.3811     2.4216     2.3918     3.9390
  149.5000    74.9176     2.3208     2.2761     3.9109
  150.0000    76.7584     2.2401     2.1815     3.7211
  150.5000    78.0326     2.1930     2.0275     3.3454
  151.0000    78.8991     2.3045     1.9753     3.1385
  151.5000    79.2049     2.3876     2.0612     3.0076
  152.0000    78.8991     2.4912     2.2284     3.4909
  152.5000    77.0642     2.6365     2.4435     3.8955
  153.0000    74.6177     2.7706     2.6985     4.2582
  153.5000    71.2538     2.9621     3.0106     4.5390
  154.0000    69.1132     3.3546     3.3146     4.6697
  154.5000    69.7248     3.5755     3.5330     4.7030
  155.0000    71.5596     3.6783     3.6605     4.5390
  155.5000    73.0887     3.6523     3.6865     4.4120
  156.0000    72.1713     3.5755     3.6346     4.4434
  156.5000    70.9480     3.4942     3.5803     4.4751
  157.0000    72.4771     3.3310     3.4832     4.5713
  157.5000    75.2294     3.1923     3.3858     4.6697
  158.0000    77.6758     3.0595     3.1991     4.6039
  158.5000    77.9817     2.8909     3.0014     4.4365
  159.0000    77.9817     2.7123     2.8158     3.9385
  159.5000    78.8991     2.5792     2.6567     3.4909
  160.0000    80.1223     2.4216     2.4784     2.9443
  160.5000    81.9572     2.3373     2.3088     3.0076
  161.0000    84.4037     2.2720     2.1661     3.2060
  161.5000    86.8502     2.2560     2.0322     3.3714
  162.0000    89.2966     2.3045     1.9475     3.4174
  162.5000    90.5199     2.4074     1.9777     3.4174
  163.0000    87.7676     2.5448     2.1661     3.5158
  163.5000    84.2507     2.7316     2.4961     3.9106
  164.0000    80.7339     2.9740     2.8158     4.2281
  164.5000    78.2875     3.2609     3.1991     4.5114
  165.0000    76.4526     3.6265     3.5835     4.8041
  165.5000    74.3119     4.0387     3.9610     4.9424
  166.0000    72.4771     4.4854     4.3704     4.9776
  166.5000    71.2029     4.7469     4.6255     5.0131
  167.0000    70.9480     4.8489     4.7924     5.1941
  167.5000    71.5596     4.9531     4.8954     5.4995
  168.0000    73.3945     5.0238     4.9303     5.7775
  168.5000    76.1468     5.0595     5.0363     6.0288
  169.0000    78.8991     5.1682     5.1811     6.1149
  169.5000    81.4475     5.3167     5.3302     6.1585
  170.0000    82.5688     5.7885     5.6413     6.2465
  170.5000    80.1223     6.0399     5.8864     6.3371
  171.0000    77.9817     6.1697     6.1423     6.5646
  171.5000    77.6758     6.2587     6.2753     6.6584
  172.0000    77.9817     6.3022     6.3639     6.5182
  172.5000    79.5107     6.3022     6.4092     6.4721
  173.0000    80.7339     6.3470     6.4092     6.4263
  173.5000    80.7339     6.3470     6.4092     6.4268
