~VERSION INFORMATION
 VERS.                2.0:   CWLS LOG ASCII STANDARD - VERSION 2.0
 WRAP.                 NO:   ONE LINE PER DEPTH STEP
~WELL INFORMATION
#MNEM.UNIT      DATA TYPE    INFORMATION
#----------   ------------   ------------------------------
 STRT.F           52.5000:   START DEPTH
 STOP.F         2929.0000:   STOP DEPTH
 STEP.F            0.5000:   STEP LENGTH
 NULL.          -999.2500:   NO VALUE
 COMP.   FLUOR DANIEL INC:   COMPANY
 WELL. NAVAL PETROLEUM RESERVE 3 X-23 #52-23:   WELL
 FLD .            WILDCAT:   FIELD
 LOC .      S23 T38N R78W:   LOCATION
 CNTY.            NATRONA:   COUNTY
 STAT.            WYOMING:   STATE
 CTRY. UNITED STATES OF AMERICA:   COUNTRY
 SRVC.            Unknown:   SERVICE COMPANY
 DATE.        23-APR-1995:   LOGDATE
 API .       490252271500:   API NUMBER
~CURVE INFORMATION
#MNEM.UNIT       API CODE    CURVE DESCRIPTION
#----------   ------------   ------------------------------
 DEPT.F                  :   
 ROP .MIN/FT 91 810 01 00:   RAT OF DRILLING PENETRATION
 TGAS.UNITS  91 830 01 00:   TOTAL GAS FROM HOTWIRE
~PARAMETER INFORMATION
#MNEM.UNIT          VALUE    DESCRIPTION
#----------   ------------   ------------------------------
 EKB .F              5344:   KELLING BUSHING
 EGL .F              5334:   GROUND LEVEL
 DATE.            4-23-95:   RUN DATE
 DD  .F              2929:   DEPTH DRILLER
 CS  .IN            9.625:   CASING SIZE
 CBD .F                53:   CASING BOTTOM DRILLER
 BS  .IN             8.75:   BIT SIZE
 BSD .F              2929:   BIT SIZE AT DEPTH
 ENGI.              TOWER:   RECORDING ENGINEER
 WITN.               HUSK:   WITNESSED BY
 CLNT.            A2DTECH:   CLIENT CODE
 ORIG.           5" PRINT:   ORIGIN OF DATA
 UWI .       490252271500:   UNIQUE WELL ID
 DICO. A2D Technologies, Inc.:   DIGITIZING COMPANY
~OTHER INFORMATION
~A   DEPT        ROP     TGAS   
# ...
 1510.5000     0.6414     1.9332
 1511.0000     0.6422     1.9332
 1511.5000     0.6430     1.9332
 1512.0000     0.6437     1.9332
 1512.5000     0.6445     1.9332
 1513.0000     0.6453     1.9332
 1513.5000     0.6461     1.9332
 1514.0000     0.7823     1.9332
 1514.5000     0.7831     1.9332
 1515.0000     0.7839     1.9332
 1515.5000     0.7846     1.9332
 1516.0000     0.6188     1.9332
 1516.5000     0.6195     1.9332
 1517.0000     0.6203     1.9332
 1517.5000     0.6211     1.9332
 1518.0000     0.6219     1.9332
 1518.5000     0.6227     1.9332
 1519.0000     0.6234     1.9332
 1519.5000     0.6242     1.9332
 1520.0000     0.6253     1.9332
 1520.5000     0.6296     1.9332
 1521.0000     0.6339     1.9332
 1521.5000     0.6382     1.9332
 1522.0000     0.6426     1.9332
 1522.5000     0.7995     1.9332
 1523.0000     0.7990     1.9332
 1523.5000     0.7984     1.9332
 1524.0000     0.7979     1.9332
 1524.5000     0.9845     1.9332
 1525.0000     0.9827     1.9434
 1525.5000     0.9808     1.9853
 1526.0000     0.9789     2.0273
 1526.5000     0.9771     2.0692
 1527.0000     0.9752     2.1111
 1527.5000     0.9734     2.1480
 1528.0000     0.9715     2.1480
 1528.5000     0.6474     2.1480
 1529.0000     0.6469     2.1480
 1529.5000     0.6464     2.1456
 1530.0000     0.6458     2.1050
 1530.5000     0.6453     2.0644
 1531.0000     0.6448     2.0237
 1531.5000     0.6443     1.9831
 1532.0000     0.6437     1.9424
 1532.5000     0.6432     1.9592
 1533.0000     0.6427     1.9928
 1533.5000     0.6422     2.0265
 1534.0000     0.6417     2.0601
 1534.5000     0.6411     2.0938
 1535.0000     0.6406     2.1274
 1535.5000     0.6401     2.1611
 1536.0000     0.6396     2.1948
 1536.5000     0.6391     2.2284
 1537.0000     0.6385     2.2621
 1537.5000     0.6380     2.2957
 1538.0000     0.6375     2.3294
 1538.5000     0.6370     2.3630
 1539.0000     0.6365     2.3872
 1539.5000     0.6359     2.4114
 1540.0000     0.6355     2.4357
 1540.5000     0.6430     2.4599
 1541.0000     0.6500     2.4842
 1541.5000     0.6571     2.5084
 1542.0000     0.6641     2.5326
 1542.5000     0.8320     2.5569
 1543.0000     0.8318     2.5776
 1543.5000     0.8315     2.5227
 1544.0000     0.8312     2.4748
 1544.5000     0.8310     2.4269
 1545.0000     0.8307     2.3791
 1545.5000     0.8305     2.3214
 1546.0000     0.8302     2.2586
 1546.5000     1.0070     2.1958
 1547.0000     1.0068     2.1330
 1547.5000     1.0065     2.0701
 1548.0000     1.0062     2.0073
 1548.5000     0.7977     1.9445
 1549.0000     0.7974     1.8817
 1549.5000     0.7971     1.8189
 1550.0000     0.7969     1.7561
 1550.5000     0.7966     1.7337
 1551.0000     0.7964     1.7723
 1551.5000     0.7961     1.8109
 1552.0000     0.7958     1.8494
 1552.5000     0.6602     1.8880
 1553.0000     0.6599     1.9265
 1553.5000     0.6596     1.9651
 1554.0000     0.6594     2.0036
 1554.5000     0.6591     2.0422
 1555.0000     0.6589     2.0808
 1555.5000     0.6586     2.1193
 1556.0000     0.6583     2.1518
 1556.5000     0.6581     2.1667
 1557.0000     0.6578     2.1816
 1557.5000     0.6576     2.1965
 1558.0000     0.5427     2.2113
 1558.5000     0.5424     2.2262
 1559.0000     0.5422     2.2411
 1559.5000     0.5419     2.2560
 1560.0000     0.5414     2.2709
 1560.5000     0.5405     2.2858
 1561.0000     0.5396     2.3007
 1561.5000     0.5387     2.3155
 1562.0000     0.5378     2.3304
 1562.5000     0.5370     2.3453
 1563.0000     0.5361     2.3628
 1563.5000     0.5352     2.3281
 1564.0000     0.5343     2.2862
 1564.5000     0.5621     2.2443
 1565.0000     0.6303     2.2025
 1565.5000     0.6352     2.1606
 1566.0000     0.6400     2.1735
 1566.5000     0.6448     2.2099
 1567.0000     0.6496     2.2463
 1567.5000     0.6545     2.2828
 1568.0000     0.6593     2.3192
 1568.5000     0.8159     2.3557
 1569.0000     0.8133     2.3921
 1569.5000     0.8107     2.4285
 1570.0000     0.8080     2.4650
 1570.5000     0.8054     2.5014
 1571.0000     0.8027     2.5379
 1571.5000     0.8001     2.5776
 1572.0000     0.8570     2.5631
 1572.5000     0.9747     2.5472
 1573.0000     0.9740     2.5312
 1573.5000     0.9734     2.5153
 1574.0000     0.9728     2.4994
 1574.5000     0.9722     2.4835
 1575.0000     0.9716     2.4676
 1575.5000     0.9709     2.4517
 1576.0000     0.9703     2.4357
 1576.5000     0.9697     2.4198
 1577.0000     0.9691     2.4039
 1577.5000     0.9684     2.3880
 1578.0000     0.9677     2.3721
 1578.5000     0.7470     2.3628
 1579.0000     0.7442     2.3628
 1579.5000     0.7414     2.3628
 1580.0000     0.7393     2.3628
 1580.5000     0.7387     2.3628
 1581.0000     0.6651     2.3628
 1581.5000     0.6643     2.3628
 1582.0000     0.6635     2.3628
 1582.5000     0.6628     2.3628
 1583.0000     0.6620     2.3628
 1583.5000     0.6612     2.3628
 1584.0000     0.6604     2.3628
 1584.5000     0.8359     2.3628
 1585.0000     0.8327     2.3628
 1585.5000     0.8296     2.3628
 1586.0000     0.8264     2.3628
 1586.5000     1.0106     2.3628
 1587.0000     1.0099     2.3628
 1587.5000     1.0091     2.3628
 1588.0000     1.0083     2.3628
 1588.5000     1.0076     2.3628
 1589.0000     1.0068     2.3628
 1589.5000     1.0060     2.3628
 1590.0000     0.9734     2.3628
 1590.5000     0.5565     2.3628
 1591.0000     0.5557     2.3628
 1591.5000     0.5549     2.3628
 1592.0000     0.5542     2.3628
 1592.5000     0.5534     2.3628
 1593.0000     0.5526     2.3628
 1593.5000     0.5518     2.3628
 1594.0000     0.5510     2.3628
 1594.5000     0.5503     2.3628
 1595.0000     0.5495     2.3628
 1595.5000     0.5487     2.3628
 1596.0000     0.5479     2.3628
 1596.5000     0.5471     2.3628
 1597.0000     0.5464     2.3628
 1597.5000     0.5456     2.3628
 1598.0000     0.5448     2.3628
 1598.5000     0.5440     2.3628
 1599.0000     0.5432     2.3628
 1599.5000     0.5424     2.3628
 1600.0000     0.5418     2.3628
 1600.5000     0.5415     2.3628
 1601.0000     0.5413     2.3628
 1601.5000     0.5410     2.3628
 1602.0000     0.5407     2.3628
 1602.5000     0.5405     2.3628
 1603.0000     0.5402     2.3354
 1603.5000     0.5399     2.3019
 1604.0000     0.5397     2.2683
 1604.5000     0.5394     2.2348
 1605.0000     0.5391     2.2012
 1605.5000     0.5389     2.1677
 1606.0000     0.5386     2.1480
 1606.5000     0.5383     2.1480
 1607.0000     0.5381     2.1480
 1607.5000     0.5378     2.1480
 1608.0000     0.5375     2.1480
 1608.5000     0.5373     2.1480
 1609.0000     0.5370     2.1480
 1609.5000     0.5367     2.1480
 1610.0000     0.5365     2.1480
 1610.5000     0.5362     2.1480
 1611.0000     0.5359     2.1282
 1611.5000     0.5357     2.0978
 1612.0000     0.5354     2.0674
 1612.5000     0.5352     2.0370
 1613.0000     0.5349     2.0065
 1613.5000     0.5346     1.9761
 1614.0000     0.5344     1.9457
 1614.5000     0.5341     1.9153
 1615.0000     0.5338     1.8849
 1615.5000     0.5336     1.8545
 1616.0000     0.5333     1.8241
 1616.5000     0.5330     1.7937
 1617.0000     0.5328     1.7633
 1617.5000     0.5325     1.7329
 1618.0000     0.5322     1.7395
 1618.5000     0.5320     1.7799
 1619.0000     0.5317     1.8203
 1619.5000     0.5314     1.8607
 1620.0000     0.5312     1.9011
 1620.5000     0.5318     2.5776
 1621.0000     0.5323     4.7255
 1621.5000     0.5328     2.1480
 1622.0000     0.4501     2.7924
 1622.5000     0.3984     2.7924
 1623.0000     0.3990     2.7924
 1623.5000     0.3995     2.7924
 1624.0000     0.4000     2.7924
 1624.5000     0.4005     2.7924
 1625.0000     0.4010     2.7924
 1625.5000     0.4016     2.7924
 1626.0000     0.4021     2.7924
 1626.5000     0.4027     2.7924
 1627.0000     0.4032     2.7924
 1627.5000     0.4037     2.7924
 1628.0000     0.4042     2.7924
 1628.5000     0.4048     2.7924
 1629.0000     0.4053     2.7924
 1629.5000     0.4058     2.7924
 1630.0000     0.4063     2.7924
 1630.5000     0.4068     2.7924
 1631.0000     0.4073     2.7924
 1631.5000     0.4078     2.7924
