~VERSION INFORMATION
 VERS.                2.0:   CWLS LOG ASCII STANDARD - VERSION 2.0
 WRAP.                 NO:   ONE LINE PER DEPTH STEP
~WELL INFORMATION
#MNEM.UNIT      DATA TYPE    INFORMATION
#----------   ------------   ------------------------------
 STRT.F           43.0000:   START DEPTH
 STOP.F          973.0000:   STOP DEPTH
 STEP.F            0.5000:   STEP LENGTH
 NULL.          -999.2500:   NO VALUE
 COMP. LAWRENCE/ALLISON INC:   COMPANY
 WELL.    68-11 SX #11-11:   WELL
 FLD .           NPR NO 3:   FIELD
 LOC .      S11 T38N R78W:   LOCATION
 CNTY.            NATRONA:   COUNTY
 STAT.            WYOMING:   STATE
 CTRY. UNITED STATES OF AMERICA:   COUNTRY
 SRVC.           Gearhart:   SERVICE COMPANY
 DATE.        15-MAY-1986:   LOGDATE
 API .       490251105800:   API NUMBER
~CURVE INFORMATION
#MNEM.UNIT       API CODE    CURVE DESCRIPTION
#----------   ------------   ------------------------------
 DEPT.F                  :   
 GRN .GAPI   42 310 01 00:   GAMMA RAY FROM COMPENSATED NEUTRON LOG
 CNS .DEC    42 890 01 00:   NEUTRON POROSITY LIMESTONE
~PARAMETER INFORMATION
#MNEM.UNIT          VALUE    DESCRIPTION
#----------   ------------   ------------------------------
 PD  .                 GL:   PERMANENT DATUM
 LMF .                 KB:   LOG MEASURED FROM
 DMF .                 KB:   DRILLING MEASURED FROM
 DATE.        15-MAY-1986:   RUN DATE
 RUN .                  1:   RUN NUMBER
 DD  .F               974:   DEPTH DRILLER
 DL  .F               974:   DEPTH LOGGER
 BLI .F               973:   BOTTOM LOG INTERVAL
 TLI .F                39:   TOP LOG INTERVAL
 CS  .IN              4.5:   CASING SIZE
 BS  .IN             7.87:   BIT SIZE
 BSD .F               974:   BIT SIZE AT DEPTH
 DFT .              WATER:   DRILLING FLUID TYPE
 DFD .               8.34:   DRILLING FLUID DENSITY
 BHT .F                66:   BOTTOM HOLE TEMPERATURE
 LUN .               6084:   LOGGING UNIT NUMBER
 LUL .           GILLETTE:   LOGGING UNIT LOCATION
 ENGI.              BAUER:   RECORDING ENGINEER
 WITN.       STRONG/FIVAS:   WITNESSED BY
 CLNT.            A2DTECH:   CLIENT CODE
 ORIG.           5" PRINT:   ORIGIN OF DATA
 UWI .       490251105800:   UNIQUE WELL ID
 DICO. A2D Technologies, Inc.:   DIGITIZING COMPANY
 R1  . POROSITY WITH LIMESTONE:   REMARKS 1
~OTHER INFORMATION
~A   DEPT       GRN       CNS   
# ...
  164.5000    81.7027     0.3198
  165.0000    87.7102     0.3067
  165.5000    89.7605     0.3025
  166.0000    89.1556     0.3112
  166.5000    87.6388     0.3178
  167.0000    86.4260     0.3115
  167.5000    85.8211     0.3070
  168.0000    85.5194     0.3077
  168.5000    85.2184     0.3119
  169.0000    85.2222     0.3157
  169.5000    86.4410     0.3151
  170.0000    88.5716     0.3124
  170.5000    90.0944     0.3055
  171.0000    91.0092     0.2919
  171.5000    90.7083     0.2910
  172.0000    89.1915     0.2979
  172.5000    87.9787     0.3013
  173.0000    87.0415     0.3052
  173.5000    86.4184     0.3106
  174.0000    85.2521     0.3145
  174.5000    84.0393     0.3166
  175.0000    82.2193     0.3205
  175.5000    80.0947     0.3268
  176.0000    78.2740     0.3320
  176.5000    78.2770     0.3277
  177.0000    80.4076     0.3111
  177.5000    81.6264     0.2918
  178.0000    82.8452     0.2879
  178.5000    84.9759     0.2942
  179.0000    86.4986     0.3015
  179.5000    86.8056     0.3027
  180.0000    86.5046     0.3057
  180.5000    86.5076     0.3087
  181.0000    86.8145     0.3190
  181.5000    87.4255     0.3205
  182.0000    87.7325     0.3220
  182.5000    86.8243     0.3232
  183.0000    84.3957     0.3235
  183.5000    81.9663     0.3172
  184.0000    84.0977     0.3180
  184.5000    87.7481     0.3321
  185.0000    89.2709     0.3470
  185.5000    88.9692     0.3527
  186.0000    86.8452     0.3485
  186.5000    84.4166     0.3331
  187.0000    84.1149     0.3250
  187.5000    85.6384     0.3253
  188.0000    86.2493     0.3337
  188.5000    86.5563     0.3502
  189.0000    86.2474     0.3580
  189.5000    84.4124     0.3521
  190.0000    82.9178     0.3274
  190.5000    82.0090     0.3132
  191.0000    82.9246     0.3032
  191.5000    85.3592     0.2963
  192.0000    86.8819     0.3132
  192.5000    89.0126     0.3322
  193.0000    90.2314     0.3430
  193.5000    91.4502     0.3469
  194.0000    91.7564     0.3500
  194.5000    88.7206     0.3460
  195.0000    85.6841     0.3325
  195.5000    80.5199     0.3125
  196.0000    79.0032     0.3044
  196.5000    78.9797     0.3159
  197.0000    82.9605     0.3264
  197.5000    86.6211     0.3406
  198.0000    87.2219     0.3575
  198.5000    86.5704     0.3710
  199.0000    85.7080     0.3767
  199.5000    85.4071     0.3677
  200.0000    85.3553     0.3279
  200.5000    84.6873     0.3210
  201.0000    84.5045     0.3197
  201.5000    85.7234     0.3194
  202.0000    83.9794     0.3266
  202.5000    79.3471     0.3460
  203.0000    78.1335     0.3556
  203.5000    78.4412     0.3589
  204.0000    79.9640     0.3493
  204.5000    80.8789     0.3369
  205.0000    81.7937     0.3312
  205.5000    81.7967     0.3185
  206.0000    81.7997     0.3146
  206.5000    79.9790     0.3121
  207.0000    79.3734     0.3173
  207.5000    81.5048     0.3251
  208.0000    82.7236     0.3467
  208.5000    83.0305     0.3604
  209.0000    83.9454     0.3724
  209.5000    85.1642     0.3776
  210.0000    86.3830     0.3803
  210.5000    86.6900     0.3791
  211.0000    87.3009     0.3685
  211.5000    86.3699     0.3540
  212.0000    83.5867     0.3326
  212.5000    80.5218     0.3293
  213.0000    77.2833     0.3314
  213.5000    75.7665     0.3320
  214.0000    75.4648     0.3359
  214.5000    75.7725     0.3446
  215.0000    75.7755     0.3570
  215.5000    76.9943     0.3476
  216.0000    80.3408     0.3126
  216.5000    82.7754     0.2933
  217.0000    83.9942     0.2916
  217.5000    84.3012     0.3011
  218.0000    82.7844     0.3150
  218.5000    81.2677     0.3257
  219.0000    80.3588     0.3271
  219.5000    80.0578     0.3216
  220.0000    80.9727     0.3313
  220.5000    85.2311     0.3367
  221.0000    87.6657     0.3358
  221.5000    89.4944     0.3292
  222.0000    88.8713     0.3240
  222.5000    87.6747     0.3276
  223.0000    88.8936     0.3430
  223.5000    89.8091     0.3496
  224.0000    89.8121     0.3545
  224.5000    88.9025     0.3361
  225.0000    87.0826     0.3204
  225.5000    86.1737     0.3098
  226.0000    85.2649     0.3019
  226.5000    83.1402     0.3149
  227.0000    81.9267     0.3333
  227.5000    81.0178     0.3448
  228.0000    82.2374     0.3463
  228.5000    83.1522     0.3514
  229.0000    84.0671     0.3577
  229.5000    84.3740     0.3475
  230.0000    84.3770     0.3435
  230.5000    84.0761     0.3523
  231.0000    82.5593     0.3601
  231.5000    80.7386     0.3471
  232.0000    81.0456     0.3049
  232.5000    83.2066     0.2901
  233.0000    85.6840     0.2753
  233.5000    87.1721     0.2723
  234.0000    87.0315     0.2732
  234.5000    85.6199     0.2780
  235.0000    87.4474     0.2840
  235.5000    89.5780     0.2967
  236.0000    91.7087     0.3046
  236.5000    92.9275     0.3076
  237.0000    91.7147     0.2919
  237.5000    90.1979     0.2852
  238.0000    89.2883     0.3048
  238.5000    89.2921     0.3280
  239.0000    89.5991     0.3428
  239.5000    90.8179     0.3501
  240.0000    91.4288     0.3383
  240.5000    92.3436     0.3377
  241.0000    93.5624     0.3371
  241.5000    94.1733     0.3337
  242.0000    95.6961     0.3238
  242.5000    96.6110     0.3189
  243.0000    98.1376     0.3117
  243.5000    99.0669     0.3038
  244.0000    99.9635     0.3023
  244.5000    99.0546     0.3005
  245.0000    96.6267     0.2930
  245.5000    92.9823     0.2890
  246.0000    90.8569     0.2942
  246.5000    93.9002     0.3039
  247.0000    97.5506     0.3155
  247.5000    99.0734     0.3258
  248.0000    98.1645     0.3264
  248.5000    93.6083     0.3303
  249.0000    92.3955     0.3352
  249.5000    91.7898     0.3312
  250.0000    91.7361     0.3237
  250.5000    91.3922     0.3173
  251.0000    89.9883     0.3035
  251.5000    86.6538     0.2893
  252.0000    86.9668     0.2959
  252.5000    88.7995     0.3152
  253.0000    89.1125     0.3249
  253.5000    89.0952     0.3348
  254.0000    89.1307     0.3450
  254.5000    90.0535     0.3610
  255.0000    90.9743     0.3646
  255.5000    91.8951     0.3668
  256.0000    92.8160     0.3731
  256.5000    93.4329     0.3661
  257.0000    93.1356     0.3551
  257.5000    91.6271     0.3446
  258.0000    89.2045     0.3452
  258.5000    87.6937     0.3487
  259.0000    90.1343     0.3537
  259.5000    92.8789     0.3586
  260.0000    94.4076     0.3537
  260.5000    95.9363     0.3513
  261.0000    96.5532     0.3573
  261.5000    96.5623     0.3634
  262.0000    95.6593     0.3812
  262.5000    95.3141     0.3857
  263.0000    94.1575     0.3826
  263.5000    93.8648     0.3633
  264.0000    92.9597     0.3425
  264.5000    92.0568     0.3350
  265.0000    91.7619     0.3464
  265.5000    91.4691     0.3549
  266.0000    89.3505     0.3540
  266.5000    87.2318     0.3597
  267.0000    86.6306     0.3755
  267.5000    86.0317     0.3823
  268.0000    90.6022     0.3826
  268.5000    94.2586     0.3800
  269.0000    96.3953     0.3627
  269.5000    95.7944     0.3506
  270.0000    94.2655     0.3530
  270.5000    92.7748     0.3626
  271.0000    92.4798     0.3708
  271.5000    92.7950     0.3825
  272.0000    91.8921     0.3982
  272.5000    90.6853     0.3922
  273.0000    90.6943     0.3708
  273.5000    89.7892     0.3527
  274.0000    89.4942     0.3385
  274.5000    89.5054     0.3300
  275.0000    90.1223     0.3219
  275.5000    91.9550     0.3234
  276.0000    93.4838     0.3303
  276.5000    95.6204     0.3318
  277.0000    96.8452     0.3327
  277.5000    94.1186     0.3379
  278.0000    89.8561     0.3434
  278.5000    88.0049     0.3376
  279.0000    87.4586     0.3245
  279.5000    88.3817     0.3200
  280.0000    89.6065     0.3176
  280.5000    90.8313     0.3158
  281.0000    91.7521     0.3149
  281.5000    92.3690     0.3215
  282.0000    92.9859     0.3435
  282.5000    93.2989     0.3516
  283.0000    92.3960     0.3559
  283.5000    91.1892     0.3402
  284.0000    90.5902     0.3085
  284.5000    90.5992     0.3021
  285.0000    90.9122     0.3027
  285.5000    91.5290     0.3061
