~VERSION INFORMATION
 VERS.                2.0:   CWLS LOG ASCII STANDARD - VERSION 2.0
 WRAP.                 NO:   ONE LINE PER DEPTH STEP
~WELL INFORMATION
#MNEM.UNIT      DATA TYPE    INFORMATION
#----------   ------------   ------------------------------
 STRT.F           42.0000:   START DEPTH
 STOP.F          866.0000:   STOP DEPTH
 STEP.F            0.5000:   STEP LENGTH
 NULL.          -999.2500:   NO VALUE
 COMP. FENIX & SCISSON INC:   COMPANY
 WELL.      NPR-SX #47-11:   WELL
 FLD .             TEAPOT:   FIELD
 LOC .      S11 T38N R78W:   LOCATION
 CNTY.            NATRONA:   COUNTY
 STAT.            WYOMING:   STATE
 CTRY. UNITED STATES OF AMERICA:   COUNTRY
 SRVC.            Unknown:   SERVICE COMPANY
 DATE.        25-FEB-1978:   LOGDATE
 API .       490251058700:   API NUMBER
~CURVE INFORMATION
#MNEM.UNIT       API CODE    CURVE DESCRIPTION
#----------   ------------   ------------------------------
 DEPT.F                  :   
 SPR .MV     07 010 01 00:   SPONTANEOUS POTENTIAL
 SN  .OHMM   07 040 16 00:   SHORT NORMAL 16'
 ILD .OHMM   07 120 46 00:   INDUCTION LOG DEEP
 CORR.G/C3   45 356 01 00:   DENSITY CORRECTION
 RHOB.G/C3   45 350 01 00:   BULK DENSITY
 DPHI.DEC    45 890 12 00:   DENSITY POROSITY SANDSTONE
 CALD.IN     45 280 60 00:   CALIPER FROM DENSITY LOG
 GRD .GAPI   45 310 01 00:   GAMMA RAY FROM DENSITY LOG
~PARAMETER INFORMATION
#MNEM.UNIT          VALUE    DESCRIPTION
#----------   ------------   ------------------------------
 PD  .                 GL:   PERMANENT DATUM
 EPD .F              5202:   ELEVATION PERMANENT DATUM
 LMF .                 KB:   LOG MEASURED FROM
 DAPD.F                 4:   FEET ABOVE PERMANENT DATUM
 DMF .                 KB:   DRILLING MEASURED FROM
 EKB .F              5206:   KELLING BUSHING
 EGL .F              5202:   GROUND LEVEL
 DATE.            2-25-78:   RUN DATE
 RUN .                  1:   RUN NUMBER
 DD  .F               870:   DEPTH DRILLER
 DL  .F               870:   DEPTH LOGGER
 BLI .F               865:   BOTTOM LOG INTERVAL
 TLI .F                47:   TOP LOG INTERVAL
 CS  .IN            8.625:   CASING SIZE
 CBD .F                40:   CASING BOTTOM DRILLER
 CBL .F                47:   CASING BOTTOM LOGGER
 BS  .IN            7.875:   BIT SIZE
 BSD .F               870:   BIT SIZE AT DEPTH
 DFT .                KCL:   DRILLING FLUID TYPE
 DFD .                8.7:   DRILLING FLUID DENSITY
 DFV .                 35:   DRILLING FLUID VISCOSITY
 DFL .                4.8:   DRILLING FLUID LOSS
 MSS .         CIRCULATED:   MUD SAMPLE SOURCE
 RMS .OHMM            1.5:   RESISTIVITY MUD SAMPLE
 MST .F                70:   MUD SAMPLE TEMPERATURE
 RMF .OHMM            .75:   RESISTIVITY MUD FILTRATE SAMPLE
 MFST.F                74:   MUD FILTRATE SAMPLE TEMPERATURE
 RMC .OHMM            1.8:   RESISTIVITY MUD CAKE
 MCST.F                68:   MUD CAKE SAMPLE TEMPERATURE
 MFSS.              PRESS:   MUD FILTRATE SAMPLE SOURCE
 RMB .OHMM            1.5:   RESISTIVITY MUD AT BHT
 BHT .F                70:   BOTTOM HOLE TEMPERATURE
 TCS .HRS               2:   TIME CURCULATED STOPPED
 MRT .F                70:   MAXIMUM RECORDED TEMPERATURE
 LUN .               2958:   LOGGING UNIT NUMBER
 LUL .               CASP:   LOGGING UNIT LOCATION
 CLNT.            A2DTECH:   CLIENT CODE
 ORIG.        2" 5" PRINT:   ORIGIN OF DATA
 UWI .       490251058700:   UNIQUE WELL ID
 DICO. A2D Technologies, Inc.:   DIGITIZING COMPANY
~OTHER INFORMATION
~A   DEPT      SPR         SN        ILD       CORR       RHOB       DPHI         CALD      GRD   
# ...
  609.0000   -22.2817     6.7229     5.5565     0.0250     2.4281     0.1314     8.6091   114.8509
  609.5000   -22.2437     6.3675     5.2471     0.0106     2.4368     0.1341     8.6091   116.2693
  610.0000   -22.2527     5.8787     5.3014     0.0038     2.4396     0.1414     8.6091   117.0904
  610.5000   -22.5005     5.5374     5.3860    -0.0009     2.4332     0.1470     8.6091   118.6465
  611.0000   -22.7464     5.5888     5.3173    -0.0045     2.4192     0.1519     8.6091   117.2520
  611.5000   -22.9920     5.3365     5.2122    -0.0053     2.4120     0.1591     8.6091   115.8725
  612.0000   -23.2359     5.4494     5.1091    -0.0048     2.3970     0.1629     8.6091   113.5188
  612.5000   -23.3677     5.7300     5.0178    -0.0037     2.3837     0.1671     8.6091   110.3260
  613.0000   -22.9753     5.9621     4.9420    -0.0027     2.3813     0.1700     8.6091   112.3219
  613.5000   -22.5801     5.6038     4.8675     0.0002     2.3746     0.1544     8.6091   116.4452
  614.0000   -22.2213     5.3861     4.8246     0.0214     2.3940     0.1395     8.6091   118.7935
  614.5000   -22.3169     5.1167     4.8641     0.0009     2.4236     0.1246     8.6091   117.4453
  615.0000   -22.4226     5.0024     4.9108     0.0069     2.4275     0.1220     8.6091   116.6113
  615.5000   -22.5255     5.1430     4.8852     0.0093     2.4537     0.1163     8.6091   114.9342
  616.0000   -22.6187     5.1158     4.8377     0.0143     2.4542     0.1197     8.6091   115.0183
  616.5000   -22.3909     5.0957     4.7755     0.0149     2.4636     0.1257     8.6091   115.6088
  617.0000   -22.2699     5.9163     4.9100     0.0142     2.4556     0.1318     8.6091   115.1635
  617.5000   -22.6093     6.0789     5.2291     0.0140     2.4449     0.1216     8.6091   116.6479
  618.0000   -22.6108     6.1487     5.5704     0.0175     2.4511     0.1154     8.6091   118.7057
  618.5000   -22.6095     6.2197     5.9073     0.0202     2.4626     0.1245     8.6091   120.2330
  619.0000   -22.6096     6.2906     6.3019     0.0185     2.4646     0.1190     8.6091   121.0614
  619.5000   -22.6096     6.3627     6.2450     0.0201     2.4578     0.1285     8.6091   119.1708
  620.0000   -22.6096     6.4795     6.1168     0.0198     2.4508     0.1348     8.6091   116.2061
  620.5000   -22.6096     6.4790     5.9492     0.0195     2.4439     0.1409     8.6111   114.2058
  621.0000   -22.6096     6.4206     5.6354     0.0195     2.4228     0.1383     8.6134   112.8542
  621.5000   -22.6093     6.1342     5.3381     0.0253     2.4159     0.1333     8.6157   114.4092
  622.0000   -22.6083     5.7498     5.0488     0.0373     2.4265     0.1293     8.6180   112.4079
  622.5000   -22.6142     5.2217     4.9461     0.0128     2.4354     0.1265     8.6203   116.3983
  623.0000   -22.8107     5.0024     4.8419    -0.0009     2.4467     0.1235     8.6226   112.0793
  623.5000   -23.0186     5.1691     4.7310     0.0021     2.4526     0.1098     8.6249   108.5183
  624.0000   -23.2250     5.2875     4.7836     0.0104     2.4619     0.0989     8.6271   111.0647
  624.5000   -23.3730     5.1430     4.8795     0.0142     2.4837     0.1011     8.6292   113.0408
  625.0000   -23.1082     5.5856     4.9779     0.0145     2.4981     0.1045     8.6301   114.3863
  625.5000   -22.8406     5.9166     5.1412     0.0145     2.4946     0.0992     8.6310   112.3956
  626.0000   -22.8124     6.1615     5.4713     0.0126     2.4954     0.1036     8.6320   107.0040
  626.5000   -22.9126     6.4523     5.8226     0.0076     2.4929     0.1083     8.6329   110.7875
  627.0000   -23.0059     6.7844     6.1965     0.0057     2.4902     0.1066     8.6338   109.8052
  627.5000   -23.0086     7.0472     6.5943     0.0067     2.4881     0.1041     8.6347   108.5215
  628.0000   -23.0081     7.2099     6.8879     0.0056     2.4882     0.1093     8.6357   104.2076
  628.5000   -23.0080     7.3731     6.9802    -0.0010     2.4895     0.1121     8.6366   107.2261
  629.0000   -23.0080     7.5648     7.0737    -0.0023     2.4782     0.1091     8.6375   111.7278
  629.5000   -23.0080     7.6992     7.1685    -0.0012     2.4771     0.1064     8.6385   109.8600
  630.0000   -23.0080     7.8361     7.3057    -0.0015     2.4799     0.1166     8.6394   105.3842
  630.5000   -23.0080     7.8661     7.3021    -0.0051     2.4790     0.1093     8.6403   108.4547
  631.0000   -23.0080     7.8661     7.2958    -0.0035     2.4743     0.1073     8.6412   109.9992
  631.5000   -23.0080     7.8661     7.2896    -0.0004     2.4792     0.1103     8.6422   110.1434
  632.0000   -23.0080     7.8660     7.2833     0.0030     2.4844     0.1132     8.6431   107.7059
  632.5000   -23.0080     7.8661     7.2770     0.0018     2.4796     0.1077     8.6440   103.9472
  633.0000   -23.0079     7.8662     7.2708     0.0032     2.4809     0.1032     8.6450   102.4041
  633.5000   -23.0076     7.8911     7.2645     0.0071     2.4875     0.0988     8.6459   101.1300
  634.0000   -23.0079     7.9189     7.2582     0.0078     2.4941     0.1040     8.6468    99.4435
  634.5000   -23.0103     7.9389     7.2517     0.0042     2.4953     0.1057     8.6478    98.6764
  635.0000   -23.1766     7.9174     7.2412     0.0033     2.4901     0.1022     8.6487    97.0876
  635.5000   -23.6131     7.8977     7.2378     0.0034     2.4923     0.1065     8.6472    95.5171
  636.0000   -23.9694     7.8663     7.3859     0.0044     2.4944     0.1096     8.6454    95.9305
  636.5000   -23.5927     7.9150     7.5638     0.0011     2.4878     0.1083     8.6435    96.3145
  637.0000   -23.2233     8.0300     7.7461     0.0013     2.4792     0.1106     8.6417    95.6449
  637.5000   -23.2659     8.1475     7.9327     0.0044     2.4787     0.1130     8.6399    95.2872
  638.0000   -23.3006     8.2646     8.1622     0.0037     2.4779     0.1188     8.6381    95.0268
  638.5000   -23.0204     8.3916     8.2380     0.0009     2.4757     0.1238     8.6362    95.7963
  639.0000   -23.5316     8.3916     7.8783     0.0020     2.4618     0.1193     8.6344    97.6511
  639.5000   -23.3648     8.3937     7.1143     0.0111     2.4561     0.1220     8.6326    97.8944
  640.0000   -23.0150     8.3164     6.4242     0.0108     2.4612     0.1189     8.6309   100.0213
  640.5000   -23.1258     7.4693     5.8014     0.0165     2.4549     0.1083     8.6284    98.8968
  641.0000   -23.0558     6.6598     5.5120     0.0305     2.4704     0.1132     8.6060    96.1731
  641.5000   -22.8954     5.9379     5.2964     0.0328     2.4783     0.1029     8.5831    95.9957
  642.0000   -23.4547     5.6862     5.1907     0.0393     2.4799     0.0913     8.5499    93.4113
  642.5000   -23.9746     5.6883     5.1907     0.0465     2.5009     0.0903     8.4997    96.5117
  643.0000   -24.1543     6.0191     5.3248     0.0452     2.5169     0.0922     8.4917   101.8808
  643.5000   -24.4065     6.6750     5.4817     0.0425     2.5167     0.0979     8.4933   103.7542
  644.0000   -24.4422     7.5819     5.9327     0.0397     2.5089     0.1027     8.4952    99.3442
  644.5000   -24.3409     8.6153     6.5947     0.0369     2.5012     0.1064     8.4971    99.2542
  645.0000   -24.2911     9.1191     7.3306     0.0393     2.4908     0.1098     8.4990    93.4146
  645.5000   -24.2487     9.2290     8.1486     0.0440     2.4856     0.1083     8.5008    96.1997
  646.0000   -24.3761     9.3501     8.8698     0.0486     2.4835     0.1042     8.5027    92.8985
  646.5000   -24.8141     9.5501     9.0352     0.0572     2.4890     0.0991     8.5046    92.9059
  647.0000   -25.1899     9.6388     9.1191     0.0686     2.4984     0.1083     8.5064    93.0722
  647.5000   -25.4136     9.6138     9.0726     0.0640     2.5026     0.1018     8.5083    92.4370
  648.0000   -25.7913     9.5889     9.0333     0.0675     2.4850     0.1003     8.5093    92.4164
  648.5000   -25.5718     9.5652     8.9941     0.0745     2.4893     0.1094     8.5049    93.2834
  649.0000   -25.2782     9.5499     8.9521     0.0645     2.4907     0.1139     8.5004    94.3131
