~VERSION INFORMATION
 VERS.                2.0:   CWLS LOG ASCII STANDARD - VERSION 2.0
 WRAP.                 NO:   ONE LINE PER DEPTH STEP
~WELL INFORMATION
#MNEM.UNIT      DATA TYPE    INFORMATION
#----------   ------------   ------------------------------
 STRT.F           34.0000:   START DEPTH
 STOP.F          638.0000:   STOP DEPTH
 STEP.F            0.5000:   STEP LENGTH
 NULL.          -999.2500:   NO VALUE
 COMP. FENIX & SCISSON INC:   COMPANY
 WELL. S N.P.R. #3 #33-34:   WELL
 FLD .             TEAPOT:   FIELD
 LOC .      S34 T39N R78W:   LOCATION
 CNTY.            NATRONA:   COUNTY
 STAT.            WYOMING:   STATE
 CTRY. UNITED STATES OF AMERICA:   COUNTRY
 SRVC.       Schlumberger:   SERVICE COMPANY
 DATE.        18-MAR-1977:   LOGDATE
 API .       490251030400:   API NUMBER
~CURVE INFORMATION
#MNEM.UNIT       API CODE    CURVE DESCRIPTION
#----------   ------------   ------------------------------
 DEPT.F                  :   
 LL8 .OHMM   07 220 08 00:   LATEROLOG-8 RES.
 ILD .OHMM   07 120 46 00:   INDUCTION LOG DEEP
 ILM .OHMM   07 120 44 00:   INDUCTION LOG MEDIUM
 SPR .MV     07 010 01 00:   SPONTANEOUS POTENTIAL
 GRD .GAPI   45 310 01 00:   GAMMA RAY FROM DENSITY LOG
 CALD.IN     45 280 60 00:   CALIPER FROM DENSITY LOG
 RHOB.G/C3   45 350 01 00:   BULK DENSITY
 CORR.G/C3   45 356 01 00:   DENSITY CORRECTION
 DPHI.DEC    45 890 12 00:   DENSITY POROSITY SANDSTONE
~PARAMETER INFORMATION
#MNEM.UNIT          VALUE    DESCRIPTION
#----------   ------------   ------------------------------
 PD  .                 GL:   PERMANENT DATUM
 EPD .F              5081:   ELEVATION PERMANENT DATUM
 LMF .                 KB:   LOG MEASURED FROM
 DAPD.F                 5:   FEET ABOVE PERMANENT DATUM
 DMF .                 KB:   DRILLING MEASURED FROM
 EKB .F              5086:   KELLING BUSHING
 EGL .F              5081:   GROUND LEVEL
 DATE.            3-18-77:   RUN DATE
 RUN .                  1:   RUN NUMBER
 DD  .F               631:   DEPTH DRILLER
 DL  .F               637:   DEPTH LOGGER
 BLI .F               631:   BOTTOM LOG INTERVAL
 TLI .F                45:   TOP LOG INTERVAL
 CS  .IN            8.625:   CASING SIZE
 CBD .F                40:   CASING BOTTOM DRILLER
 CBL .F                45:   CASING BOTTOM LOGGER
 BS  .IN            7.875:   BIT SIZE
 BSD .F               631:   BIT SIZE AT DEPTH
 DFT .            KCL MUD:   DRILLING FLUID TYPE
 DFD .                8.7:   DRILLING FLUID DENSITY
 DFV .                 31:   DRILLING FLUID VISCOSITY
 DFPH.                  8:   DRILLING FLUID PH
 DFL .                8.2:   DRILLING FLUID LOSS
 MSS .                PIT:   MUD SAMPLE SOURCE
 RMS .OHMM            .27:   RESISTIVITY MUD SAMPLE
 MST .F                60:   MUD SAMPLE TEMPERATURE
 RMF .OHMM            .25:   RESISTIVITY MUD FILTRATE SAMPLE
 MFST.F                60:   MUD FILTRATE SAMPLE TEMPERATURE
 MFSS.                  M:   MUD FILTRATE SAMPLE SOURCE
 TCS .HRS            0400:   TIME CURCULATED STOPPED
 TLAB.HRS            0530:   TIME LOGGER AT BOTTOM
 LUN .               7711:   LOGGING UNIT NUMBER
 LUL .               CSPR:   LOGGING UNIT LOCATION
 ENGI.             SAYLER:   RECORDING ENGINEER
 WITN.         STUEBINGER:   WITNESSED BY
 CLNT.            A2DTECH:   CLIENT CODE
 ORIG.        2" 5" PRINT:   ORIGIN OF DATA
 UWI .       490251030400:   UNIQUE WELL ID
 DICO. A2D Technologies, Inc.:   DIGITIZING COMPANY
~OTHER INFORMATION
~A   DEPT      LL8        ILD        ILM        SPR         GRD      CALD       RHOB       CORR       DPHI   
# ...
  143.5000     7.8451     8.3125     8.1324   -46.7704    98.9446     8.2794     2.4788     0.0166     0.1043
  144.0000     8.0022     8.4540     8.2241   -47.0244    98.1187     8.2769     2.4805     0.0155     0.1010
  144.5000     8.0021     8.4077     8.1629   -47.2792    97.3983     8.2745     2.4796     0.0155     0.1041
  145.0000     7.8934     8.3115     8.0732   -47.5339    97.6358     8.2721     2.4736     0.0155     0.1090
  145.5000     7.8093     8.2164     7.9845   -47.7882    97.8302     8.2697     2.4641     0.0148     0.1142
  146.0000     7.7268     8.1224     7.8964   -48.0421    99.6028     8.2673     2.4520     0.0093     0.1198
  146.5000     7.6451     8.0294     7.8097   -48.3050   101.7619     8.2648     2.4405     0.0037     0.1274
  147.0000     7.5714     8.0005     7.7830   -48.3842   103.9422     8.2624     2.4413     0.0061     0.1225
  147.5000     7.5022     8.0973     7.8812   -48.5397   104.6059     8.2600     2.4620     0.0113     0.1157
  148.0000     7.6761     8.1872     7.9723   -48.5817   103.4502     8.2576     2.4654     0.0132     0.1136
  148.5000     7.8164     8.2782     8.0646   -48.5776   101.0750     8.2552     2.4622     0.0159     0.1151
  149.0000     8.0019     8.3701     8.1579   -48.5760    98.7232     8.2528     2.4608     0.0155     0.1158
  149.5000     8.0005     8.4540     8.2246   -48.5762    96.4857     8.2503     2.4655     0.0121     0.1090
  150.0000     8.0005     8.4540     8.2245   -48.5762    96.4156     8.2479     2.4635     0.0088     0.1094
  150.5000     7.9279     8.4540     8.2120   -48.5762    96.8046     8.2455     2.4573     0.0055     0.1152
  151.0000     7.8255     8.3414     8.0959   -48.5762    97.1944     8.2431     2.4460     0.0061     0.1193
  151.5000     7.7245     8.2189     7.9816   -48.5762    97.5959     8.2407     2.4429     0.0116     0.1226
  152.0000     7.6246     8.0983     7.8689   -48.5762    97.6141     8.2383     2.4539     0.0169     0.1184
  152.5000     7.5259     7.9794     7.7578   -48.5762    97.0720     8.2367     2.4629     0.0175     0.1142
  153.0000     7.4283     7.8549     7.6413   -48.5762    96.0974     8.2373     2.4650     0.0175     0.1143
  153.5000     7.3656     7.8549     7.6413   -48.5763    95.7195     8.2379     2.4608     0.0174     0.1154
  154.0000     7.4574     7.9052     7.6903   -48.5770    95.6239     8.2384     2.4567     0.0164     0.1164
  154.5000     7.5266     7.9496     7.7335   -48.5740    95.6311     8.2390     2.4566     0.0143     0.1173
  155.0000     7.5965     7.9943     7.7770   -48.4514    96.1777     8.2395     2.4604     0.0117     0.1158
  155.5000     7.6670     8.0392     7.8207   -48.3194    96.7888     8.2401     2.4641     0.0095     0.1144
  156.0000     7.7382     8.0847     7.8649   -48.1877    96.8236     8.2406     2.4679     0.0193     0.1129
  156.5000     7.8101     8.1304     7.9093   -48.0561    96.8198     8.2412     2.4716     0.0196     0.1083
  157.0000     7.8826     8.2110     7.9877   -47.9243    96.8184     8.2417     2.4736     0.0159     0.1084
  157.5000     7.9558     8.3173     8.0912   -47.7931    96.8210     8.2423     2.4660     0.0119     0.1119
  158.0000     8.0297     8.4256     8.1966   -47.6632    96.9793     8.2428     2.4565     0.0079     0.1153
  158.5000     8.0744     8.5353     8.3033   -47.6919    97.4859     8.2434     2.4554     0.0089     0.1173
  159.0000     8.0744     8.6465     8.4115   -47.9747    98.0273     8.2439     2.4536     0.0076     0.1177
  159.5000     8.1270     8.7591     8.5210   -48.2542    97.3103     8.2445     2.4457    -0.0015     0.1250
  160.0000     8.2563     8.8732     8.6320   -48.5334    94.4505     8.2451     2.4386     0.0030     0.1289
  160.5000     8.3876     8.9888     8.7444   -48.8117    94.3328     8.2456     2.4427     0.0071     0.1250
  161.0000     8.5210     9.1059     8.8583   -49.0793    95.4313     8.2462     2.4536     0.0030     0.1201
  161.5000     8.6565     9.2245     8.9737   -49.3321    96.7707     8.2467     2.4646     0.0046     0.1151
  162.0000     8.7943     9.3446     9.0906   -49.5629    96.3259     8.2473     2.4753     0.0088     0.1102
  162.5000     8.9344     9.4663     9.2089   -49.4880    95.6527     8.2478     2.4773     0.0126     0.1056
  163.0000     9.0762     9.5896     9.3289   -49.4058    95.8300     8.2484     2.4748     0.0138     0.1054
  163.5000     9.1901     9.7145     9.4515   -49.3252    96.1119     8.2489     2.4729     0.0144     0.1052
  164.0000     9.2185     9.8831     9.6136   -49.2448    96.3898     8.2495     2.4804     0.0175     0.1050
  164.5000     9.2469     9.7596     9.4957   -49.1645    96.5125     8.2500     2.4776     0.0200     0.1057
  165.0000     9.2667     9.5781     9.3177   -49.0842    95.3901     8.2506     2.4774     0.0220     0.1065
  165.5000     9.0407     9.3999     9.1444   -49.0039    93.6082     8.2511     2.4826     0.0220     0.1054
  166.0000     8.8660     9.2251     8.9743   -48.9236    92.5675     8.2517     2.4761     0.0167     0.1029
  166.5000     8.6950     9.0535     8.8074   -48.8433    93.1569     8.2522     2.4807     0.0115     0.1014
  167.0000     8.5656     8.8851     8.6431   -48.7630    93.7759     8.2528     2.4834     0.0063     0.1020
  167.5000     8.4761     8.7645     8.5257   -48.6827    92.8696     8.2534     2.4828     0.0011     0.1059
  168.0000     8.3875     8.7452     8.5071   -48.6024    90.9546     8.2539     2.4718    -0.0016     0.1100
  168.5000     8.2999     8.7260     8.4886   -48.5221    91.9201     8.2545     2.4592     0.0011     0.1141
  169.0000     8.2240     8.7068     8.4701   -48.4418    92.8114     8.2550     2.4560     0.0048     0.1161
  169.5000     8.2240     8.6925     8.4561   -48.3615    93.2559     8.2556     2.4528     0.0077     0.1174
  170.0000     8.2282     8.7247     8.4874   -48.2812    93.5199     8.2561     2.4474     0.0063     0.1229
  170.5000     8.2410     8.7551     8.5171   -48.2009    93.4913     8.2563     2.4417     0.0024     0.1227
  171.0000     8.2538     8.7857     8.5469   -48.1205    92.5890     8.2557     2.4361    -0.0015     0.1217
  171.5000     8.2666     8.8164     8.5767   -48.0402    92.0952     8.2551     2.4402     0.0015     0.1201
  172.0000     8.2793     8.8472     8.6067   -47.9600    94.0765     8.2546     2.4567     0.0115     0.1149
  172.5000     8.2925     8.8781     8.6368   -47.8795    96.1443     8.2541     2.4730     0.0204     0.1098
  173.0000     8.3313     8.9092     8.6669   -47.7965    97.8526     8.2535     2.4851     0.0221     0.1047
  173.5000     8.4154     8.9403     8.6972   -47.8282    97.6885     8.2529     2.4886     0.0210     0.0995
  174.0000     8.5004     8.9715     8.7276   -47.8871    96.8189     8.2524     2.4850     0.0183     0.0990
  174.5000     8.5862     9.0029     8.7581   -47.9470    95.8354     8.2519     2.4780     0.0088     0.1041
  175.0000     8.6902     9.0155     8.7704   -48.0068    95.2880     8.2513     2.4770     0.0105     0.1057
  175.5000     8.6139     9.0156     8.7705   -48.0665    95.4668     8.2507     2.4820     0.0138     0.1026
  176.0000     8.5197     9.0155     8.7704   -48.1261    95.6027     8.2502     2.4857     0.0155     0.0998
  176.5000     8.4265     9.0154     8.7704   -48.1858    95.0490     8.2497     2.4819     0.0115     0.1000
  177.0000     8.3113     9.0151     8.7704   -48.2455    94.4523     8.2491     2.4763     0.0077     0.1014
  177.5000     8.3679     9.0355     8.7903   -48.3051    94.7303     8.2486     2.4708     0.0038     0.1052
  178.0000     8.4774     9.1256     8.8778   -48.3649    95.5271     8.2480     2.4652     0.0030     0.1095
  178.5000     8.5883     9.2167     8.9662   -48.4247    96.0331     8.2474     2.4616     0.0049     0.1138
  179.0000     8.7006     9.3085     9.0554   -48.4839    95.1826     8.2469     2.4630     0.0070     0.1141
  179.5000     8.8145     9.4011     9.1455   -48.5427    93.6240     8.2464     2.4639     0.0060     0.1124
