~VERSION INFORMATION
 VERS.                2.0:   CWLS LOG ASCII STANDARD - VERSION 2.0
 WRAP.                 NO:   ONE LINE PER DEPTH STEP
~WELL INFORMATION
#MNEM.UNIT      DATA TYPE    INFORMATION
#----------   ------------   ------------------------------
 STRT.F           38.0000:   START DEPTH
 STOP.F          663.5000:   STOP DEPTH
 STEP.F            0.5000:   STEP LENGTH
 NULL.          -999.2500:   NO VALUE
 COMP. FENIX & SCISSON INC:   COMPANY
 WELL.   NPR SX #3 #35-34:   WELL
 FLD .             TEAPOT:   FIELD
 LOC .      S34 T39N R78W:   LOCATION
 CNTY.            NATRONA:   COUNTY
 STAT.            WYOMING:   STATE
 CTRY. UNITED STATES OF AMERICA:   COUNTRY
 SRVC.       Schlumberger:   SERVICE COMPANY
 DATE.        21-MAR-1977:   LOGDATE
 API .       490251031500:   API NUMBER
~CURVE INFORMATION
#MNEM.UNIT       API CODE    CURVE DESCRIPTION
#----------   ------------   ------------------------------
 DEPT.F                  :   
 SPR .MV     07 010 01 00:   SPONTANEOUS POTENTIAL
 LL8 .OHMM   07 220 08 00:   LATEROLOG-8 RES.
 ILD .OHMM   07 120 46 00:   INDUCTION LOG DEEP
 ILM .OHMM   07 120 44 00:   INDUCTION LOG MEDIUM
 CALD.IN     45 280 60 00:   CALIPER
 RHOB.G/C3   45 350 01 00:   BULK DENSITY
 DPHI.DEC    45 890 12 00:   DENSITY POROSITY SANDSTONE
 CORR.G/C3   45 356 01 00:   DENSITY CORRECTION
 GRD .GAPI   45 310 01 00:   GAMMA RAY FROM DENSITY LOG
~PARAMETER INFORMATION
#MNEM.UNIT          VALUE    DESCRIPTION
#----------   ------------   ------------------------------
 PD  .                 GL:   PERMANENT DATUM
 EPD .F              5081:   ELEVATION PERMANENT DATUM
 LMF .                 GL:   LOG MEASURED FROM
 DMF .                 KB:   DRILLING MEASURED FROM
 EKB .F              5086:   KELLING BUSHING
 EGL .F              5081:   GROUND LEVEL
 DATE.          3-21-1977:   RUN DATE
 RUN .                  1:   RUN NUMBER
 DD  .F               670:   DEPTH DRILLER
 DL  .F               665:   DEPTH LOGGER
 BLI .F               659:   BOTTOM LOG INTERVAL
 TLI .F                40:   TOP LOG INTERVAL
 CS  .IN            8.625:   CASING SIZE
 CBD .F                40:   CASING BOTTOM DRILLER
 CBL .F                40:   CASING BOTTOM LOGGER
 BS  .IN            7.875:   BIT SIZE
 BSD .F               670:   BIT SIZE AT DEPTH
 DFT .           CHEM GEL:   DRILLING FLUID TYPE
 DFV .                 33:   DRILLING FLUID VISCOSITY
 MSS .           MUD TANK:   MUD SAMPLE SOURCE
 RMS .OHMM           4.98:   RESISTIVITY MUD SAMPLE
 MST .F                53:   MUD SAMPLE TEMPERATURE
 RMF .OHMM           4.94:   RESISTIVITY MUD FILTRATE SAMPLE
 MFST.F                53:   MUD FILTRATE SAMPLE TEMPERATURE
 RMC .OHMM            2.5:   RESISTIVITY MUD CAKE
 MCST.F                53:   MUD CAKE SAMPLE TEMPERATURE
 MFSS.                  M:   MUD FILTRATE SAMPLE SOURCE
 MCSS.                  C:   MUD CAKE SAMPLE SOURCE
 RMB .OHMM              4:   RESISTIVITY MUD AT BHT
 BHT .F                65:   BOTTOM HOLE TEMPERATURE
 TCS .HRS            1000:   TIME CURCULATED STOPPED
 TLAB.HRS            1400:   TIME LOGGER AT BOTTOM
 MRT .F                65:   MAXIMUM RECORDED TEMPERATURE
 LUN .               7742:   LOGGING UNIT NUMBER
 LUL .                GLT:   LOGGING UNIT LOCATION
 ENGI.               LANE:   RECORDING ENGINEER
 WITN.              BURKE:   WITNESSED BY
 CLNT.            A2DTECH:   CLIENT CODE
 ORIG.       2", 5" PRINT:   ORIGIN OF DATA
 UWI .       490251031500:   UNIQUE WELL ID
 DICO. A2D Technologies, Inc.:   DIGITIZING COMPANY
~OTHER INFORMATION
~A   DEPT      SPR        LL8        ILD        ILM       CALD       RHOB       DPHI       CORR         GRD  
# ...
  549.0000   -32.4975    18.7541    23.7146    13.3952     8.1958     2.3013     0.2140     0.0237    48.2064
  549.5000   -32.2506    18.0343    23.2967    13.1668     8.1983     2.3038     0.2103     0.0339    51.0452
  550.0000   -31.6651    17.3421    22.8143    13.0075     8.2008     2.3016     0.2122     0.0320    53.9455
  550.5000   -30.9204    16.3958    22.3399    14.3246     8.2034     2.2994     0.2148     0.0248    56.8287
  551.0000   -30.7507    16.8735    21.8756    15.5177     8.2059     2.3062     0.2082     0.0190    59.8337
  551.5000   -31.1693    17.7926    21.4215    14.3519     8.2085     2.3221     0.2011     0.0200    59.1426
  552.0000   -31.6916    18.3116    20.9749    13.2591     8.2110     2.3322     0.1916     0.0169    57.3934
  552.5000   -32.2350    18.1627    20.7131    12.5434     8.2135     2.3331     0.1937     0.0155    55.8769
  553.0000   -32.4267    17.8623    20.5329    11.9779     8.2161     2.3382     0.1913     0.0221    55.6137
  553.5000   -32.5149    17.5668    20.3542    11.9779     8.2186     2.3445     0.1888     0.0218    54.3774
  554.0000   -32.6003    17.2763    20.1781    12.0367     8.2211     2.3287     0.1935     0.0169    53.0580
  554.5000   -32.6870    16.9905    19.9816    12.0962     8.2237     2.3265     0.1984     0.0222    54.0470
  555.0000   -32.7739    16.7094    19.7689    12.1560     8.2262     2.3191     0.2033     0.0230    58.7575
  555.5000   -32.8607    16.4330    19.5567    12.2161     8.2287     2.3108     0.2076     0.0176    63.7850
  556.0000   -32.9473    16.1612    19.3471    12.2765     8.2327     2.3510     0.1900     0.0357    68.7684
  556.5000   -33.0572    15.8916    19.1397    12.3364     8.2381     2.3581     0.1740     0.0380    72.1436
  557.0000   -33.1730    15.6546    18.9346    12.4025     8.2434     2.3875     0.1588     0.0449    68.7003
  557.5000   -33.2880    15.9808    18.7316    12.5437     8.2488     2.3733     0.1699     0.0209    65.8983
  558.0000   -33.4019    16.2932    18.5309    12.4882     8.2542     2.3591     0.1785     0.0134    68.1055
  558.5000   -33.5096    16.5441    18.3323    12.4464     8.2595     2.3501     0.1827     0.0115    70.8213
  559.0000   -33.6176    16.4168    18.1358    12.4047     8.2649     2.3282     0.1939     0.0045    73.4870
  559.5000   -33.7254    16.3104    17.9414    12.3631     8.2702     2.3269     0.2004     0.0119    71.8377
  560.0000   -33.8332    16.2423    17.8075    12.3217     8.2756     2.3308     0.1960     0.0181    69.2590
  560.5000   -33.9434    16.5643    17.7949    12.2805     8.2810     2.3257     0.1991     0.0161    66.6771
  561.0000   -34.0169    16.8564    17.7824    12.2377     8.2862     2.3252     0.1997     0.0120    64.3081
  561.5000   -34.0821    16.5258    17.7698    12.2024     8.2823     2.3350     0.1951     0.0076    64.5422
  562.0000   -34.1470    16.0169    17.7572    12.4905     8.2556     2.3470     0.1868     0.0202    67.4209
  562.5000   -34.2122    15.5123    17.7447    12.7724     8.2294     2.3572     0.1768     0.0321    70.7994
  563.0000   -34.2773    15.7436    17.7321    13.0596     8.2031     2.3343     0.1988     0.0119    69.9447
  563.5000   -34.3424    15.9419    17.7196    13.3525     8.1768     2.3272     0.1939     0.0114    69.5924
  564.0000   -34.4076    15.6336    17.7071    13.6327     8.1505     2.3449     0.1844     0.0199    68.6001
  564.5000   -34.4727    15.5298    17.6946    13.4122     8.1290     2.3371     0.1888     0.0211    65.6452
  565.0000   -34.5378    15.8306    17.6821    13.1707     8.1267     2.3365     0.1936     0.0214    62.8876
  565.5000   -34.6030    16.0924    17.6694    12.9321     8.1241     2.3412     0.1876     0.0235    64.4724
  566.0000   -34.6681    15.7208    17.6579    12.6984     8.1214     2.3366     0.1917     0.0215    66.6845
  566.5000   -34.7332    15.2738    17.6131    12.4689     8.1187     2.3314     0.1956     0.0178    66.1567
  567.0000   -34.7981    14.8099    17.4796    12.3141     8.1160     2.3355     0.1924     0.0221    66.9218
  567.5000   -34.8628    14.9667    17.3491    12.3521     8.1133     2.3617     0.1774     0.0311    70.5813
  568.0000   -34.9298    15.1370    17.2192    12.3811     8.1106     2.3698     0.1695     0.0334    73.8288
  568.5000   -35.1108    15.3092    17.0904    12.4102     8.1090     2.3609     0.1755     0.0208    73.5924
  569.0000   -35.5069    15.4834    16.9625    12.4393     8.1074     2.3618     0.1788     0.0114    71.6204
  569.5000   -35.8999    15.6597    16.8510    12.4685     8.1057     2.3685     0.1733     0.0246    70.5320
  570.0000   -36.2933    15.8385    16.8409    12.4978     8.1040     2.3693     0.1711     0.0243    69.7692
  570.5000   -36.6866    15.9455    16.8284    12.5269     8.1023     2.3593     0.1775     0.0152    73.8534
  571.0000   -37.0798    15.8126    16.8162    12.5448     8.1006     2.3535     0.1820     0.0062    78.1631
  571.5000   -37.4731    15.7040    16.8040    12.3666     8.0989     2.3619     0.1753    -0.0030    79.1241
  572.0000   -37.8663    15.5966    16.7917    12.2277     8.0972     2.3707     0.1693    -0.0043    79.9527
  572.5000   -38.2604    15.5092    16.7795    12.0889     8.0955     2.3751     0.1683     0.0066    80.4213
  573.0000   -38.6526    15.6198    16.7673    12.0522     8.0937     2.3681     0.1726     0.0159    78.7920
  573.5000   -38.9920    15.6530    16.7551    12.0153     8.0923     2.3647     0.1753     0.0112    81.1177
  574.0000   -39.1983    15.1503    16.7429    11.9785     8.0918     2.3641     0.1755     0.0157    86.1087
  574.5000   -39.4241    14.6739    16.7307    11.9418     8.0738     2.3555     0.1792     0.0119    87.5725
  575.0000   -39.6496    14.8748    16.7186    11.9052     8.0783     2.3620     0.1797     0.0083    79.6092
  575.5000   -39.8749    15.2417    16.7027    11.8687     8.0834     2.3897     0.1612     0.0045    75.6614
  576.0000   -40.1002    15.7963    16.6973    11.8327     8.0886     2.4146     0.1435     0.0101    72.1445
  576.5000   -40.3246    15.6593    16.3561    11.7961     8.0939     2.4329     0.1336     0.0192    71.1525
  577.0000   -40.5345    15.3879    16.0428    11.7588     8.0991     2.4357     0.1355     0.0264    73.4110
  577.5000   -41.1670    15.0111    15.7370    11.3549     8.1043     2.4171     0.1443     0.0176    75.7991
  578.0000   -41.8476    14.4795    15.4373    10.9528     8.1095     2.4145     0.1443     0.0236    77.4075
  578.5000   -42.5287    13.9667    15.1433    10.5649     8.1147     2.4044     0.1504     0.0128    78.9414
  579.0000   -43.2087    13.5995    14.8548    10.4198     8.1200     2.3996     0.1571     0.0094    81.2835
  579.5000   -43.7758    13.5050    14.5717    10.3026     8.1252     2.3983     0.1523     0.0047    84.0917
  580.0000   -44.1817    13.4136    14.2940    10.1867     8.1304     2.3937     0.1579    -0.0021    85.1976
  580.5000   -44.5824    13.3221    14.0221    10.0722     8.1356     2.4136     0.1435     0.0008    83.6121
  581.0000   -44.9823    13.2305    13.8789     9.9588     8.1409     2.4350     0.1319     0.0035    81.7195
  581.5000   -45.3830    13.1357    13.8630     9.8456     8.1461     2.4346     0.1332     0.0060    81.0181
  582.0000   -45.7856    13.1211    13.8472     9.7776     8.1513     2.4270     0.1390     0.0073    80.8775
  582.5000   -46.1123    13.1058    13.8313     9.8885     8.1565     2.4180     0.1442     0.0087    82.3811
  583.0000   -46.3615    13.0904    13.8155     9.9713     8.1617     2.4134     0.1447     0.0113    86.5485
  583.5000   -46.6102    13.0751    13.7997    10.0543     8.1670     2.4203     0.1390     0.0166    90.5891
  584.0000   -46.8594    13.0597    13.7839    10.1380     8.1722     2.4337     0.1327     0.0251    92.5144
  584.5000   -47.1086    13.0444    13.7681    10.2388     8.1774     2.4292     0.1355     0.0107    92.5276
  585.0000   -47.3578    13.0291    13.7524    10.0600     8.1826     2.4353     0.1287     0.0147    93.7012
