~VERSION INFORMATION
 VERS.                2.0:   CWLS LOG ASCII STANDARD - VERSION 2.0
 WRAP.                 NO:   ONE LINE PER DEPTH STEP
~WELL INFORMATION
#MNEM.UNIT      DATA TYPE    INFORMATION
#----------   ------------   ------------------------------
 STRT.F            0.0000:   START DEPTH
 STOP.F          978.0000:   STOP DEPTH
 STEP.F            0.5000:   STEP LENGTH
 NULL.          -999.2500:   NO VALUE
 COMP. FENIX & SCISSON INC:   COMPANY
 WELL. N.P.R #3 SX-14 #53:   WELL
 FLD .             TEAPOT:   FIELD
 LOC .      S14 T38N R78W:   LOCATION
 CNTY.            NATRONA:   COUNTY
 STAT.            WYOMING:   STATE
 CTRY. UNITED STATES OF AMERICA:   COUNTRY
 SRVC.              Welex:   SERVICE COMPANY
 DATE.        06-MAR-1977:   LOGDATE
 API .       490251029800:   API NUMBER
~CURVE INFORMATION
#MNEM.UNIT       API CODE    CURVE DESCRIPTION
#----------   ------------   ------------------------------
 DEPT.F                  :   
 SPR .MV     07 010 01 00:   SPONTANEOUS POTENTIAL
 SGRD.OHMM   07 220 05 00:   SHALLOW RESISTIVITY
 ILD .OHMM   07 120 46 00:   INDUCTION LOG DEEP
 ILM .OHMM   07 120 44 00:   INDUCTION LOG MEDIUM
 GRD .GAPI   45 310 01 00:   GAMMA RAY FROM DENSITY LOG
 CALD.IN     45 280 60 00:   CALIPER
 RHOB.G/C3   45 350 01 00:   BULK DENSITY
 DPHI.DEC    45 890 12 00:   DENSITY POROSITY SANDSTONE
 CORR.G/C3   45 356 01 00:   DENSITY CORRECTION
~PARAMETER INFORMATION
#MNEM.UNIT          VALUE    DESCRIPTION
#----------   ------------   ------------------------------
 PD  .                 GL:   PERMANENT DATUM
 EPD .F              5230:   ELEVATION PERMANENT DATUM
 LMF .                 GL:   LOG MEASURED FROM
 DMF .                 GL:   DRILLING MEASURED FROM
 EGL .F              5230:   GROUND LEVEL
 DATE.             3-6-77:   RUN DATE
 RUN .                  1:   RUN NUMBER
 DD  .F               989:   DEPTH DRILLER
 DL  .F               980:   DEPTH LOGGER
 BLI .F               978:   BOTTOM LOG INTERVAL
 TLI .F                50:   TOP LOG INTERVAL
 CS  .IN            8.625:   CASING SIZE
 CBD .F                42:   CASING BOTTOM DRILLER
 CBL .F                42:   CASING BOTTOM LOGGER
 BS  .IN            7.875:   BIT SIZE
 BSD .F               989:   BIT SIZE AT DEPTH
 DFT .            KCL MUD:   DRILLING FLUID TYPE
 DFD .                8.4:   DRILLING FLUID DENSITY
 DFV .                 30:   DRILLING FLUID VISCOSITY
 DFPH.                7.2:   DRILLING FLUID PH
 DFL .               14.4:   DRILLING FLUID LOSS
 MSS .            MUD PIT:   MUD SAMPLE SOURCE
 RMS .OHMM            .41:   RESISTIVITY MUD SAMPLE
 MST .F                48:   MUD SAMPLE TEMPERATURE
 RMF .OHMM            .39:   RESISTIVITY MUD FILTRATE SAMPLE
 MFST.F                48:   MUD FILTRATE SAMPLE TEMPERATURE
 RMC .OHMM            .55:   RESISTIVITY MUD CAKE
 MCST.F                48:   MUD CAKE SAMPLE TEMPERATURE
 MFSS.           FANN KIT:   MUD FILTRATE SAMPLE SOURCE
 MCSS.           FANN KIT:   MUD CAKE SAMPLE SOURCE
 RMB .OHMM            .34:   RESISTIVITY MUD AT BHT
 BHT .F                58:   BOTTOM HOLE TEMPERATURE
 TCS .HRS               2:   TIME CURCULATED STOPPED
 MRT .F                58:   MAXIMUM RECORDED TEMPERATURE
 LUN .               8611:   LOGGING UNIT NUMBER
 LUL .           GILLETTE:   LOGGING UNIT LOCATION
 ENGI.            C. DOAK:   RECORDING ENGINEER
 WITN.           S. BURKE:   WITNESSED BY
 CLNT.            A2DTECH:   CLIENT CODE
 ORIG.        2" 5" PRINT:   ORIGIN OF DATA
 UWI .       490251029800:   UNIQUE WELL ID
 DICO. A2D Technologies, Inc.:   DIGITIZING COMPANY
~OTHER INFORMATION
~A    DEPT     SPR       SGRD        ILD        ILM        GRD       CALD       RHOB       DPHI       CORR   
# ...
  328.5000   -46.5278     3.2305     2.2557     2.6730   134.3076     7.7830     2.4319     0.1291     0.0428
  329.0000   -46.5279     2.3977     2.1048     2.4219   131.3643     7.7847     2.4367     0.1276     0.0424
  329.5000   -46.5288     2.3112     2.0191     2.3780   127.6603     7.7865     2.4415     0.1260     0.0424
  330.0000   -46.4900     2.5394     2.0134     2.3325   122.3540     7.7884     2.4406     0.1263     0.0424
  330.5000   -46.4425     2.8811     2.0129     2.4236   117.2441     7.7902     2.4368     0.1275     0.0424
  331.0000   -46.3947     2.5538     2.2925     2.5485   112.1305     7.7920     2.4329     0.1286     0.0424
  331.5000   -46.3471     2.2692     2.5167     2.8963   107.0014     7.7938     2.4290     0.1298     0.0435
  332.0000   -46.2995     3.9489     2.9857     3.6240   101.9386     7.7956     2.4282     0.1309     0.0467
  332.5000   -46.2519     6.7250     3.5851     4.5501    99.8170     7.7974     2.4283     0.1319     0.0499
  333.0000   -46.2043     9.5937     4.3401     5.5229    99.6652     7.7992     2.4241     0.1327     0.0487
  333.5000   -46.1559     9.3330     5.3797     6.3375    99.4823     7.8010     2.4179     0.1370     0.0468
  334.0000   -46.0860    10.1327     6.4645     7.0285    99.2255     7.8027     2.4117     0.1415     0.0448
  334.5000   -45.9883    11.0205     7.4246     7.8737    96.8433     7.8011     2.4054     0.1461     0.0428
  335.0000   -45.8910    11.8558     8.4363     8.7492    94.3613     7.7993     2.3992     0.1506     0.0432
  335.5000   -45.7935    12.5942     8.9442     9.0878    91.8332     7.7975     2.3954     0.1518     0.0443
  336.0000   -45.6960    13.1093     9.0794     9.3307    92.7961     7.7958     2.4018     0.1474     0.0454
  336.5000   -45.5984    11.6973     8.4574     8.9465    94.6996     7.7940     2.4079     0.1431     0.0465
  337.0000   -45.5006    10.7176     7.8295     8.6677    95.5251     7.7923     2.4141     0.1387     0.0476
  337.5000   -45.4045    10.2856     7.2481     8.3977    96.3168     7.7906     2.4202     0.1357     0.0487
  338.0000   -45.3410     9.8710     6.7100     8.0220    99.1948     7.7888     2.4257     0.1344     0.0498
  338.5000   -45.3577     8.6112     6.2118     7.3824   101.5854     7.7870     2.4275     0.1331     0.0509
  339.0000   -45.3727     6.0602     5.7506     6.7939   102.5770     7.7853     2.4294     0.1318     0.0520
  339.5000   -45.3881     4.8414     5.4792     6.2466   103.5647     7.7835     2.4313     0.1305     0.0531
  340.0000   -45.4033     8.9782     5.4799     5.9533   104.5691     7.7918     2.4332     0.1289     0.0542
  340.5000   -45.4186     6.1319     5.4767     6.5543   105.4352     7.8064     2.4352     0.1274     0.0553
  341.0000   -45.4339     7.7483     5.7001     7.0239   103.7830     7.8211     2.4398     0.1259     0.0564
  341.5000   -45.4492    11.0359     5.9486     7.5259    98.9652     7.8358     2.4447     0.1244     0.0576
  342.0000   -45.4645    10.8785     6.4055     8.0630    95.0874     7.8417     2.4496     0.1228     0.0587
  342.5000   -45.4797    10.6457     6.8975     8.6392    98.0333     7.8404     2.4514     0.1213     0.0597
  343.0000   -45.4950    10.4203     7.4273     9.1436    99.7473     7.8390     2.4433     0.1226     0.0587
  343.5000   -45.5103    10.7285     7.9979     9.5126   100.4810     7.8375     2.4355     0.1264     0.0555
  344.0000   -45.5261    11.0385     8.6122     9.8965    99.8586     7.8361     2.4276     0.1309     0.0523
  344.5000   -45.5406    11.3574     9.2737    10.2958    99.0795     7.8347     2.4198     0.1354     0.0491
  345.0000   -45.4879    11.6856     9.7219    10.7114    98.8804     7.8332     2.4121     0.1399     0.0459
  345.5000   -45.3419    12.0232     9.9630    11.1439    98.8462     7.8318     2.4062     0.1444     0.0427
  346.0000   -45.3357    12.3707    10.2102    11.5933    98.8161     7.8303     2.4061     0.1462     0.0413
  346.5000   -45.3371    12.7280    10.4635    11.9921    98.7838     7.8289     2.4143     0.1398     0.0454
  347.0000   -45.3372    13.0994    10.7230    12.3166    98.7520     7.8274     2.4225     0.1347     0.0492
  347.5000   -45.3372    13.3835    10.9890    12.6500    98.7184     7.8260     2.4308     0.1300     0.0531
  348.0000   -45.3454    13.4743    11.2146    12.8708    98.9669     7.8246     2.4390     0.1264     0.0570
  348.5000   -45.3983    13.2213    11.2197    12.9131    99.4412     7.8231     2.4474     0.1227     0.0587
  349.0000   -45.4509    13.0051    11.2468    12.9570    99.8756     7.8217     2.4437     0.1235     0.0593
  349.5000   -45.5034    12.7928    11.2734    13.0012   100.0858     7.8203     2.4385     0.1248     0.0599
  350.0000   -45.5558    12.5839    11.3004    13.0455    99.0877     7.8188     2.4333     0.1261     0.0605
  350.5000   -45.6082    12.4075    11.3274    13.0899    97.6887     7.8174     2.4281     0.1274     0.0611
  351.0000   -45.6607    12.6999    11.3545    13.2427    99.5375     7.8159     2.4228     0.1283     0.0617
  351.5000   -45.7131    12.9633    11.3818    13.4829   102.0986     7.8145     2.4228     0.1281     0.0622
  352.0000   -45.7656    13.2327    11.4088    13.7275   103.9242     7.8130     2.4250     0.1279     0.0606
  352.5000   -45.8181    13.5073    11.5007    13.9764   100.4372     7.8116     2.4273     0.1277     0.0587
  353.0000   -45.8707    13.8519    11.6592    14.2388    97.6456     7.8102     2.4282     0.1276     0.0568
  353.5000   -45.9253    13.7949    11.8200    14.1076    96.7563     7.8087     2.4245     0.1310     0.0549
  354.0000   -45.8765    13.7216    11.9830    13.9797    97.5294     7.8073     2.4186     0.1354     0.0530
  354.5000   -45.8075    13.6487    12.0934    14.2460    98.3401     7.8058     2.4125     0.1397     0.0511
  355.0000   -45.7381    13.5762    12.1439    14.5044    99.0642     7.8044     2.4062     0.1443     0.0492
  355.5000   -45.6690    13.5039    12.1946    14.7715    98.3989     7.8030     2.4053     0.1443     0.0484
  356.0000   -45.6000    13.4316    12.2456    14.4663    97.7059     7.8024     2.4102     0.1423     0.0483
  356.5000   -45.5309    13.3498    12.2967    14.2545    97.0126     7.8020     2.4205     0.1356     0.0513
  357.0000   -45.4618    13.4973    12.3481    14.1277    97.1638     7.8016     2.4305     0.1281     0.0559
  357.5000   -45.3930    13.7168    12.3996    14.4995    97.9572     7.8012     2.4407     0.1240     0.0606
  358.0000   -45.3397    13.9377    12.4514    14.8084    98.6775     7.8008     2.4448     0.1227     0.0654
  358.5000   -45.1678    14.1623    12.5035    15.0453    97.3172     7.8004     2.4300     0.1298     0.0663
  359.0000   -45.1387    14.3904    12.7215    14.6204    95.8873     7.8000     2.4141     0.1389     0.0664
  359.5000   -45.1385    14.6222    13.0301    14.2253    94.4060     7.7997     2.3983     0.1481     0.0643
  360.0000   -45.1384    14.8577    13.3461    13.9797    95.1037     7.7993     2.3824     0.1572     0.0619
  360.5000   -45.1414    15.0453    13.6699    13.9797    96.5093     7.7989     2.3666     0.1664     0.0595
  361.0000   -45.1538    15.1193    14.0015    14.2684    97.9847     7.7985     2.3504     0.1755     0.0570
  361.5000   -44.9481    15.3017    14.3411    14.7318    95.5490     7.7981     2.3451     0.1814     0.0546
  362.0000   -44.9333    21.9235    14.6890    15.2101    92.6261     7.7977     2.3693     0.1674     0.0526
  362.5000   -44.8746    20.1228    15.0453    15.7041    94.2349     7.7973     2.3941     0.1471     0.0570
  363.0000   -44.8179    16.9529    15.4102    16.1922    96.9111     7.7969     2.4189     0.1336     0.0614
  363.5000   -44.7608    17.9037    15.6082    16.1922    99.4225     7.7965     2.4272     0.1283     0.0636
  364.0000   -44.7037    20.1845    15.0788    15.5794    99.1873     7.7961     2.4223     0.1322     0.0615
  364.5000   -44.6467    18.2146    14.7288    14.2039    93.3090     7.7957     2.4196     0.1351     0.0593
