~VERSION INFORMATION
 VERS.                2.0:   CWLS LOG ASCII STANDARD - VERSION 2.0
 WRAP.                 NO:   ONE LINE PER DEPTH STEP
~WELL INFORMATION
#MNEM.UNIT      DATA TYPE    INFORMATION
#----------   ------------   ------------------------------
 STRT.F           18.0000:   START DEPTH
 STOP.F          501.0000:   STOP DEPTH
 STEP.F            0.5000:   STEP LENGTH
 NULL.          -999.2500:   NO VALUE
 COMP. FENIX & SCISSON INC:   COMPANY
 WELL.     NPR-3 SX #34-3:   WELL
 FLD .             TEAPOT:   FIELD
 LOC .       S3 T38N R78W:   LOCATION
 CNTY.            NATRONA:   COUNTY
 STAT.            WYOMING:   STATE
 CTRY. UNITED STATES OF AMERICA:   COUNTRY
 SRVC.            Unknown:   SERVICE COMPANY
 DATE.        13-JUL-1978:   LOGDATE
 API .       490251066600:   API NUMBER
~CURVE INFORMATION
#MNEM.UNIT       API CODE    CURVE DESCRIPTION
#----------   ------------   ------------------------------
 DEPT.F                  :   
 SPR .MV     05 010 01 00:   SPONTANEOUS POTENTIAL FROM RES.
 SN  .OHMM   05 040 16 00:   SHORT NORMAL 16"
 ILD .OHMM   05 120 46 00:   INDUCTION LOG DEEP
 CALD.IN     45 280 60 00:   CALIPER FROM DENSITY LOG
 GRD .GAPI   45 310 01 00:   GAMMA RAY FROM DENSITY LOG
 CORR.G/C3   45 356 01 00:   DENSITY CORRECTION
 DEN .G/C3   45 350 01 00:   COMPENSATED BULK DENSTIY
 DPHI.DEC    45 890 12 00:   DENSITY POROSITY SANDSTONE
~PARAMETER INFORMATION
#MNEM.UNIT          VALUE    DESCRIPTION
#----------   ------------   ------------------------------
 PD  .                 GL:   PERMANENT DATUM
 EPD .F              5209:   ELEVATION PERMANENT DATUM
 LMF .                 KB:   LOG MEASURED FROM
 DAPD.F                 4:   FEET ABOVE PERMANENT DATUM
 DMF .                 KB:   DRILLING MEASURED FROM
 EKB .F              5213:   KELLING BUSHING
 EGL .F              5209:   GROUND LEVEL
 DATE.            7-13-78:   RUN DATE
 RUN .                  1:   RUN NUMBER
 DD  .F               500:   DEPTH DRILLER
 DL  .F               507:   DEPTH LOGGER
 BLI .F               500:   BOTTOM LOG INTERVAL
 TLI .F                30:   TOP LOG INTERVAL
 CS  .IN            8.625:   CASING SIZE
 CBL .F                30:   CASING BOTTOM LOGGER
 BS  .IN            7.875:   BIT SIZE
 BSD .F               500:   BIT SIZE AT DEPTH
 DFT .                KCL:   DRILLING FLUID TYPE
 DFD .                8.6:   DRILLING FLUID DENSITY
 DFV .                 32:   DRILLING FLUID VISCOSITY
 DFPH.                  9:   DRILLING FLUID PH
 DFL .               12.2:   DRILLING FLUID LOSS
 MSS .          FLOW LINE:   MUD SAMPLE SOURCE
 RMS .OHMM            .22:   RESISTIVITY MUD SAMPLE
 MST .F                80:   MUD SAMPLE TEMPERATURE
 RMF .OHMM            .19:   RESISTIVITY MUD FILTRATE SAMPLE
 MFST.F                88:   MUD FILTRATE SAMPLE TEMPERATURE
 RMC .OHMM            .38:   RESISTIVITY MUD CAKE
 MCST.F                84:   MUD CAKE SAMPLE TEMPERATURE
 MFSS.               MEAS:   MUD FILTRATE SAMPLE SOURCE
 BHT .F                76:   BOTTOM HOLE TEMPERATURE
 TCS .HRS               1:   TIME CURCULATED STOPPED
 MRT .F                76:   MAXIMUM RECORDED TEMPERATURE
 LUN .               2958:   LOGGING UNIT NUMBER
 LUL .               CASP:   LOGGING UNIT LOCATION
 ENGI.             MILLER:   RECORDING ENGINEER
 WITN.           MCGINLEY:   WITNESSED BY
 CLNT.            A2DTECH:   CLIENT CODE
 ORIG. 2", 2.5", 5" PRINT:   ORIGIN OF DATA
 UWI .       490251066600:   UNIQUE WELL ID
 DICO. A2D Technologies, Inc.:   DIGITIZING COMPANY
~OTHER INFORMATION
~A   DEPT      SPR         SN        ILD       CALD        GRD       CORR        DEN       DPHI   
# ...
  423.0000   -20.5246    17.7779    26.6615     7.6468    62.3187     0.0210     2.3549     0.2013
  423.5000   -20.5086    17.7796    26.6740     7.6484    62.1778     0.0167     2.3436     0.2015
  424.0000   -20.4926    17.7814    26.8710     7.6500    62.1925     0.0139     2.3460     0.2030
  424.5000   -20.4766    17.7831    26.8837     7.6366    62.2043     0.0111     2.3453     0.2003
  425.0000   -20.3118    17.7897    26.8963     7.6233    62.2161     0.0128     2.3410     0.1960
  425.5000   -20.2959    17.8028    26.7211     7.6089    61.9284     0.0160     2.3456     0.2002
  426.0000   -20.2768    17.6886    26.5529     7.5967    59.2456     0.0222     2.3614     0.1953
  426.5000   -20.1146    17.7020    25.6663     7.5987    55.2091     0.0269     2.3458     0.1923
  427.0000   -19.9463    17.4703    24.6164     7.6152    55.9790     0.0239     2.3504     0.2013
  427.5000   -19.9303    17.4809    23.8157     7.6168    59.9626     0.0150     2.3573     0.2015
  428.0000   -19.7655    17.3688    24.6648     7.4989    58.9962     0.0065     2.3454     0.1985
  428.5000   -19.7495    17.2622    24.6764     7.4702    57.9601     0.0067     2.3455     0.1945
  429.0000   -19.7335    17.1545    24.5156     7.4569    56.6245     0.0098     2.3464     0.1909
  429.5000   -19.7176    17.1649    24.1944     7.4589    55.5884     0.0115     2.3532     0.1888
  430.0000   -19.7016    17.1756    23.7107     7.4605    55.2978     0.0147     2.3593     0.1860
  430.5000   -19.6856    16.8367    23.5562     7.4472    55.3125     0.0179     2.3685     0.1794
  431.0000   -19.6696    16.5023    23.7330     7.4488    55.6237     0.0226     2.3738     0.1711
  431.5000   -19.6533    16.0635    23.7442     7.4504    56.2343     0.0273     2.3874     0.1614
  432.0000   -19.6337    15.7444    23.0993     7.4670    56.9946     0.0275     2.4041     0.1522
  432.5000   -19.7705    15.8629    22.4922     7.4701    57.7548     0.0212     2.4259     0.1552
  433.0000   -19.7505    15.8725    22.0425     7.5027    58.6648     0.0114     2.4328     0.1615
  433.5000   -19.7345    16.1024    22.3614     7.5918    59.5783     0.0071     2.4275     0.1825
  434.0000   -19.7185    16.2236    22.5266     7.5934    59.9002     0.0043     2.3983     0.1914
  434.5000   -19.7026    16.0105    22.5372     7.5950    60.0479     0.0045     2.3814     0.2013
  435.0000   -19.6866    15.5751    22.5478     7.5966    60.0621     0.0062     2.3476     0.1967
  435.5000   -19.6706    15.3816    21.4964     7.5829    59.9213     0.0064     2.3480     0.1931
  436.0000   -19.6546    15.3932    20.7784     7.5401    59.7833     0.0035     2.3562     0.2051
  436.5000   -19.6384    15.4025    20.0843     7.5263    59.6454    -0.0038     2.3451     0.2068
  437.0000   -19.4738    14.9907    19.6739     7.5283    59.5075    -0.0020     2.3362     0.1993
  437.5000   -19.7515    15.0021    19.2675     7.5300    60.1210     0.0029     2.3430     0.1974
  438.0000   -19.7355    15.2194    19.1658     7.5166    62.3783     0.0059     2.3507     0.1947
  438.5000   -19.7195    15.0180    19.1771     7.4883    64.0367     0.0061     2.3530     0.1938
  439.0000   -19.7035    14.6206    19.1861     7.4750    64.1982     0.0062     2.3501     0.1962
  439.5000   -19.8403    14.5292    19.7314     7.4767    64.9585     0.0094     2.3555     0.2018
  440.0000   -19.8204    14.5382    20.2922     7.4786    65.5691     0.0126     2.3526     0.2014
  440.5000   -19.9539    14.5472    20.3018     7.4803    64.6812     0.0188     2.3474     0.1975
  441.0000   -19.9372    14.5579    20.0334     7.4819    61.3134     0.0265     2.3513     0.1897
  441.5000   -19.9211    14.2687    20.0428     7.4984    59.5738     0.0372     2.3589     0.1842
  442.0000   -19.9048    13.8872    19.9056     7.5300    57.3855     0.0465     2.3891     0.1905
  442.5000   -19.8853    13.8977    19.4945     7.5914    56.0500     0.0366     2.3524     0.1968
  443.0000   -19.8693    13.9062    19.3916     7.6976    56.5109     0.0123     2.3465     0.1889
  443.5000   -19.8533    13.5364    19.6722     7.5942    59.0676     0.0110     2.3639     0.1838
  444.0000   -19.8373    13.1761    18.6261     7.5962    61.3248     0.0127     2.3677     0.1816
  444.5000   -19.8213    12.8260    17.7555     7.5828    62.0851     0.0129     2.3739     0.1753
  445.0000   -19.8053    12.6583    17.5208     7.5845    63.4442     0.0108     2.3803     0.1663
  445.5000   -19.9422    12.5680    16.8213     7.5711    64.3542     0.0077     2.3983     0.1677
  446.0000   -20.2202    12.4144    15.9268     7.5728    64.6653     0.0045     2.4036     0.1678
  446.5000   -20.3527    12.3366    15.5012     7.5744    63.7789     0.0019     2.4097     0.1655
  447.0000   -20.3363    12.1752    15.3951     7.5764    63.1916    -0.0009     2.4061     0.1702
  447.5000   -20.3167    12.0989    15.0941     7.5780    63.0539    -0.0053     2.4017     0.1721
  448.0000   -20.4495    11.9406    14.8946     7.5796    62.4511    -0.0081     2.3980     0.1729
  448.5000   -20.8839    11.8658    14.6977     7.5812    60.4832    -0.0095     2.3943     0.1717
  449.0000   -21.4592    11.8748    14.5034     7.5829    59.0367    -0.0093     2.3937     0.1707
  449.5000   -21.7408    11.8002    14.5119     7.5691    59.9525    -0.0091     2.3953     0.1704
  450.0000   -22.0265    11.6460    14.3207     7.5725    64.3114    -0.0090     2.3946     0.1677
  450.5000   -22.0096    11.4771    13.9380     7.5832    64.3289    -0.0073     2.3917     0.1619
  451.0000   -22.1458    11.3082    13.7522     7.5749    65.0994    -0.0072     2.4000     0.1592
  451.5000   -22.2812    11.1157    13.9512     7.5768    66.9133    -0.0055     2.4069     0.1567
  452.0000   -22.2679    11.0468    13.7668     7.5788    67.8247    -0.0054     2.4152     0.1558
  452.5000   -22.4035    11.0528    13.4916     7.5811    65.7508    -0.0037     2.4221     0.1633
  453.0000   -22.3904    10.9829    13.3133     7.5830    62.6247    -0.0006     2.4153     0.1530
  453.5000   -22.6716    10.9888    13.2280     7.5849    59.9476     0.0011     2.4117     0.1440
  454.0000   -22.9561    10.9947    13.2344     7.5569    60.4143     0.0027     2.4388     0.1403
  454.5000   -22.9430    11.0007    13.2407     7.5434    62.3779     0.0028     2.4517     0.1361
  455.0000   -22.9299    10.9308    13.1560     7.5457    63.8925     0.0030     2.4540     0.1337
  455.5000   -22.9168    10.9369    13.1638     7.5476    64.5090     0.0016     2.4579     0.1321
  456.0000   -22.7549    10.9428    13.1700     7.5495    64.2270    -0.0012     2.4632     0.1315
  456.5000   -22.7417    10.9489    13.1762     7.5514    64.8478    -0.0026     2.4634     0.1341
  457.0000   -22.7044    10.9549    13.1824     7.5534    65.1647    -0.0039     2.4611     0.1377
  457.5000   -22.7158    10.9621    13.1887     7.5557    64.7332    -0.0053     2.4558     0.1423
  458.0000   -23.0000    10.9680    13.1028     7.5575    65.3495    -0.0051     2.4441     0.1376
  458.5000   -23.1357    10.9739    13.0190     7.5594    67.3132    -0.0049     2.4517     0.1430
  459.0000   -23.4444    10.9030    12.9357     7.5459    66.8816    -0.0048     2.4525     0.1445
  459.5000   -23.7047    10.9103    12.9434     7.5483    66.0010    -0.0032     2.4473     0.1438
  460.0000   -23.8404    10.9162    12.8606     7.5502    66.9167    -0.0030     2.4422     0.1369
  460.5000   -23.8240    10.9221    12.8667     7.5521    67.6828    -0.0014     2.4430     0.1314
  461.0000   -23.8109    10.8528    12.8729     7.5390    68.1497     0.0003     2.4581     0.1308
  461.5000   -23.7977    10.8589    12.8791     7.5410    68.3174     0.0005     2.4619     0.1302
  462.0000   -23.7846    10.8647    12.8865     7.5433    67.7399     0.0006     2.4620     0.1316
  462.5000   -23.7715    10.8707    12.8925     7.5452    65.5119     0.0008     2.4621     0.1292
  463.0000   -23.7584    10.8767    12.8986     7.5471    64.6269     0.0009     2.4630     0.1255
