~VERSION INFORMATION
 VERS.                2.0:   CWLS LOG ASCII STANDARD - VERSION 2.0
 WRAP.                 NO:   ONE LINE PER DEPTH STEP
~WELL INFORMATION
#MNEM.UNIT      DATA TYPE    INFORMATION
#----------   ------------   ------------------------------
 STRT.F           30.0000:   START DEPTH
 STOP.F         1358.0000:   STOP DEPTH
 STEP.F            0.5000:   STEP LENGTH
 NULL.          -999.2500:   NO VALUE
 COMP. FENIX & SCISSON INC:   COMPANY
 WELL.      3 SX14 #85-14:   WELL
 FLD .             TEAPOT:   FIELD
 LOC .      S14 T38N R78W:   LOCATION
 CNTY.            NATRONA:   COUNTY
 STAT.            WYOMING:   STATE
 CTRY. UNITED STATES OF AMERICA:   COUNTRY
 SRVC.              Welex:   SERVICE COMPANY
 DATE.        10-FEB-1977:   LOGDATE
 API .       490251027500:   API NUMBER
~CURVE INFORMATION
#MNEM.UNIT       API CODE    CURVE DESCRIPTION
#----------   ------------   ------------------------------
 DEPT.F                  :   
 ILM .OHMM   07 120 44 00:   INDUCTION LOG MEDIUM
 ILD .OHMM   07 120 46 00:   INDUCTION LOG DEEP
 CALD.IN     45 280 60 00:   CALIPER
 GRD .GAPI   45 310 01 00:   GAMMA RAY FROM DENSITY LOG
 RHOB.G/C3   45 350 01 00:   BULK DENSITY
 DPHI.DEC    45 890 12 00:   DENSITY POROSITY SANDSTONE
 CORR.G/C3   45 356 01 00:   DENSITY CORRECTION
~PARAMETER INFORMATION
#MNEM.UNIT          VALUE    DESCRIPTION
#----------   ------------   ------------------------------
 PD  .                 GL:   PERMANENT DATUM
 EPD .F              5345:   ELEVATION PERMANENT DATUM
 LMF .                 GL:   LOG MEASURED FROM
 DMF .                 GL:   DRILLING MEASURED FROM
 EGL .F              5345:   GROUND LEVEL
 DATE.          2-10-1977:   RUN DATE
 RUN .                  1:   RUN NUMBER
 DD  .F              1362:   DEPTH DRILLER
 DL  .F              1361:   DEPTH LOGGER
 BLI .F              1359:   BOTTOM LOG INTERVAL
 TLI .F                43:   TOP LOG INTERVAL
 CS  .IN            8.625:   CASING SIZE
 CBD .F                43:   CASING BOTTOM DRILLER
 CBL .F                43:   CASING BOTTOM LOGGER
 BS  .IN            7.875:   BIT SIZE
 BSD .F              1362:   BIT SIZE AT DEPTH
 DFT .           AIR MIST:   DRILLING FLUID TYPE
 TCS .HRS               4:   TIME CURCULATED STOPPED
 MRT .F               104:   MAXIMUM RECORDED TEMPERATURE
 LUN .               8611:   LOGGING UNIT NUMBER
 LUL .           GILLETTE:   LOGGING UNIT LOCATION
 ENGI.               DOAK:   RECORDING ENGINEER
 WITN. PETTINGILL/STUEBINGER:   WITNESSED BY
 CLNT.            A2DTECH:   CLIENT CODE
 ORIG.       2", 5" PRINT:   ORIGIN OF DATA
 UWI .       490251027500:   UNIQUE WELL ID
 DICO. A2D Technologies, Inc.:   DIGITIZING COMPANY
~OTHER INFORMATION
~A   DEPT      ILM        ILD         CALD      GRD         RHOB     DPHI        CORR  
   30.0000  -999.2500  -999.2500     8.0558  -999.2500     2.0545  -999.2500    -0.3911
   30.5000  -999.2500  -999.2500     8.0841  -999.2500     2.0459  -999.2500    -0.3902
   31.0000  -999.2500  -999.2500     8.1166  -999.2500     2.0350  -999.2500    -0.3837
   31.5000  -999.2500  -999.2500     8.1071   100.5129     2.0241  -999.2500    -0.3766
   32.0000  -999.2500  -999.2500     8.1000    98.3501     2.0132  -999.2500    -0.3699
   32.5000  -999.2500  -999.2500     8.0904    97.1470     2.0003  -999.2500    -0.3597
   33.0000  -999.2500  -999.2500     8.0808    96.7935     1.9705  -999.2500    -0.3495
   33.5000  -999.2500  -999.2500     8.0713    96.7935     1.9398  -999.2500    -0.3401
   34.0000  -999.2500  -999.2500     8.0617    96.7960     1.9087  -999.2500    -0.3307
   34.5000  -999.2500  -999.2500     8.0561    97.3587     1.8772  -999.2500    -0.3110
   35.0000  -999.2500  -999.2500     8.0785    98.3600     1.8475  -999.2500    -0.2905
   35.5000  -999.2500  -999.2500     8.1022    99.3613     1.8292  -999.2500    -0.2700
   36.0000  -999.2500  -999.2500     8.1259   100.3625     1.8097  -999.2500    -0.2484
   36.5000  -999.2500  -999.2500     8.1496   101.8690     1.7976  -999.2500    -0.2223
   37.0000  -999.2500  -999.2500     8.1733   103.4901     1.8174  -999.2500    -0.1785
   37.5000  -999.2500  -999.2500     8.1969   105.1124     2.0056  -999.2500    -0.1171
   38.0000  -999.2500  -999.2500     8.2208   106.7387     2.2189  -999.2500    -0.0483
   38.5000  -999.2500  -999.2500     8.2440   108.3669     2.3709     0.1636     0.0265
   39.0000  -999.2500  -999.2500     8.2608   109.9843     2.4085     0.1554     0.0431
   39.5000  -999.2500  -999.2500     8.2865   111.5861     2.4104     0.1552     0.0485
   40.0000  -999.2500  -999.2500     8.2916   112.1454     2.4073     0.1549     0.0479
   40.5000  -999.2500  -999.2500     8.2975   111.0785     2.4098     0.1558     0.0469
   41.0000  -999.2500  -999.2500     8.3030   110.0248     2.4156     0.1523     0.0467
   41.5000  -999.2500  -999.2500     8.3085   108.9516     2.4214     0.1487     0.0467
   42.0000  -999.2500  -999.2500     8.3140   107.8476     2.4248     0.1451     0.0467
   42.5000  -999.2500  -999.2500     8.3195   108.6966     2.4272     0.1455     0.0466
   43.0000     2.4135     0.8777     8.3244   109.9002     2.4208     0.1485     0.0471
   43.5000     3.3574     0.3503     8.3242   111.5132     2.4099     0.1541     0.0485
   44.0000     4.8045     0.2736     8.3186   114.4685     2.3994     0.1597     0.0441
   44.5000     5.0163     0.2326     8.3132   117.3415     2.3888     0.1654     0.0397
   45.0000     5.2870     0.3242     8.3078   118.8040     2.3834     0.1708     0.0384
   45.5000     5.3901     0.4905     8.3030   120.0263     2.3845     0.1709     0.0390
   46.0000     5.4953     0.6405     8.3207   121.5461     2.3857     0.1711     0.0405
   46.5000     5.6025     1.2669     8.3409   122.2376     2.3856     0.1690     0.0421
   47.0000     5.6699     3.0468     8.3613   119.9096     2.3836     0.1707     0.0435
   47.5000     5.5452     5.0307     8.3817   118.1048     2.3818     0.1723     0.0451
   48.0000     5.4567     4.8489     8.4021   116.2908     2.3788     0.1734     0.0465
   48.5000     5.3695     4.7256     8.4224   114.4760     2.3754     0.1720     0.0481
   49.0000     5.3162     4.6737     8.4433   112.6441     2.3732     0.1744     0.0479
   49.5000     5.3961     4.8446     8.4495   111.0412     2.3662     0.1776     0.0464
   50.0000     5.5275     4.9846     8.4543   109.4852     2.3568     0.1821     0.0448
   50.5000     5.6180     4.8489     8.4587   107.9326     2.3557     0.1849     0.0432
   51.0000     5.4094     4.7169     8.4631   106.3774     2.3584     0.1835     0.0417
   51.5000     5.2743     4.6262     8.4681   104.8405     2.3613     0.1822     0.0401
   52.0000     5.1427     4.5663     8.4504   103.8747     2.3642     0.1808     0.0386
   52.5000     5.1241     4.5073     8.4234   104.6959     2.3664     0.1795     0.0360
   53.0000     5.3162     4.4489     8.3962   105.4714     2.3598     0.1815     0.0333
   53.5000     5.0905     4.3914     8.3690   106.1552     2.3531     0.1852     0.0306
   54.0000     4.8489     4.3346     8.3418   104.9173     2.3421     0.1915     0.0280
   54.5000     4.6737     4.3023     8.3145   103.2805     2.3303     0.1982     0.0251
   55.0000     4.5465     4.3023     8.2873   101.6471     2.3277     0.1996     0.0223
   55.5000     4.4901     4.2694     8.2888   100.0226     2.3299     0.1981     0.0195
   56.0000     4.4384     4.2044     8.3020    98.5733     2.3322     0.1965     0.0167
   56.5000     4.3874     4.1404     8.3153    97.8904     2.3377     0.1950     0.0138
   57.0000     4.3368     4.0773     8.3286    97.1755     2.3479     0.1907     0.0185
   57.5000     4.2869     4.0152     8.3419    96.9022     2.3579     0.1848     0.0246
   58.0000     4.2238     3.9604     8.3551    96.9218     2.3677     0.1788     0.0307
   58.5000     4.2629     3.9956     8.3662    97.8472     2.3740     0.1741     0.0367
   59.0000     4.3382     3.9959     8.3614    98.7109     2.3539     0.1845     0.0392
   59.5000     4.4148     4.1006     8.3560   101.2493     2.3317     0.1932     0.0359
   60.0000     4.4928     4.2090     8.3505   104.1524     2.3222     0.2018     0.0326
   60.5000     4.5722     4.2238     8.3452   104.5605     2.3193     0.2066     0.0293
   61.0000     4.6737     4.1824     8.3458   104.3558     2.3164     0.2064     0.0261
   61.5000     4.6279     4.1371     8.3510   104.1277     2.3166     0.2071     0.0271
   62.0000     4.5672     4.0921     8.3562   103.9017     2.3205     0.2051     0.0284
   62.5000     4.5072     4.0477     8.3613   103.5395     2.3251     0.2026     0.0296
   63.0000     4.4481     4.0038     8.3665   102.4434     2.3298     0.2002     0.0309
   63.5000     4.3897     3.9595     8.3716   101.3429     2.3344     0.1977     0.0321
   64.0000     4.3321     3.8867     8.3767   101.0189     2.3391     0.1953     0.0334
   64.5000     4.2753     3.8889     8.3819   101.6809     2.3437     0.1928     0.0353
   65.0000     4.2192     3.8670     8.3870   102.3191     2.3470     0.1905     0.0388
   65.5000     4.1638     3.8495     8.3921   102.9609     2.3489     0.1889     0.0422
   66.0000     4.1468     3.8321     8.3973   103.6002     2.3509     0.1873     0.0458
   66.5000     4.1767     3.8172     8.4025   104.3288     2.3536     0.1858     0.0457
   67.0000     4.2037     3.8322     8.4067   104.6615     2.3589     0.1842     0.0445
   67.5000     4.2309     3.8453     8.3997   104.5083     2.3678     0.1794     0.0432
   68.0000     4.2583     3.8585     8.3929   104.3609     2.3774     0.1742     0.0419
   68.5000     4.2859     3.8716     8.3862   104.2118     2.3833     0.1691     0.0406
   69.0000     4.3136     3.8909     8.3794   104.8378     2.3880     0.1651     0.0371
   69.5000     4.3415     3.8844     8.3727   106.3374     2.3926     0.1629     0.0342
   70.0000     4.3697     4.0033     8.3660   107.8319     2.3972     0.1629     0.0342
   70.5000     4.3980     4.0533     8.3592   108.7345     2.3954     0.1633     0.0338
   71.0000     4.4264     4.0996     8.3525   109.4578     2.3926     0.1643     0.0318
   71.5000     4.4551     4.1468     8.3458   108.9990     2.3897     0.1656     0.0298
   72.0000     4.4839     4.1946     8.3390   108.5189     2.3871     0.1684     0.0278
   72.5000     4.5129     4.2238     8.3323   107.8494     2.3809     0.1716     0.0259
   73.0000     4.5462     4.2097     8.3255   106.9128     2.3743     0.1747     0.0239
   73.5000     4.4963     4.1510     8.3244   105.9796     2.3676     0.1779     0.0219
   74.0000     4.4386     4.0931     8.3244   105.0364     2.3610     0.1811     0.0200
   74.5000     4.3815     4.0360     8.3244   104.1442     2.3562     0.1842     0.0180
   75.0000     4.3251     3.9797     8.3244   105.4912     2.3526     0.1867     0.0160
