~VERSION INFORMATION
 VERS.                2.0:   CWLS LOG ASCII STANDARD - VERSION 2.0
 WRAP.                 NO:   ONE LINE PER DEPTH STEP
~WELL INFORMATION
#MNEM.UNIT      DATA TYPE    INFORMATION
#----------   ------------   ------------------------------
 STRT.F           40.0000:   START DEPTH
 STOP.F          596.0000:   STOP DEPTH
 STEP.F            0.5000:   STEP LENGTH
 NULL.          -999.2500:   NO VALUE
 COMP. FENIX & SCISSON INC:   COMPANY
 WELL. SX-15 N.O.R. #3 #51-15:   WELL
 FLD .             TEAPOT:   FIELD
 LOC .      S15 T38N R78W:   LOCATION
 CNTY.            NATRONA:   COUNTY
 STAT.            WYOMING:   STATE
 CTRY. UNITED STATES OF AMERICA:   COUNTRY
 SRVC.              Welex:   SERVICE COMPANY
 DATE.        12-MAR-1977:   LOGDATE
 API .       490251031100:   API NUMBER
~CURVE INFORMATION
#MNEM.UNIT       API CODE    CURVE DESCRIPTION
#----------   ------------   ------------------------------
 DEPT.F                  :   
 GRD .GAPI   45 310 01 00:   GAMMA RAY FROM DENSITY LOG
 CALD.IN     45 280 60 00:   CALIPER FROM DENSITY LOG
 CORR.G/C3   45 356 01 00:   DENSITY CORRECTION
 RHOB.G/C3   45 350 01 00:   BULK DENSITY
 DPOR.DEC    45 890 12 00:   DENSITY POROSITY SANDSTONE
 SGRD.OHMM   07 220 05 00:   SHALLOW GUARD RESISTIVITY
 ILD .OHMM   07 120 46 00:   INDUCTION LOG DEEP
 ILM .OHMM   07 120 44 00:   INDUCTION LOG MEDIUM
 SPR .MV     07 010 01 00:   SPONTANEOUS POTENTIAL
~PARAMETER INFORMATION
#MNEM.UNIT          VALUE    DESCRIPTION
#----------   ------------   ------------------------------
 PD  .                 GL:   PERMANENT DATUM
 EPD .F              5221:   ELEVATION PERMANENT DATUM
 LMF .                 GL:   LOG MEASURED FROM
 DMF .                 GL:   DRILLING MEASURED FROM
 EGL .F              5221:   GROUND LEVEL
 DATE.            3-12-77:   RUN DATE
 RUN .                  1:   RUN NUMBER
 DD  .F               600:   DEPTH DRILLER
 DL  .F               597:   DEPTH LOGGER
 BLI .F               596:   BOTTOM LOG INTERVAL
 TLI .F                45:   TOP LOG INTERVAL
 CS  .IN            8.625:   CASING SIZE
 CBD .F                46:   CASING BOTTOM DRILLER
 CBL .F                45:   CASING BOTTOM LOGGER
 BS  .IN            7.875:   BIT SIZE
 BSD .F               600:   BIT SIZE AT DEPTH
 DFT .            KCL-MUD:   DRILLING FLUID TYPE
 DFD .                8.9:   DRILLING FLUID DENSITY
 DFV .                 34:   DRILLING FLUID VISCOSITY
 MSS .            MUD PIT:   MUD SAMPLE SOURCE
 RMS .OHMM            .68:   RESISTIVITY MUD SAMPLE
 MST .F                40:   MUD SAMPLE TEMPERATURE
 RMF .OHMM            .57:   RESISTIVITY MUD FILTRATE SAMPLE
 MFST.F                40:   MUD FILTRATE SAMPLE TEMPERATURE
 RMC .OHMM            .78:   RESISTIVITY MUD CAKE
 MCST.F                40:   MUD CAKE SAMPLE TEMPERATURE
 MFSS.           MEASURED:   MUD FILTRATE SAMPLE SOURCE
 MCSS.           MEASURED:   MUD CAKE SAMPLE SOURCE
 RMB .OHMM            .41:   RESISTIVITY MUD AT BHT
 BHT .F                65:   BOTTOM HOLE TEMPERATURE
 TCS .HRS               3:   TIME CURCULATED STOPPED
 MRT .F                65:   MAXIMUM RECORDED TEMPERATURE
 LUN .                716:   LOGGING UNIT NUMBER
 LUL .             VERNAL:   LOGGING UNIT LOCATION
 ENGI.           CALLAHAN:   RECORDING ENGINEER
 WITN.         STUEBINGER:   WITNESSED BY
 CLNT.            A2DTECH:   CLIENT CODE
 ORIG.       2", 5" PRINT:   ORIGIN OF DATA
 UWI .       490251031100:   UNIQUE WELL ID
 DICO. A2D Technologies, Inc.:   DIGITIZING COMPANY
~OTHER INFORMATION
~A   DEPT       GRD        CALD     CORR       RHOB       DPOR       SGRD        ILD        ILM        SPR   
# ...
   76.5000   126.8521     7.9138     0.0543     2.4545     0.1218    10.1126     7.4657     8.4777   -60.7214
   77.0000   127.2143     7.9138     0.0543     2.4517     0.1233    10.2021     7.5262     8.5778   -60.7408
   77.5000   126.6968     7.9138     0.0544     2.4504     0.1248    10.7800     7.5154     8.6419   -60.7625
   78.0000   125.8059     7.9138     0.0542     2.4507     0.1253    11.2915     7.5069     8.4863   -60.8670
   78.5000   124.0694     7.9138     0.0501     2.4511     0.1230    11.2487     7.4984     8.6222   -61.3443
   79.0000   124.2303     7.9138     0.0460     2.4503     0.1265    11.0275     7.4899     8.8039   -61.8101
   79.5000   124.6773     7.9138     0.0422     2.4489     0.1308    10.5888     7.4814     8.7305   -62.1478
   80.0000   125.1209     7.9138     0.0404     2.4475     0.1282    10.4950     7.4730     8.6355   -61.9452
   80.5000   125.3622     7.9138     0.0386     2.4462     0.1241    10.4016     7.4644     8.5416   -61.7531
   81.0000   124.6398     7.9138     0.0367     2.4462     0.1258    10.3091     7.4473     8.4851   -61.5616
   81.5000   122.8464     7.9138     0.0409     2.4462     0.1304    10.2174     7.3925     8.4851   -61.3803
   82.0000   122.0208     7.9138     0.0480     2.4461     0.1243    10.1096     7.3385     8.6205   -61.4286
   82.5000   121.6614     7.9138     0.0552     2.4481     0.1161    10.8784     7.2849     8.8854   -61.4928
   83.0000   121.3125     7.9138     0.0623     2.4515     0.1147    12.6133     7.2542     8.6761   -61.5567
   83.5000   121.0932     7.9138     0.0665     2.4640     0.1098    10.8554     7.5398     8.5081   -61.6202
   84.0000   121.3771     7.9138     0.0639     2.4723     0.1050    10.1159     7.7470     8.3413   -61.6837
   84.5000   121.6277     7.9138     0.0611     2.4755     0.1038    10.0168     7.9598     8.2545   -61.7472
   85.0000   121.2906     7.9138     0.0581     2.4711     0.1069    10.1868     8.1785     8.4944   -61.8107
   85.5000   118.4798     7.9138     0.0552     2.4668     0.1106    10.3058     8.4032     8.6660   -61.8742
   86.0000   117.9427     7.9138     0.0522     2.4625     0.1107    10.4262     8.6341     8.8406   -61.9376
   86.5000   119.1594     7.9138     0.0493     2.4581     0.1117    10.5480     8.8039     8.9677   -62.0012
   87.0000   120.3753     7.9138     0.0464     2.4538     0.1134    10.6846     8.7437     8.9677   -62.0648
   87.5000   121.5993     7.9138     0.0434     2.4495     0.1151    10.5550     8.2727     8.9677   -62.1277
   88.0000   122.8273     7.9138     0.0439     2.4455     0.1168    10.4114     7.1190     8.8374   -62.1748
   88.5000   124.0170     7.9138     0.0466     2.4479     0.1159    10.2040     7.1721     8.5637   -62.2438
   89.0000   124.1106     7.9138     0.0441     2.4541     0.1139    10.2429     7.2345     8.5637   -62.3236
   89.5000   124.1592     7.9138     0.0330     2.4511     0.1167    10.3240     7.3033     8.3817   -62.4039
   90.0000   124.2173     7.9138     0.0247     2.4428     0.1228    10.4043     7.3715     8.3301   -62.4840
   90.5000   124.6180     7.9138     0.0211     2.4345     0.1289    10.4894     7.4576     8.5988   -62.5630
   91.0000   125.7306     7.9138     0.0174     2.4282     0.1350    10.8820     7.4252     8.8419   -62.6160
   91.5000   127.0256     7.9138     0.0137     2.4269     0.1383    11.3100     7.3822     9.0508   -62.6636
   92.0000   128.3270     7.9138     0.0133     2.4259     0.1375    11.6097     7.3395     9.0182   -62.7112
   92.5000   129.6208     7.9138     0.0153     2.4257     0.1388    11.7154     7.2970     8.9903   -62.7588
   93.0000   129.5529     7.9138     0.0173     2.4297     0.1368    11.0921     7.2547     8.9345   -62.8064
   93.5000   129.3919     7.9138     0.0194     2.4328     0.1323    10.5885     7.2127     8.7583   -62.8540
   94.0000   129.2357     7.9138     0.0214     2.4302     0.1348    10.1487     7.1709     8.4493   -62.9016
   94.5000   129.0820     7.9138     0.0235     2.4305     0.1376     9.8913     7.1294     8.1946   -62.9492
   95.0000   128.9284     7.9138     0.0256     2.4311     0.1340     9.6388     7.0630     8.0500   -62.9969
   95.5000   128.8777     7.9138     0.0273     2.4317     0.1376     9.3937     6.9916     7.9091   -63.0444
   96.0000   129.0196     7.9138     0.0419     2.4346     0.1404     9.2657     6.9209     7.7703   -63.0917
   96.5000   129.1628     7.9138     0.0555     2.4530     0.1223     9.2192     6.8509     7.6668   -63.1400
   97.0000   129.3117     7.9138     0.0587     2.4696     0.1151     9.3532     6.7816     7.7023   -63.2152
   97.5000   129.4420     7.9138     0.0574     2.4714     0.1143     9.4761     6.7130     7.7364   -63.3881
   98.0000   128.1610     7.9138     0.0517     2.4713     0.1171     9.6120     6.6766     7.7708   -63.5550
   98.5000   127.6193     7.9138     0.0531     2.4714     0.1162     9.8338     6.6335     7.8108   -63.7216
   99.0000   127.8454     7.9138     0.0557     2.4713     0.1151     9.6801     6.5935     7.7593   -63.8884
   99.5000   126.5577     7.9138     0.0500     2.4633     0.1191     9.4580     6.5536     7.6581   -64.0544
  100.0000   125.1261     7.9138     0.0417     2.4511     0.1247     9.2410     6.4944     7.5571   -64.1772
  100.5000   123.9093     7.9138     0.0324     2.4279     0.1303     9.0508     6.5033     7.4574   -64.1884
  101.0000   124.3269     7.9138     0.0239     2.4276     0.1360     9.0508     6.5210     7.3843   -64.2012
  101.5000   124.3894     7.9138     0.0215     2.4289     0.1365     9.0508     6.5388     7.3389   -64.2140
  102.0000   123.4185     7.9138     0.0192     2.4209     0.1407     9.0497     6.5662     7.2934   -64.2268
  102.5000   122.4849     7.9138     0.0168     2.4267     0.1356     9.1503     6.6682     7.2535   -64.2396
  103.0000   122.4493     7.9138     0.0145     2.4223     0.1384     9.5339     6.7720     7.4368   -64.2524
  103.5000   123.1764     7.9138     0.0121     2.4171     0.1431    10.2032     6.8773     7.6387   -64.2652
  104.0000   123.9095     7.9138     0.0098     2.4177     0.1416    10.1360     6.9843     7.8027   -64.2781
  104.5000   123.7197     7.9138     0.0075     2.4173     0.1400    10.0641     7.0928     7.9228   -64.2909
  105.0000   122.8157     7.9138     0.0051     2.4146     0.1439    10.0159     7.2031     8.0458   -64.3037
  105.5000   122.2586     7.9138     0.0081     2.4190     0.1477    10.4958     7.3214     8.1779   -64.3165
  106.0000   123.8023     7.9138     0.0153     2.4283     0.1384    12.0448     7.3401     8.0596   -64.3293
  106.5000   125.3185     7.9138     0.0227     2.4373     0.1314    10.2976     7.3653     7.9548   -64.3422
  107.0000   126.8326     7.9138     0.0297     2.4509     0.1244    10.2991     7.3906     8.0496   -64.3551
  107.5000   127.4436     7.9138     0.0186     2.4391     0.1191    10.2986     7.4160     8.1028   -64.3690
  108.0000   126.6899     7.9138     0.0065     2.4135     0.1279    10.2979     7.4415     7.9555   -64.3379
  108.5000   125.4501     7.9138     0.0089     2.4202     0.1428     9.9258     7.4576     7.6764   -64.2927
  109.0000   124.2056     7.9138     0.0119     2.4264     0.1374     9.6541     7.3291     7.3967   -64.2471
  109.5000   123.2366     7.9138     0.0076     2.4233     0.1356     9.5615     7.2364     7.1280   -64.2020
  110.0000   122.6994     7.9138     0.0029     2.4136     0.1453     9.4671     7.1448     6.8638   -64.1615
  110.5000   122.1627     7.9138     0.0016     2.4039     0.1525     9.3819     7.0545     6.8967   -64.1323
  111.0000   121.6315     7.9138     0.0061     2.3965     0.1548     9.3338     6.9652     6.9303   -64.1029
  111.5000   121.1006     7.9138     0.0105     2.4021     0.1530     9.2859     6.8770     6.9642   -64.0734
  112.0000   120.5699     7.9138     0.0170     2.4074     0.1506     9.2383     6.7890     6.9915   -64.0440
  112.5000   120.0325     7.9138     0.0322     2.4127     0.1545     9.1828     6.7389     7.0209   -64.0146
