~VERSION INFORMATION
 VERS.                2.0:   CWLS LOG ASCII STANDARD - VERSION 2.0
 WRAP.                 NO:   ONE LINE PER DEPTH STEP
~WELL INFORMATION
#MNEM.UNIT      DATA TYPE    INFORMATION
#----------   ------------   ------------------------------
 STRT.F           32.0000:   START DEPTH
 STOP.F          571.0000:   STOP DEPTH
 STEP.F            0.5000:   STEP LENGTH
 NULL.          -999.2500:   NO VALUE
 COMP. FENIX & SCISSON INCORP.:   COMPANY
 WELL.      NPR-3 #21-S-3:   WELL
 FLD .             TEAPOT:   FIELD
 LOC .       S3 T38N R78W:   LOCATION
 CNTY.            NATRONA:   COUNTY
 STAT.            WYOMING:   STATE
 CTRY. UNITED STATES OF AMERICA:   COUNTRY
 SRVC.           BIRDWELL:   SERVICE COMPANY
 DATE.        25-JUL-1978:   LOGDATE
 API .       490251067100:   API NUMBER
~CURVE INFORMATION
#MNEM.UNIT       API CODE    CURVE DESCRIPTION
#----------   ------------   ------------------------------
 DEPT.F                  :   
 CALD.IN     45 280 60 00:   CALIPER FROM DENSITY LOG
 CORR.G/C3   45 356 01 00:   DENSITY CORRECTION
 DPHI.DEC    45 890 10 00:   DENSITY POROSITY LIMESTONE
 GRD .GAPI   45 310 01 00:   GAMMA RAY FROM DENSITY LOG
 RHOB.G/C3   45 350 01 00:   BULK DENSITY
 ILD .OHMM   05 120 46 00:   INDUCTION LOG DEEP
 SN  .OHMM   05 040 16 00:   SHORT NORMAL 16"
 SPR .MV     05 010 01 00:   SPONTANEOUS POTENTIAL FROM RES.
 NPHI.DEC    42 890 01 00:   NEUTRON POROSITY LIMESTONE
~PARAMETER INFORMATION
#MNEM.UNIT          VALUE    DESCRIPTION
#----------   ------------   ------------------------------
 PD  .                 GL:   PERMANENT DATUM
 EPD .F              5203:   ELEVATION PERMANENT DATUM
 LMF .                 KB:   LOG MEASURED FROM
 DAPD.F                 4:   FEET ABOVE PERMANENT DATUM
 DMF .                 KB:   DRILLING MEASURED FROM
 EKB .F              5207:   KELLING BUSHING
 EGL .F              5203:   GROUND LEVEL
 DATE.        25-JUL-1978:   RUN DATE
 RUN .                  1:   RUN NUMBER
 DD  .F               565:   DEPTH DRILLER
 DL  .F               573:   DEPTH LOGGER
 BLI .F               566:   BOTTOM LOG INTERVAL
 TLI .F                46:   TOP LOG INTERVAL
 CS  .IN            8.625:   CASING SIZE
 CBD .F                40:   CASING BOTTOM DRILLER
 CBL .F                48:   CASING BOTTOM LOGGER
 BS  .IN            7.875:   BIT SIZE
 BSD .F               565:   BIT SIZE AT DEPTH
 DFT .                KCL:   DRILLING FLUID TYPE
 DFD .                8.6:   DRILLING FLUID DENSITY
 DFV .                 30:   DRILLING FLUID VISCOSITY
 DFPH.                  9:   DRILLING FLUID PH
 MSS .           FLOWLINE:   MUD SAMPLE SOURCE
 LUN .               2958:   LOGGING UNIT NUMBER
 LUL .               CASP:   LOGGING UNIT LOCATION
 WITN.           MCGINLEY:   WITNESSED BY
 CLNT.            A2DTECH:   CLIENT CODE
 ORIG.           5" PRINT:   ORIGIN OF DATA
 UWI .       490251067100:   UNIQUE WELL ID
 DICO. A2D Technologies, Inc.:   DIGITIZING COMPANY
~OTHER INFORMATION
~A   DEPT     CALD       CORR       DPHI         GRD      RHOB        ILD         SN        SPR       NPHI   
# ...
  251.0000     7.1381     0.0435     0.1489   101.8740     2.4352     7.0061     7.0262   -47.6610  -999.2500
  251.5000     7.0189     0.0585     0.1454   105.4855     2.4353     7.0597     7.0319   -47.6434  -999.2500
  252.0000     6.9295     0.0705     0.1392   106.1081     2.4443     7.1137     7.0375   -47.6222  -999.2500
  252.5000     6.7653     0.0689     0.1378   106.2474     2.4518     7.1189     7.0432   -47.6049  -999.2500
  253.0000     6.6759     0.0644     0.1402   105.8027     2.4525     7.1254     7.0488   -47.7406  -999.2500
  253.5000     6.6613     0.0567     0.1351   106.2590     2.4525     7.1306     7.0059   -48.1648  -999.2500
  254.0000     6.6766     0.0427     0.1339   106.8655     2.4568     7.1358     7.0117   -47.9990  -999.2500
  254.5000     6.6918     0.0147     0.1479   107.4719     2.4593     7.0907     7.0175   -47.6845  -999.2500
  255.0000     6.7071     0.0057     0.1701   107.7781     2.4458     7.0472     7.0242   -47.6672  -999.2500
  255.5000     6.7373     0.0042     0.1806   107.9341     2.4084     7.0051     6.9802   -47.7987  -999.2500
  256.0000     6.7524     0.0101     0.1791   107.7898     2.3927     6.8670     6.9392   -47.6285  -999.2500
  256.5000     6.7079     0.0191     0.1767   106.2103     2.3890     6.8178     6.8970   -47.7642  -999.2500
  257.0000     6.7082     0.0236     0.1752   103.5987     2.3890     6.6454     6.8080   -48.0441  -999.2500
  257.5000     6.7384     0.0238     0.1721   102.5520     2.3920     6.4695     6.7201   -48.1755  -999.2500
  258.0000     6.7393     0.0160     0.1587   105.2620     2.4032     6.2983     6.5391   -48.3031  -999.2500
  258.5000     6.7988     0.0069     0.1590   107.9706     2.4220     6.1729     6.3273   -48.4339  -999.2500
  259.0000     6.8440     0.0023     0.1608   109.6266     2.4250     6.0106     6.1601   -48.5652  -999.2500
  259.5000     6.9041    -0.0006     0.1632   107.8321     2.4183     5.9737     6.1215   -48.9894  -999.2500
  260.0000     6.9791     0.0009     0.1638   104.0842     2.4145     5.9370     6.0843   -49.4179  -999.2500
  260.5000     7.0691     0.0009     0.1644   101.0870     2.4153     5.9836     6.0904   -49.7022  -999.2500
  261.0000     7.1441     0.0008     0.1662   103.2672     2.4146     5.9879     6.0532   -49.9821  -999.2500
  261.5000     7.2191     0.0038     0.1659   105.3044     2.4101     6.0755     6.0583   -49.9605  -999.2500
  262.0000     7.2792     0.0023     0.1620   105.1601     2.4123     6.2069     6.1951   -49.6461  -999.2500
  262.5000     7.3393     0.0007     0.1586   104.8641     2.4206     6.5183     6.5024   -49.3314  -999.2500
  263.0000     7.3845    -0.0023     0.1558   104.4210     2.4207     6.7516     6.7824   -49.0130  -999.2500
  263.5000     7.4297    -0.0023     0.1476   104.5770     2.4282     6.9935     7.0259   -48.8472  -999.2500
  264.0000     7.5047    -0.0006     0.1425   105.6339     2.4387     7.1459     7.1785   -48.6813  -999.2500
  264.5000     7.5648     0.0006     0.1401   106.9911     2.4424     7.3005     7.2840   -48.5155  -999.2500
  265.0000     7.5800    -0.0009     0.1389   106.3764     2.4476     7.3563     7.2898   -48.6511  -999.2500
  265.5000     7.6102     0.0006     0.1383   105.0523     2.4544     7.3617     7.3477   -48.3324  -999.2500
  266.0000     7.6105     0.0035     0.1395   105.6587     2.4552     7.4180     7.4543   -48.1664  -999.2500
  266.5000     7.6108     0.0095     0.1335   107.1660     2.4559     7.4748     7.5132   -48.1450  -999.2500
  267.0000     7.6111     0.0110     0.1248   107.3220     2.4642     7.5321     7.5712   -48.2764  -999.2500
  267.5000     7.5197     0.0125     0.1215   107.0276     2.4762     7.5910     7.6297   -48.1106  -999.2500
  268.0000     7.4745     0.0139     0.1253   105.2316     2.4837     7.5965     7.6358   -48.0933  -999.2500
  268.5000     7.4924     0.0154     0.1302   104.1862     2.4822     7.6021     7.6948   -48.2290  -999.2500
  269.0000     7.4927     0.0154     0.1359   104.4925     2.4760     7.6603     7.7542   -48.2074  -999.2500
  269.5000     7.5079     0.0184     0.1395   104.8118     2.4695     7.6659     7.8142   -48.0416  -999.2500
  270.0000     7.4633     0.0273     0.1362   104.9561     2.4635     7.7245     7.8220   -48.1729  -999.2500
  270.5000     7.4487     0.0348     0.1299   104.8118     2.4613     7.7877     7.8282   -48.1514  -999.2500
  271.0000     7.4041     0.0363     0.1230   104.2171     2.4636     7.7907     7.8345   -48.1341  -999.2500
  271.5000     7.3447     0.0332     0.1203   103.1718     2.4741     7.7964     7.8950   -48.1169  -999.2500
  272.0000     7.2997     0.0302     0.1230   102.5756     2.4786     7.8022     7.9013   -48.4011  -999.2500
  272.5000     7.2556     0.0212     0.1242   105.2856     2.4778     7.8079     7.9077   -48.5325  -999.2500
  273.0000     7.1961     0.0121     0.1236   106.6428     2.4756     7.8136     7.8596   -48.5109  -999.2500
  273.5000     7.1366     0.0029     0.1238   106.3484     2.4764     7.7656     7.8661   -48.3314  -999.2500
  274.0000     7.0921    -0.0061     0.1286   105.4374     2.4764     7.7180     7.8182   -48.0264  -999.2500
  274.5000     7.1074    -0.0090     0.1355   104.4095     2.4719     7.6706     7.7722   -48.0091  -999.2500
  275.0000     7.1226    -0.0075     0.1385   103.0640     2.4614     7.5726     7.7235   -48.4377  -999.2500
  275.5000     7.1528    -0.0060     0.1409   101.8687     2.4569     7.4744     7.5730   -48.5733  -999.2500
  276.0000     7.1830    -0.0061     0.1439    98.8715     2.4532     7.3269     7.5255   -49.1504  -999.2500
  276.5000     7.1833    -0.0061     0.1463    99.1777     2.4495     7.2806     7.4298   -48.2374  -999.2500
  277.0000     7.1985    -0.0016     0.1487   100.8352     2.4450     7.2371     7.3340   -48.3687  -999.2500
  277.5000     7.1989     0.0014     0.1547   100.8410     2.4413     7.1434     7.2821   -48.5000  -999.2500
  278.0000     7.1992     0.0043     0.1583   101.9020     2.4383     7.0996     7.1474   -48.4785  -999.2500
  278.5000     7.2293     0.0073     0.1521   103.7438     2.4314     7.0089     7.0552   -48.6142  -999.2500
  279.0000     7.2296     0.0088     0.1493   104.1633     2.4324     6.8705     6.9627   -49.0384  -999.2500
  279.5000     7.2598     0.0087     0.1598   104.0190     2.4346     6.6887     6.8270   -49.1740  -999.2500
  280.0000     7.2857     0.0117     0.1631   103.1239     2.4256     6.5117     6.6927   -49.1525  -999.2500
  280.5000     7.3008     0.0147     0.1643   102.0787     2.4181     6.2096     6.4266   -48.9866  -999.2500
  281.0000     7.3459     0.0131     0.1622   100.8819     2.4174     5.8805     6.1662   -49.4152  -999.2500
  281.5000     7.3623     0.0116     0.1601   101.4898     2.4182     5.5966     5.6478   -49.5465  -999.2500
  282.0000     7.4060     0.0086     0.1583   101.3453     2.4197     5.1680     5.3490   -49.9707  -999.2500
  282.5000     7.4211     0.0086     0.1586   101.3513     2.4212     4.8609     5.0661   -50.2550  -999.2500
  283.0000     7.4511     0.0055     0.1632   101.3574     2.4220     4.5720     4.6676   -50.0848  -999.2500
  283.5000     7.4812     0.0040     0.1728   101.5146     2.4174     4.1834     4.2709   -50.0676  -999.2500
  284.0000     7.4962     0.0055     0.1966   101.3688     2.4016     3.6477     3.9349   -50.9419  -999.2500
  284.5000     7.5263     0.0069     0.2158   104.9797     2.3568     3.2694     3.7268   -51.3704  -999.2500
  285.0000     7.5414     0.0144     0.2374   107.3880     2.3329     2.8824     3.4198   -51.2003  -999.2500
  285.5000     7.5714     0.0414     0.2506   109.1942     2.3104     2.7189     3.0781   -51.1830  -999.2500
  286.0000     7.5865     0.0924     0.2656   106.9492     2.2722     2.6832     2.9557   -51.3187  -999.2500
  286.5000     7.6316     0.1224     0.2794   103.9520     2.2430     2.6667     2.9581   -51.2971  -999.2500
  287.0000     7.7068     0.1269     0.2878   103.3494     2.2191     2.6509     3.0016   -51.2799  -999.2500
