~VERSION INFORMATION
 VERS.                2.0:   CWLS LOG ASCII STANDARD - VERSION 2.0
 WRAP.                 NO:   ONE LINE PER DEPTH STEP
~WELL INFORMATION
#MNEM.UNIT      DATA TYPE    INFORMATION
#----------   ------------   ------------------------------
 STRT.F           60.0000:   START DEPTH
 STOP.F          945.0000:   STOP DEPTH
 STEP.F            0.5000:   STEP LENGTH
 NULL.          -999.2500:   NO VALUE
 COMP.          U.S. NAVY:   COMPANY
 WELL. RES 3 TEAPOT DOM #48S-35:   WELL
 FLD .           TEAPOT E:   FIELD
 LOC .      S35 T39N R78W:   LOCATION
 CNTY.            NATRONA:   COUNTY
 STAT.            WYOMING:   STATE
 CTRY. UNITED STATES OF AMERICA:   COUNTRY
 SRVC.       Schlumberger:   SERVICE COMPANY
 DATE.        15-JUL-1964:   LOGDATE
 API .       490250649200:   API NUMBER
~CURVE INFORMATION
#MNEM.UNIT       API CODE    CURVE DESCRIPTION
#----------   ------------   ------------------------------
 DEPT.F                  :   
 SPR .MV     05 010 01 00:   SPONTANEOUS POTENTIAL FROM RES.
 ILD .OHMM   05 120 46 00:   INDUCTION LOG DEEP
 ASN .OHMM   05 041 18 00:   AMPLIFIED SHORT NORMAL 18"
 CILD.MMHO   05 110 46 00:   CONDUCTIVITY INDUCTION LOG DEEP
 CALS.IN     60 280 50 00:   CALIPER FROM SONIC LOG
 DT  .US/F   60 520 00 00:   INTERVAL TRANSIT TIME
 GR  .GAPI   30 310 01 00:   GAMMA RAY
~PARAMETER INFORMATION
#MNEM.UNIT          VALUE    DESCRIPTION
#----------   ------------   ------------------------------
 PD  .                 GL:   PERMANENT DATUM
 EPD .F              5123:   ELEVATION PERMANENT DATUM
 LMF .                 KB:   LOG MEASURED FROM
 DAPD.F                 5:   FEET ABOVE PERMANENT DATUM
 DMF .                 KB:   DRILLING MEASURED FROM
 EKB .F              5128:   KELLING BUSHING
 EGL .F              5123:   GROUND LEVEL
 DATE.        15-JUL-1964:   RUN DATE
 RUN .                  1:   RUN NUMBER
 DD  .F               945:   DEPTH DRILLER
 DL  .F               946:   DEPTH LOGGER
 BLI .F               945:   BOTTOM LOG INTERVAL
 TLI .F                94:   TOP LOG INTERVAL
 CS  .IN            8.625:   CASING SIZE
 CBD .F                10:   CASING BOTTOM DRILLER
 BS  .IN             6.75:   BIT SIZE
 BSD .F               945:   BIT SIZE AT DEPTH
 DFT .                GEL:   DRILLING FLUID TYPE
 DFD .                9.5:   DRILLING FLUID DENSITY
 DFV .                 44:   DRILLING FLUID VISCOSITY
 DFPH.                8.0:   DRILLING FLUID PH
 DFL .               10.5:   DRILLING FLUID LOSS
 MSS .           FLOWLINE:   MUD SAMPLE SOURCE
 RMS .OHMM           3.37:   RESISTIVITY MUD SAMPLE
 MST .F                74:   MUD SAMPLE TEMPERATURE
 RMF .OHMM           2.97:   RESISTIVITY MUD FILTRATE SAMPLE
 MFST.F                78:   MUD FILTRATE SAMPLE TEMPERATURE
 MFSS.                 FP:   MUD FILTRATE SAMPLE SOURCE
 TCS .HRS             1.5:   TIME CURCULATED STOPPED
 MRT .F       T. L. T. M.:   MAXIMUM RECORDED TEMPERATURE
 LUN .               3527:   LOGGING UNIT NUMBER
 LUL .               CSPR:   LOGGING UNIT LOCATION
 ENGI.            WINKLER:   RECORDING ENGINEER
 WITN.          JORGENSEN:   WITNESSED BY
 CLNT.            A2DTECH:   CLIENT CODE
 ORIG.           2" PRINT:   ORIGIN OF DATA
 UWI .       490250649200:   UNIQUE WELL ID
 DICO. A2D Technologies, Inc.:   DIGITIZING COMPANY
~OTHER INFORMATION
~A   DEPT      SPR        ILD        ASN       CILD         CALS       DT         GR   
# ...
  879.0000   -41.7977    11.4812    11.3719    90.9091     6.5423    89.9158    39.4123
  879.5000   -41.7983    11.4078    11.3722    90.9091     6.5410    89.9269    40.4577
  880.0000   -41.9491    11.4093    11.3724    90.9091     6.5551    90.2265    41.2024
  880.5000   -41.9499    11.3355    11.3726    90.9091     6.5538    90.4566    40.1407
  881.0000   -42.1669    11.2624    11.2502    90.9091     6.5685    90.3846    42.9907
  881.5000   -42.7009    11.2639    11.2017    91.3952     6.5669    90.3900    45.5416
  882.0000   -42.7018    11.1901    11.1481    91.8940     6.5816    90.7705    44.6304
  882.5000   -42.4912    11.0420    10.9856    93.1818     6.5800    91.1738    46.4277
  883.0000   -41.9440    10.9973    10.8482    93.6491     6.5790    91.6080    47.0238
  883.5000   -41.3547    10.9494    11.2238    94.9052     6.5780    91.6875    43.2535
  884.0000   -40.6997    10.8216    11.2240    96.2121     6.5767    91.5414    39.9380
  884.5000   -40.6022    10.7038    11.2243    97.4178     6.5757    91.1695    41.4346
  885.0000   -40.3075    10.6744    11.2245    97.7273     6.5747    90.8703    43.6830
  885.5000   -40.1074    10.6762    11.2247    98.4848     6.5737    90.4267    45.6307
  886.0000   -39.8591    10.6027    11.2249    98.9141     6.5726    90.1301    46.2250
  886.5000   -39.9570    10.6042    11.2251    99.2424     6.5716    90.0581    45.9152
  887.0000   -40.1604    10.6058    11.2254    99.2424     6.5704    90.2140    42.9005
  887.5000   -40.1612    10.6072    11.2256    99.2424     6.5693    90.4440    43.4947
  888.0000   -40.1619    10.6087    11.3059    99.2424     6.5683    90.6060    43.6397
  888.5000   -40.1626    10.6103    11.3762    99.2424     6.5673    90.7547    42.4277
  889.0000   -40.0135    10.6117    11.4040    99.2424     6.5663    90.8343    39.4129
  889.5000   -40.0142    10.6132    11.4530    98.3522     6.5653    91.0644    38.9564
  890.0000   -40.0150    10.6898    11.6271    97.7273     6.5640    90.9924    39.8478
  890.5000   -40.4656    10.6911    11.8000    96.5972     6.5630    90.7720    40.5925
  891.0000   -41.5972    10.7901    12.0530    94.4697     6.5620    90.5506    41.4893
  891.5000   -41.8291    11.0691    12.3711    90.2002     6.5458    90.5560    40.4277
  892.0000   -41.8291    12.1349    12.6190    86.7168     6.5448    90.9366    32.3020
  892.5000   -41.8291    12.9461    12.9546    80.9482     6.5438    91.0914    34.0974
  893.0000   -41.9790    14.5969    13.9909    76.5101     6.5425    90.7195    31.5320
  893.5000   -43.4563    15.5134    15.1121    69.5578     6.5415    90.4981    27.9158
  894.0000   -47.3763    16.2265    15.6580    64.5960     6.5405    91.2559    24.7507
  894.5000   -52.4961    17.1501    16.7631    58.6540     6.5394    92.3137    21.1344
  895.0000   -54.8526    18.3572    18.1983    52.9549     6.5233    92.9952    20.0746
  895.5000   -55.7721    20.6966    19.8629    48.9522     6.5223    94.2787    19.4641
  896.0000   -56.1540    22.7769    21.8050    44.7478     6.5213    95.9384    21.2614
  896.5000   -56.0160    23.2704    23.7708    40.0992     6.5049    97.0861    24.2617
  897.0000   -55.1724    23.6117    24.6684    39.3485     6.4887    97.5283    25.1585
  897.5000   -54.1429    23.8308    24.8062    39.3560     6.4423    97.6067    24.3976
  898.0000   -53.4593    23.6547    25.4846    39.3647     6.4110    97.4606    24.0914
  898.5000   -51.4243    23.2955    26.9964    40.1288     6.3646    96.8640    25.1332
  899.0000   -48.8035    22.1112    27.3995    41.6920     6.3790    96.1159    25.5771
  899.5000   -46.9025    21.4596    27.2857    44.6908     6.4229    95.0200    26.4722
  900.0000   -45.7271    20.7646    26.9419    45.9595     6.4675    90.9394    28.4217
  900.5000   -45.5772    20.0203    26.6831    50.0077     6.4881    80.7803    32.3172
  901.0000   -46.1769    19.0347    25.3757    54.1463     6.5109    80.1077    30.5018
  901.5000   -46.9526    17.6207    23.9017    58.3661     6.5100    79.8854    28.9872
  902.0000   -47.2264    16.7650    21.5872    62.1520     6.5091    80.7188    31.0815
  902.5000   -47.2264    15.9839    20.1960    64.0783     6.5082    83.6579    34.3789
  903.0000   -47.2264    15.6012    19.6831    66.0857     6.5074    88.2342    34.8219
  903.5000   -47.0765    15.5277    18.8974    66.7206     6.5218    92.4718    31.4973
  904.0000   -47.2264    15.4143    18.2445    67.4848     6.5205    94.5079    31.3414
  904.5000   -48.5537    15.3058    17.9805    67.4924     6.5045    95.1145    30.1221
  905.0000   -48.0759    15.2636    17.8569    67.5012     6.5036    95.1943    30.7127
  905.5000   -46.9265    15.2337    17.7194    67.5076     6.4725    95.1225    34.1604
  906.0000   -46.7766    15.3104    17.7195    66.7575     6.4111    95.2034    34.6034
  906.5000   -46.7766    15.3118    17.6446    66.7652     6.3346    95.4337    30.8277
  907.0000   -45.8950    15.3296    17.6448    66.5506     6.2276    95.1335    29.3130
  907.5000   -45.4273    15.4649    17.6449    65.2655     6.1359    93.9585    28.2495
  908.0000   -45.5772    15.5063    17.6450    64.0808     6.0896    93.4910    28.8401
  908.5000   -46.5188    15.6321    17.6452    63.6036     6.2098    95.0016    30.1826
  909.0000   -48.2658    15.7693    17.6453    61.5007     6.3299    95.3072    31.5251
  909.5000   -49.3253    15.8456    17.7231    60.7500     6.3444    95.5375    33.9202
  910.0000   -49.6952    15.9220    17.9209    59.9994     6.3887    96.1440    36.9141
  910.5000   -49.7751    15.9987    17.9461    60.7662     6.4032    96.8258    37.5047
  911.0000   -49.6252    15.8888    17.9462    62.1564     6.4321    97.1313    37.6469
  911.5000   -49.0595    15.4986    17.7787    63.8106     6.4466    97.2864    37.7837
  912.0000   -48.4019    14.8038    17.1057    65.3347     6.4610    95.7872    37.7728
  912.5000   -47.0265    14.4021    16.2951    66.3510     6.4753    94.5878    37.0100
  913.0000   -45.4972    13.9645    16.4554    67.6213     6.4890    93.8400    36.2473
  913.5000   -44.8276    13.6839    16.8209    69.6086     6.4882    93.2426    41.3464
  914.0000   -45.1794    13.5027    16.2955    69.9091     6.5026    92.4947    45.8468
  914.5000   -46.4287    13.3731    15.8790    71.4323     6.5016    92.8002    50.0464
  915.0000   -47.2264    13.1636    15.4950    73.0051     6.5156    94.3097    54.0957
  915.5000   -47.3763    12.9094    15.0197    75.3662     6.5147    95.1539    54.5387
  916.0000   -47.1824    12.7067    14.7646    78.2736     6.5139    96.1258    49.7130
  916.5000   -46.6267    12.4185    14.4019    80.0680     6.5130    96.2809    48.4991
  917.0000   -46.1129    12.2124    14.1192    82.2874     6.5121    96.0597    46.8314
  917.5000   -45.5672    11.9684    13.8754    85.8724     6.5112    95.3118    44.7152
  918.0000   -45.1274    11.7484    13.5840    87.6767     6.5103    94.9390    41.0953
  918.5000   -44.9775    11.6209    13.2939    88.9367     6.5095    95.9229    39.8814
  919.0000   -44.8276    11.4500    13.0888    90.9344     6.5085    96.3789    41.0735
  919.5000   -44.6397    11.3031    12.9175    92.4064     6.5075    96.2261    42.7168
  920.0000   -44.3378    11.2044    12.8439    94.2427     6.5066    95.3725    42.7059
  920.5000   -44.0780    11.1559    12.8202    94.6843     6.5057    94.6620    38.4817
  921.0000   -43.6962    11.1574    12.7691    95.1769     6.5048    94.4420    38.6239
  921.5000   -43.3003    11.0837    12.6942    95.7810     6.5040    93.2426    39.3622
  922.0000   -43.0285    11.0855    12.6943    95.7879     6.5031    92.3443    39.8024
  922.5000   -42.9585    11.0870    12.6945    95.7954     6.5022    91.6716    39.9419
  923.0000   -42.7126    11.0885    12.6946    95.8041     6.5011    91.1494    40.9837
  923.5000   -42.5787    11.1650    12.7698    95.0530     6.5002    91.4550    42.4765
  924.0000   -42.5207    11.1664    12.7700    95.0204     6.4993    91.2240    43.3679
