~VERSION INFORMATION
 VERS.                2.0:   CWLS LOG ASCII STANDARD - VERSION 2.0
 WRAP.                 NO:   ONE LINE PER DEPTH STEP
~WELL INFORMATION
#MNEM.UNIT      DATA TYPE    INFORMATION
#----------   ------------   ------------------------------
 STRT.F           80.0000:   START DEPTH
 STOP.F         1011.0000:   STOP DEPTH
 STEP.F            0.5000:   STEP LENGTH
 NULL.          -999.2500:   NO VALUE
 COMP.          U.S. NAVY:   COMPANY
 WELL. RES 3 TEAPOT DOM #61S-11:   WELL
 FLD .             TEAPOT:   FIELD
 LOC .      S11 T38N R78W:   LOCATION
 CNTY.            NATRONA:   COUNTY
 STAT.            WYOMING:   STATE
 CTRY. UNITED STATES OF AMERICA:   COUNTRY
 SRVC.       Schlumberger:   SERVICE COMPANY
 DATE.        23-JUL-1964:   LOGDATE
 API .       490250637500:   API NUMBER
~CURVE INFORMATION
#MNEM.UNIT       API CODE    CURVE DESCRIPTION
#----------   ------------   ------------------------------
 DEPT.F                  :   
 CALS.IN     60 280 50 00:   CALIPER FROM SONIC LOG
 DT  .US/F   60 520 33 00:   INTERVAL TRANSIT TIME
 GR  .GAPI   30 310 01 00:   GAMMA RAY
 CILD.MMHO   05 110 46 00:   CONDUCTIVITY INDUCTION LOG DEEP
 ILD .OHMM   05 120 46 00:   INDUCTION LOG DEEP
 ASN .OHMM   05 041 16 00:   AMPLIFIED SHORT NORMAL 16"
 SPR .MV     05 010 01 00:   SPONTANEOUS POTENTIAL FROM RES.
~PARAMETER INFORMATION
#MNEM.UNIT          VALUE    DESCRIPTION
#----------   ------------   ------------------------------
 PD  .                 GL:   PERMANENT DATUM
 EPD .F              5199:   ELEVATION PERMANENT DATUM
 LMF .                 KB:   LOG MEASURED FROM
 DAPD.F                 5:   FEET ABOVE PERMANENT DATUM
 DMF .                 KB:   DRILLING MEASURED FROM
 EKB .F              5204:   KELLING BUSHING
 EGL .F              5199:   GROUND LEVEL
 DATE.          7-23-1964:   RUN DATE
 RUN .                  1:   RUN NUMBER
 DD  .F              1010:   DEPTH DRILLER
 DL  .F              1012:   DEPTH LOGGER
 BLI .F              1011:   BOTTOM LOG INTERVAL
 TLI .F                88:   TOP LOG INTERVAL
 CS  .IN            8.625:   CASING SIZE
 CBD .F                10:   CASING BOTTOM DRILLER
 BS  .IN             6.75:   BIT SIZE
 BSD .F              1010:   BIT SIZE AT DEPTH
 DFT .            GEL-OIL:   DRILLING FLUID TYPE
 DFD .                9.8:   DRILLING FLUID DENSITY
 DFV .                 54:   DRILLING FLUID VISCOSITY
 MSS .           FLOWLINE:   MUD SAMPLE SOURCE
 RMS .OHMM           1.47:   RESISTIVITY MUD SAMPLE
 MST .F                86:   MUD SAMPLE TEMPERATURE
 RMF .OHMM            .96:   RESISTIVITY MUD FILTRATE SAMPLE
 MFST.F                86:   MUD FILTRATE SAMPLE TEMPERATURE
 RMC .OHMM           2.10:   RESISTIVITY MUD CAKE
 MCST.F                86:   MUD CAKE SAMPLE TEMPERATURE
 MFSS.                 FP:   MUD FILTRATE SAMPLE SOURCE
 MCSS.                 FP:   MUD CAKE SAMPLE SOURCE
 TCS .HRS               2:   TIME CURCULATED STOPPED
 LUN .               4507:   LOGGING UNIT NUMBER
 LUL .              CSPR.:   LOGGING UNIT LOCATION
 ENGI.             DANNER:   RECORDING ENGINEER
 WITN.          JORGENSEN:   WITNESSED BY
 CLNT.            A2DTECH:   CLIENT CODE
 ORIG.      2" & 5" PRINT:   ORIGIN OF DATA
 UWI .       490250637500:   UNIQUE WELL ID
 DICO. A2D Technologies, Inc.:   DIGITIZING COMPANY
~OTHER INFORMATION
~A   DEPT     CALS         DT         GR        CILD         ILD        ASN      SPR   
# ...
  262.0000  -999.2500  -999.2500  -999.2500   144.6482     6.9471     8.3716   -38.0951
  262.5000  -999.2500  -999.2500  -999.2500   146.7285     6.9486     8.2512   -37.9503
  263.0000  -999.2500  -999.2500  -999.2500   148.4790     6.9728     8.1988   -37.9495
  263.5000  -999.2500  -999.2500  -999.2500   150.5086     7.0250     8.1382   -37.9489
  264.0000  -999.2500  -999.2500  -999.2500   151.6049     7.1003     8.0706   -37.9481
  264.5000  -999.2500  -999.2500  -999.2500   152.8395     7.1284     7.9644   -37.9474
  265.0000  -999.2500  -999.2500  -999.2500   154.1468     7.1764     7.7983   -37.8578
  265.5000  -999.2500  -999.2500  -999.2500   154.1259     7.1782     7.6386   -37.8019
  266.0000  -999.2500  -999.2500  -999.2500   154.3210     7.1485     7.5535   -37.8011
  266.5000  -999.2500  -999.2500  -999.2500   154.8222     7.1073     7.4903   -37.8004
  267.0000  -999.2500  -999.2500  -999.2500   154.7959     7.1090     7.4461   -37.7997
  267.5000  -999.2500  -999.2500  -999.2500   154.7778     7.0019     7.4069   -37.7990
  268.0000  -999.2500  -999.2500  -999.2500   155.4973     6.8059     7.3783   -37.7981
  268.5000  -999.2500  -999.2500  -999.2500   155.4712     6.5987     7.3581   -37.7975
  269.0000  -999.2500  -999.2500  -999.2500   156.5432     6.4485     7.3337   -37.7969
  269.5000  -999.2500  -999.2500  -999.2500   159.2593     6.2180     7.2909   -37.7960
  270.0000  -999.2500  -999.2500  -999.2500   162.8131     6.0883     7.2701   -37.7954
  270.5000  -999.2500  -999.2500  -999.2500   167.4245     5.9426     7.2095   -37.7947
  271.0000  -999.2500  -999.2500  -999.2500   173.5552     5.8309     6.9683   -37.7939
  271.5000  -999.2500  -999.2500  -999.2500   179.7846     5.6515     6.7447   -37.7932
  272.0000  -999.2500  -999.2500  -999.2500   185.4027     5.5324     6.5623   -37.6484
  272.5000  -999.2500  -999.2500  -999.2500   188.8888     5.4099     6.5868   -37.6476
  273.0000  -999.2500  -999.2500  -999.2500   190.0895     5.3618     6.7432   -37.4275
  273.5000  -999.2500  -999.2500  -999.2500   189.3226     5.2900     6.8404   -37.3286
  274.0000  -999.2500  -999.2500  -999.2500   187.1702     5.3191     6.1759   -37.2132
  274.5000  -999.2500  -999.2500  -999.2500   184.7357     5.3662     6.3641   -37.2126
  275.0000  -999.2500  -999.2500  -999.2500   183.3312     5.3679     6.7941   -37.0677
  275.5000  -999.2500  -999.2500  -999.2500   181.4370     5.4426     6.9121   -37.0670
  276.0000  -999.2500  -999.2500  -999.2500   180.3259     5.5264     6.7172   -37.2104
  276.5000  -999.2500  -999.2500  -999.2500   180.3027     5.6663     6.4688   -37.2097
  277.0000  -999.2500  -999.2500  -999.2500   180.2815     5.6676     6.4277   -37.2089
  277.5000  -999.2500  -999.2500  -999.2500   180.2592     5.7427     6.5158   -37.2082
  278.0000  -999.2500  -999.2500  -999.2500   179.4963     5.8178     6.5903   -37.2075
  278.5000  -999.2500  -999.2500  -999.2500   177.1875     5.8591     6.6785   -37.2068
  279.0000  -999.2500  -999.2500  -999.2500   175.0040     5.9676     6.6789   -37.2059
  279.5000  -999.2500  -999.2500  -999.2500   173.5975     5.9692     6.6734   -37.0612
  280.0000  -999.2500  -999.2500  -999.2500   172.0018     6.0441     6.5883   -36.9165
  280.5000  -999.2500  -999.2500  -999.2500   174.1978     5.9718     6.5180   -36.9156
  281.0000  -999.2500  -999.2500  -999.2500   174.9185     5.9736     6.5456   -36.7090
  281.5000  -999.2500  -999.2500  -999.2500   174.1556     5.9750     6.6133   -36.6261
  282.0000  -999.2500  -999.2500  -999.2500   172.6508     5.9029     6.7394   -36.6253
  282.5000  -999.2500  -999.2500  -999.2500   173.0864     5.8273     6.7831   -36.4806
  283.0000  -999.2500  -999.2500  -999.2500   174.5529     5.6120     6.8282   -36.3357
  283.5000  -999.2500  -999.2500  -999.2500   177.0443     5.4371     6.8139   -36.3349
  284.0000  -999.2500  -999.2500  -999.2500   179.2258     5.2353     6.7618   -36.1902
  284.5000  -999.2500  -999.2500  -999.2500   180.5458     5.1015     6.6408   -36.1605
  285.0000  -999.2500  -999.2500  -999.2500   182.2223     5.1029     6.5206   -36.0446
  285.5000  -999.2500  -999.2500  -999.2500   183.6048     5.1144     6.4371   -36.0440
  286.0000  -999.2500  -999.2500  -999.2500   183.5852     5.2531     6.3485   -36.0432
  286.5000  -999.2500  -999.2500  -999.2500   183.5630     5.4386     6.2862   -36.0425
  287.0000  -999.2500  -999.2500  -999.2500   182.7985     5.5639     6.3192   -36.0418
  287.5000  -999.2500  -999.2500  -999.2500   181.9136     5.6986     6.3731   -36.0411
  288.0000  -999.2500  -999.2500  -999.2500   180.1186     5.7735     6.4488   -36.0403
  288.5000  -999.2500  -999.2500  -999.2500   177.5478     5.8485     6.4978   -36.0396
  289.0000  -999.2500  -999.2500  -999.2500   173.8179     5.9236     6.5476   -36.0389
  289.5000  -999.2500  -999.2500  -999.2500   171.0298     5.9703     6.6120   -36.1849
  290.0000  -999.2500  -999.2500  -999.2500   169.3342     6.0000     6.6559   -36.4696
  290.5000  -999.2500  -999.2500  -999.2500   170.0519     6.0015     6.6856   -36.6131
  291.0000  -999.2500  -999.2500  -999.2500   169.6888     6.0768     6.7015   -36.7565
  291.5000  -999.2500  -999.2500  -999.2500   169.1507     6.0779     6.7156   -36.8997
  292.0000  -999.2500  -999.2500  -999.2500   168.5018     6.0794     6.7369   -37.0432
  292.5000  -999.2500  -999.2500  -999.2500   168.1482     6.0811     6.7456   -37.0425
  293.0000  -999.2500  -999.2500  -999.2500   169.5654     6.0522     6.7459   -37.1858
  293.5000  -999.2500  -999.2500  -999.2500   173.6215     6.0102     6.7176   -37.1852
  294.0000  -999.2500  -999.2500  -999.2500   176.9252     5.9384     6.6662   -37.1844
  294.5000  -999.2500  -999.2500  -999.2500   180.3430     5.8320     6.5850   -37.1836
  295.0000  -999.2500  -999.2500  -999.2500   183.7608     5.7096     6.5108   -37.1830
  295.5000  -999.2500  -999.2500  -999.2500   186.7662     5.6486     6.4122   -37.1823
  296.0000  -999.2500  -999.2500  -999.2500   189.1260     5.5382     6.3212   -37.1815
  296.5000  -999.2500  -999.2500  -999.2500   192.1334     5.4307     6.2443   -37.0368
  297.0000  -999.2500  -999.2500  -999.2500   193.3997     5.3589     6.1604   -37.0360
  297.5000  -999.2500  -999.2500  -999.2500   194.5927     5.2868     6.0721   -37.0353
  298.0000  -999.2500  -999.2500  -999.2500   195.6020     5.2882     6.0340   -37.0346
  298.5000  -999.2500  -999.2500  -999.2500   196.3295     5.2898     6.0285   -36.9924
  299.0000  -999.2500  -999.2500  -999.2500   196.3185     5.3647     6.0435   -36.8890
  299.5000  -999.2500  -999.2500  -999.2500   194.3633     5.4397     6.0726   -36.8883
  300.0000  -999.2500  -999.2500  -999.2500   188.8889     5.5147     6.1933   -36.7133
  300.5000  -999.2500  -999.2500  -999.2500   185.1719     5.6246     6.3827   -36.5601
  301.0000  -999.2500  -999.2500  -999.2500   183.4222     5.7345     6.4284   -36.4069
  301.5000  -999.2500  -999.2500  -999.2500   181.4298     5.8444     6.4715   -36.2538
  302.0000  -999.2500  -999.2500  -999.2500   179.9536     5.9603     6.2365   -36.0200
  302.5000  -999.2500  -999.2500  -999.2500   178.9260     5.9616     6.1779   -35.8754
  303.0000  -999.2500  -999.2500  -999.2500   177.6741     5.9625     6.2758   -35.8675
  303.5000  -999.2500  -999.2500  -999.2500   176.2167     5.8900     6.4433   -35.8343
  304.0000  -999.2500  -999.2500  -999.2500   175.4667     5.8913     6.5077   -35.8732
  304.5000  -999.2500  -999.2500  -999.2500   174.7148     5.8188     6.5654   -36.0166
  305.0000  -999.2500  -999.2500  -999.2500   174.7021     5.7463     6.5912   -36.1598
  305.5000  -999.2500  -999.2500  -999.2500   175.0074     5.6740     6.6135   -36.2205
  306.0000  -999.2500  -999.2500  -999.2500   176.2369     5.6416     6.6386   -36.3170
  306.5000  -999.2500  -999.2500  -999.2500   176.8926     5.5195     6.6509   -36.4460
  307.0000  -999.2500  -999.2500  -999.2500   177.6222     5.4566     6.6432   -36.4452
