~VERSION INFORMATION
 VERS.                2.0:   CWLS LOG ASCII STANDARD - VERSION 2.0
 WRAP.                 NO:   ONE LINE PER DEPTH STEP
~WELL INFORMATION
#MNEM.UNIT      DATA TYPE    INFORMATION
#----------   ------------   ------------------------------
 STRT.F           25.0000:   START DEPTH
 STOP.F          867.0000:   STOP DEPTH
 STEP.F            0.5000:   STEP LENGTH
 NULL.          -999.2500:   NO VALUE
 COMP. LAWRENCE/ALLISON INC:   COMPANY
 WELL.    38-11 SX #35-35:   WELL
 FLD .             TEAPOT:   FIELD
 LOC .      S35 T39N R78W:   LOCATION
 CNTY.            NATRONA:   COUNTY
 STAT.            WYOMING:   STATE
 CTRY. UNITED STATES OF AMERICA:   COUNTRY
 SRVC.      Dresser Atlas:   SERVICE COMPANY
 DATE.        07-AUG-1985:   LOGDATE
 API .       490251104100:   API NUMBER
~CURVE INFORMATION
#MNEM.UNIT       API CODE    CURVE DESCRIPTION
#----------   ------------   ------------------------------
 DEPT.F                  :   
 SPR .MV     07 010 01 00:   SPONTANEOUS POTENTIAL
 RILD.OHMM   07 120 46 00:   INDUCTION LOG DEEP RESISTIVITY
 RILM.OHMM   07 120 44 00:   INDUCTION LOG MEDIUM RESISTIVITY
 RFOC.OHMM   07 220 04 00:   RESISTIVITY FOCUSED LOG
 PORD.DEC    45 890 12 00:   POROSITY DENSITY SANDSTONE
 CNC .DEC    42 890 03 00:   NEUTRON POROSITY SANDSTONE
 GRD .GAPI   45 310 01 00:   GAMMA RAY FROM DENSITY LOG
 CALD.IN     45 280 60 00:   CALIPER FROM DENSITY LOG
 CORR.G/C3   45 356 01 00:   DENSITY CORRECTION
 DEN .G/C3   45 350 01 00:   COMPENSATED BULK DENSTIY
~PARAMETER INFORMATION
#MNEM.UNIT          VALUE    DESCRIPTION
#----------   ------------   ------------------------------
 PD  .                 GL:   PERMANENT DATUM
 EPD .F              5110:   ELEVATION PERMANENT DATUM
 LMF .                 GL:   LOG MEASURED FROM
 DMF .                 GL:   DRILLING MEASURED FROM
 EGL .F              5110:   GROUND LEVEL
 DATE.             8-7-85:   RUN DATE
 RUN .                  1:   RUN NUMBER
 DD  .F               900:   DEPTH DRILLER
 DL  .F               869:   DEPTH LOGGER
 BLI .F               867:   BOTTOM LOG INTERVAL
 TLI .F                40:   TOP LOG INTERVAL
 CS  .IN            8.625:   CASING SIZE
 CBD .F                40:   CASING BOTTOM DRILLER
 CBL .F                40:   CASING BOTTOM LOGGER
 BS  .IN            7.875:   BIT SIZE
 BSD .F               900:   BIT SIZE AT DEPTH
 DFT .             4% KCL:   DRILLING FLUID TYPE
 MSS .           FLOWLINE:   MUD SAMPLE SOURCE
 RMS .OHMM           .222:   RESISTIVITY MUD SAMPLE
 MST .F                71:   MUD SAMPLE TEMPERATURE
 TCS .HRS               2:   TIME CURCULATED STOPPED
 MRT .F               100:   MAXIMUM RECORDED TEMPERATURE
 LUN .               6264:   LOGGING UNIT NUMBER
 LUL .               GLTE:   LOGGING UNIT LOCATION
 ENGI.           FAHLSING:   RECORDING ENGINEER
 WITN.              FIVAS:   WITNESSED BY
 CLNT.            A2DTECH:   CLIENT CODE
 ORIG.       2", 5" PRINT:   ORIGIN OF DATA
 UWI .       490251104100:   UNIQUE WELL ID
 DICO. A2D Technologies, Inc.:   DIGITIZING COMPANY
~OTHER INFORMATION
~A   DEPT      SPR       RILD       RILM       RFOC       PORD          CNC      GRD       CALD       CORR        DEN   
# ...
  125.5000   -82.3324     4.7427     4.8102     5.3119     0.1641     0.3604    89.1834     8.8100     0.0479     2.3931
  126.0000   -82.0331     4.6747     4.6780     4.9227     0.1972     0.3543    87.0987     8.8103     0.0974     2.3407
  126.5000   -81.7338     4.6448     4.6126     4.6255     0.2015     0.3478    83.2068     8.7955     0.2100     2.3370
  127.0000   -81.4256     4.6432     4.5797     4.5301     0.2089     0.3522    80.2185     8.7656     0.2546     2.3288
  127.5000   -80.8170     4.6420     4.6420     4.6886     0.1978     0.3559    82.0495     8.7182     0.1933     2.3640
  128.0000   -81.3134     4.7052     4.8704     4.9885     0.1469     0.3628    86.2901     8.6605     0.1409     2.4433
  128.5000   -82.1913     4.7368     5.1810     5.1987     0.1263     0.3435    87.2175     8.6306     0.1499     2.4662
  129.0000   -82.6439     4.8013     5.2882     5.3436     0.1352     0.3336    87.2412     8.6006     0.1949     2.4471
  129.5000   -83.0965     4.8667     5.1072     5.3061     0.1472     0.3555    87.8675     8.5858     0.2278     2.4306
  130.0000   -83.2483     4.8990     4.8651     5.0901     0.1520     0.3537    88.2128     8.5710     0.2279     2.4381
  130.5000   -83.5506     4.9657     5.2472     5.0894     0.1340     0.3378    88.8185     8.5410     0.2174     2.4756
  131.0000   -83.7024     5.0334     5.4734     5.3407     0.1181     0.3339    85.6144     8.5262     0.2114     2.4943
  131.5000   -83.8543     5.1369     5.1725     5.7249     0.1088     0.3378    82.8420     8.5266     0.2115     2.4958
  132.0000   -84.0062     5.2068     5.1002     5.8406     0.1089     0.3431    87.0885     8.5269     0.2145     2.4906
  132.5000   -84.0076     5.2777     5.2415     5.6807     0.1148     0.3512    89.5219     8.5272     0.2175     2.4786
  133.0000   -84.0091     5.3129     5.3867     5.6021     0.1219     0.3781    89.5457     8.5124     0.1801     2.4697
  133.5000   -84.0106     5.3852     5.4650     5.5626     0.1264     0.3662    90.7743     8.4674     0.1712     2.4637
  134.0000   -84.0121     5.3837     5.5415     5.5618     0.1288     0.3413    94.7137     8.3921     0.1742     2.4667
  134.5000   -84.0136     5.3822     5.7267     5.6386     0.1228     0.3329    95.6351     8.3924     0.1817     2.4757
  135.0000   -84.0151     5.3070     5.6858     5.7955     0.1198     0.3416    88.7371     8.4078     0.1907     2.4750
  135.5000   -84.1669     5.2647     5.4915     6.2519     0.1282     0.3317    82.7368     8.4081     0.2162     2.4399
  136.0000   -84.4812     5.1597     5.3406     6.1229     0.1463     0.3296    76.4352     8.4085     0.2312     2.4055
  136.5000   -85.0927     5.0873     5.1581     5.7137     0.1659     0.3392    75.5494     8.4088     0.2312     2.3951
  137.0000   -85.5251     5.0163     5.0163     5.3687     0.1698     0.3535    80.0972     8.4091     0.2253     2.3943
  137.5000   -85.6770     4.9462     4.9122     5.1858     0.1695     0.3652    84.3378     8.4094     0.2252     2.3945
  138.0000   -85.6785     4.9108     4.8771     5.0788     0.1653     0.3784    85.2652     8.4097     0.2107     2.4048
  138.5000   -85.6799     4.8757     4.8758     5.0432     0.1545     0.3813    85.8916     8.4100     0.1326     2.4333
  139.0000   -85.6814     4.9425     4.8745     5.0078     0.1422     0.3607    86.2692     8.4254     0.1206     2.4580
  139.5000   -85.5322     5.0441     4.8732     5.0418     0.1296     0.3457    87.7461     8.4257     0.1476     2.4730
  140.0000   -85.5340     5.1131     4.9737     5.1112     0.1215     0.3355    82.0529     8.4410     0.1746     2.4872
  140.5000   -85.3847     5.2183     5.1115     5.3636     0.1131     0.3283    78.1610     8.4112     0.1581     2.4947
  141.0000   -85.0855     5.2894     5.2895     5.6690     0.1068     0.3256    81.7993     8.3662     0.1626     2.4985
  141.5000   -84.7866     5.3249     5.6282     5.8733     0.1107     0.3257    85.1363     8.3514     0.1986     2.4873
  142.0000   -84.4873     5.3971     5.8227     5.9876     0.1140     0.3419    86.9673     8.3215     0.2555     2.4970
  142.5000   -84.3383     5.4330     5.6959     5.8639     0.1020     0.3678    87.5934     8.2915     0.2990     2.5150
  143.0000   -84.3399     5.3941     5.5066     5.8227     0.0972     0.3612    88.8220     8.2918     0.3334     2.5173
  143.5000   -84.3414     5.3556     5.5816     5.9438     0.1037     0.3483    90.3518     8.2770     0.3514     2.5031
  144.0000   -84.3429     5.2807     5.6968     5.8211     0.1262     0.3262    90.0743     8.2774     0.3320     2.4702
  144.5000   -84.3443     5.2793     5.7351     5.7803     0.1304     0.3235    87.0861     8.2928     0.3155     2.4590
  145.0000   -84.3458     5.2778     5.6546     5.7398     0.1260     0.3447    85.5979     8.3233     0.2737     2.4702
  145.5000   -84.3474     5.2400     5.5756     5.6603     0.1193     0.3794    91.0492     8.3538     0.2183     2.4815
  146.0000   -84.3492     5.2384     5.4977     5.6595     0.1121     0.3863    94.3863     8.3692     0.1942     2.4927
  146.5000   -84.3506     5.2369     5.4962     5.6587     0.1130     0.3650    93.5064     8.3695     0.2184     2.4897
  147.0000   -84.3521     5.2355     5.6096     5.6468     0.1267     0.3507    91.1205     8.3094     0.2902     2.4700
  147.5000   -84.3536     5.2341     5.7650     5.6191     0.1477     0.3482    89.0210     8.2945     0.3097     2.4306
  148.0000   -84.3551     5.2327     5.8037     5.5914     0.1462     0.3494    87.5220     8.2949     0.2708     2.4307
  148.5000   -84.5070     5.2312     5.7222     5.5781     0.1470     0.3594    86.6737     8.2952     0.1721     2.4342
  149.0000   -84.8092     5.2664     5.6423     5.6158     0.1348     0.4063    86.7034     8.2955     0.1192     2.4629
  149.5000   -84.9610     5.2646     5.6407     5.6542     0.1081     0.4129    87.9320     8.2958     0.1661     2.4936
  150.0000   -85.1129     5.2709     5.6004     5.6534     0.1063     0.3942    89.2809     8.3112     0.2260     2.5026
  150.5000   -85.2899     5.3161     5.7169     5.6668     0.1230     0.3528    91.2931     8.3119     0.2367     2.4815
  151.0000   -85.4827     5.3613     5.5221     5.6792     0.1359     0.3255    92.8231     8.3292     0.1863     2.4595
  151.5000   -85.5774     5.3752     5.2610     5.6509     0.1395     0.3222    91.6423     8.3587     0.1210     2.4467
  152.0000   -84.9803     5.4939     5.2967     5.4208     0.1386     0.3210    89.2567     8.3746     0.1252     2.4482
  152.5000   -84.1829     5.7678     5.5581     5.4576     0.1457     0.3222    86.5699     8.3755     0.1561     2.4371
  153.0000   -83.1859     6.0786     5.8727     5.7668     0.1520     0.3090    86.8951     8.3763     0.1576     2.4259
  153.5000   -82.7392     6.2478     6.2066     6.3075     0.1400     0.3030    87.2203     8.3921     0.1203     2.4499
  154.0000   -82.4429     6.2902     6.3778     6.9466     0.1098     0.3216    86.0395     8.3929     0.0754     2.4986
  154.5000   -82.2959     6.2894     6.3718     7.1897     0.1056     0.3252    80.9430     8.3783     0.0995     2.4979
  155.0000   -82.3015     6.1597     6.2383     7.2387     0.1065     0.3276    79.7562     8.3640     0.1520     2.5009
  155.5000   -82.1556     6.0327     6.0327     6.8486     0.0996     0.3360    88.5212     8.2894     0.2254     2.5189
  156.0000   -82.1601     5.9492     5.9492     6.3908     0.0861     0.3576    92.1597     8.3052     0.2928     2.5384
  156.5000   -82.0130     5.7865     5.7865     6.1306     0.0996     0.3664    94.2921     8.3513     0.2615     2.4981
  157.0000   -81.5675     5.5511     5.6282     6.0041     0.1091     0.3609    96.7258     8.3973     0.2136     2.4936
  157.5000   -81.1209     5.3253     5.3621     5.7996     0.1097     0.3552   100.3643     8.3830     0.1927     2.4959
  158.0000   -80.5238     5.1796     5.1796     5.6409     0.1214     0.3489    96.1714     8.3535     0.2482     2.4616
  158.5000   -79.9268     5.2148     5.1433     5.5196     0.1369     0.3477    90.7737     8.3088     0.2528     2.4287
