~VERSION INFORMATION
 VERS.                2.0:   CWLS LOG ASCII STANDARD - VERSION 2.0
 WRAP.                 NO:   ONE LINE PER DEPTH STEP
~WELL INFORMATION
#MNEM.UNIT      DATA TYPE    INFORMATION
#----------   ------------   ------------------------------
 STRT.F         1099.5000:   START DEPTH
 STOP.F         2700.0000:   STOP DEPTH
 STEP.F            0.5000:   STEP LENGTH
 NULL.          -999.2500:   NO VALUE
 COMP. LAWRENCE/ALLISON INC NPR #3:   COMPANY
 WELL.   47 STX 14 #47-14:   WELL
 FLD .             TEAPOT:   FIELD
 LOC .      S14 T38N R78W:   LOCATION
 CNTY.            NATRONA:   COUNTY
 STAT.            WYOMING:   STATE
 CTRY. UNITED STATES OF AMERICA:   COUNTRY
 SRVC.            Unknown:   SERVICE COMPANY
 DATE.        01-SEP-1988:   LOGDATE
 API .       490251124400:   API NUMBER
~CURVE INFORMATION
#MNEM.UNIT       API CODE    CURVE DESCRIPTION
#----------   ------------   ------------------------------
 DEPT.F                  :   
 ROP .MIN/FT 91 810 01 00:   RATE OF DRILLING PENETRATION
 TGAS.UNITS  91 830 01 00:   TOTAL GAS FROM HOTWIRE
~PARAMETER INFORMATION
#MNEM.UNIT          VALUE    DESCRIPTION
#----------   ------------   ------------------------------
 EKB .F              5286:   KELLING BUSHING
 EGL .F              5276:   GROUND LEVEL
 DATE.             9-1-88:   RUN DATE
 DD  .F              2700:   DEPTH DRILLER
 CBD .F              1088:   CASING BOTTOM DRILLER
 TCS .HRS            1200:   TIME CURCULATED STOPPED
 TLAB.HRS            1223:   TIME LOGGER AT BOTTOM
 ENGI.               HUSK:   RECORDING ENGINEER
 WITN.           PETERSON:   WITNESSED BY
 CLNT.            A2DTECH:   CLIENT CODE
 ORIG.           5" PRINT:   ORIGIN OF DATA
 UWI .       490251124400:   UNIQUE WELL ID
 DICO. A2D Technologies, Inc.:   DIGITIZING COMPANY
~OTHER INFORMATION
~A  DEPT       ROP       TGAS   
# ...
 1464.0000     0.4149     0.3480
 1464.5000     0.4146     0.3295
 1465.0000     0.3954     0.3110
 1465.5000     0.3697     0.2925
 1466.0000     0.3410     0.2741
 1466.5000     0.3087     0.2556
 1467.0000     0.2917     0.2371
 1467.5000     0.2887     0.2186
 1468.0000     0.2987     0.2002
 1468.5000     0.3397     0.1817
 1469.0000     0.3911     0.1632
 1469.5000     0.4631     0.1447
 1470.0000     0.5248     0.1263
 1470.5000     0.5038     0.1078
 1471.0000     0.4931     0.0893
 1471.5000     0.4928     0.0708
 1472.0000     0.5029     0.0523
 1472.5000     0.5439     0.0339
 1473.0000     0.5746     0.0154
 1473.5000     0.5846     0.0000
 1474.0000     0.5401     0.0000
 1474.5000     0.4873     0.0000
 1475.0000     0.4436     0.0000
 1475.5000     0.4181     0.0000
 1476.0000     0.4178     0.0000
 1476.5000     0.4175     0.0000
 1477.0000     0.4171     0.0000
 1477.5000     0.4168     0.0000
 1478.0000     0.4165     0.0000
 1478.5000     0.4162     0.0000
 1479.0000     0.4083     0.2642
 1479.5000     0.3736     0.2972
 1480.0000     0.3533     0.3302
 1480.5000     0.3634     0.3633
 1481.0000     0.3630     0.3964
 1481.5000     0.3627     0.4380
 1482.0000     0.3624     0.4948
 1482.5000     0.3621     0.5516
 1483.0000     0.3618     0.6084
 1483.5000     0.3615     0.6652
 1484.0000     0.3678     0.7220
 1484.5000     0.4037     0.7788
 1485.0000     0.4594     0.8356
 1485.5000     0.5106     0.8924
 1486.0000     0.5649     0.9492
 1486.5000     0.4976     1.0060
 1487.0000     0.4545     1.0628
 1487.5000     0.4115     1.1197
 1488.0000     0.3897     1.1765
 1488.5000     0.3894     1.2333
 1489.0000     0.3925     1.2901
 1489.5000     0.3991     1.3469
 1490.0000     0.4029     1.4037
 1490.5000     0.3998     0.0000
 1491.0000     0.3636     0.0000
 1491.5000     0.3203     0.0000
 1492.0000     0.2879     0.0000
 1492.5000     0.3027     0.5023
 1493.0000     0.3808     1.0858
 1493.5000     0.4371     0.8091
 1494.0000     0.4549     0.8422
 1494.5000     0.4360     1.0300
 1495.0000     0.4037     1.3211
 1495.5000     0.3747     0.7865
 1496.0000     0.3744     0.1486
 1496.5000     0.3741     0.0000
 1497.0000     0.3738     0.0000
 1497.5000     0.3735     0.0000
 1498.0000     0.3731     0.1432
 1498.5000     0.3728     0.3138
 1499.0000     0.3725     0.3468
 1499.5000     0.3722     0.3798
 1500.0000     0.3719     0.0000
 1500.5000     0.4034     0.1581
 1501.0000     0.4446     0.3066
 1501.5000     0.4748     0.4551
 1502.0000     0.4931     0.6035
 1502.5000     0.4789     0.7520
 1503.0000     0.4551     0.9005
 1503.5000     0.4246     1.0489
 1504.0000     0.4050     1.1974
 1504.5000     0.3937     1.3459
 1505.0000     0.3853     1.4944
 1505.5000     0.3846     1.6428
 1506.0000     0.3839     1.7913
 1506.5000     0.3832     2.1200
 1507.0000     0.3698     3.1789
 1507.5000     0.3462     3.3587
 1508.0000     0.3300     3.6985
 1508.5000     0.3234     3.8193
 1509.0000     0.3387     3.9402
 1509.5000     0.3650     4.0610
 1510.0000     0.3962     4.1819
 1510.5000     0.4147     4.3027
 1511.0000     0.4180     4.4236
 1511.5000     0.4242     4.5445
 1512.0000     0.4341     4.6653
 1512.5000     0.4440     4.7862
 1513.0000     0.4461     4.9070
 1513.5000     0.4454     5.0279
 1514.0000     0.4343     5.1193
 1514.5000     0.4127     5.1043
 1515.0000     0.3907     5.0372
 1515.5000     0.3694     4.9701
 1516.0000     0.3570     4.9030
 1516.5000     0.3364     4.8359
 1517.0000     0.3267     4.7688
 1517.5000     0.3259     4.7017
 1518.0000     0.3252     4.6346
 1518.5000     0.3245     4.5675
 1519.0000     0.3294     4.5004
 1519.5000     0.3500     4.4333
 1520.0000     0.3671     4.3662
 1520.5000     0.3770     4.2991
 1521.0000     0.3829     4.2320
 1521.5000     0.3821     4.1650
 1522.0000     0.3814     4.0979
 1522.5000     0.3856     4.0308
 1523.0000     0.3903     3.9637
 1523.5000     0.3951     3.8966
 1524.0000     0.3992     3.8808
 1524.5000     0.3985     3.9014
 1525.0000     0.4042     3.9220
 1525.5000     0.4276     3.9427
 1526.0000     0.4552     3.9633
 1526.5000     0.4178     3.9839
 1527.0000     0.3847     4.0046
 1527.5000     0.3627     4.0287
 1528.0000     0.3521     4.0487
 1528.5000     0.3513     4.0688
 1529.0000     0.3443     4.0888
 1529.5000     0.3396     4.1088
 1530.0000     0.3457     4.1288
 1530.5000     0.3485     4.1491
 1531.0000     0.3477     4.1697
 1531.5000     0.3470     4.1904
 1532.0000     0.3625     4.2110
 1532.5000     0.3867     4.2902
 1533.0000     0.4170     4.6617
 1533.5000     0.4473     4.2688
 1534.0000     0.4673     4.2935
 1534.5000     0.4666     4.3142
 1535.0000     0.4452     4.3349
 1535.5000     0.4239     4.3555
 1536.0000     0.4125     4.3762
 1536.5000     0.3914     4.3968
 1537.0000     0.3907     4.4174
 1537.5000     0.3900     4.4381
 1538.0000     0.3891     4.4587
 1538.5000     0.3781     4.4793
 1539.0000     0.3877     4.5000
 1539.5000     0.3870     4.5206
 1540.0000     0.3863     4.5413
 1540.5000     0.3959     4.5164
 1541.0000     0.4056     4.4539
 1541.5000     0.4152     4.3915
 1542.0000     0.4145     4.3290
 1542.5000     0.4137     4.2665
 1543.0000     0.4121     4.2041
 1543.5000     0.3995     4.1416
 1544.0000     0.3790     4.0792
 1544.5000     0.3695     4.0167
 1545.0000     0.3688     3.9542
 1545.5000     0.3656     3.8918
 1546.0000     0.3570     3.8293
 1546.5000     0.3563     3.7668
 1547.0000     0.3589     3.7044
 1547.5000     0.3798     3.6419
 1548.0000     0.4097     3.5794
 1548.5000     0.4197     3.5170
 1549.0000     0.4204     3.4545
 1549.5000     0.4139     3.3921
 1550.0000     0.4081     3.3296
 1550.5000     0.4022     3.3094
 1551.0000     0.4130     3.3093
 1551.5000     0.4335     3.3092
 1552.0000     0.4604     3.3092
 1552.5000     0.4916     3.3091
 1553.0000     0.5158     3.3090
 1553.5000     0.5509     3.3090
 1554.0000     0.5592     3.3089
 1554.5000     0.4779     3.3088
 1555.0000     0.3956     3.3088
 1555.5000     0.3949     3.3087
 1556.0000     0.4045     3.3086
 1556.5000     0.4038     3.3086
 1557.0000     0.4031     3.3085
 1557.5000     0.4024     3.3084
 1558.0000     0.4017     3.3084
 1558.5000     0.4009     3.3083
 1559.0000     0.4002     3.3082
 1559.5000     0.3995     3.3082
 1560.0000     0.3967     3.3081
 1560.5000     0.3877     3.3080
 1561.0000     0.3870     3.3080
 1561.5000     0.3863     3.3079
 1562.0000     0.3889     3.3078
 1562.5000     0.3988     3.3078
 1563.0000     0.4127     3.3077
 1563.5000     0.4247     3.3076
 1564.0000     0.4286     3.3076
 1564.5000     0.4286     3.3075
 1565.0000     0.4225     3.3074
 1565.5000     0.4218     3.3074
 1566.0000     0.4211     3.3073
 1566.5000     0.4141     3.3072
 1567.0000     0.4158     3.3072
 1567.5000     0.4189     3.3071
 1568.0000     0.4182     3.3070
 1568.5000     0.4175     3.3070
 1569.0000     0.4167     3.3069
 1569.5000     0.4241     3.3068
 1570.0000     0.4256     3.3068
 1570.5000     0.4145     3.3067
 1571.0000     0.4138     3.3066
 1571.5000     0.4131     3.3066
 1572.0000     0.4124     3.3065
 1572.5000     0.4220     3.3064
 1573.0000     0.4316     3.3064
 1573.5000     0.4309     3.3063
 1574.0000     0.4302     3.3062
 1574.5000     0.4275     3.3062
 1575.0000     0.4055     3.3061
 1575.5000     0.3835     3.3060
 1576.0000     0.3595     3.3060
 1576.5000     0.3313     3.3059
 1577.0000     0.3225     3.3058
 1577.5000     0.3189     3.3058
 1578.0000     0.3107     3.3057
 1578.5000     0.3100     3.3056
 1579.0000     0.3131     3.3056
 1579.5000     0.3189     3.3055
 1580.0000     0.3271     3.3054
 1580.5000     0.3525     3.3054
 1581.0000     0.3837     3.3053
 1581.5000     0.4204     3.3052
 1582.0000     0.4565     3.3052
 1582.5000     0.4756     3.3051
 1583.0000     0.4919     3.3051
 1583.5000     0.5058     3.3050
 1584.0000     0.5087     3.3049
 1584.5000     0.4933     3.3049
 1585.0000     0.4789     3.3048
