~VERSION INFORMATION
 VERS.                2.0:   CWLS LOG ASCII STANDARD - VERSION 2.0
 WRAP.                 NO:   ONE LINE PER DEPTH STEP
~WELL INFORMATION
#MNEM.UNIT      DATA TYPE    INFORMATION
#----------   ------------   ------------------------------
 STRT.F            0.0000:   START DEPTH
 STOP.F         3139.0000:   STOP DEPTH
 STEP.F            0.5000:   STEP LENGTH
 NULL.          -999.2500:   NO VALUE
 COMP. BROWN JOHN E&C INC:   COMPANY
 WELL.       TX-10 #63-10:   WELL
 FLD .             TEAPOT:   FIELD
 LOC .      S10 T38N R78W:   LOCATION
 CNTY.            NATRONA:   COUNTY
 STAT.            WYOMING:   STATE
 CTRY. UNITED STATES OF AMERICA:   COUNTRY
 SRVC.       Schlumberger:   SERVICE COMPANY
 DATE.        05-OCT-1982:   LOGDATE
 API .       490251090100:   API NUMBER
~CURVE INFORMATION
#MNEM.UNIT       API CODE    CURVE DESCRIPTION
#----------   ------------   ------------------------------
 DEPT.F                  :   
 DPHI.DEC    45 890 12 00:   DENSITY POROSITY  SANDSTONE
 GRD .GAPI   45 310 01 00:   GAMMA RAY FROM DENSITY LOG
 NPHI.DEC    42 890 03 00:   NEUTRON POROSITY SANDSTONE
 CALD.IN     45 280 60 00:   CALIPER FROM DENSITY LOG
 CORR.G/C3   45 356 01 00:   DENSITY CORRECTION
 RHOB.G/C3   45 350 01 00:   BULK DENSITY
 ILD .OHMM   07 120 46 00:   INDUCTION LOG DEEP
 ILM .OHMM   07 120 44 00:   INDUCTION LOG MEDIUM
 SFLU.OHMM   07 220 01 00:   SPHERICALLY FOCUSED LOG UNAVERAGED RESISTIVITY
 SPR .MV     07 010 01 00:   SPONTANEOUS POTENTIAL
~PARAMETER INFORMATION
#MNEM.UNIT          VALUE    DESCRIPTION
#----------   ------------   ------------------------------
 PD  .                 GL:   PERMANENT DATUM
 EPD .F              5189:   ELEVATION PERMANENT DATUM
 LMF .                 KB:   LOG MEASURED FROM
 DAPD.F                10:   FEET ABOVE PERMANENT DATUM
 DMF .                 KB:   DRILLING MEASURED FROM
 EKB .F              5199:   KELLING BUSHING
 EGL .F              5189:   GROUND LEVEL
 DATE.        05-OCT-1982:   RUN DATE
 RUN .                  1:   RUN NUMBER
 DD  .F              3200:   DEPTH DRILLER
 DL  .F              3142:   DEPTH LOGGER
 BLI .F              3139:   BOTTOM LOG INTERVAL
 TLI .F               484:   TOP LOG INTERVAL
 CS  .IN            9.625:   CASING SIZE
 CBD .F               482:   CASING BOTTOM DRILLER
 CBL .F               484:   CASING BOTTOM LOGGER
 BS  .IN            7.875:   BIT SIZE
 BSD .F              3200:   BIT SIZE AT DEPTH
 DFT .        KCL/POLYMER:   DRILLING FLUID TYPE
 DFD .                8.6:   DRILLING FLUID DENSITY
 DFV .                 38:   DRILLING FLUID VISCOSITY
 DFPH.                8.5:   DRILLING FLUID PH
 DFL .                6.8:   DRILLING FLUID LOSS
 MSS .           MUD TANK:   MUD SAMPLE SOURCE
 RMS .OHMM            .40:   RESISTIVITY MUD SAMPLE
 MST .F                64:   MUD SAMPLE TEMPERATURE
 RMF .OHMM            .34:   RESISTIVITY MUD FILTRATE SAMPLE
 MFST.F                64:   MUD FILTRATE SAMPLE TEMPERATURE
 RMC .OHMM            .36:   RESISTIVITY MUD CAKE
 MCST.F                64:   MUD CAKE SAMPLE TEMPERATURE
 MFSS.               MEAS:   MUD FILTRATE SAMPLE SOURCE
 MCSS.               CALC:   MUD CAKE SAMPLE SOURCE
 RMB .OHMM             .2:   RESISTIVITY MUD AT BHT
 BHT .F               125:   BOTTOM HOLE TEMPERATURE
 TCS .HRS            2300:   TIME CURCULATED STOPPED
 TLAB.HRS            0500:   TIME LOGGER AT BOTTOM
 MRT .F               125:   MAXIMUM RECORDED TEMPERATURE
 LUN .               8043:   LOGGING UNIT NUMBER
 LUL .                GLT:   LOGGING UNIT LOCATION
 ENGI.            NEUFFER:   RECORDING ENGINEER
 WITN.             STRONG:   WITNESSED BY
 CLNT.            A2DTECH:   CLIENT CODE
 ORIG.           5" PRINT:   ORIGIN OF DATA
 UWI .       490251090100:   UNIQUE WELL ID
 DICO. A2D Technologies, Inc.:   DIGITIZING COMPANY
~OTHER INFORMATION
~A    DEPT    DPHI          GRD     NPHI       CALD       CORR       RHOB        ILD        ILM       SFLU        SPR   
# ...
 2412.0000     0.0810   105.7574     0.2893    11.6795     0.0172     2.5246     8.5288     8.2233     8.7041   -25.5633
 2412.5000     0.0854   106.6382     0.2952    11.6487     0.0171     2.5178     8.5254     8.2217     8.7633   -25.5704
 2413.0000     0.0911   102.4655     0.2988    11.6167     0.0170     2.5110     8.4632     8.2202     8.7611   -25.5775
 2413.5000     0.0928   101.6111     0.2881    11.5870     0.0162     2.5065     8.4597     8.2185     8.8815   -25.5863
 2414.0000     0.0857   103.0806     0.2745    11.5563     0.0138     2.5050     8.4561     8.1039     8.8793   -25.5934
 2414.5000     0.0822   103.6637     0.2642    11.5255     0.0153     2.5125     8.3361     7.8816     8.7556   -25.6003
 2415.0000     0.0781   104.5418     0.2589    11.4795     0.0182     2.5230     8.2756     7.7720     8.5149   -25.6094
 2415.5000     0.0763   105.7163     0.2674    11.4335     0.0197     2.5334     8.1028     7.6636     8.2804   -25.6165
 2416.0000     0.0799   107.7757     0.2743    11.4179     0.0166     2.5229     7.8790     7.5050     7.9973   -25.6236
 2416.5000     0.0822   111.8986     0.2778    11.3871     0.0150     2.5184     7.6607     7.3497     7.8314   -25.6307
 2417.0000     0.0784   116.0230     0.2763    11.3715     0.0179     2.5199     7.6050     7.2475     7.7223   -25.4876
 2417.5000     0.0752   118.0838     0.2739    11.3406     0.0338     2.5303     7.6021     7.1959     7.8280   -25.4947
 2418.0000     0.0790   113.0608     0.2716    11.3098     0.0391     2.5333     7.6518     7.1945     7.8808   -25.3495
 2418.5000     0.0823   108.6305     0.2704    11.3094     0.0367     2.5213     7.7018     7.2433     8.0445   -25.3587
 2419.0000     0.0826   107.7401     0.2692    11.2938     0.0313     2.5198     7.6980     7.2917     8.1551   -25.0618
 2419.5000     0.0831   108.6461     0.2674    11.2932     0.0267     2.5205     7.7259     7.3408     8.1531   -25.0684
 2420.0000     0.0870   109.4991     0.2718    11.2928     0.0265     2.5212     7.8025     7.3390     8.0394   -24.9240
 2420.5000     0.0926   109.4922     0.2798    11.3077     0.0204     2.5092     7.9036     7.4396     8.0379   -24.7791
 2421.0000     0.0914   108.8968     0.2792    11.2920     0.0143     2.5002     7.9561     7.4912     7.9809   -24.6343
 2421.5000     0.0851   107.1200     0.2718    11.2762     0.0157     2.5032     8.0073     7.5920     8.0347   -24.4911
 2422.0000     0.0826   104.7547     0.2686    11.2758     0.0211     2.5151     8.0034     7.6435     8.0328   -24.4985
 2422.5000     0.0903   103.5693     0.2659    11.2754     0.0224     2.5227     8.0003     7.6416     8.0874   -24.5061
 2423.0000     0.0920   103.5624     0.2686    11.2750     0.0155     2.5068     7.9972     7.6931     8.1981   -24.5142
 2423.5000     0.0885   103.5569     0.2730    11.2744     0.0071     2.5046     7.9941     7.6912     8.2534   -24.5213
 2424.0000     0.0882   103.5515     0.2768    11.2740     0.0079     2.5075     7.9902     7.6897     8.2514   -24.5302
 2424.5000     0.0923   103.5446     0.2774    11.2736     0.0137     2.5120     7.9871     7.7415     8.2498   -24.5365
 2425.0000     0.0953   103.2442     0.2612    11.2731     0.0152     2.5060     7.9995     7.7399     8.3631   -24.5444
 2425.5000     0.0926    99.1089     0.2455    11.2879     0.0075     2.4992     8.0420     7.7381     8.5957   -24.5517
 2426.0000     0.0903    95.5280     0.2396    11.2874     0.0006     2.5030     8.0885     7.7366     8.7142   -24.7123
 2426.5000     0.0885    94.6718     0.2435    11.2869     0.0013     2.5074     8.0848     7.7351     8.5924   -24.7194
 2427.0000     0.0868    97.3212     0.2497    11.3017     0.0050     2.5082     8.0817     7.7332     8.4726   -24.8785
 2427.5000     0.0856   104.4382     0.2488    11.3011     0.0072     2.5089     8.1396     7.7317     8.3541   -24.8873
 2428.0000     0.0856   106.1598     0.2430    11.3007     0.0132     2.5134     8.1877     7.7302     8.5277   -24.8944
 2428.5000     0.0886   105.8580     0.2390    11.3003     0.0177     2.5148     8.1837     7.6222     8.6453   -24.7478
 2429.0000     0.0897   105.8525     0.2440    11.2998     0.0222     2.5088     8.1243     7.4133     8.7032   -24.6047
 2429.5000     0.0874   105.5507     0.2558    11.2993     0.0259     2.5073     7.8448     7.3102     8.4635   -24.6136
 2430.0000     0.0856   105.2502     0.2665    11.2989     0.0266     2.5103     7.6810     7.1097     8.3456   -24.3167
 2430.5000     0.0877   104.6547     0.2697    11.2985     0.0265     2.5148     7.5206     7.0078     8.0046   -24.3238
 2431.0000     0.0912   103.7629     0.2597    11.2980     0.0173     2.5147     7.5177     7.0173     7.5718   -24.1789
 2431.5000     0.0918   108.1823     0.2535    11.2823     0.0119     2.5072     7.5141     7.1544     7.7828   -24.0340
 2432.0000     0.0898   111.7166     0.2529    11.2819     0.0118     2.5042     7.5112     7.2026     7.9997   -24.0429
 2432.5000     0.0868   115.2496     0.2579    11.2663     0.0141     2.5049     7.4566     7.1459     8.2226   -24.0502
 2433.0000     0.0851   114.3592     0.2606    11.2659     0.0201     2.5101     7.3002     7.1007     7.5655   -24.0589
 2433.5000     0.0845   112.8787     0.2608    11.2653     0.0294     2.5139     7.0012     7.0020     7.4601   -24.0660
 2434.0000     0.0854   112.8968     0.2602    11.2649     0.0381     2.5146     6.8079     6.8571     7.5104   -24.0731
 2434.5000     0.0874   116.7012     0.2641    11.2645     0.0419     2.5131     6.5743     6.6687     7.3982   -24.0819
 2435.0000     0.0930   119.3506     0.3013    11.2640     0.0428     2.5115     6.3481     6.4858     7.1521   -24.0890
 2435.5000     0.1042   121.7050     0.3042    11.2483     0.0352     2.5070     6.2587     6.3079     6.6727   -24.0957
 2436.0000     0.1069   115.7985     0.3010    11.2479     0.0181     2.4883     6.1704     6.1349     6.2685   -24.1033
 2436.5000     0.1046   109.0083     0.2954    11.2475     0.0127     2.4815     6.1680     5.8845     6.2241   -24.1121
 2437.0000     0.0940   105.1681     0.2841    11.2622     0.0103     2.4860     6.3377     6.1747     6.5314   -24.1192
 2437.5000     0.0865   103.9813     0.2632    11.2617     0.0110     2.5032     6.6489     6.5241     6.8070   -24.1263
 2438.0000     0.0825   104.2708     0.2611    11.2461     0.0117     2.5189     7.0724     6.7999     7.1434   -23.8294
 2438.5000     0.0843   105.1503     0.2605    11.2305     0.0109     2.5181     7.3305     7.0849     7.6006   -23.6863
 2439.0000     0.0834   106.9147     0.2564    11.2300     0.0108     2.5189     7.7834     7.2818     8.0874   -23.5397
 2439.5000     0.0740   108.0878     0.2454    11.1992     0.0145     2.5218     8.2222     7.4843     8.4290   -23.5485
 2440.0000     0.0566   107.4923     0.2378    11.1987     0.0251     2.5361     8.4492     7.7488     8.7842   -23.2517
 2440.5000     0.0492   105.9795     0.2424    11.1831     0.0463     2.5608     8.3293     7.9058     8.6016   -23.2606
 2441.0000     0.0522   105.1201     0.2513    11.1675     0.0941     2.5803     8.0992     7.8495     8.3652   -23.2677
 2441.5000     0.0735   105.4097     0.2575    11.1519     0.0993     2.5743     8.0404     7.7404     8.1917   -23.2765
 2442.0000     0.0905   106.9027     0.2626    11.1362     0.0468     2.5322     8.0930     7.7388     8.1336   -23.2836
 2442.5000     0.0949   108.0536     0.2561    11.1358     0.0224     2.5037     8.0890     7.8446     8.2450   -23.2907
 2443.0000     0.0893   108.3431     0.2528    11.1202     0.0132     2.4969     8.1419     7.8978     8.3010   -23.2979
 2443.5000     0.0837   107.1563     0.2587    11.1046     0.0154     2.5112     8.2519     8.0057     8.4146   -23.3067
 2444.0000     0.0837   106.8545     0.2676    11.0889     0.0214     2.5157     8.2486     8.1154     8.2974   -23.3138
 2444.5000     0.0834   107.7339     0.2729    11.0733     0.0259     2.5171     8.1880     8.0022     8.1813   -23.3209
 2445.0000     0.0769   108.6134     0.2767    11.0728     0.0289     2.5216     8.0726     7.8909     8.1233   -23.3297
