~VERSION INFORMATION
 VERS.                2.0:   CWLS LOG ASCII STANDARD - VERSION 2.0
 WRAP.                 NO:   ONE LINE PER DEPTH STEP
~WELL INFORMATION
#MNEM.UNIT      DATA TYPE    INFORMATION
#----------   ------------   ------------------------------
 STRT.F           28.5000:   START DEPTH
 STOP.F          781.0000:   STOP DEPTH
 STEP.F            0.5000:   STEP LENGTH
 NULL.          -999.2500:   NO VALUE
 COMP. FENIX & SCISSON INC:   COMPANY
 WELL. NPR 3 23 SX 14 #23-14:   WELL
 FLD .        TEAPOT DOME:   FIELD
 LOC .      S14 T38N R78W:   LOCATION
 CNTY.            NATRONA:   COUNTY
 STAT.            WYOMING:   STATE
 CTRY. UNITED STATES OF AMERICA:   COUNTRY
 SRVC.            Unknown:   SERVICE COMPANY
 DATE.        13-MAY-1978:   LOGDATE
 API .       490251063400:   API NUMBER
~CURVE INFORMATION
#MNEM.UNIT       API CODE    CURVE DESCRIPTION
#----------   ------------   ------------------------------
 DEPT.F                  :   
 RHOB.G/C3   45 350 01 00:   BULK DENSITY
 DPHI.DEC    45 890 12 00:   DENSITY POROSITY SANDSTONE
 GRD .GAPI   45 310 01 00:   GAMMA RAY FROM DENSITY LOG
 CALD.IN     45 280 60 00:   CALIPER FROM DENSITY LOG
 CORR.G/C3   45 356 01 00:   DENSITY CORRECTION
 SN  .OHMM   05 040 16 00:   SHORT NORMAL 16"
 SPR .MV     05 010 01 00:   SPONTANEOUS POTENTIAL FROM RES.
 ILD .OHMM   05 120 46 00:   INDUCTION LOG DEEP
~PARAMETER INFORMATION
#MNEM.UNIT          VALUE    DESCRIPTION
#----------   ------------   ------------------------------
 PD  .                 GL:   PERMANENT DATUM
 EPD .F              5202:   ELEVATION PERMANENT DATUM
 LMF .                 KB:   LOG MEASURED FROM
 DMF .                 KB:   DRILLING MEASURED FROM
 EKB .F              5206:   KELLING BUSHING
 EGL .F              5202:   GROUND LEVEL
 DATE.          5-13-1978:   RUN DATE
 RUN .                  1:   RUN NUMBER
 DD  .F               785:   DEPTH DRILLER
 DL  .F               776:   DEPTH LOGGER
 BLI .F               770:   BOTTOM LOG INTERVAL
 TLI .F                50:   TOP LOG INTERVAL
 CS  .IN            8.625:   CASING SIZE
 CBD .F                40:   CASING BOTTOM DRILLER
 CBL .F                40:   CASING BOTTOM LOGGER
 BS  .IN            7.875:   BIT SIZE
 BSD .F               785:   BIT SIZE AT DEPTH
 DFT .                KCL:   DRILLING FLUID TYPE
 DFD .                8.6:   DRILLING FLUID DENSITY
 DFV .                 30:   DRILLING FLUID VISCOSITY
 DFPH.                 10:   DRILLING FLUID PH
 DFL .                 14:   DRILLING FLUID LOSS
 MSS .           FLOWLINE:   MUD SAMPLE SOURCE
 RMS .OHMM             .4:   RESISTIVITY MUD SAMPLE
 MST .F                69:   MUD SAMPLE TEMPERATURE
 RMF .OHMM            .36:   RESISTIVITY MUD FILTRATE SAMPLE
 MFST.F                72:   MUD FILTRATE SAMPLE TEMPERATURE
 RMC .OHMM            .56:   RESISTIVITY MUD CAKE
 MCST.F                73:   MUD CAKE SAMPLE TEMPERATURE
 MFSS.               MEAS:   MUD FILTRATE SAMPLE SOURCE
 RMB .OHMM            .35:   RESISTIVITY MUD AT BHT
 BHT .F                79:   BOTTOM HOLE TEMPERATURE
 TCS .HRS               2:   TIME CURCULATED STOPPED
 MRT .F                79:   MAXIMUM RECORDED TEMPERATURE
 LUN .               3006:   LOGGING UNIT NUMBER
 LUL .              CASP.:   LOGGING UNIT LOCATION
 ENGI.             MILLER:   RECORDING ENGINEER
 WITN.           MCGINLEY:   WITNESSED BY
 CLNT.            A2DTECH:   CLIENT CODE
 ORIG.           5" PRINT:   ORIGIN OF DATA
 UWI .       490251063400:   UNIQUE WELL ID
 DICO. A2D Technologies, Inc.:   DIGITIZING COMPANY
~OTHER INFORMATION
~A   DEPT     RHOB       DPHI         GRD      CALD       CORR         SN        SPR        ILD   
# ...
  474.0000     2.4739     0.1076    87.5223     7.3253     0.0454     6.9248   -63.7226     4.7611
  474.5000     2.4684     0.1099    88.8739     7.3159     0.0361     7.2188   -63.9603     5.2105
  475.0000     2.4638     0.1121    88.9033     7.3273     0.0321     7.5252   -64.2145     5.7023
  475.5000     2.4617     0.1143    88.9040     7.3736     0.0301     7.7404   -64.4690     5.9681
  476.0000     2.4597     0.1165    89.0788     7.3952     0.0301     7.8103   -64.7206     5.9940
  476.5000     2.4576     0.1187    89.5691     7.4039     0.0301     7.8809   -64.8663     6.0200
  477.0000     2.4555     0.1209    91.1665     7.4124     0.0301     7.9521   -64.6302     6.0461
  477.5000     2.4534     0.1212    92.4310     7.4210     0.0301     8.0239   -64.4048     6.0723
  478.0000     2.4516     0.1186    92.3472     7.4296     0.0312     8.0744   -64.1798     6.0987
  478.5000     2.4569     0.1159    91.2003     7.4301     0.0339     8.0630   -63.9549     6.1252
  479.0000     2.4623     0.1133    89.4349     7.4299     0.0365     8.0542   -63.7292     6.1517
  479.5000     2.4677     0.1106    87.1693     7.4185     0.0393     8.0454   -63.5046     6.1784
  480.0000     2.4708     0.1100    86.1339     7.3881     0.0401     8.0367   -63.3286     6.2052
  480.5000     2.4721     0.1101    85.9738     7.3577     0.0401     8.0280   -63.4185     6.2428
  481.0000     2.4733     0.1094    86.3827     7.3323     0.0401     8.0192   -63.5036     6.2403
  481.5000     2.4745     0.1086    86.7915     7.3770     0.0401     8.0105   -63.5880     6.2363
  482.0000     2.4758     0.1078    86.4655     7.4222     0.0401     8.0018   -63.6723     6.2321
  482.5000     2.4770     0.1081    85.8450     7.4669     0.0401     7.9931   -63.7572     6.2280
  483.0000     2.4783     0.1082    85.9272     7.5117     0.0401     7.9844   -63.8420     6.2239
  483.5000     2.4795     0.1054    86.6165     7.5565     0.0401     7.9757   -63.9008     6.2198
  484.0000     2.4755     0.1038    86.7225     7.6019     0.0400     7.9671   -63.7317     6.2157
  484.5000     2.4708     0.1055    86.6453     7.6152     0.0411     7.9584   -63.5617     6.2116
  485.0000     2.4700     0.1032    87.4584     7.6216     0.0437     7.9499   -63.3953     6.2076
  485.5000     2.4803     0.0970    88.2480     7.6284     0.0500     7.9414   -62.9493     6.2035
  486.0000     2.4903     0.0962    88.0596     7.6100     0.0534     7.9312   -62.2993     6.1994
  486.5000     2.5003     0.1033    86.4165     7.5663     0.0510     7.9337   -61.6424     6.1955
  487.0000     2.5047     0.1058    85.9134     7.4837     0.0487     7.6129   -61.4108     6.1915
  487.5000     2.4928     0.1055    85.7512     7.4026     0.0464     7.3969   -61.2623     6.1853
  488.0000     2.4780     0.1066    86.2223     7.3428     0.0441     7.2758   -61.1558     6.0772
  488.5000     2.4683     0.1082    86.9817     7.3253     0.0418     7.1718   -61.6322     5.8476
  489.0000     2.4677     0.1145    88.7460     7.3070     0.0395     7.0753   -62.1087     5.6266
  489.5000     2.4566     0.1268    90.8089     7.2889     0.0373     6.8404   -62.5816     5.3894
  490.0000     2.4439     0.1379    90.3196     7.2707     0.0376     6.6132   -63.0549     5.1949
  490.5000     2.4302     0.1313    89.8970     7.2525     0.0407     6.3005   -63.5268     5.1588
  491.0000     2.4439     0.1253    94.2663     7.2343     0.0408     6.3586   -63.9380     5.1101
  491.5000     2.4531     0.1191    98.5595     7.2162     0.0385     6.4847   -63.9971     5.0262
  492.0000     2.4560     0.1187   102.8407     7.1979     0.0362     6.6501   -64.0649     4.8998
  492.5000     2.4547     0.1183   104.6503     7.2036     0.0361     6.7810   -64.1166     4.7771
  493.0000     2.4508     0.1275    99.8278     7.2270     0.0361     6.6104   -63.9974     4.6574
  493.5000     2.4450     0.1391    96.5550     7.2514     0.0360     6.4093   -63.4272     4.5247
  494.0000     2.4223     0.1508    94.7686     7.3050     0.0407     6.1403   -62.9269     4.5261
  494.5000     2.3998     0.1526    94.8377     7.4798     0.0476     5.9130   -62.9198     4.6526
  495.0000     2.4004     0.1399    96.4643     7.6474     0.0547     5.9635   -62.9220     4.6398
  495.5000     2.4180     0.1278    98.1075     7.7606     0.0560     6.0176   -62.9225     4.6217
  496.0000     2.4378     0.1158    98.6989     7.8616     0.0523     6.3224   -62.9225     4.6100
  496.5000     2.4575     0.1035    98.5485     7.9362     0.0535     6.6639   -62.9225     4.7389
  497.0000     2.4776     0.1011    97.4354     7.9487     0.0633     7.0239   -62.9225     4.9779
  497.5000     2.4868     0.0963    96.3343     7.9201     0.0730     7.1351   -62.9226     5.2358
  498.0000     2.4937     0.0914    95.8327     7.8886     0.0826     7.1797   -62.9234     5.5071
  498.5000     2.5005     0.0906    95.6833     7.8573     0.0868     7.2315   -62.9224     5.7923
  499.0000     2.4972     0.1008    95.1160     7.8260     0.0816     7.1957   -62.8561     6.0731
  499.5000     2.4823     0.1091    94.4005     7.7949     0.0697     7.1193   -62.5490     5.6322
  500.0000     2.4672     0.1166    93.1222     7.7638     0.0582     6.9555   -62.2495     5.2467
  500.5000     2.4588     0.1210    91.8748     7.7305     0.0475     6.7810   -61.9434     4.8875
  501.0000     2.4482     0.1328    91.2483     7.6448     0.0453     6.4585   -61.9259     4.5261
  501.5000     2.4294     0.1473    91.1194     7.5525     0.0429     6.1213   -61.9277     4.4490
  502.0000     2.4106     0.1591    91.1680     7.4600     0.0404     5.8018   -61.9268     4.3999
  502.5000     2.3930     0.1496    91.2578     7.3715     0.0386     5.4893   -61.9325     4.3512
  503.0000     2.3934     0.1335    91.3478     7.3474     0.0503     5.3894   -62.2071     4.3032
  503.5000     2.4337     0.1175    91.4354     7.3256     0.0468     5.5352   -62.5060     4.2431
  504.0000     2.4604     0.1058    91.4738     7.2905     0.0406     5.8148   -62.8043     4.2973
  504.5000     2.4516     0.1105    91.3538     7.2087     0.0362     6.1075   -63.1022     4.4495
  505.0000     2.4504     0.1126    91.7065     7.1273     0.0371     6.4145   -63.4006     4.6793
  505.5000     2.4578     0.1117    92.4372     7.1100     0.0379     6.7370   -63.6975     4.9446
  506.0000     2.4653     0.1089    92.2009     7.1098     0.0387     7.0754   -64.0006     5.2216
  506.5000     2.4730     0.1061    87.9339     7.1100     0.0395     7.4310   -63.8674     5.4401
  507.0000     2.4765     0.1038    84.7624     7.1105     0.0406     7.6095   -63.4653     5.6358
  507.5000     2.4791     0.1046    83.0657     7.1097     0.0432     7.7450   -63.0578     5.8230
  508.0000     2.4771     0.1058    81.3418     7.0739     0.0457     7.8828   -62.6501     6.0165
  508.5000     2.4735     0.1070    79.5801     6.9148     0.0484     8.0231   -62.2428     6.1831
  509.0000     2.4726     0.1074    79.4992     7.0537     0.0557     8.0834   -61.8363     6.3097
  509.5000     2.4763     0.1065    80.4580     7.1935     0.0628     8.0975   -61.4836     6.4388
  510.0000     2.4800     0.1035    81.4523     7.1983     0.0669     8.1117   -61.2998     6.5363
  510.5000     2.4836     0.1010    80.9233     7.2052     0.0713     8.1259   -61.1459     6.5447
  511.0000     2.4867     0.1018    81.4589     7.2107     0.0720     8.1401   -61.3869     6.5545
  511.5000     2.4808     0.1040    82.6595     7.2137     0.0645     8.1543   -61.6300     6.5643
  512.0000     2.4736     0.1062    83.8815     7.2167     0.0566     8.1686   -61.8713     6.5741
  512.5000     2.4710     0.1068    84.9032     7.2197     0.0487     8.1829   -62.1118     6.5840
  513.0000     2.4694     0.1061    85.3467     7.2228     0.0444     8.1972   -62.3499     6.5939
  513.5000     2.4715     0.1053    85.4296     7.2257     0.0419     8.2116   -62.5015     6.5966
  514.0000     2.4779     0.1046    84.6398     7.2292     0.0405     8.2243   -62.6597     6.5120
