~VERSION INFORMATION
 VERS.                2.0:   CWLS LOG ASCII STANDARD - VERSION 2.0
 WRAP.                 NO:   ONE LINE PER DEPTH STEP
~WELL INFORMATION
#MNEM.UNIT      DATA TYPE    INFORMATION
#----------   ------------   ------------------------------
 STRT.F           14.0000:   START DEPTH
 STOP.F          549.0000:   STOP DEPTH
 STEP.F            0.5000:   STEP LENGTH
 NULL.          -999.2500:   NO VALUE
 COMP.   LAWRENCE-ALLISON:   COMPANY
 WELL.    NPR 3 #58-64SX3:   WELL
 FLD .           NPR NO 3:   FIELD
 LOC .       S3 T38N R78W:   LOCATION
 CNTY.            NATRONA:   COUNTY
 STAT.            WYOMING:   STATE
 CTRY. UNITED STATES OF AMERICA:   COUNTRY
 SRVC.      Dresser Atlas:   SERVICE COMPANY
 DATE.        05-DEC-1984:   LOGDATE
 API .       490251099700:   API NUMBER
~CURVE INFORMATION
#MNEM.UNIT       API CODE    CURVE DESCRIPTION
#----------   ------------   ------------------------------
 DEPT.F                  :   
 RFOC.OHMM   07 220 04 00:   RESISTIVITY FOCUSED LOG
 RILD.OHMM   07 120 46 00:   INDUCTION LOG DEEP RESISTIVITY
 RILM.OHMM   07 120 44 00:   INDUCTION LOG MEDIUM RESISTIVITY
 SPR .MV     07 010 01 00:   SPONTANEOUS POTENTIAL
 DT  .US/F   60 520 00 00:   INTERVAL TRANSIT TIME
 CALD.IN     45 280 60 00:   CALIPER FROM DENSITY LOG
 CORR.G/C3   45 356 01 00:   DENSITY CORRECTION
 CNC .DEC    42 890 03 00:   NEUTRON POROSITY SANDSTONE
 DEN .G/C3   45 350 01 00:   COMPENSATED BULK DENSTIY
 GRD .GAPI   45 310 01 00:   GAMMA RAY FROM DENSITY LOG
 PORD.DEC    45 890 12 00:   POROSITY DENSITY SANDSTONE
~PARAMETER INFORMATION
#MNEM.UNIT          VALUE    DESCRIPTION
#----------   ------------   ------------------------------
 PD  .                 GL:   PERMANENT DATUM
 EPD .F              5188:   ELEVATION PERMANENT DATUM
 LMF .                 KB:   LOG MEASURED FROM
 DMF .                 KB:   DRILLING MEASURED FROM
 EGL .F              5188:   GROUND LEVEL
 DATE.        05-DEC-1984:   RUN DATE
 RUN .                  1:   RUN NUMBER
 DD  .F               556:   DEPTH DRILLER
 DL  .F               551:   DEPTH LOGGER
 BLI .F               548:   BOTTOM LOG INTERVAL
 CS  .IN            8.625:   CASING SIZE
 CBD .F                20:   CASING BOTTOM DRILLER
 CBL .F                20:   CASING BOTTOM LOGGER
 BS  .IN            7.875:   BIT SIZE
 BSD .F               556:   BIT SIZE AT DEPTH
 DFT .          KCL WATER:   DRILLING FLUID TYPE
 MSS .           FLOWLINE:   MUD SAMPLE SOURCE
 RMS .OHMM            .36:   RESISTIVITY MUD SAMPLE
 MST .F                70:   MUD SAMPLE TEMPERATURE
 RMF .OHMM            .26:   RESISTIVITY MUD FILTRATE SAMPLE
 MFST.F                70:   MUD FILTRATE SAMPLE TEMPERATURE
 RMC .OHMM            .46:   RESISTIVITY MUD CAKE
 MCST.F                70:   MUD CAKE SAMPLE TEMPERATURE
 MFSS.               CALC:   MUD FILTRATE SAMPLE SOURCE
 MCSS.               CALC:   MUD CAKE SAMPLE SOURCE
 RMB .OHMM            .29:   RESISTIVITY MUD AT BHT
 BHT .F                85:   BOTTOM HOLE TEMPERATURE
 TCS .HRS               3:   TIME CURCULATED STOPPED
 MRT .F               100:   MAXIMUM RECORDED TEMPERATURE
 LUN .               6274:   LOGGING UNIT NUMBER
 LUL .               GLTE:   LOGGING UNIT LOCATION
 ENGI.             PAUTIO:   RECORDING ENGINEER
 WITN.       GROONS/LUERS:   WITNESSED BY
 CLNT.            A2DTECH:   CLIENT CODE
 ORIG.           5" PRINT:   ORIGIN OF DATA
 UWI .       490251099700:   UNIQUE WELL ID
 DICO. A2D Technologies, Inc.:   DIGITIZING COMPANY
~OTHER INFORMATION
~A   DEPT     RFOC       RILD       RILM        SPR         DT       CALD       CORR          CNC      DEN         GRD      PORD   
# ...
  532.5000     8.7871    10.1691     9.5889   -58.3931    98.9342     8.0112     0.0666     0.2211     2.5104  -999.2500     0.0992
  533.0000     8.7815    10.1588     9.5120   -58.2643    99.1000     8.0100     0.0553     0.2211     2.5096  -999.2500     0.1002
  533.5000     8.7758    10.0745     9.5015   -58.2904    99.4239     8.0089     0.0392     0.2205     2.5055  -999.2500     0.1012
  534.0000     8.7702    10.0643     9.4946   -58.1606    99.4316     8.0077     0.0247     0.2206     2.5039  -999.2500     0.1025
  534.5000     8.8301    10.0541     9.4859   -58.1865    98.9650     8.0221     0.0118     0.2206     2.5006  -999.2500     0.1043
  535.0000     8.8230    10.1203     9.4773   -58.2115    97.2335     8.0206     0.0196     0.2206     2.4958  -999.2500     0.1078
  535.5000     8.8820    10.1075     9.4686   -58.2365    92.4981     8.0040     0.0258     0.2207     2.4893  -999.2500     0.1112
  536.0000     8.8762    10.0972     9.4600   -58.4154    89.3437     8.0029     0.0124     0.2204     2.4845  -999.2500     0.1141
  536.5000     8.8705    10.0896     9.4513   -58.2860    92.5154     8.0172     0.0031     0.2207     2.4837  -999.2500     0.1152
  537.0000     8.9297    10.0789     9.6532   -58.4691    96.9500     8.0161     0.0029     0.2205     2.4875  -999.2500     0.1123
  537.5000     8.9240    10.0688     9.5023   -58.1802    97.5901     8.0149     0.0123     0.2205     2.4922  -999.2500     0.1072
  538.0000     8.9836    10.1328     9.4935   -57.5962    42.8929     8.0295     0.0265     0.2202     2.4985  -999.2500     0.1003
  538.5000     8.9778    10.1225     9.4848   -57.0059    42.9025     8.0281     0.0406     0.2203     2.5159  -999.2500     0.0933
  539.0000     8.9720    10.1865     9.6155   -56.4156    42.9091     8.0269     0.0437     0.2200     2.5294  -999.2500     0.0876
  539.5000     9.0334    10.2530     9.6066   -55.8253  -999.2500     8.0258     0.0467     0.2200     2.5420  -999.2500     0.0781
  540.0000     9.0937    10.3157     9.8104   -55.5426  -999.2500     8.0401     0.0497     0.2197     2.5483  -999.2500     0.0753
  540.5000     9.0864    10.3053     9.8754   -55.5677  -999.2500     8.0544     0.0559     0.2195     2.5467  -999.2500     0.0778
  541.0000     9.0805    10.4467     9.7233   -55.5928  -999.2500     8.0533     0.0700     0.2195     2.5410  -999.2500     0.0826
  541.5000     9.1411    10.4360    10.0000   -55.6179  -999.2500     8.0521     0.0953     0.2195     2.5227  -999.2500     0.0917
  542.0000     9.1498    10.4254    10.1401   -55.6430  -999.2500     8.0419     0.1250     0.2196     2.4920  -999.2500     0.1297
  542.5000     9.3330    10.4917    10.0570   -55.6680  -999.2500  -999.2500  -999.2500  -999.2500  -999.2500  -999.2500  -999.2500
  543.0000     9.3953    10.4807    10.1214   -55.8470  -999.2500  -999.2500  -999.2500  -999.2500  -999.2500  -999.2500  -999.2500
  543.5000     9.3892    10.4701    10.1120   -56.0259  -999.2500  -999.2500  -999.2500  -999.2500  -999.2500  -999.2500  -999.2500
  544.0000     9.5332    10.5390    10.0292   -56.0510  -999.2500  -999.2500  -999.2500  -999.2500  -999.2500  -999.2500  -999.2500
  544.5000     9.6554    10.5256    10.0935   -56.0760  -999.2500  -999.2500  -999.2500  -999.2500  -999.2500  -999.2500  -999.2500
  545.0000     9.5775    10.6727    10.1581   -56.1011  -999.2500  -999.2500  -999.2500  -999.2500  -999.2500  -999.2500  -999.2500
  545.5000     9.4327    10.6591    10.3738   -56.1212  -999.2500  -999.2500  -999.2500  -999.2500  -999.2500  -999.2500  -999.2500
  546.0000     9.3580    10.8053    10.3640   -56.1462  -999.2500  -999.2500  -999.2500  -999.2500  -999.2500  -999.2500  -999.2500
  546.5000     9.0829    10.9534    10.3544   -56.1712  -999.2500  -999.2500  -999.2500  -999.2500  -999.2500  -999.2500  -999.2500
  547.0000     9.0123    10.9423    10.3449   -56.1962  -999.2500  -999.2500  -999.2500  -999.2500  -999.2500  -999.2500  -999.2500
  547.5000     9.0065    11.0924    10.4135   -56.2212  -999.2500  -999.2500  -999.2500  -999.2500  -999.2500  -999.2500  -999.2500
  548.0000     9.0008    11.0811    10.4777   -56.2462  -999.2500  -999.2500  -999.2500  -999.2500  -999.2500  -999.2500  -999.2500
  548.5000     8.9950    11.1316    10.4681   -56.2712  -999.2500  -999.2500  -999.2500  -999.2500  -999.2500  -999.2500  -999.2500
  549.0000     8.9893    11.0651    10.4594   -56.2624  -999.2500  -999.2500  -999.2500  -999.2500  -999.2500  -999.2500  -999.2500
