~VERSION INFORMATION
 VERS.                2.0:   CWLS LOG ASCII STANDARD - VERSION 2.0
 WRAP.                 NO:   ONE LINE PER DEPTH STEP
~WELL INFORMATION
#MNEM.UNIT      DATA TYPE    INFORMATION
#----------   ------------   ------------------------------
 STRT.F          376.0000:   START DEPTH
 STOP.F         2400.0000:   STOP DEPTH
 STEP.F            0.5000:   STEP LENGTH
 NULL.          -999.2500:   NO VALUE
 COMP. LAWRENCE/ALLISON INC:   COMPANY
 WELL.        55 X #15-15:   WELL
 FLD .            WILDCAT:   FIELD
 LOC .      S15 T38N R78W:   LOCATION
 CNTY.            NATRONA:   COUNTY
 STAT.            WYOMING:   STATE
 CTRY. UNITED STATES OF AMERICA:   COUNTRY
 SRVC.            Unknown:   SERVICE COMPANY
 DATE.        12-APR-1988:   LOGDATE
 API .       490251119800:   API NUMBER
~CURVE INFORMATION
#MNEM.UNIT       API CODE    CURVE DESCRIPTION
#----------   ------------   ------------------------------
 DEPT.F                  :   
 GR  .GAPI   30 310 01 00:   GAMMA RAY
 TGAS.UNITS  91 830 01 00:   TOTAL GAS UNIT
 ROP .FT/HR  91 810 01 00:   RATE OF DRILLING PENETRATION
~PARAMETER INFORMATION
#MNEM.UNIT          VALUE    DESCRIPTION
#----------   ------------   ------------------------------
 PD  .                 GL:   PERMANENT DATUM
 EPD .F              5293:   ELEVATION PERMANENT DATUM
 LMF .                 GL:   LOG MEASURED FROM
 DMF .                 KB:   DRILLING MEASURED FROM
 EKB .F              5304:   KELLING BUSHING
 EGL .F              5293:   GROUND LEVEL
 DATE.        12-APR-1988:   RUN DATE
 RUN .                  1:   RUN NUMBER
 DD  .F              2400:   DEPTH DRILLER
 DL  .F               851:   DEPTH LOGGER
 BLI .F               846:   BOTTOM LOG INTERVAL
 TLI .F               372:   TOP LOG INTERVAL
 CS  .IN                7:   CASING SIZE
 CBL .F               890:   CASING BOTTOM LOGGER
 BSD .F              2400:   BIT SIZE AT DEPTH
 DFT .              WATER:   DRILLING FLUID TYPE
 TCS .HRS               1:   TIME CURCULATED STOPPED
 ENGI.          BANGERTER:   RECORDING ENGINEER
 WITN.             NORHAN:   WITNESSED BY
 CLNT.            A2DTECH:   CLIENT CODE
 ORIG.           5" PRINT:   ORIGIN OF DATA
 UWI .       490251119800:   UNIQUE WELL ID
 DICO. A2D Technologies, Inc.:   DIGITIZING COMPANY
~OTHER INFORMATION
~A   DEPT        GR      TGAS        ROP   
# ...
 1559.0000  -999.2500     4.8025     0.4781
 1559.5000  -999.2500     4.8267     0.4782
 1560.0000  -999.2500     4.8509     0.4784
 1560.5000  -999.2500     4.8752     0.4785
 1561.0000  -999.2500     4.8998     0.4786
 1561.5000  -999.2500     4.5446     0.4317
 1562.0000  -999.2500     4.5748     0.3753
 1562.5000  -999.2500     4.5990     0.3284
 1563.0000  -999.2500     4.6232     0.3275
 1563.5000  -999.2500     4.6474     0.3475
 1564.0000  -999.2500     4.6716     0.3761
 1564.5000  -999.2500     4.6958     0.4245
 1565.0000  -999.2500     4.3350     0.4798
 1565.5000  -999.2500     4.3653     0.4799
 1566.0000  -999.2500     4.3882     0.4895
 1566.5000  -999.2500     4.4137     0.5367
 1567.0000  -999.2500     4.4379     0.5368
 1567.5000  -999.2500     4.4621     0.5087
 1568.0000  -999.2500     4.4867     0.4618
 1568.5000  -999.2500     4.5114     0.4054
 1569.0000  -999.2500     4.5407     0.3867
 1569.5000  -999.2500     4.1859     0.4245
 1570.0000  -999.2500     3.8312     0.4812
 1570.5000  -999.2500     3.8554     0.4907
 1571.0000  -999.2500     3.8796     0.4626
 1571.5000  -999.2500     3.9038     0.4345
 1572.0000  -999.2500     3.9280     0.4252
 1572.5000  -999.2500     3.9522     0.4160
 1573.0000  -999.2500     3.9764     0.4255
 1573.5000  -999.2500     4.0006     0.4257
 1574.0000  -999.2500     4.4037     0.4352
 1574.5000  -999.2500     4.4280     0.4259
 1575.0000  -999.2500     4.4526     0.4261
 1575.5000  -999.2500     4.4773     0.4168
 1576.0000  -999.2500     4.5019     0.4170
 1576.5000  -999.2500     4.5308     0.4171
 1577.0000  -999.2500     4.7757     0.4172
 1577.5000  -999.2500     4.9581     0.4174
 1578.0000  -999.2500     4.9823     0.4175
 1578.5000  -999.2500     5.0065     0.4177
 1579.0000  -999.2500     5.0286     0.4272
 1579.5000  -999.2500     5.0549     0.4274
 1580.0000  -999.2500     5.4581     0.4275
 1580.5000  -999.2500     5.4822     0.4276
 1581.0000  -999.2500     5.5064     0.4278
 1581.5000  -999.2500     5.5307     0.4279
 1582.0000  -999.2500     5.5554     0.4281
 1582.5000  -999.2500     5.5800     0.4282
 1583.0000  -999.2500     5.6093     0.4283
 1583.5000  -999.2500     5.6335     0.4191
 1584.0000  -999.2500     5.6577     0.4192
 1584.5000  -999.2500     5.6819     0.4171
 1585.0000  -999.2500     5.3271     0.4101
 1585.5000  -999.2500     5.3513     0.4102
 1586.0000  -999.2500     4.9905     0.4104
 1586.5000  -999.2500     5.0208     0.4105
 1587.0000  -999.2500     5.0450     0.4106
 1587.5000  -999.2500     5.0692     0.4108
 1588.0000  -999.2500     5.0934     0.4109
 1588.5000  -999.2500     4.3597     0.4299
 1589.0000  -999.2500     4.0049     0.4772
 1589.5000  -999.2500     4.0301     0.5257
 1590.0000  -999.2500     4.0594     0.5822
 1590.5000  -999.2500     4.0836     0.6188
 1591.0000  -999.2500     4.1078     0.5907
 1591.5000  -999.2500     4.1320     0.4496
 1592.0000  -999.2500     4.1562     0.3744
 1592.5000  -999.2500     4.1804     0.3369
 1593.0000  -999.2500     4.2046     0.3276
 1593.5000  -999.2500     4.2288     0.3372
 1594.0000  -999.2500     4.2530     0.3373
 1594.5000  -999.2500     4.2772     0.3374
 1595.0000  -999.2500     4.3014     0.3376
 1595.5000  -999.2500     4.3257     0.3377
 1596.0000  -999.2500     4.3503     0.3379
 1596.5000  -999.2500     4.3749     0.3380
 1597.0000  -999.2500     4.4042     0.3381
 1597.5000  -999.2500     4.4284     0.3383
 1598.0000  -999.2500     4.4526     0.3478
 1598.5000  -999.2500     4.4768     0.3574
 1599.0000  -999.2500     4.8799     0.3764
 1599.5000  -999.2500     4.9041     0.4142
 1600.0000  -999.2500     4.9283     0.4614
 1600.5000  -999.2500     4.9525     0.4898
 1601.0000  -999.2500     4.5917     0.4994
 1601.5000  -999.2500     4.6220     0.5089
 1602.0000  -999.2500     4.2768     0.4996
 1602.5000  -999.2500     4.3028     0.4998
 1603.0000  -999.2500     4.3289     0.4905
 1603.5000  -999.2500     4.3549     0.4636
 1604.0000  -999.2500     4.3809     0.4452
 1604.5000  -999.2500     4.4072     0.4267
 1605.0000  -999.2500     4.4337     0.4176
 1605.5000  -999.2500     4.4654     0.4179
 1606.0000  -999.2500     4.4867     0.4183
 1606.5000  -999.2500     4.5175     0.4280
 1607.0000  -999.2500     4.5435     0.4283
 1607.5000  -999.2500     4.5695     0.4287
 1608.0000  -999.2500     4.5955     0.4290
 1608.5000  -999.2500     4.6215     0.4293
 1609.0000  -999.2500     4.6476     0.4297
 1609.5000  -999.2500     4.6736     0.4300
 1610.0000  -999.2500     4.6996     0.4304
 1610.5000  -999.2500     4.7256     0.4307
 1611.0000  -999.2500     4.3727     0.4310
 1611.5000  -999.2500     4.3996     0.4313
 1612.0000  -999.2500     4.4312     0.4316
 1612.5000  -999.2500     4.4572     0.4320
 1613.0000  -999.2500     4.8622     0.4323
 1613.5000  -999.2500     4.8882     0.4326
 1614.0000  -999.2500     4.9142     0.4330
 1614.5000  -999.2500     4.9377     0.4333
 1615.0000  -999.2500     4.9663     0.4336
 1615.5000  -999.2500     4.9923     0.4339
 1616.0000  -999.2500     5.0183     0.4343
 1616.5000  -999.2500     5.0443     0.4346
 1617.0000  -999.2500     5.0703     0.4349
 1617.5000  -999.2500     5.1255     0.4353
 1618.0000  -999.2500     5.5013     0.4357
 1618.5000  -999.2500     5.1484     0.4360
 1619.0000  -999.2500     5.1809     0.4363
 1619.5000  -999.2500     5.2069     0.4366
 1620.0000  -999.2500     5.2329     0.4370
 1620.5000  -999.2500     5.6379     0.4467
 1621.0000  -999.2500     5.6639     0.4470
 1621.5000  -999.2500     5.6899     0.4285
 1622.0000  -999.2500     5.7160     0.4288
 1622.5000  -999.2500     5.7420     0.4386
 1623.0000  -999.2500     5.7680     0.4389
 1623.5000  -999.2500     5.7941     0.4392
 1624.0000  -999.2500     5.8206     0.4395
 1624.5000  -999.2500     5.8472     0.4399
 1625.0000  -999.2500     5.8786     0.4496
 1625.5000  -999.2500     5.9046     0.4500
 1626.0000  -999.2500     5.9267     0.4503
 1626.5000  -999.2500     5.9533     0.4521
 1627.0000  -999.2500     5.9798     0.4604
 1627.5000  -999.2500     6.0063     0.4607
 1628.0000  -999.2500     6.0347     0.4611
 1628.5000  -999.2500     6.0607     0.4614
 1629.0000  -999.2500     5.7069     0.4617
 1629.5000  -999.2500     5.3545     0.4715
 1630.0000  -999.2500     5.3811     0.4718
 1630.5000  -999.2500     5.4076     0.4721
 1631.0000  -999.2500     5.4394     0.4724
 1631.5000  -999.2500     5.4654     0.4728
 1632.0000  -999.2500     4.7335     0.4825
 1632.5000  -999.2500     4.3741     0.5111
 1633.0000  -999.2500     4.0211     0.5302
 1633.5000  -999.2500     4.0537     0.5494
 1634.0000  -999.2500     4.4586     0.5591
 1634.5000  -999.2500     4.4846     0.5689
 1635.0000  -999.2500     4.1305     0.5692
 1635.5000  -999.2500     4.5367     0.5695
 1636.0000  -999.2500     4.5627     0.5699
 1636.5000  -999.2500     4.5890     0.5702
 1637.0000  -999.2500     4.6156     0.5706
 1637.5000  -999.2500     4.6473     0.5709
 1638.0000  -999.2500     4.6733     0.5712
 1638.5000  -999.2500     5.0782     0.5716
 1639.0000  -999.2500     5.1043     0.5719
 1639.5000  -999.2500     5.1303     0.5722
 1640.0000  -999.2500     5.1563     0.5725
 1640.5000  -999.2500     5.1823     0.5823
 1641.0000  -999.2500     5.2083     0.5732
 1641.5000  -999.2500     5.6133     0.5640
 1642.0000  -999.2500     6.0183     0.5268
 1642.5000  -999.2500     6.4232     0.4423
 1643.0000  -999.2500     6.8286     0.3673
 1643.5000  -999.2500     6.9114     0.3112
 1644.0000  -999.2500     7.2657     0.2644
 1644.5000  -999.2500     7.2917     0.2945
 1645.0000  -999.2500     7.3177     0.3712
 1645.5000  -999.2500     7.3437     0.4855
 1646.0000  -999.2500     7.3697     0.5483
 1646.5000  -999.2500     7.3957     0.5674
 1647.0000  -999.2500     7.8007     0.5678
 1647.5000  -999.2500     7.8267     0.5586
 1648.0000  -999.2500     7.4728     0.5590
 1648.5000  -999.2500     7.8788     0.5593
 1649.0000  -999.2500     7.9048     0.5596
 1649.5000  -999.2500     7.9314     0.5600
