~VERSION INFORMATION
 VERS.                2.0:   CWLS LOG ASCII STANDARD - VERSION 2.0
 WRAP.                 NO:   ONE LINE PER DEPTH STEP
~WELL INFORMATION
#MNEM.UNIT      DATA TYPE    INFORMATION
#----------   ------------   ------------------------------
 STRT.F          520.5000:   START DEPTH
 STOP.F         2062.0000:   STOP DEPTH
 STEP.F            0.5000:   STEP LENGTH
 NULL.          -999.2500:   NO VALUE
 COMP. LAWRENCE-ALLISON &AS:   COMPANY
 WELL.     NPR 3 #18-X-28:   WELL
 FLD .             TEAPOT:   FIELD
 LOC .      S28 T39N R78W:   LOCATION
 CNTY.            NATRONA:   COUNTY
 STAT.            WYOMING:   STATE
 CTRY. UNITED STATES OF AMERICA:   COUNTRY
 SRVC.            Unknown:   SERVICE COMPANY
 DATE.        08-DEC-1987:   LOGDATE
 API .       490251119700:   API NUMBER
~CURVE INFORMATION
#MNEM.UNIT       API CODE    CURVE DESCRIPTION
#----------   ------------   ------------------------------
 DEPT.F                  :   
 ROP .MIN/FT 91 810 01 00:   RAT OF DRILLING PENETRATION
 TGAS.UNITS  91 830 01 00:   TOTAL GAS FROM HOTWIRE
~PARAMETER INFORMATION
#MNEM.UNIT          VALUE    DESCRIPTION
#----------   ------------   ------------------------------
 EKB .F              5090:   KELLING BUSHING
 EGL .F              5080:   GROUND LEVEL
 DATE.            12-8-87:   RUN DATE
 DD  .F              2062:   DEPTH DRILLER
 CS  .IN                7:   CASING SIZE
 CBD .F               513:   CASING BOTTOM DRILLER
 TCS .HRS            1000:   TIME CURCULATED STOPPED
 TLAB.HRS            0432:   TIME LOGGER AT BOTTOM
 ENGI.              TOWER:   RECORDING ENGINEER
 WITN.               HUSK:   WITNESSED BY
 CLNT.            A2DTECH:   CLIENT CODE
 ORIG.           5" PRINT:   ORIGIN OF DATA
 UWI .       490251119700:   UNIQUE WELL ID
 DICO. A2D Technologies, Inc.:   DIGITIZING COMPANY
~OTHER INFORMATION
~A   DEPT      ROP         TGAS 
# ...
 1857.0000     0.4997    17.3784
 1857.5000     0.4991    14.5307
 1858.0000     0.4880     9.5734
 1858.5000     0.4873     6.7091
 1859.0000     0.4867     5.9213
 1859.5000     0.4755     5.5831
 1860.0000     0.4749     5.6512
 1860.5000     0.4848     5.7192
 1861.0000     0.4840     5.7996
 1861.5000     0.4939     6.2842
 1862.0000     0.4932     6.7687
 1862.5000     0.4926     7.6719
 1863.0000     0.5024     8.1564
 1863.5000     0.5016     9.0596
 1864.0000     0.5009    10.3814
 1864.5000     0.5109    11.2866
 1865.0000     0.5101    10.5298
 1865.5000     0.5095     8.5028
 1866.0000     0.5193     6.4757
 1866.5000     0.5187     4.4486
 1867.0000     0.5285     3.2423
 1867.5000     0.5277     3.3247
 1868.0000     0.5376     3.3907
 1868.5000     0.5368     3.8773
 1869.0000     0.5362     5.2135
 1869.5000     0.5356     6.5353
 1870.0000     0.5349     7.8571
 1870.5000     0.5343     8.7602
 1871.0000     0.5337     7.9890
 1871.5000     0.5330     5.9619
 1872.0000     0.5322     3.9349
 1872.5000     0.5316     4.0029
 1873.0000     0.5205     4.0833
 1873.5000     0.5199     4.1493
 1874.0000     0.5193     4.2152
 1874.5000     0.5186     4.2812
 1875.0000     0.5180     4.3471
 1875.5000     0.5278     4.4131
 1876.0000     0.5271     4.8977
 1876.5000     0.5264     4.9657
 1877.0000     0.5153     5.0461
 1877.5000     0.5147     5.1121
 1878.0000     0.5140     5.1780
 1878.5000     0.5134     5.6626
 1879.0000     0.5023     5.7285
 1879.5000     0.4390     6.2131
 1880.0000     0.4071     6.6977
 1880.5000     0.4383     6.2942
 1881.0000     0.4381     6.3131
 1881.5000     0.4485     6.3283
 1882.0000     0.4483     6.7620
 1882.5000     0.4482     6.7772
 1883.0000     0.4481     6.7923
 1883.5000     0.4479     6.8076
 1884.0000     0.4478     6.8233
 1884.5000     0.4477     6.8416
 1885.0000     0.4475     6.8567
 1885.5000     0.4474     6.8718
 1886.0000     0.4473     6.4646
 1886.5000     0.4471     6.4835
 1887.0000     0.4470     6.4988
 1887.5000     0.4573     6.5176
 1888.0000     0.4572     6.5328
 1888.5000     0.4571     6.5479
 1889.0000     0.4569     6.5630
 1889.5000     0.4568     6.5782
 1890.0000     0.4567     7.0119
 1890.5000     0.4565     7.0273
 1891.0000     0.4564     7.4646
 1891.5000     0.4563     7.4798
 1892.0000     0.4562     7.4949
 1892.5000     0.4560     7.9287
 1893.0000     0.4559     7.9438
 1893.5000     0.4557     7.9590
 1894.0000     0.4556     7.9744
 1894.5000     0.4555     7.9930
 1895.0000     0.4554     8.0082
 1895.5000     0.4552     8.0233
 1896.0000     0.4656     8.0385
 1896.5000     0.4654     8.0536
 1897.0000     0.4653     8.0688
 1897.5000     0.4651     8.0407
 1898.0000     0.4650     7.6804
 1898.5000     0.4649     7.6994
 1899.0000     0.4543     7.7145
 1899.5000     0.4646     7.3073
 1900.0000     0.4541     7.3262
 1900.5000     0.4539     7.3414
 1901.0000     0.4538     7.3570
 1901.5000     0.4432     7.3754
 1902.0000     0.4431     7.3906
 1902.5000     0.4430     7.4057
 1903.0000     0.4428     7.4209
 1903.5000     0.4427     7.4360
 1904.0000     0.4426     7.4512
 1904.5000     0.4412     7.0477
 1905.0000     0.4423     7.0666
 1905.5000     0.4422     7.0818
 1906.0000     0.4629     7.0969
 1906.5000     0.5150     8.7865
 1907.0000     0.5671    10.0574
 1907.5000     0.5878    11.7560
 1908.0000     0.5877    12.2513
 1908.5000     0.5980    12.6183
 1909.0000     0.5978    13.0521
 1909.5000     0.5977    13.4858
 1910.0000     0.5976    13.5009
 1910.5000     0.5975    13.5161
 1911.0000     0.5973    13.9500
 1911.5000     0.5868    13.9688
 1912.0000     0.5971    13.9839
 1912.5000     0.5969    13.9991
 1913.0000     0.6073    13.5918
 1913.5000     0.5967    13.6108
 1914.0000     0.5652    13.6259
 1914.5000     0.5442    13.6413
 1915.0000     0.5232    13.6600
 1915.5000     0.5127    13.6751
 1916.0000     0.5125    13.6903
 1916.5000     0.5124    13.7054
 1917.0000     0.5122    13.2982
 1917.5000     0.5121    13.3171
 1918.0000     0.5224    13.3326
 1918.5000     0.5223    12.9288
 1919.0000     0.5222    12.9477
 1919.5000     0.5220    12.9629
 1920.0000     0.5324    12.9780
 1920.5000     0.5212    11.7381
 1921.0000     0.5206    12.1825
 1921.5000     0.5304    12.2031
 1922.0000     0.5402    12.2237
 1922.5000     0.5395    12.2443
 1923.0000     0.5493    12.2651
 1923.5000     0.5485    12.2860
 1924.0000     0.5479    12.3070
 1924.5000     0.5473    12.3319
 1925.0000     0.5466    12.3525
 1925.5000     0.5460    12.3731
 1926.0000     0.5453    12.3937
 1926.5000     0.5553    12.8329
 1927.0000     0.5441    12.8535
 1927.5000     0.5434    12.8741
 1928.0000     0.5428    12.8947
 1928.5000     0.5421    12.9153
 1929.0000     0.5415    12.9360
 1929.5000     0.5408    12.9566
 1930.0000     0.5507    12.9772
 1930.5000     0.5499    13.0064
 1931.0000     0.5598    13.0186
 1931.5000     0.5590    13.0395
 1932.0000     0.5690    13.0605
 1932.5000     0.5786    13.0854
 1933.0000     0.5780    13.1060
 1933.5000     0.5773    13.1266
 1934.0000     0.5767    13.1472
 1934.5000     0.5761    13.1678
 1935.0000     0.5754    12.7664
 1935.5000     0.5748    12.7904
 1936.0000     0.5740    12.8110
 1936.5000     0.5733    12.4079
 1937.0000     0.5623    12.8522
 1937.5000     0.5616    12.4535
 1938.0000     0.5610    12.4748
 1938.5000     0.5499    12.4955
 1939.0000     0.4553    12.0975
 1939.5000     0.4025    12.1198
 1940.0000     0.4019    12.0698
 1940.5000     0.4117    11.7407
 1941.0000     0.4215    12.1850
 1941.5000     0.4208    12.2057
 1942.0000     0.4306    12.2263
 1942.5000     0.4298    12.2469
 1943.0000     0.4292    12.2675
 1943.5000     0.4285    12.7067
 1944.0000     0.4279    12.7273
 1944.5000     0.4272    13.1665
 1945.0000     0.4266    13.1871
 1945.5000     0.4260    13.2077
 1946.0000     0.4253    13.6469
 1946.5000     0.4247    13.6675
 1947.0000     0.4241    13.6884
 1947.5000     0.4338    13.7093
 1948.0000     0.4332    13.7302
 1948.5000     0.4325    13.7551
 1949.0000     0.4319    13.7757
 1949.5000     0.4311    13.7964
 1950.0000     0.4305    13.8170
 1950.5000     0.4299    13.8376
 1951.0000     0.4292    14.2768
 1951.5000     0.4286    14.2974
 1952.0000     0.4279    14.3180
 1952.5000     0.4379    14.3386
 1953.0000     0.4371    14.3592
 1953.5000     0.4365    14.3798
 1954.0000     0.4358    14.4004
 1954.5000     0.4352    14.4210
 1955.0000     0.4344    14.4419
 1955.5000     0.4337    14.4628
 1956.0000     0.4331    14.0643
 1956.5000     0.4325    14.5086
 1957.0000     0.4214    14.5292
 1957.5000     0.4207    14.5498
 1958.0000     0.4097    14.5704
 1958.5000     0.4090    14.5911
 1959.0000     0.4084    14.6117
 1959.5000     0.4182    14.6323
 1960.0000     0.4175    14.2343
 1960.5000     0.4274    13.8497
 1961.0000     0.4161    13.9034
 1961.5000     0.4155    13.9463
 1962.0000     0.4148    13.9893
 1962.5000     0.4142    14.0233
 1963.0000     0.4136    14.0651
 1963.5000     0.4025    14.1073
 1964.0000     0.4019    14.1503
 1964.5000     0.4012    14.6118
 1965.0000     0.4006    14.6547
 1965.5000     0.4104    14.6977
 1966.0000     0.4097    14.7406
 1966.5000     0.4196    14.7835
 1967.0000     0.4188    14.8265
 1967.5000     0.4287    14.8605
 1968.0000     0.4385    14.9023
 1968.5000     0.4483    14.9445
 1969.0000     0.4474    14.9875
 1969.5000     0.4574    15.0304
 1970.0000     0.4567    15.0733
 1970.5000     0.4560    15.1163
 1971.0000     0.4136    15.1592
 1971.5000     0.3712    15.2021
 1972.0000     0.3705    15.2451
 1972.5000     0.3699    14.8587
 1973.0000     0.3798    14.9023
 1973.5000     0.3896    14.9445
 1974.0000     0.3993    14.9875
 1974.5000     0.4090    15.0304
 1975.0000     0.4083    15.0733
 1975.5000     0.4182    15.1163
 1976.0000     0.4071    14.7299
 1976.5000     0.4064    14.7835
 1977.0000     0.4058    14.3971
 1977.5000     0.3947    14.4437
 1978.0000     0.3836    14.4837
