~VERSION INFORMATION
 VERS.                2.0:   CWLS LOG ASCII STANDARD - VERSION 2.0
 WRAP.                 NO:   ONE LINE PER DEPTH STEP
~WELL INFORMATION
#MNEM.UNIT      DATA TYPE    INFORMATION
#----------   ------------   ------------------------------
 STRT.F          700.0000:   START DEPTH
 STOP.F         2111.0000:   STOP DEPTH
 STEP.F            0.5000:   STEP LENGTH
 NULL.          -999.2500:   NO VALUE
 COMP. FENIX & SCISSON INC:   COMPANY
 WELL.    35 SAX 34 #3-34:   WELL
 FLD .             TEAPOT:   FIELD
 LOC .      S34 T39N R78W:   LOCATION
 CNTY.            NATRONA:   COUNTY
 STAT.            WYOMING:   STATE
 CTRY. UNITED STATES OF AMERICA:   COUNTRY
 SRVC.            Unknown:   SERVICE COMPANY
 DATE.        29-MAY-1978:   LOGDATE
 API .       490251061700:   API NUMBER
~CURVE INFORMATION
#MNEM.UNIT       API CODE    CURVE DESCRIPTION
#----------   ------------   ------------------------------
 DEPT.F                  :   
 CALD.IN     45 280 60 00:   CALIPER FROM DENSITY LOG
 GRD .GAPI   45 310 01 00:   GAMMA RAY FROM DENSITY LOG
 RHOB.G/C3   45 350 01 00:   BULK DENSITY
 DPHI.DEC    45 890 00 00:   DENSITY POROSITY
 CORR.G/C3   45 356 01 00:   DENSITY CORRECTION
~PARAMETER INFORMATION
#MNEM.UNIT          VALUE    DESCRIPTION
#----------   ------------   ------------------------------
 PD  .                 GL:   PERMANENT DATUM
 EPD .F              5105:   ELEVATION PERMANENT DATUM
 LMF .                 KB:   LOG MEASURED FROM
 DAPD.F                10:   FEET ABOVE PERMANENT DATUM
 DMF .                 KB:   DRILLING MEASURED FROM
 EKB .F              5115:   KELLING BUSHING
 EGL .F              5105:   GROUND LEVEL
 DATE.          5-29-1978:   RUN DATE
 RUN .                  1:   RUN NUMBER
 DD  .F              2111:   DEPTH DRILLER
 DL  .F              2118:   DEPTH LOGGER
 BLI .F              2110:   BOTTOM LOG INTERVAL
 TLI .F               720:   TOP LOG INTERVAL
 CS  .IN            9.625:   CASING SIZE
 CBD .F               711:   CASING BOTTOM DRILLER
 CBL .F               721:   CASING BOTTOM LOGGER
 BS  .IN             8.75:   BIT SIZE
 BSD .F              2111:   BIT SIZE AT DEPTH
 DFT .                OIL:   DRILLING FLUID TYPE
 TCS .HRS               1:   TIME CURCULATED STOPPED
 LUN .               2958:   LOGGING UNIT NUMBER
 LUL .               CASP:   LOGGING UNIT LOCATION
 ENGI.             MILLER:   RECORDING ENGINEER
 WITN.           MCGINLEY:   WITNESSED BY
 CLNT.            A2DTECH:   CLIENT CODE
 ORIG.           5" PRINT:   ORIGIN OF DATA
 UWI .       490251061700:   UNIQUE WELL ID
 DICO. A2D Technologies, Inc.:   DIGITIZING COMPANY
~OTHER INFORMATION
~A   DEPT     CALD         GRD      RHOB       DPHI       CORR   
# ...
 1432.0000     9.3858    65.5562     2.4423     0.0787     0.2145
 1432.5000     9.3733    65.9988     2.4327     0.0762     0.2236
 1433.0000     9.3767    65.6003     2.4321     0.0738     0.2326
 1433.5000     9.3799    64.5140     2.4347     0.0713     0.2402
 1434.0000     9.3831    63.4025     2.4373     0.0691     0.2427
 1434.5000     9.3863    63.2412     2.4397     0.0706     0.2426
 1435.0000     9.3894    63.2847     2.4408     0.0699     0.2413
 1435.5000     9.3926    63.3340     2.4419     0.0765     0.2400
 1436.0000     9.3958    63.3718     2.4427     0.0850     0.2386
 1436.5000     9.3990    62.9591     2.4354     0.0835     0.2384
 1437.0000     9.4022    61.3689     2.4238     0.0806     0.2447
 1437.5000     9.4054    59.8322     2.4208     0.0790     0.2511
 1438.0000     9.4087    59.3845     2.4235     0.0815     0.2523
 1438.5000     9.4128    62.5378     2.4271     0.0845     0.2504
 1439.0000     9.3717    62.8148     2.4262     0.0875     0.2484
 1439.5000     9.3211    63.1118     2.4195     0.0905     0.2465
 1440.0000     9.2927    65.0251     2.4130     0.0935     0.2464
 1440.5000     9.2928    66.9378     2.4062     0.0953     0.2483
 1441.0000     9.2924    66.3135     2.4040     0.0957     0.2501
 1441.5000     9.3102    66.0217     2.4030     0.0963     0.2520
 1442.0000     9.3346    67.2511     2.4021     0.0861     0.2523
 1442.5000     9.3590    68.4313     2.4023     0.0728     0.2448
 1443.0000     9.3835    68.5089     2.4134     0.0595     0.2373
 1443.5000     9.4079    68.5621     2.4305     0.0625     0.2239
 1444.0000     9.4323    68.4183     2.4480     0.0672     0.1863
 1444.5000     9.4568    68.2798     2.4529     0.0679     0.1499
 1445.0000     9.4812    68.1429     2.4502     0.0526     0.1484
 1445.5000     9.5058    67.9923     2.4499     0.0468     0.1688
 1446.0000     9.5309    67.0693     2.4615     0.0597     0.1857
 1446.5000     9.5443    66.4941     2.4756     0.0718     0.1818
 1447.0000     9.5575    66.2835     2.4615     0.0805     0.1781
 1447.5000     9.5706    65.7329     2.4404     0.0952     0.1855
 1448.0000     9.5839    64.9319     2.4191     0.1003     0.1961
 1448.5000     9.5980    64.8635     2.3979     0.0987     0.2172
 1449.0000     9.6301    64.9408     2.3919     0.0983     0.2387
 1449.5000     9.6616    65.0310     2.3930     0.1019     0.2473
 1450.0000     9.6576    65.1661     2.3944     0.1124     0.2427
 1450.5000     9.6305    65.2924     2.3919     0.1230     0.2373
 1451.0000     9.6136    65.1470     2.3772     0.1329     0.2334
 1451.5000     9.6215    63.1181     2.3622     0.1337     0.2341
 1452.0000     9.6290    62.6901     2.3469     0.1275     0.2379
 1452.5000     9.6365    64.0145     2.3425     0.1192     0.2538
 1453.0000     9.6441    65.3410     2.3517     0.1139     0.2690
 1453.5000     9.6516    66.6194     2.3630     0.1094     0.2689
 1454.0000     9.6497    67.0861     2.3744     0.1050     0.2682
 1454.5000     9.5997    67.0633     2.3833     0.1042     0.2677
 1455.0000     9.5488    65.8694     2.3886     0.1029     0.2630
 1455.5000     9.4982    62.7912     2.3887     0.0976     0.2577
 1456.0000     9.4697    61.6988     2.3892     0.0924     0.2524
 1456.5000     9.4649    60.8018     2.3992     0.0896     0.2470
 1457.0000     9.4601    62.7960     2.4094     0.0892     0.2370
 1457.5000     9.4553    64.9937     2.4131     0.0869     0.2253
 1458.0000     9.4505    66.2139     2.4150     0.0856     0.2161
 1458.5000     9.4457    66.2864     2.4169     0.0894     0.2121
 1459.0000     9.4410    66.3556     2.4168     0.0863     0.2081
 1459.5000     9.4360    66.4220     2.4152     0.0831     0.2081
 1460.0000     9.4235    66.4896     2.4184     0.0815     0.2147
 1460.5000     9.3780    66.5505     2.4245     0.0799     0.2213
 1461.0000     9.3696    66.2586     2.4273     0.0783     0.2241
 1461.5000     9.4091    65.4943     2.4285     0.0787     0.2250
 1462.0000     9.4480    64.7403     2.4295     0.0816     0.2208
 1462.5000     9.4418    64.1911     2.4290     0.0770     0.2106
 1463.0000     9.4299    64.2008     2.4282     0.0747     0.2042
 1463.5000     9.4178    64.2004     2.4293     0.0818     0.2006
 1464.0000     9.4059    65.1568     2.4343     0.0827     0.1935
 1464.5000     9.3939    67.3726     2.4299     0.0837     0.1863
 1465.0000     9.3821    68.8025     2.4256     0.0846     0.1790
 1465.5000     9.3765    68.7840     2.4246     0.0819     0.1782
 1466.0000     9.4014    68.7866     2.4246     0.0778     0.1789
 1466.5000     9.4258    68.6812     2.4261     0.0717     0.1796
 1467.0000     9.4501    68.1434     2.4293     0.0695     0.1804
 1467.5000     9.4743    67.6179     2.4335     0.0746     0.1811
 1468.0000     9.4896    67.0911     2.4377     0.0663     0.1838
 1468.5000     9.4765    66.5559     2.4419     0.0746     0.1931
 1469.0000     9.4642    66.0265     2.4450     0.0675     0.1986
 1469.5000     9.4519    67.4124     2.4388     0.0714     0.2049
 1470.0000     9.4396    70.1655     2.4423     0.0738     0.2150
 1470.5000     9.4273    70.6511     2.4410     0.0742     0.2236
 1471.0000     9.4147    69.7252     2.4348     0.0750     0.2217
 1471.5000     9.4167    68.8120     2.4339     0.0782     0.2201
 1472.0000     9.4222    68.5703     2.4330     0.0822     0.2184
 1472.5000     9.4279    68.3166     2.4290     0.0863     0.2168
 1473.0000     9.4399    66.5256     2.4200     0.0891     0.2179
 1473.5000     9.4778    64.8695     2.4171     0.0893     0.2299
 1474.0000     9.5112    65.7263     2.4152     0.0823     0.2416
 1474.5000     9.5053    66.4355     2.4159     0.0753     0.2532
 1475.0000     9.4986    66.5620     2.4259     0.0688     0.2616
 1475.5000     9.4921    67.4838     2.4354     0.0686     0.2600
 1476.0000     9.4857    69.2150     2.4439     0.0722     0.2549
 1476.5000     9.4792    70.5880     2.4438     0.0789     0.2498
 1477.0000     9.4728    71.1550     2.4387     0.0858     0.2464
 1477.5000     9.4663    71.7390     2.4269     0.0862     0.2444
 1478.0000     9.4598    71.7517     2.4148     0.0862     0.2423
 1478.5000     9.4532    70.4898     2.4124     0.0921     0.2415
 1479.0000     9.4521    69.2380     2.4083     0.0981     0.2415
 1479.5000     9.4525    68.3967     2.4026     0.1034     0.2415
 1480.0000     9.4717    67.7038     2.3969     0.0974     0.2416
 1480.5000     9.5152    65.6550     2.3916     0.0913     0.2417
 1481.0000     9.5596    64.3436     2.3981     0.0937     0.2352
 1481.5000     9.5355    64.2583     2.4048     0.0952     0.2194
 1482.0000     9.4933    63.2334     2.4041     0.0934     0.2078
 1482.5000     9.5145    61.3532     2.4036     0.0954     0.2094
 1483.0000     9.5350    59.4243     2.4030     0.0951     0.2151
 1483.5000     9.5553    58.6674     2.4027     0.0904     0.2207
 1484.0000     9.5755    58.2819     2.4054     0.0856     0.2265
 1484.5000     9.5903    59.9768     2.4129     0.0862     0.2292
 1485.0000     9.5801    61.7746     2.4159     0.0876     0.2314
 1485.5000     9.5707    63.5634     2.4165     0.0866     0.2335
 1486.0000     9.5622    65.3502     2.4158     0.0871     0.2355
 1486.5000     9.5450    67.1405     2.4146     0.0874     0.2350
 1487.0000     9.3951    68.9284     2.4138     0.0860     0.2343
 1487.5000     8.9266    70.1957     2.4144     0.0846     0.2337
 1488.0000     9.2548    67.9924     2.4149     0.0888     0.2330
 1488.5000     9.5864    65.3701     2.4155     0.0970     0.2324
 1489.0000     9.6159    64.5523     2.4098     0.0986     0.2317
 1489.5000     9.6501    64.6850     2.3990     0.1006     0.2314
 1490.0000     9.6350    68.0558     2.3947     0.1030     0.2364
 1490.5000     9.6174    72.3095     2.3908     0.1019     0.2427
 1491.0000     9.6000    74.0884     2.3908     0.1007     0.2490
 1491.5000     9.5826    72.5529     2.3929     0.0986     0.2553
 1492.0000     9.5653    70.0773     2.3951     0.0934     0.2616
 1492.5000     9.5479    67.8338     2.3978     0.0882     0.2674
