~VERSION INFORMATION
 VERS.                2.0:   CWLS LOG ASCII STANDARD - VERSION 2.0
 WRAP.                 NO:   ONE LINE PER DEPTH STEP
~WELL INFORMATION
#MNEM.UNIT      DATA TYPE    INFORMATION
#----------   ------------   ------------------------------
 STRT.F          100.0000:   START DEPTH
 STOP.F          780.0000:   STOP DEPTH
 STEP.F            0.5000:   STEP LENGTH
 NULL.          -999.2500:   NO VALUE
 COMP. U S NAVY-INTEX OIL:   COMPANY
 WELL.        NPR #34-S-2:   WELL
 FLD .             TEAPOT:   FIELD
 LOC .       S2 T38N R78W:   LOCATION
 CNTY.            NATRONA:   COUNTY
 STAT.            WYOMING:   STATE
 CTRY. UNITED STATES OF AMERICA:   COUNTRY
 SRVC.       Schlumberger:   SERVICE COMPANY
 DATE.        16-JUL-1962:   LOGDATE
 API .       490250644000:   API NUMBER
~CURVE INFORMATION
#MNEM.UNIT       API CODE    CURVE DESCRIPTION
#----------   ------------   ------------------------------
 DEPT.F                  :   
 ASN .OHMM   05 041 16 00:   AMPLIFIED SHORT NORMAL 16"
 CILD.MMHO   05 110 46 00:   CONDUCTIVITY INDUCTION LOG DEEP
 ILD .OHMM   05 120 46 00:   INDUCTION LOG DEEP
 SPR .MV     05 010 01 00:   SPONTANEOUS POTENTIAL FROM RES.
 CALM.IN     15 280 01 00:   CALIPER FROM MICRO LOG
 GR  .GAPI   30 310 01 00:   GAMMA RAY
~PARAMETER INFORMATION
#MNEM.UNIT          VALUE    DESCRIPTION
#----------   ------------   ------------------------------
 LMF .                 KB:   LOG MEASURED FROM
 DMF .                 KB:   DRILLING MEASURED FROM
 EKB .F              5130:   KELLING BUSHING
 EGL .F              5125:   GROUND LEVEL
 DATE.        16-JUL-1962:   RUN DATE
 RUN .                  1:   RUN NUMBER
 DD  .F               780:   DEPTH DRILLER
 DL  .F               781:   DEPTH LOGGER
 BLI .F               780:   BOTTOM LOG INTERVAL
 TLI .F               100:   TOP LOG INTERVAL
 CBD .F                10:   CASING BOTTOM DRILLER
 BS  .IN             6.75:   BIT SIZE
 BSD .F               780:   BIT SIZE AT DEPTH
 DFT .       OIL EMULSION:   DRILLING FLUID TYPE
 DFD .               10.3:   DRILLING FLUID DENSITY
 DFV .                 43:   DRILLING FLUID VISCOSITY
 DFL .                4.6:   DRILLING FLUID LOSS
 RMS .OHMM              4:   RESISTIVITY MUD SAMPLE
 MST .F                82:   MUD SAMPLE TEMPERATURE
 RMF .OHMM            3.1:   RESISTIVITY MUD FILTRATE SAMPLE
 MFST.F                82:   MUD FILTRATE SAMPLE TEMPERATURE
 RMC .OHMM            4.3:   RESISTIVITY MUD CAKE
 MCST.F                82:   MUD CAKE SAMPLE TEMPERATURE
 TCS .HRS             0.5:   TIME CURCULATED STOPPED
 LUN .               2503:   LOGGING UNIT NUMBER
 LUL .               CSPR:   LOGGING UNIT LOCATION
 ENGI.           ELLERMAN:   RECORDING ENGINEER
 WITN.          JORGENSON:   WITNESSED BY
 CLNT.            A2DTECH:   CLIENT CODE
 ORIG.           5" PRINT:   ORIGIN OF DATA
 UWI .       490250644000:   UNIQUE WELL ID
 DICO. A2D Technologies, Inc.:   DIGITIZING COMPANY
~OTHER INFORMATION
~A   DEPT       ASN       CILD         ILD      SPR       CALM         GR   
# ...
  360.0000    10.2422    93.0140    10.7069   -51.7850  -999.2500  -999.2500
  360.5000    10.4665    90.0928    10.9340   -51.6288  -999.2500  -999.2500
  361.0000    10.6909    87.0767    11.1610   -51.4727  -999.2500  -999.2500
  361.5000    10.9153    85.5575    11.2376   -51.3165  -999.2500  -999.2500
  362.0000    11.0649    84.0384    11.3895   -51.1603  -999.2500  -999.2500
  362.5000    11.2892    84.0162    11.4662   -51.0042  -999.2500  -999.2500
  363.0000    11.4429    84.7481    11.3925   -50.8480  -999.2500  -999.2500
  363.5000    11.5885    85.6699    11.3428   -50.8408  -999.2500  -999.2500
  364.0000    11.6634    87.1657    11.2451   -50.7971  -999.2500  -999.2500
  364.5000    11.5140    89.1672    11.1650   -50.6771  -999.2500  -999.2500
  365.0000    11.3647    90.6421    11.0138   -50.5208  -999.2500  -999.2500
  365.5000    11.2154    92.1169    10.7988   -50.3646  -999.2500  -999.2500
  366.0000    10.9914    92.9791    10.6499   -50.3571  -999.2500  -999.2500
  366.5000    10.7673    94.3181    10.5010   -50.1994  -999.2500  -999.2500
  367.0000    10.6927    95.7930    10.3712   -50.1921  -999.2500  -999.2500
  367.5000    10.6181    95.7709    10.2032   -50.0372  -999.2500  -999.2500
  368.0000    10.6183    96.4972    10.1295   -49.9492  -999.2500  -999.2500
  368.5000    10.6184    97.2236    10.0554   -49.8724  -999.2500  -999.2500
  369.0000    10.6185    97.4884     9.9820   -49.7173  -999.2500  -999.2500
  369.5000    10.6187    97.9278     9.9837   -49.7098  -999.2500  -999.2500
  370.0000    10.5441    98.6527     9.9524   -49.7015  -999.2500  -999.2500
  370.5000    10.4695    98.7513     9.9113   -49.5461  -999.2500  -999.2500
  371.0000    10.3949    99.3584     9.8376   -49.3899  -999.2500  -999.2500
  371.5000    10.3951   100.0848     9.7639   -49.3818  -999.2500  -999.2500
  372.0000    10.3195   100.0571     9.7609   -49.3745  -999.2500  -999.2500
  372.5000    10.2459   100.0374     9.6848   -49.3105  -999.2500  -999.2500
  373.0000    10.1713   100.0128     9.6180   -49.2110  -999.2500  -999.2500
  373.5000    10.1715   100.7447     9.6198   -49.2030  -999.2500  -999.2500
  374.0000    10.0221   101.4710     9.6962   -49.1964  -999.2500  -999.2500
  374.5000     9.9326   101.4434     9.6980   -49.0791  -999.2500  -999.2500
  375.0000     9.9028   101.4212     9.7462   -49.0327  -999.2500  -999.2500
  375.5000     9.9179   101.3991     9.7761   -49.1741  -999.2500  -999.2500
  376.0000     9.9480   101.3769     9.7776   -49.3294  -999.2500  -999.2500
  376.5000     9.9780   101.3530     9.7789   -49.6059  -999.2500  -999.2500
  377.0000     9.9931   101.3323     9.7805   -49.7748  -999.2500  -999.2500
  377.5000     9.9783   101.5885     9.7068   -50.0376  -999.2500  -999.2500
  378.0000     9.9037   102.0369     9.7083   -50.1791  -999.2500  -999.2500
  378.5000     9.8280   102.0092     9.6346   -50.3205  -999.2500  -999.2500
  379.0000     9.7368   101.9871     9.6361   -50.3113  -999.2500  -999.2500
  379.5000     9.6628   101.9649     9.4872   -50.3040  -999.2500  -999.2500
  380.0000     9.6054   103.4398     9.4135   -50.2966  -999.2500  -999.2500
  380.5000     9.6056   104.1717     9.2646   -50.2893  -999.2500  -999.2500
  381.0000     9.6057   106.3895     9.1812   -50.2819  -999.2500  -999.2500
  381.5000     9.5909   109.3614     8.9672   -50.2746  -999.2500  -999.2500
  382.0000     9.5014   113.8303     8.7431   -50.1184  -999.2500  -999.2500
  382.5000     9.2325   119.0476     8.5190   -49.8134  -999.2500  -999.2500
  383.0000     8.7842   123.5165     8.2949   -49.5085  -999.2500  -999.2500
  383.5000     8.4854   127.9854     8.1460   -48.9059  -999.2500  -999.2500
  384.0000     8.2015   130.9581     7.9971   -48.3033  -999.2500  -999.2500
  384.5000     8.0073   132.4326     7.9986   -47.9983  -999.2500  -999.2500
  385.0000     7.8879   131.6615     8.0001   -47.6933  -999.2500  -999.2500
  385.5000     7.8283   130.8907     8.0016   -47.6860  -999.2500  -999.2500
  386.0000     7.8434   130.0599     8.0782   -48.1270  -999.2500  -999.2500
  386.5000     8.0378   127.8518     8.2301   -48.5641  -999.2500  -999.2500
  387.0000     8.2622   125.5794     8.3835   -48.8720  -999.2500  -999.2500
  387.5000     8.7108   123.3117     8.6090   -49.1443  -999.2500  -999.2500
  388.0000     8.8919   119.5471     8.6968   -49.2861  -999.2500  -999.2500
  388.5000     8.9668   115.7824     8.9131   -49.4276  -999.2500  -999.2500
  389.0000     8.9803   112.0177     8.9897   -49.4196  -999.2500  -999.2500
  389.5000     9.0103   109.7501     8.9912   -49.5617  -999.2500  -999.2500
  390.0000     9.0703   111.2305     8.9927   -49.7013  -999.2500  -999.2500
  390.5000     9.1153   114.1968     8.9942   -49.6939  -999.2500  -999.2500
  391.0000     9.1303   115.6717     8.8453   -49.6866  -999.2500  -999.2500
  391.5000     9.0558   116.4036     8.7712   -49.6792  -999.2500  -999.2500
  392.0000     8.9214   117.1300     8.6977   -49.6726  -999.2500  -999.2500
  392.5000     8.8020   117.8518     8.6238   -49.6652  -999.2500  -999.2500
  393.0000     8.7871   118.5771     8.5501   -49.6577  -999.2500  -999.2500
  393.5000     8.8919   118.5550     8.4767   -49.6498  -999.2500  -999.2500
  394.0000     8.9369   118.5329     8.4782   -49.6424  -999.2500  -999.2500
  394.5000     8.7727   117.7620     8.4797   -49.4863  -999.2500  -999.2500
  395.0000     8.7728   117.3278     8.5952   -49.4147  -999.2500  -999.2500
  395.5000     8.8327   116.2201     8.7155   -49.3228  -999.2500  -999.2500
  396.0000     8.9973   114.6962     8.8722   -49.1666  -999.2500  -999.2500
  396.5000     9.1768   113.0801     9.0123   -49.0104  -999.2500  -999.2500
  397.0000     9.2517   110.1609     9.0890   -48.8542  -999.2500  -999.2500
  397.5000     9.1462   107.1448     9.1657   -48.6979  -999.2500  -999.2500
  398.0000     9.1175   105.6312     9.2423   -48.5417  -999.2500  -999.2500
  398.5000     9.3399   108.5975     9.2436   -48.5342  -999.2500  -999.2500
  399.0000     9.4616   110.8209     9.2451   -48.3780  -999.2500  -999.2500
  399.5000     9.4020   112.2957     9.2468   -48.3692  -999.2500  -999.2500
  400.0000     9.2676   112.5249     9.2482   -48.5125  -999.2500  -999.2500
  400.5000     9.1183   113.7540     9.1744   -48.6540  -999.2500  -999.2500
  401.0000     9.0138   114.0195     9.1005   -48.6448  -999.2500  -999.2500
  401.5000     8.9691   114.7973     9.0271   -48.7881  -999.2500  -999.2500
  402.0000     8.9842   115.1796     8.9534   -48.7991  -999.2500  -999.2500
  402.5000     9.0142   115.1569     8.8797   -48.9222  -999.2500  -999.2500
  403.0000     9.0443   115.8832     8.8060   -48.9134  -999.2500  -999.2500
  403.5000     9.0594   115.8608     8.7323   -49.0549  -999.2500  -999.2500
  404.0000     9.0445   115.8383     8.6586   -49.0476  -999.2500  -999.2500
  404.5000     8.9889   116.5654     8.6292   -49.2014  -999.2500  -999.2500
  405.0000     8.8690   116.5377     8.5192   -49.4795  -999.2500  -999.2500
  405.5000     8.7793   116.0696     8.5214   -49.6192  -999.2500  -999.2500
  406.0000     8.7340   117.2412     8.5233   -49.7607  -999.2500  -999.2500
  406.5000     8.7073   117.9716     8.5258   -49.7534  -999.2500  -999.2500
  407.0000     8.7080   118.6976     8.5280   -49.7461  -999.2500  -999.2500
  407.5000     8.7535   118.6752     8.5303   -49.5908  -999.2500  -999.2500
  408.0000     8.7989   118.6500     8.4567   -49.5833  -999.2500  -999.2500
  408.5000     8.8294   119.3764     8.3838   -49.5754  -999.2500  -999.2500
  409.0000     8.7403   119.3544     8.3865   -49.7170  -999.2500  -999.2500
  409.5000     8.6512   119.3323     8.3135   -49.7097  -999.2500  -999.2500
  410.0000     8.5770   120.0643     8.3158   -49.7024  -999.2500  -999.2500
  410.5000     8.5178   120.0367     8.2913   -49.6949  -999.2500  -999.2500
  411.0000     8.4736   120.7635     8.2450   -49.6875  -999.2500  -999.2500
  411.5000     8.4592   120.7410     8.1721   -49.6801  -999.2500  -999.2500
