~VERSION INFORMATION
 VERS.                2.0:   CWLS LOG ASCII STANDARD - VERSION 2.0
 WRAP.                 NO:   ONE LINE PER DEPTH STEP
~WELL INFORMATION
#MNEM.UNIT      DATA TYPE    INFORMATION
#----------   ------------   ------------------------------
 STRT.F            8.0000:   START DEPTH
 STOP.F         3200.0000:   STOP DEPTH
 STEP.F            0.5000:   STEP LENGTH
 NULL.          -999.2500:   NO VALUE
 COMP. BROWN JOHN E&C INC:   COMPANY
 WELL.  62 x 15-17 #62-15:   WELL
 FLD .        N.P.R NO. 3:   FIELD
 LOC .      S15 T38N R78W:   LOCATION
 CNTY.            NATRONA:   COUNTY
 STAT.            WYOMING:   STATE
 CTRY. UNITED STATES OF AMERICA:   COUNTRY
 SRVC.      Western Atlas:   SERVICE COMPANY
 DATE.        17-JUN-1986:   LOGDATE
 API .       490251104300:   API NUMBER
~CURVE INFORMATION
#MNEM.UNIT       API CODE    CURVE DESCRIPTION
#----------   ------------   ------------------------------
 DEPT.F                  :   
 GRR .GAPI   07 310 01 00:   GAMMA RAY
 CALR.IN     07 280 01 00:   CALIPER FROM RESISTIVITY
 SPR .MV     07 010 01 00:   SPONTANEOUS POTENTIAL
 RILD.OHMM   07 120 46 00:   INDUCTION LOG DEEP RESISTIVITY
 RILM.OHMM   07 120 44 00:   INDUCTION LOG MEDIUM RESISTIVITY
 RFOC.OHMM   07 220 04 00:   RESISTIVITY FOCUSED LOG
 PORD.DEC    45 890 12 00:   POROSITY DENSITY SANDSTONE
 CNC .DEC    42 890 03 00:   NEUTRON POROSITY SANDSTONE
 CORR.G/C3   45 356 01 00:   DENSITY CORRECTION
 DEN .G/C3   45 350 01 00:   COMPENSATED BULK DENSTIY
~PARAMETER INFORMATION
#MNEM.UNIT          VALUE    DESCRIPTION
#----------   ------------   ------------------------------
 PD  .                 GL:   PERMANENT DATUM
 EPD .F              5242:   ELEVATION PERMANENT DATUM
 LMF .                 KB:   LOG MEASURED FROM
 DAPD.F                11:   FEET ABOVE PERMANENT DATUM
 DMF .                 KB:   DRILLING MEASURED FROM
 EKB .F              5253:   KELLING BUSHING
 EGL .F              5242:   GROUND LEVEL
 DATE.            6-17-86:   RUN DATE
 RUN .                  1:   RUN NUMBER
 DD  .F              3200:   DEPTH DRILLER
 DL  .F              3202:   DEPTH LOGGER
 BLI .F              3200:   BOTTOM LOG INTERVAL
 CS  .IN            8.625:   CASING SIZE
 CBD .F               573:   CASING BOTTOM DRILLER
 CBL .F               573:   CASING BOTTOM LOGGER
 BS  .IN            7.875:   BIT SIZE
 BSD .F              3200:   BIT SIZE AT DEPTH
 DFT .            KCL/GEL:   DRILLING FLUID TYPE
 DFD .                8.9:   DRILLING FLUID DENSITY
 DFV .                 37:   DRILLING FLUID VISCOSITY
 DFPH.                8.5:   DRILLING FLUID PH
 DFL .               10.2:   DRILLING FLUID LOSS
 MSS .           MUD TANK:   MUD SAMPLE SOURCE
 RMS .OHMM            .39:   RESISTIVITY MUD SAMPLE
 MST .F                80:   MUD SAMPLE TEMPERATURE
 RMF .OHMM            .29:   RESISTIVITY MUD FILTRATE SAMPLE
 MFST.F                80:   MUD FILTRATE SAMPLE TEMPERATURE
 RMC .OHMM            .49:   RESISTIVITY MUD CAKE
 MCST.F                80:   MUD CAKE SAMPLE TEMPERATURE
 MFSS.               CALC:   MUD FILTRATE SAMPLE SOURCE
 MCSS.               CALC:   MUD CAKE SAMPLE SOURCE
 RMB .OHMM            .24:   RESISTIVITY MUD AT BHT
 BHT .F               130:   BOTTOM HOLE TEMPERATURE
 TCS .HRS               5:   TIME CURCULATED STOPPED
 MRT .F               130:   MAXIMUM RECORDED TEMPERATURE
 LUN .            HL 6264:   LOGGING UNIT NUMBER
 LUL .           GILLETTE:   LOGGING UNIT LOCATION
 ENGI.      P.H. FAHLSING:   RECORDING ENGINEER
 WITN.             STRONG:   WITNESSED BY
 CLNT.            A2DTECH:   CLIENT CODE
 UWI .       490251104300:   UNIQUE WELL ID
 DICO. A2D Technologies, Inc.:   DIGITIZING COMPANY
~OTHER INFORMATION
~A    DEPT     GRR       CALR        SPR       RILD       RILM       RFOC       PORD        CNC       CORR        DEN   
# ...
 2286.0000   126.0906     8.8127   -49.4996     5.6145     5.3387     7.2711  -999.2500  -999.2500  -999.2500  -999.2500
 2286.5000   128.2043     8.8136   -49.7921     5.3489     5.0158     7.1707  -999.2500  -999.2500  -999.2500  -999.2500
 2287.0000   128.5165     8.8145   -50.0846     5.0258     4.7442     7.1207  -999.2500  -999.2500  -999.2500  -999.2500
 2287.5000   128.2275     8.8153   -50.2264     4.6574     4.5465     6.7367  -999.2500  -999.2500  -999.2500  -999.2500
 2288.0000   127.3411     8.8162   -50.2155     4.4678     4.3360     5.9474  -999.2500  -999.2500  -999.2500  -999.2500
 2288.5000   125.2506     8.8171   -50.2068     4.3928     4.2172     5.1426  -999.2500  -999.2500  -999.2500  -999.2500
 2289.0000   121.6586     8.8182   -50.1980     4.3279     4.1878     4.8653  -999.2500  -999.2500  -999.2500  -999.2500
 2289.5000   121.3671     8.8341   -50.1893     4.2631     4.2167     4.9328  -999.2500  -999.2500  -999.2500  -999.2500
 2290.0000   123.4837     8.8349   -50.0300     4.1971     4.2752     5.3226  -999.2500  -999.2500  -999.2500  -999.2500
 2290.5000   124.9968     8.8358   -49.7199     4.1679     4.3046     5.9578  -999.2500  -999.2500  -999.2500  -999.2500
 2291.0000   123.2095     8.8517   -49.2573     4.1676     4.3342     6.2399  -999.2500  -999.2500  -999.2500  -999.2500
 2291.5000   123.8217     8.8526   -48.9474     4.1673     4.3641     6.1538  -999.2500  -999.2500  -999.2500  -999.2500
 2292.0000   125.6351     8.8535   -48.6374     4.1670     4.3941     5.9031  -999.2500  -999.2500  -999.2500  -999.2500
 2292.5000   126.5477     8.8544   -48.3275     4.1957     4.4243     5.7416  -999.2500  -999.2500  -999.2500  -999.2500
 2293.0000   125.6584     8.8554   -48.1681     4.2538     4.3934     5.7412  -999.2500  -999.2500  -999.2500  -999.2500
 2293.5000   122.6670     8.8411   -47.8582     4.2535     4.3626     5.9863  -999.2500  -999.2500  -999.2500  -999.2500
 2294.0000   122.3783     8.8421   -47.6988     4.1940     4.3025     6.1517  -999.2500  -999.2500  -999.2500  -999.2500
 2294.5000   123.9410     8.8430   -47.5395     4.0801     4.1846     5.6610  -999.2500  -999.2500  -999.2500  -999.2500
 2295.0000   126.0080     8.8439   -47.8320     4.0516     4.1268     5.2822  -999.2500  -999.2500  -999.2500  -999.2500
 2295.5000   128.4221     8.8448   -48.5741     4.0514     4.1553     5.3555  -999.2500  -999.2500  -999.2500  -999.2500
 2296.0000   130.8361     8.8456   -49.1677     4.0793     4.1839     5.5436  -999.2500  -999.2500  -999.2500  -999.2500
 2296.5000   132.6495     8.8465   -49.6108     4.1073     4.2713     5.3178  -999.2500  -999.2500  -999.2500  -999.2500
 2297.0000   134.1626     8.8476   -50.0539     4.1642     4.3330     4.9930  -999.2500  -999.2500  -999.2500  -999.2500
 2297.5000   133.5736     8.8485   -50.0451     4.2219     4.4519     5.1008  -999.2500  -999.2500  -999.2500  -999.2500
 2298.0000   129.8388     8.8494   -50.0361     4.1349     4.5137     5.5805  -999.2500  -999.2500  -999.2500  -999.2500
 2298.5000   124.2904     8.8652   -50.0255     4.0778     4.5448     6.5883  -999.2500  -999.2500  -999.2500  -999.2500
 2299.0000   123.9989     8.8661   -49.8661     4.0495     4.5444     6.9629  -999.2500  -999.2500  -999.2500  -999.2500
 2299.5000   123.7102     8.8670   -49.5562     4.0491     4.2696     6.5874  -999.2500  -999.2500  -999.2500  -999.2500
 2300.0000   121.3060     8.8679   -49.3663     4.0871     4.2398     5.0991  -999.2500  -999.2500  -999.2500  -999.2500
 2300.5000   119.3592     8.8636   -49.1632     4.2127     4.5121     4.6934  -999.2500  -999.2500  -999.2500  -999.2500
 2301.0000   116.2491     8.8594   -48.9602     4.3089     4.6385     4.4094  -999.2500  -999.2500  -999.2500  -999.2500
 2301.5000   114.4619     8.8552   -48.7571     4.4000     4.7685     5.0991  -999.2500  -999.2500  -999.2500  -999.2500
 2302.0000   112.9750     8.8510   -48.5540     4.5586     4.8683     6.8662  -999.2500  -999.2500  -999.2500  -999.2500
 2302.5000   114.7914     8.8467   -48.3043     4.6817     4.9701     7.1079  -999.2500  -999.2500  -999.2500  -999.2500
 2303.0000   116.9081     8.8425   -48.2970     4.8130     5.0043     6.6788  -999.2500  -999.2500  -999.2500  -999.2500
 2303.5000   115.7216     8.8270   -48.1390     4.9138     5.0766     6.7251  -999.2500  -999.2500  -999.2500  -999.2500
 2304.0000   111.5320     8.8246   -48.1317     5.0168     5.2158     7.0589  -999.2500  -999.2500  -999.2500  -999.2500
 2304.5000   112.1472     8.8215   -48.1244     5.1220     5.2883     7.1079  -999.2500  -999.2500  -999.2500  -999.2500
 2305.0000   115.5837     8.8184   -48.4182     5.1220     5.2514     6.5118  -999.2500  -999.2500  -999.2500  -999.2500
 2305.5000   118.1861     8.8153   -48.7121     5.0516     5.1431     6.2755  -999.2500  -999.2500  -999.2500  -999.2500
 2306.0000   114.8674     8.8150   -49.0060     4.9786     4.9677     6.5415  -999.2500  -999.2500  -999.2500  -999.2500
 2306.5000   109.2051     8.8157   -49.2999     4.9138     4.9331     7.1079  -999.2500  -999.2500  -999.2500  -999.2500
 2307.0000   106.1782     8.8313   -49.4431     4.8800     4.9670     7.3582  -999.2500  -999.2500  -999.2500  -999.2500
 2307.5000   113.7388     8.8319   -49.5864     4.8800     5.0012     5.5024  -999.2500  -999.2500  -999.2500  -999.2500
 2308.0000   124.4060     8.8325   -49.4267     4.9138     5.0720     5.0639  -999.2500  -999.2500  -999.2500  -999.2500
 2308.5000   129.0870     8.8481   -49.4193     5.0168     5.2127     5.2060  -999.2500  -999.2500  -999.2500  -999.2500
 2309.0000   122.4950     8.8487   -49.4120     5.1220     5.3217     6.1391  -999.2500  -999.2500  -999.2500  -999.2500
 2309.5000   117.7048     8.8643   -49.2541     5.2293     5.3584     7.5125  -999.2500  -999.2500  -999.2500  -999.2500
 2310.0000   114.4161     8.8650   -49.0961     5.2270     5.3579     8.0508  -999.2500  -999.2500  -999.2500  -999.2500
 2310.5000   115.9322     8.8504   -48.7876     5.1575     5.2839     7.7234  -999.2500  -999.2500  -999.2500  -999.2500
 2311.0000   118.3493     8.8511   -48.6162     5.0867     5.0335     7.3074  -999.2500  -999.2500  -999.2500  -999.2500
 2311.5000   116.8624     8.8517   -48.3193     4.9138     4.6640     6.7718  -999.2500  -999.2500  -999.2500  -999.2500
 2312.0000   118.0782     8.8523   -48.0108     4.5855     4.2918     6.2755  -999.2500  -999.2500  -999.2500  -999.2500
 2312.5000   121.8233     8.8529   -47.8529     4.3089     4.0322     5.7755  -999.2500  -999.2500  -999.2500  -999.2500
 2313.0000   128.6216     8.8384   -47.6949     4.0770     3.9218     5.2751  -999.2500  -999.2500  -999.2500  -999.2500
 2313.5000   130.4380     8.8377   -47.3864     3.9384     3.8944     4.7717  -999.2500  -999.2500  -999.2500  -999.2500
 2314.0000   128.3505     8.8246   -47.2285     3.9113     3.8941     4.3188  -999.2500  -999.2500  -999.2500  -999.2500
 2314.5000   121.7585     8.8102   -46.9199     3.9384     3.9482     4.1719  -999.2500  -999.2500  -999.2500  -999.2500
 2315.0000   111.8632     8.8109   -47.0632     3.9658     4.0030     4.3488  -999.2500  -999.2500  -999.2500  -999.2500
 2315.5000   105.2712     8.8115   -47.6699     4.0210     4.0027     5.8559  -999.2500  -999.2500  -999.2500  -999.2500
 2316.0000   100.4810     8.8271   -48.2534     3.9658     4.0024     8.1630  -999.2500  -999.2500  -999.2500  -999.2500
 2316.5000   104.0992     8.8427   -48.3966     3.8046     3.9199     8.4771  -999.2500  -999.2500  -999.2500  -999.2500
 2317.0000   111.4995     8.8282   -48.3875     3.5751     3.7341     6.4071  -999.2500  -999.2500  -999.2500  -999.2500
 2317.5000   117.0450     8.8589   -48.2295     3.3827     3.5067     4.6102  -999.2500  -999.2500  -999.2500  -999.2500
 2318.0000   114.9575     8.8746   -47.9210     3.2006     3.4081     3.4610  -999.2500  -999.2500  -999.2500  -999.2500
 2318.5000   108.9661     8.8752   -47.7631     3.0896     3.2958     3.1852  -999.2500  -999.2500  -999.2500  -999.2500
 2319.0000   101.7736     8.8606   -47.3039     2.9458     3.2502     3.3899  -999.2500  -999.2500  -999.2500  -999.2500
