~VERSION INFORMATION
 VERS.                2.0:   CWLS LOG ASCII STANDARD - VERSION 2.0
 WRAP.                 NO:   ONE LINE PER DEPTH STEP
~WELL INFORMATION
#MNEM.UNIT      DATA TYPE    INFORMATION
#----------   ------------   ------------------------------
 STRT.F           78.5000:   START DEPTH
 STOP.F         1021.0000:   STOP DEPTH
 STEP.F            0.5000:   STEP LENGTH
 NULL.          -999.2500:   NO VALUE
 COMP. U S NAVY/INTEX OIL CO:   COMPANY
 WELL.     NRR 3 ##65S-11:   WELL
 FLD .             TEAPOT:   FIELD
 LOC .      S11 T38N R78W:   LOCATION
 CNTY.            NATRONA:   COUNTY
 STAT.            WYOMING:   STATE
 CTRY. UNITED STATES OF AMERICA:   COUNTRY
 SRVC.       Schlumberger:   SERVICE COMPANY
 DATE.        09-MAR-1960:   LOGDATE
 API .       490250634100:   API NUMBER
~CURVE INFORMATION
#MNEM.UNIT       API CODE    CURVE DESCRIPTION
#----------   ------------   ------------------------------
 DEPT.F                  :   
 SPR .MV     05 010 01 00:   SPONTANEOUS POTENTIAL FROM RES.
 ILD .OHMM   05 120 46 00:   INDUCTION LOG DEEP
 CILD.MMHO   05 110 00 00:   CONDUCTIVITY INDUCTION LOG
 ASN .OHMM   05 041 16 00:   AMPLIFIED SHORT NORMAL 16"
~PARAMETER INFORMATION
#MNEM.UNIT          VALUE    DESCRIPTION
#----------   ------------   ------------------------------
 PD  .                 GL:   PERMANENT DATUM
 EPD .F              5227:   ELEVATION PERMANENT DATUM
 LMF .                 KB:   LOG MEASURED FROM
 DAPD.F                 5:   FEET ABOVE PERMANENT DATUM
 DMF .                 KB:   DRILLING MEASURED FROM
 EKB .F              5232:   KELLING BUSHING
 EGL .F              5227:   GROUND LEVEL
 DATE.             3-9-60:   RUN DATE
 RUN .                  1:   RUN NUMBER
 DD  .F              1025:   DEPTH DRILLER
 DL  .F              1026:   DEPTH LOGGER
 BLI .F              1021:   BOTTOM LOG INTERVAL
 TLI .F                80:   TOP LOG INTERVAL
 CBD .F                12:   CASING BOTTOM DRILLER
 BS  .IN            7.875:   BIT SIZE
 BSD .F              1025:   BIT SIZE AT DEPTH
 DFT .          OIL EMULS:   DRILLING FLUID TYPE
 DFD .               10.2:   DRILLING FLUID DENSITY
 DFV .                 36:   DRILLING FLUID VISCOSITY
 DFPH.                7.5:   DRILLING FLUID PH
 DFL .                  4:   DRILLING FLUID LOSS
 MSS .          FLOW LINE:   MUD SAMPLE SOURCE
 RMS .OHMM           2.18:   RESISTIVITY MUD SAMPLE
 MST .F                64:   MUD SAMPLE TEMPERATURE
 RMF .OHMM           1.17:   RESISTIVITY MUD FILTRATE SAMPLE
 MFST.F                63:   MUD FILTRATE SAMPLE TEMPERATURE
 RMC .OHMM           2.02:   RESISTIVITY MUD CAKE
 MCST.F                64:   MUD CAKE SAMPLE TEMPERATURE
 MFSS.                  M:   MUD FILTRATE SAMPLE SOURCE
 MCSS.                  M:   MUD CAKE SAMPLE SOURCE
 TCS .HRS             .75:   TIME CURCULATED STOPPED
 LUN .               2795:   LOGGING UNIT NUMBER
 LUL .               CSPR:   LOGGING UNIT LOCATION
 ENGI.              SCOTT:   RECORDING ENGINEER
 WITN.          JORGENSEN:   WITNESSED BY
 CLNT.            A2DTECH:   CLIENT CODE
 ORIG.           2" PRINT:   ORIGIN OF DATA
 UWI .       490250634100:   UNIQUE WELL ID
 DICO. A2D Technologies, Inc.:   DIGITIZING COMPANY
~OTHER INFORMATION
~A   DEPT      SPR        ILD       CILD        ASN   
# ...
  370.5000   -57.8554     2.6946   310.5325     3.9598
  371.0000   -57.7564     2.4473   326.0588     3.7372
  371.5000   -57.6679     2.3413   337.1743     3.6055
  372.0000   -57.5728     2.3546   339.7662     3.6456
  372.5000   -57.4813     2.3619   342.4516     3.8274
  373.0000   -57.3881     2.5525   345.1904     4.0315
  373.5000   -57.2950     2.7395   343.1864     4.2349
  374.0000   -57.2032     3.0591   320.1403     4.4602
  374.5000   -57.1085     3.5121   290.0802     4.9816
  375.0000   -57.0197     3.9480   259.6192     5.8471
  375.5000   -56.9177     4.3885   229.0060     6.2069
  376.0000   -56.8644     4.8369   203.7074     6.1063
  376.5000   -56.8940     5.2270   183.8677     6.0635
  377.0000   -56.9183     5.2898   183.8677     6.1013
  377.5000   -56.9476     5.3906   187.9760     6.1737
  378.0000   -56.9734     5.4802   192.0040     6.1686
  378.5000   -57.0022     5.3604   196.0321     6.1546
  379.0000   -57.0275     5.0357   199.8998     6.0518
  379.5000   -57.0587     4.7242   210.3707     5.9353
  380.0000   -57.0611     4.4060   224.4364     5.6613
  380.5000   -57.0307     4.0909   241.8074     5.2291
  381.0000   -57.0052     3.7761   259.1784     4.8421
  381.5000   -56.9771     3.4578   276.5493     4.4200
  382.0000   -56.9504     3.1469   291.2975     4.0854
  382.5000   -56.9229     2.8437   303.8937     4.0308
  383.0000   -56.8959     2.7484   316.4993     4.0749
  383.5000   -56.8686     2.7450   321.8145     4.1380
  384.0000   -56.8415     2.8635   310.1701     4.3025
  384.5000   -56.8143     3.1045   290.9066     4.5673
  385.0000   -56.7872     3.3112   270.8694     4.7795
  385.5000   -56.7601     3.5352   250.8184     4.9645
  386.0000   -56.7329     3.7484   232.9659     5.1273
  386.5000   -56.7058     3.9711   225.1453     5.2974
  387.0000   -56.6786     4.1579   218.9379     5.4479
  387.5000   -56.6516     4.2504   214.4289     5.6041
  388.0000   -56.6245     4.3320   210.9218     5.7182
  388.5000   -56.5974     4.4097   208.6473     5.7575
  389.0000   -56.5702     4.4973   206.9138     5.7408
  389.5000   -56.5434     4.5384   208.4435     5.7023
  390.0000   -56.5158     4.3660   211.5845     5.6411
  390.5000   -56.4899     4.1956   214.9983     5.4149
  391.0000   -56.4580     4.0235   228.5914     5.2018
  391.5000   -56.3769     3.8545   240.3273     4.9827
  392.0000   -56.2976     3.6810   252.0658     4.7779
  392.5000   -56.2183     3.5189   261.8549     4.6070
  393.0000   -56.1392     3.3782   270.7115     4.4582
  393.5000   -56.0600     3.2473   279.5861     4.3122
  394.0000   -55.9808     3.1257   288.5491     4.1992
  394.5000   -55.9016     3.0004   297.4108     4.1750
  395.0000   -55.8224     2.8775   304.7762     4.1527
  395.5000   -55.7432     2.7525   310.1202     4.1377
  396.0000   -55.6641     2.6447   311.0902     4.0995
  396.5000   -55.5845     2.5261   311.8958     3.9355
  397.0000   -55.5055     2.4195   315.7314     3.7853
  397.5000   -55.4253     2.3124   333.9880     3.6329
  398.0000   -55.3473     2.2055   357.3507     3.4825
  398.5000   -55.2651     2.0983   380.7134     3.3299
  399.0000   -55.1914     1.9919   404.0761     3.1798
  399.5000   -55.1003     1.8835   427.4389     3.0247
  400.0000   -55.1064     1.7692   434.8698     2.9051
  400.5000   -55.3049     1.7412   436.3727     2.9155
  401.0000   -55.5144     1.8214   434.3687     2.9969
  401.5000   -55.7095     2.0611   423.5351     3.1369
  402.0000   -55.9438     2.3007   409.7034     3.2775
  402.5000   -56.0398     2.5460   388.9390     3.5035
  403.0000   -55.9144     2.7842   353.4558     3.8424
  403.5000   -55.8176     3.0332   317.9726     4.2356
  404.0000   -55.7047     3.2636   282.4894     4.5039
  404.5000   -55.6005     3.5327   242.9860     4.5991
  405.0000   -55.4915     3.6692   242.9860     4.5923
  405.5000   -55.3848     3.6625   245.9920     4.5420
  406.0000   -55.2769     3.5824   253.7131     4.4892
  406.5000   -55.1698     3.3647   262.1400     4.3968
  407.0000   -55.0624     3.1686   270.5669     4.2530
  407.5000   -54.9550     2.9592   285.1403     4.0928
  408.0000   -54.8542     2.7585   306.7014     3.9351
  408.5000   -54.8485     2.5505   328.2625     3.7782
  409.0000   -54.8414     2.3514   349.8236     3.6179
  409.5000   -54.9079     2.1387   371.3848     3.4652
  410.0000   -55.0457     2.0381   388.7024     3.2970
  410.5000   -55.1703     2.0816   402.4324     3.2294
  411.0000   -55.3002     2.3503   408.3166     3.2348
  411.5000   -55.4299     2.6413   407.3146     3.3668
  412.0000   -55.5550     2.9238   401.6433     3.5351
  412.5000   -55.6904     3.2114   396.2926     3.7221
  413.0000   -55.8034     3.4939   363.2236     3.8410
  413.5000   -56.0140     3.7842   325.3956     4.3710
  414.0000   -56.0792     4.0539   283.0234     5.1805
  414.5000   -55.9931     4.3063   240.5255     5.5370
  415.0000   -55.8780     4.5628   214.5731     5.6891
  415.5000   -55.7692     4.7804   199.9655     5.8566
  416.0000   -55.6597     4.9680   196.3913     6.0203
  416.5000   -55.5486     5.1383   193.4688     6.1786
  417.0000   -55.4421     5.2962   190.7535     6.3665
  417.5000   -55.3223     5.4579   187.9058     6.5824
  418.0000   -55.2236     5.6188   184.5019     6.8511
  418.5000   -55.1691     5.7778   179.7073     7.1130
  419.0000   -55.0865     5.9421   174.9127     7.3800
  419.5000   -55.0613     6.0957   170.1181     7.6434
  420.0000   -55.1121     6.2739   165.3235     7.9203
  420.5000   -55.1549     6.3728   160.5289     7.9906
  421.0000   -55.2023     6.3600   155.7343     7.9812
  421.5000   -55.2471     6.3643   152.8056     7.9667
  422.0000   -55.2933     6.3326   153.5351     7.9673
  422.5000   -55.3389     6.2996   154.3487     7.9666
  423.0000   -55.3848     6.2649   155.1623     7.9666
  423.5000   -55.4307     6.2311   155.9760     7.9663
  424.0000   -55.4762     6.1969   156.7896     7.9657
  424.5000   -55.5225     6.1629   157.6032     7.9596
  425.0000   -55.5671     6.1290   158.4168     7.9527
  425.5000   -55.6158     6.0949   159.2305     7.9462
  426.0000   -55.6417     6.0610   160.0441     7.9391
  426.5000   -55.5050     6.0269   160.8577     7.9334
  427.0000   -55.3546     5.9931   161.6713     7.9204
  427.5000   -55.2036     5.9585   162.4850     7.8579
  428.0000   -55.0577     5.9255   163.2986     7.7926
  428.5000   -54.9025     5.8891   164.1122     7.7284
  429.0000   -54.8506     5.8683   164.9259     7.6629
  429.5000   -54.8760     5.9165   165.7395     7.5994
  430.0000   -54.8872     5.9706   166.5531     7.5414
  430.5000   -54.9056     6.0780   164.8347     7.5788
  431.0000   -54.9202     6.1797   161.7836     7.7616
  431.5000   -54.9369     6.2816   158.7325     7.9292
  432.0000   -54.9525     6.3838   155.6814     8.0994
  432.5000   -54.9686     6.4849   152.6835     8.2692
  433.0000   -54.9844     6.5884   149.6444     8.4376
  433.5000   -55.0001     6.6871   145.8654     8.6271
  434.0000   -55.0162     6.7989   144.3222     8.7051
  434.5000   -55.0318     6.8924   142.2742     8.7791
  435.0000   -55.0492     6.9479   139.8073     8.7762
  435.5000   -55.0509     7.0287   139.7713     8.7459
  436.0000   -55.0519     7.0685   139.7242     8.6238
  436.5000   -55.0496     7.0829   140.3774     8.4579
  437.0000   -55.0552     7.1941   142.4192     8.2984
  437.5000   -55.0149     6.9849   144.5373     8.1393
  438.0000   -54.9104     6.4748   147.7707     7.9796
  438.5000   -54.8088     5.9773   153.1441     7.7783
  439.0000   -54.7068     5.4692   166.1877     7.5000
  439.5000   -54.6013     4.9673   172.3236     6.9741
  440.0000   -54.5042     4.4619   207.0423     6.3806
  440.5000   -54.3325     3.9581   244.1046     5.7709
  441.0000   -54.0635     3.4534   281.1865     5.1512
  441.5000   -53.8206     2.9472   318.3531     4.5295
  442.0000   -53.5414     2.4660   355.5801     3.9380
  442.5000   -53.4263     2.2661   392.7911     3.5958
  443.0000   -53.4244     2.2199   429.9234     3.5389
