~VERSION INFORMATION
 VERS.                2.0:   CWLS LOG ASCII STANDARD - VERSION 2.0
 WRAP.                 NO:   ONE LINE PER DEPTH STEP
~WELL INFORMATION
#MNEM.UNIT      DATA TYPE    INFORMATION
#----------   ------------   ------------------------------
 STRT.F          250.0000:   START DEPTH
 STOP.F         1798.0000:   STOP DEPTH
 STEP.F            0.5000:   STEP LENGTH
 NULL.          -999.2500:   NO VALUE
 COMP. BROWN JOHN E&C INC:   COMPANY
 WELL. NPR 3 STX-10 #57-10:   WELL
 FLD .  TEAPOT DOME NPR 3:   FIELD
 LOC .      S10 T38N R78W:   LOCATION
 CNTY.            NATRONA:   COUNTY
 STAT.            WYOMING:   STATE
 CTRY. UNITED STATES OF AMERICA:   COUNTRY
 SRVC.           BIRDWELL:   SERVICE COMPANY
 DATE.        24-FEB-1979:   LOGDATE
 API .       490251096900:   API NUMBER
~CURVE INFORMATION
#MNEM.UNIT       API CODE    CURVE DESCRIPTION
#----------   ------------   ------------------------------
 DEPT.F                  :   
 GRD .GAPI   45 310 01 00:   GAMMA RAY FROM DENSITY LOG
 CALD.IN     45 280 60 00:   CALIPER
 RHOB.G/C3   45 350 01 00:   BULK DENSITY
 DPHI.DEC    45 890 12 00:   DENSITY POROSITY SANDSTONE
 CORR.G/C3   45 356 01 00:   DENSITY CORRECTION
~PARAMETER INFORMATION
#MNEM.UNIT          VALUE    DESCRIPTION
#----------   ------------   ------------------------------
 PD  .                 GL:   PERMANENT DATUM
 EPD .F              5201:   ELEVATION PERMANENT DATUM
 LMF .                 KB:   LOG MEASURED FROM
 DAPD.F                10:   FEET ABOVE PERMANENT DATUM
 DMF .                 KB:   DRILLING MEASURED FROM
 EKB .F              5211:   KELLING BUSHING
 EGL .F              5201:   GROUND LEVEL
 RUN .                  1:   RUN NUMBER
 DD  .F              1802:   DEPTH DRILLER
 DL  .F              1793:   DEPTH LOGGER
 BLI .F              1793:   BOTTOM LOG INTERVAL
 TLI .F               250:   TOP LOG INTERVAL
 CS  .IN            9.625:   CASING SIZE
 CBD .F               500:   CASING BOTTOM DRILLER
 CBL .F               490:   CASING BOTTOM LOGGER
 BS  .IN             8.75:   BIT SIZE
 BSD .F              1802:   BIT SIZE AT DEPTH
 DFT .                OIL:   DRILLING FLUID TYPE
 BHT .F                90:   BOTTOM HOLE TEMPERATURE
 TCS .HRS               4:   TIME CURCULATED STOPPED
 MRT .F                90:   MAXIMUM RECORDED TEMPERATURE
 LUN .               3029:   LOGGING UNIT NUMBER
 LUL .             CASPER:   LOGGING UNIT LOCATION
 ENGI.            ROLLINS:   RECORDING ENGINEER
 WITN.              AMEND:   WITNESSED BY
 CLNT.            A2DTECH:   CLIENT CODE
 ORIG.       2", 5" PRINT:   ORIGIN OF DATA
 UWI .       490251096900:   UNIQUE WELL ID
 DICO. A2D Technologies, Inc.:   DIGITIZING COMPANY
~OTHER INFORMATION
~A   DEPT       GRD        CALD       RHOB       DPHI      CORR  
# ...
  616.0000   118.3300     9.6722     2.5147     0.0308     0.2232
  616.5000   116.7951     9.6765     2.5064     0.0358     0.2215
  617.0000   119.7911     9.6808     2.4947     0.0408     0.2198
  617.5000   122.7250     9.6851     2.4830     0.0458     0.2186
  618.0000   125.6462     9.6894     2.4718     0.0475     0.2236
  618.5000   128.5644     9.6937     2.4696     0.0354     0.2437
  619.0000   131.4577     9.6984     2.4923     0.0221     0.2632
  619.5000   132.8894     9.7145     2.5176     0.0124     0.2816
  620.0000   128.9471     9.7314     2.5343     0.0142     0.2849
  620.5000   125.8053     9.7482     2.5146     0.0205     0.2540
  621.0000   122.6340     9.7650     2.4954     0.0268     0.2221
  621.5000   119.0875     9.7818     2.5167     0.0325     0.1903
  622.0000   124.0485     9.7986     2.5019     0.0212     0.1587
  622.5000   130.6099     9.8154     2.4799     0.0565     0.1391
  623.0000   137.3087     9.8322     2.4619     0.0450     0.1743
  623.5000   140.0637     9.8492     2.4924     0.0285     0.2254
  624.0000   136.6744     9.8647     2.5226     0.0120     0.2767
  624.5000   125.6393     9.8742     2.5535     0.0004     0.3280
  625.0000   119.1465     9.8915     2.5426     0.0067     0.3794
  625.5000   119.9456    10.3623     2.5321     0.0100     0.4317
  626.0000   121.7524    10.9190     2.5884    -0.0181     0.4857
  626.5000   122.7061    10.5205     2.6028    -0.0309     0.3548
  627.0000   118.7252     9.9974     2.5317     0.0393     0.2090
  627.5000   118.7438     9.8985     2.4835     0.0453     0.1313
  628.0000   120.4196     9.8835     2.4791     0.0453     0.1343
  628.5000   123.3806     9.8722     2.4877     0.0319     0.1487
  629.0000   126.3281     9.8604     2.4992     0.0192     0.1631
  629.5000   128.0882     9.8486     2.5106     0.0176     0.1702
  630.0000   126.8385     9.8452     2.5225     0.0186     0.1627
  630.5000   125.3235     9.8779     2.5274     0.0319     0.1422
  631.0000   123.8109     9.9096     2.4797     0.0494     0.1223
  631.5000   122.5410     9.9411     2.4471     0.0617     0.1094
  632.0000   124.2586     9.9527     2.4474     0.0589     0.1154
  632.5000   126.1994     9.9363     2.5021     0.0494     0.1201
  633.0000   127.9697     9.9201     2.4962     0.0389     0.1191
  633.5000   125.4132     9.9038     2.4819     0.0383     0.1187
  634.0000   122.2720     9.8874     2.4724     0.0377     0.1293
  634.5000   120.1775     9.8710     2.5046     0.0297     0.1398
  635.0000   121.4537     9.8546     2.4914     0.0449     0.1366
  635.5000   123.7926     9.8394     2.4793     0.0390     0.1327
  636.0000   123.4476     9.8422     2.4878     0.0337     0.1546
  636.5000   121.5694     9.8455     2.4957     0.0322     0.1725
  637.0000   119.7360     9.8486     2.5036     0.0325     0.1712
  637.5000   118.3002     9.8518     2.5110     0.0260     0.1704
  638.0000   122.9101     9.8549     2.5179     0.0226     0.1763
  638.5000   141.3362     9.8581     2.5249     0.0179     0.1830
  639.0000   159.7647     9.8612     2.5318     0.0136     0.1897
  639.5000   178.1668     9.8644     2.5387     0.0056     0.1948
  640.0000   196.6161     9.8675     2.5441     0.0135     0.1818
  640.5000   199.5901     9.8707     2.5023     0.0277     0.1639
  641.0000   199.7157     9.8738     2.5060     0.0269     0.1458
  641.5000   199.6982     9.8769     2.5101     0.0341     0.1272
  642.0000   165.7988     9.8793     2.4907     0.0445     0.1228
  642.5000   136.7258     9.8904     2.4783     0.0417     0.1450
  643.0000   129.2113     9.9033     2.4854     0.0360     0.1719
  643.5000   122.2577     9.9162     2.4951     0.0303     0.1989
  644.0000   118.4257     9.9291     2.5049     0.0247     0.2256
  644.5000   126.4743     9.9419     2.5147     0.0184     0.2435
  645.0000   130.4127     9.9548     2.5205     0.0176     0.2365
  645.5000   128.3586     9.9677     2.5050     0.0188     0.2090
  646.0000   125.3214     9.9805     2.4875     0.0389     0.1784
  646.5000   122.2244     9.9935     2.4687     0.0525     0.1475
  647.0000   119.1739     9.9993     2.4646     0.0492     0.1155
  647.5000   119.4764     9.9833     2.4705     0.0444     0.1168
  648.0000   120.2339     9.9677     2.4762     0.0393     0.1210
  648.5000   121.0030     9.9522     2.4820     0.0413     0.1252
  649.0000   121.7403     9.9367     2.4865     0.0441     0.1252
  649.5000   120.7679     9.9211     2.4831     0.0477     0.1233
  650.0000   119.5734     9.9055     2.4364     0.0647     0.1218
  650.5000   118.3247     9.8901     2.3925     0.0837     0.1220
  651.0000   118.7201     9.8958     2.3489     0.1026     0.1327
  651.5000   119.6802     9.9718     2.3048     0.1166     0.1654
  652.0000   119.8745    10.1746     2.2722     0.1080     0.5000
  652.5000   117.5367    10.8248     2.4726     0.0897     0.4926
  653.0000   115.2540    10.9578     2.4633     0.0715     0.4949
  653.5000   113.3599    10.7762     2.4448     0.0577     0.4956
  654.0000   117.3731    10.7106     2.4293     0.0446     0.4326
  654.5000   121.7422    10.3331     2.4757     0.0493     0.3036
  655.0000   120.5363     9.8485     2.4615     0.0601     0.1779
  655.5000   118.2557    10.0126     2.4436     0.0656     0.0959
  656.0000   117.4855     9.9883     2.4256     0.0699     0.0914
  656.5000   122.1663     9.8779     2.3995     0.0742     0.1574
  657.0000   122.9749     9.7849     2.4511     0.0742     0.2959
  657.5000   120.1200    10.8532     2.5689    -0.0084     0.4341
  658.0000   115.4386    10.6158     2.5535     0.0097     0.4627
  658.5000   110.8272     9.6849     2.5113     0.0609     0.1388
  659.0000   110.1200     9.6516     2.4685     0.0525     0.1421
  659.5000   112.5730     9.6568     2.4948     0.0291     0.1541
  660.0000   116.0343     9.6548     2.5237     0.0057     0.1669
  660.5000   119.5230     9.6517     2.5467    -0.0052     0.1721
  661.0000   123.0178     9.6486     2.5318     0.0181     0.1565
  661.5000   125.6745     9.6455     2.5170     0.0336     0.1461
  662.0000   126.7601     9.6425     2.4960     0.0315     0.1682
  662.5000   126.5256     9.6390     2.5251     0.0272     0.1959
  663.0000   125.2344     9.6285     2.5051     0.0238     0.2015
  663.5000   124.8622     9.5968     2.4786     0.0422     0.1779
  664.0000   127.5931     9.5664     2.4735     0.0479     0.1552
  664.5000   130.5046     9.5360     2.4828     0.0426     0.1500
  665.0000   132.5104     9.5050     2.4952     0.0361     0.1473
  665.5000   131.2659     9.4839     2.5048     0.0353     0.1448
  666.0000   127.6120     9.4654     2.5050     0.0345     0.1424
  666.5000   124.5446     9.4470     2.5056     0.0265     0.1466
  667.0000   125.2420     9.4287     2.5120     0.0172     0.1567
  667.5000   125.4698     9.4103     2.5431     0.0032     0.1664
  668.0000   121.8765     9.3919     2.5604    -0.0052     0.1710
  668.5000   117.2764     9.3736     2.5496     0.0012     0.1522
  669.0000   120.2340     9.3552     2.5334     0.0147     0.1339
  669.5000   125.8050     9.3368     2.5170     0.0257     0.1258
  670.0000   131.3668     9.3185     2.5008     0.0255     0.1199
  670.5000   137.5423     9.3140     2.4968     0.0259     0.1146
  671.0000   135.9743     9.3118     2.5106     0.0277     0.1220
  671.5000   132.4821     9.3097     2.5273     0.0165     0.1301
  672.0000   129.7150     9.3075     2.5475     0.0038     0.1390
  672.5000   140.5623     9.3053     2.5271     0.0165     0.1194
  673.0000   143.1229     9.3032     2.4878     0.0396     0.0910
  673.5000   137.9419     9.3010     2.4770     0.0462     0.0844
  674.0000   131.5064     9.2988     2.4827     0.0429     0.0972
  674.5000   125.9259     9.2966     2.5035     0.0367     0.1126
  675.0000   132.8466     9.2991     2.4998     0.0366     0.1281
  675.5000   144.3755     9.3044     2.4944     0.0394     0.1435
  676.0000   158.6109     9.3098     2.4903     0.0371     0.1589
  676.5000   154.1450     9.3153     2.4950     0.0282     0.1743
