~VERSION INFORMATION
 VERS.                2.0:   CWLS LOG ASCII STANDARD - VERSION 2.0
 WRAP.                 NO:   ONE LINE PER DEPTH STEP
~WELL INFORMATION
#MNEM.UNIT      DATA TYPE    INFORMATION
#----------   ------------   ------------------------------
 STRT.F           95.0000:   START DEPTH
 STOP.F          914.0000:   STOP DEPTH
 STEP.F            0.5000:   STEP LENGTH
 NULL.          -999.2500:   NO VALUE
 COMP. LAWRENCE/ALLISON INC:   COMPANY
 WELL. NPR ##3 31-61 SX 2:   WELL
 FLD .             TEAPOT:   FIELD
 LOC .       S2 T38N R78W:   LOCATION
 CNTY.            NATRONA:   COUNTY
 STAT.            WYOMING:   STATE
 CTRY. UNITED STATES OF AMERICA:   COUNTRY
 SRVC.      Dresser Atlas:   SERVICE COMPANY
 DATE.        30-JAN-1986:   LOGDATE
 API .       490251106800:   API NUMBER
~CURVE INFORMATION
#MNEM.UNIT       API CODE    CURVE DESCRIPTION
#----------   ------------   ------------------------------
 DEPT.F                  :   
 RILD.OHMM   07 120 46 00:   INDUCTION LOG DEEP RESISTIVITY
 RILM.OHMM   07 120 44 00:   INDUCTION LOG MEDIUM RESISTIVITY
 CALD.IN     45 280 60 00:   CALIPER FROM DENSITY
 GRD .GAPI   45 310 01 00:   GAMMA RAY FROM DENSITY LOG
 CORR.G/C3   45 356 01 00:   DENSITY CORRECTION
 PORD.DEC    45 890 10 00:   POROSITY DENSITY LIMESTONE
 DEN .G/C3   45 350 01 00:   COMPENSATED BULK DENSITY
~PARAMETER INFORMATION
#MNEM.UNIT          VALUE    DESCRIPTION
#----------   ------------   ------------------------------
 PD  .                 GL:   PERMANENT DATUM
 EPD .F              5126:   ELEVATION PERMANENT DATUM
 LMF .                 GL:   LOG MEASURED FROM
 DMF .                 GL:   DRILLING MEASURED FROM
 EGL .F              5126:   GROUND LEVEL
 DATE.        30-JAN-1986:   RUN DATE
 RUN .                  1:   RUN NUMBER
 DD  .F               925:   DEPTH DRILLER
 DL  .F               918:   DEPTH LOGGER
 BLI .F               910:   BOTTOM LOG INTERVAL
 CS  .IN            8.625:   CASING SIZE
 CBD .F               127:   CASING BOTTOM DRILLER
 CBL .F               127:   CASING BOTTOM LOGGER
 BS  .IN             6.25:   BIT SIZE
 BSD .F               925:   BIT SIZE AT DEPTH
 DFT .                AIR:   DRILLING FLUID TYPE
 LUN .            HL-6264:   LOGGING UNIT NUMBER
 LUL .           GILLETTE:   LOGGING UNIT LOCATION
 ENGI.     P. M. FAHLSING:   RECORDING ENGINEER
 WITN.        LINOA FIVAS:   WITNESSED BY
 CLNT.            A2DTECH:   CLIENT CODE
 ORIG.           5" PRINT:   ORIGIN OF DATA
 UWI .       490251106800:   UNIQUE WELL ID
 DICO. A2D Technologies, Inc.:   DIGITIZING COMPANY
~OTHER INFORMATION
~A   DEPT     RILD       RILM       CALD         GRD      CORR       PORD        DEN   
# ...
  277.0000     5.1761     5.1374     6.7629   127.1007     0.1878     0.1155     2.4842
  277.5000     5.1400     5.0656     6.7640   127.4178     0.1511     0.1185     2.4812
  278.0000     5.0688     4.8583     6.7649   129.2455     0.1050     0.1231     2.4744
  278.5000     4.9299     4.6594     6.7658   132.8859     0.1155     0.1325     2.4578
  279.0000     4.7617     4.5626     6.7515   133.5052     0.1365     0.1406     2.4443
  279.5000     4.5045     4.3759     6.7526   131.1033     0.1425     0.1506     2.4330
  280.0000     4.2613     4.0821     6.7535   126.8887     0.1334     0.1536     2.4224
  280.5000     3.9757     3.8344     6.7391   124.7889     0.1499     0.1537     2.4202
  281.0000     3.8135     3.5770     6.7402   124.5019     0.1544     0.1534     2.4217
  281.5000     3.7869     3.3833     6.7411   130.5592     0.1423     0.1588     2.4149
  282.0000     3.7605     3.3595     6.7571   136.6165     0.1197     0.1721     2.3983
  282.5000     3.7085     3.4292     6.7881   138.4442     0.1226     0.1885     2.3735
  283.0000     3.6319     3.4763     6.8040   133.0212     0.1331     0.2021     2.3539
  283.5000     3.5570     3.4780     6.8049   122.7643     0.1090     0.2033     2.3373
  284.0000     3.4835     3.4270     6.7907   115.8307     0.0864     0.1955     2.3539
  284.5000     3.4116     3.3558     6.7764   115.2415     0.0788     0.1786     2.3735
  285.0000     3.3644     3.2409     6.7775   116.7671     0.1119     0.1729     2.3886
  285.5000     3.2496     3.1509     6.7784   118.5948     0.1359     0.1723     2.3909
  286.0000     3.0955     3.0422     6.7943   119.8183     0.1554     0.1859     2.3758
  286.5000     2.9284     2.8949     6.8103   118.3228     0.1659     0.1950     2.3554
  287.0000     2.7511     2.7156     6.8112   119.2442     0.1688     0.1998     2.3494
  287.5000     2.5490     2.5140     6.8121   122.2803     0.1553     0.1980     2.3441
  288.0000     2.4450     2.2730     6.8130   125.9207     0.1357     0.2026     2.3479
  288.5000     2.4449     2.2104     6.8139   126.8421     0.1236     0.2020     2.3392
  289.0000     2.4788     2.3685     6.8148   128.9720     0.1175     0.2186     2.3151
  289.5000     2.5839     2.6093     6.8307   131.7060     0.1175     0.2389     2.2902
  290.0000     2.7500     2.8350     6.8165   130.5126     0.1204     0.2534     2.2506
  290.5000     3.0104     3.0169     6.8175   121.7663     0.1234     0.2447     2.2615
  291.0000     3.2743     3.3236     6.7883   120.8750     0.1053     0.2278     2.2917
  291.5000     3.5605     3.6110     6.7591   123.3069     0.0963     0.2039     2.3554
  292.0000     3.8450     3.8161     6.7600   125.7389     0.1143     0.1668     2.4006
  292.5000     4.1522     4.0050     6.7459   127.8687     0.1368     0.1569     2.4157
  293.0000     4.4651     4.1453     6.7468   129.3943     0.1472     0.1542     2.4209
  293.5000     4.5271     4.2610     6.7477   131.2239     0.1520     0.1548     2.4194
  294.0000     4.4644     4.2307     6.7486   132.2964     0.1171     0.1621     2.4066
  294.5000     4.2823     4.2006     6.7495   133.0667     0.0930     0.1715     2.3908
  295.0000     4.0231     4.0287     6.7504   133.3838     0.0914     0.1787     2.3795
  295.5000     3.8059     3.7843     6.7663   131.1330     0.1019     0.1821     2.3735
  296.0000     3.7016     3.6043     6.7999   127.2205     0.1184     0.1806     2.3773
  296.5000     3.5752     3.4092     6.8132   124.0634     0.1349     0.1761     2.3840
  297.0000     3.3822     3.2024     6.8143   123.4742     0.1469     0.1737     2.3893
  297.5000     3.1337     3.0291     6.8152   124.2444     0.1393     0.1761     2.3825
  298.0000     2.9645     2.9457     6.8161   132.1145     0.0942     0.1852     2.3607
  298.5000     2.9235     2.9045     6.8170   140.1374     0.0746     0.1946     2.3532
  299.0000     2.9233     2.9026     6.8179   143.1736     0.0851     0.1991     2.3441
  299.5000     3.0053     3.0057     6.8035   143.7929     0.1346     0.2067     2.3306
  300.0000     3.1452     3.1327     6.7894   143.1005     0.1707     0.2176     2.3095
  300.5000     3.4513     3.2903     6.7899   136.5614     0.2067     0.2167     2.3261
  301.0000     3.8024     3.6520     6.7904   128.7125     0.1811     0.1810     2.3727
  301.5000     4.1031     3.9968     6.7908   123.2805     0.1450     0.1524     2.4142
  302.0000     4.3665     4.3469     6.7762   116.9421     0.1149     0.1267     2.4503
  302.5000     4.6792     4.7206     6.7920   115.7397     0.1058     0.1243     2.4684
  303.0000     4.9453     4.9564     6.8376   117.5584     0.1087     0.1312     2.4654
  303.5000     5.1546     5.1680     6.8528   121.7941     0.1283     0.1418     2.4458
  304.0000     5.2989     5.3465     6.8232   128.7488     0.1312     0.1508     2.4262
  304.5000     5.4848     5.4594     6.7931   134.1929     0.1252     0.1526     2.4224
  305.0000     5.6382     5.6136     6.7789   135.4074     0.1326     0.1484     2.4277
  305.5000     5.8362     5.8526     6.7794   132.6944     0.1446     0.1411     2.4360
  306.0000     6.0831     6.0933     6.7805   130.2836     0.1478     0.1351     2.4458
  306.5000     6.2968     6.2646     6.7953   126.9663     0.1280     0.1312     2.4548
  307.0000     6.5179     6.3962     6.7958   124.5555     0.1084     0.1290     2.4616
  307.5000     6.7002     6.4855     6.7962   125.4678     0.1023     0.1251     2.4691
  308.0000     6.7928     6.4855     6.7967   124.2654     0.1188     0.1154     2.4774
  308.5000     6.8390     6.4407     6.7971   120.3440     0.1398     0.1109     2.4857
  309.0000     6.7909     6.3520     6.7976   119.7458     0.1578     0.1097     2.4925
  309.5000     6.7430     6.2646     6.7980   120.6582     0.1683     0.1106     2.4947
  310.0000     6.6955     6.2213     6.7985   122.1748     0.1517     0.1127     2.4910
  310.5000     6.6484     6.3081     6.7839   123.3893     0.1457     0.1136     2.4887
  311.0000     6.6015     6.3520     6.7994   124.6038     0.1472     0.1127     2.4895
  311.5000     6.5550     6.3520     6.7998   124.3078     0.1576     0.1103     2.4925
  312.0000     6.5089     6.3081     6.8003   123.4075     0.1637     0.1097     2.4947
  312.5000     6.4184     6.2213     6.8008   122.5072     0.1665     0.1136     2.4895
  313.0000     6.4131     6.1783     6.8163   122.2111     0.1635     0.1181     2.4834
  313.5000     6.3283     6.1783     6.8167   122.8214     0.1573     0.1211     2.4789
  314.0000     6.2779     6.1357     6.8171   124.3380     0.1465     0.1223     2.4744
  314.5000     6.2394     6.0933     6.8176   124.3440     0.1311     0.1208     2.4744
  315.0000     6.1955     6.1783     6.8180   122.2353     0.1272     0.1190     2.4782
  315.5000     6.2025     6.2646     6.8185   122.2413     0.1413     0.1184     2.4812
  316.0000     6.2800     6.3081     6.8189   124.6643     0.1527     0.1208     2.4774
  316.5000     6.3668     6.3962     6.8194   127.4395     0.1406     0.1292     2.4661
  317.0000     6.4997     6.5306     6.8198   129.2083     0.1255     0.1389     2.4503
  317.5000     6.6353     6.6678     6.8203   129.0634     0.1210     0.1434     2.4398
  318.0000     6.7738     6.8078     6.8208   126.5014     0.0954     0.1452     2.4345
  318.5000     6.9632     6.9992     6.8212   121.0694     0.0773     0.1467     2.4322
  319.0000     7.1085     7.1462     6.8217   119.4138     0.0727     0.1479     2.4322
  319.5000     7.3073     7.2964     6.8221   119.7220     0.0787     0.1470     2.4345
  320.0000     7.5639     7.3982     6.8226   118.9727     0.1147     0.1389     2.4458
  320.5000     7.8295     7.5015     6.8230   118.3745     0.1538     0.1325     2.4563
  321.0000     8.0485     7.6062     6.8235   118.8338     0.1688     0.1292     2.4616
  321.5000     8.2736     7.6062     6.8239   120.9547     0.1627     0.1277     2.4661
  322.0000     8.3303     7.6062     6.8394   121.7160     0.1506     0.1194     2.4729
