~VERSION INFORMATION
 VERS.                2.0:   CWLS LOG ASCII STANDARD - VERSION 2.0
 WRAP.                 NO:   ONE LINE PER DEPTH STEP
~WELL INFORMATION
#MNEM.UNIT      DATA TYPE    INFORMATION
#----------   ------------   ------------------------------
 STRT.F           22.5000:   START DEPTH
 STOP.F          644.0000:   STOP DEPTH
 STEP.F            0.5000:   STEP LENGTH
 NULL.          -999.2500:   NO VALUE
 COMP.    FELIX & SCISION:   COMPANY
 WELL.     NPR #3 #14-S-2:   WELL
 FLD .             TEAPOT:   FIELD
 LOC .       S2 T38N R78W:   LOCATION
 CNTY.            NATRONA:   COUNTY
 STAT.            WYOMING:   STATE
 CTRY. UNITED STATES OF AMERICA:   COUNTRY
 SRVC.           BIRDWELL:   SERVICE COMPANY
 DATE.        18-JAN-1978:   LOGDATE
 API .       490251055600:   API NUMBER
~CURVE INFORMATION
#MNEM.UNIT       API CODE    CURVE DESCRIPTION
#----------   ------------   ------------------------------
 DEPT.F                  :   
 CALD.IN     45 280 60 00:   CALIPER FROM DENSITY LOG
 CORR.G/C3   45 356 01 00:   DENSITY CORRECTION
 DPHI.DEC    45 890 12 00:   DENSITY POROSITY SANDSTONE
 GRD .GAPI   45 310 01 00:   GAMMA RAY FROM DENSITY LOG
 RHOB.G/C3   45 350 01 00:   BULK DENSITY
 ILD .OHMM   05 120 46 00:   INDUCTION LOG DEEP
 SPR .MV     05 010 01 00:   SPONTANEOUS POTENTIAL FROM RES.
 SN  .OHMM   05 040 16 00:   SHORT NORMAL 16"
~PARAMETER INFORMATION
#MNEM.UNIT          VALUE    DESCRIPTION
#----------   ------------   ------------------------------
 PD  .                 GL:   PERMANENT DATUM
 EPD .F              5121:   ELEVATION PERMANENT DATUM
 LMF .                 KB:   LOG MEASURED FROM
 DAPD.F                 4:   FEET ABOVE PERMANENT DATUM
 DMF .                 KB:   DRILLING MEASURED FROM
 EKB .F              5126:   KELLING BUSHING
 EGL .F              5121:   GROUND LEVEL
 DATE.          1-18-1978:   RUN DATE
 RUN .                  1:   RUN NUMBER
 DD  .F               645:   DEPTH DRILLER
 DL  .F               648:   DEPTH LOGGER
 BLI .F               642:   BOTTOM LOG INTERVAL
 TLI .F                39:   TOP LOG INTERVAL
 CS  .IN            8.625:   CASING SIZE
 CBD .F                39:   CASING BOTTOM DRILLER
 BS  .IN            7.875:   BIT SIZE
 BSD .F               645:   BIT SIZE AT DEPTH
 DFT .                KCL:   DRILLING FLUID TYPE
 DFD .                8.8:   DRILLING FLUID DENSITY
 DFV .                 34:   DRILLING FLUID VISCOSITY
 DFPH.                9.5:   DRILLING FLUID PH
 DFL .                6.4:   DRILLING FLUID LOSS
 MSS .                PIT:   MUD SAMPLE SOURCE
 RMS .OHMM            .38:   RESISTIVITY MUD SAMPLE
 MST .F                43:   MUD SAMPLE TEMPERATURE
 RMF .OHMM            .26:   RESISTIVITY MUD FILTRATE SAMPLE
 MFST.F                70:   MUD FILTRATE SAMPLE TEMPERATURE
 RMC .OHMM            .42:   RESISTIVITY MUD CAKE
 MCST.F                70:   MUD CAKE SAMPLE TEMPERATURE
 MFSS.           MEASURED:   MUD FILTRATE SAMPLE SOURCE
 MCSS.           MEASURED:   MUD CAKE SAMPLE SOURCE
 RMB .OHMM            .24:   RESISTIVITY MUD AT BHT
 BHT .F                69:   BOTTOM HOLE TEMPERATURE
 TCS .HRS               2:   TIME CURCULATED STOPPED
 MRT .F                69:   MAXIMUM RECORDED TEMPERATURE
 LUN .               2958:   LOGGING UNIT NUMBER
 LUL .             CASPER:   LOGGING UNIT LOCATION
 ENGI.           REYNOLDS:   RECORDING ENGINEER
 WITN.         HARRINGTON:   WITNESSED BY
 CLNT.            A2DTECH:   CLIENT CODE
 ORIG.      2" , 5" PRINT:   ORIGIN OF DATA
 UWI .       490251055600:   UNIQUE WELL ID
 DICO. A2D Technologies, Inc.:   DIGITIZING COMPANY
~OTHER INFORMATION
~A   DEPT     CALD       CORR       DPHI         GRD      RHOB        ILD        SPR         SN   
# ...
  427.5000     7.7493     0.1044     0.2107    55.4781     2.2985    26.1727    -6.0561    25.1698
  428.0000     7.7204     0.1065     0.1764    61.1144     2.3648    26.0045    -5.6008    25.1919
  428.5000     7.7211     0.1020     0.1701    60.0831     2.3739    26.0201    -4.5504    25.5409
  429.0000     7.7068     0.0945     0.1698    56.8196     2.3655    26.0325    -3.4999    25.3752
  429.5000     7.7077     0.0922     0.1716    56.6783     2.3610    26.2259    -3.1935    25.2109
  430.0000     7.6933     0.0854     0.1764    56.0930     2.3574    26.4208    -3.0258    25.2237
  430.5000     7.6942     0.0772     0.1776    55.3573     2.3507    26.8021    -2.4132    25.2340
  431.0000     7.6950     0.0802     0.1815    48.5294     2.3274    27.0012    -1.9494    25.5953
  431.5000     7.6957     0.0840     0.1997    48.3645     2.2906    27.0142    -1.5192    26.1416
  432.0000     7.6964     0.0825     0.2188    49.2869     2.2808    27.4040    -1.5103    26.6996
  432.5000     7.6973     0.0787     0.2203    50.4977     2.2869    27.6109    -1.5015    26.8955
  433.0000     7.6980     0.0699     0.2169    52.2159     2.3298    27.8130    -1.6438    27.0929
  433.5000     7.6988     0.0585     0.1974    55.1054     2.3359    27.8516    -1.9326    27.4808
  434.0000     7.7144     0.0562     0.1868    57.7872     2.3121    28.0335    -2.2214    27.6825
  434.5000     7.7000     0.0532     0.2094    58.6860     2.2946    27.8527    -2.2104    27.6938
  435.0000     7.7158     0.0555     0.2130    57.9503     2.2727    27.8693    -2.0528    27.8970
  435.5000     7.7314     0.0676     0.2241    56.4716     2.2594    27.8827    -2.0440    28.1019
  436.0000     7.7619     0.0797     0.2346    54.6958     2.2661    27.8960    -2.0352    27.9198
  436.5000     7.7926     0.0805     0.2334    52.1770     2.2699    28.1033    -1.8775    27.9340
  437.0000     7.8230     0.0805     0.2295    52.9272     2.2692    28.7069    -1.7199    27.9454
  437.5000     7.8535     0.0828     0.2301    53.3804     2.2654    30.1472    -1.5623    27.9568
  438.0000     7.8393     0.0912     0.2328    53.2407     2.2572    31.6597    -1.8512    27.9682
  438.5000     7.8251     0.0926     0.2286    53.2479     2.2873    32.7908    -2.4376    27.7870
  439.0000     7.8259     0.0926     0.2165    53.5524     2.3017    33.4952    -2.8879    27.7984
  439.5000     7.8268     0.0927     0.2120    54.0054     2.3009    32.8222    -3.1640    27.8097
  440.0000     7.8275     0.0934     0.2126    55.9443     2.2922    31.7203    -3.1530    27.8210
  440.5000     7.8282     0.0912     0.2207    59.5176     2.2747    30.8682    -3.5906    27.4507
  441.0000     7.8289     0.0897     0.2252    60.4164     2.2680    30.6700    -3.7328    27.2701
  441.5000     7.8297     0.0882     0.2279    60.1265     2.2635    30.6849    -3.8728    27.6653
  442.0000     7.8304     0.0875     0.2324    58.3329     2.2612    30.6998    -3.8618    27.4861
  442.5000     7.8311     0.0890     0.2336    55.6833     2.2598    30.5022    -3.7042    26.9309
  443.0000     7.8318     0.0913     0.2336    56.1381     2.2756    30.5204    -3.6954    26.7565
  443.5000     7.8326     0.0952     0.2279    56.2921     2.2997    29.7008    -3.5378    26.4003
  444.0000     7.8335     0.0981     0.2068    56.8955     2.3233    28.9031    -3.3802    25.5175
  444.5000     7.8191     0.0929     0.1844    60.4689     2.3605    27.7401    -3.5224    24.8325
  445.0000     7.8200     0.0884     0.1734    61.9620     2.3676    25.8964    -4.1220    23.8345
  445.5000     7.8208     0.0831     0.1713    61.3749     2.3661    24.3433    -4.6938    22.8767
  446.0000     7.8066     0.0809     0.1713    59.3016     2.3646    23.2025    -5.1292    22.1094
  446.5000     7.8073     0.0802     0.1706    60.4979     2.3692    22.2688    -5.5668    21.3679
  447.0000     7.8080     0.0749     0.1703    64.9768     2.3707    21.5212    -6.1533    20.2286
  447.5000     7.8088     0.0719     0.1706    65.2675     2.3670    20.6500    -6.4443    19.8220
  448.0000     7.8097     0.0704     0.1697    64.5333     2.3701    20.0933    -7.0285    19.6916
  448.5000     7.8104     0.0629     0.1691    62.9061     2.3701    19.6930    -7.4662    19.5641
  449.0000     7.8111     0.0629     0.1707    59.9415     2.3648    19.7038    -7.7572    19.5740
  449.5000     7.8118     0.0630     0.1730    58.4629     2.3641    19.5756    -8.3414    19.5820
  450.0000     7.7975     0.0637     0.1730    58.7673     2.3627    19.5891    -8.7790    19.5900
  450.5000     7.7835     0.0645     0.1733    60.5561     2.3619    19.4617    -8.9227    19.3268
  451.0000     7.7846     0.0653     0.1733    60.8577     2.3612    19.4750    -8.9167    19.3350
  451.5000     7.7855     0.0653     0.1727    61.0135     2.3636    19.6213    -9.0597    19.4756
  452.0000     7.8013     0.0645     0.1687    63.3968     2.3704    19.7687    -9.2302    19.4822
  452.5000     7.8022     0.0691     0.1609    63.6999     2.3802    20.0558    -9.4929    19.4889
  453.0000     7.8328     0.0706     0.1519    63.5571     2.4050    20.2064    -9.6373    19.6306
  453.5000     7.8337     0.0667     0.1335    63.0906     2.4352    20.5024   -10.2252    19.9256
  454.0000     7.8346     0.0638     0.1040    60.0041     2.4917    20.6637   -10.5169    20.6417
  454.5000     7.8652     0.0616     0.0922    58.2254     2.5067    20.9712   -10.3622    21.7966
  455.0000     7.9107     0.0541     0.0889    58.0826     2.5188    21.4315   -10.3564    22.7263
  455.5000     7.9414     0.0526     0.1022    56.4554     2.5181    21.8712   -10.5008    23.8597
  456.0000     7.9571     0.0534     0.1091    53.6381     2.4858    22.1888   -10.6422    24.5362
  456.5000     7.9582     0.0534     0.1157    54.2383     2.4723    22.3555   -10.6363    25.0582
  457.0000     7.9740     0.0602     0.1206    61.2278     2.4467    22.3677   -10.9295    25.0667
  457.5000     7.9897     0.0677     0.1390    65.0969     2.4110    22.2253   -10.9222    24.7314
  458.0000     7.9906     0.0708     0.1617    64.9542     2.3829    21.7796   -10.6187    24.0659
  458.5000     7.9617     0.0708     0.1683    63.1769     2.3716    21.0488   -10.4640    22.7804
  459.0000     7.9328     0.0700     0.1701    62.4398     2.3694    20.3425   -10.4581    20.8319
  459.5000     7.9186     0.0700     0.1710    62.2971     2.3679    19.5241   -10.3034    19.8558
  460.0000     7.9046     0.0708     0.1719    62.6201     2.3664    18.3527   -10.2975    19.7257
  460.5000     7.8760     0.0806     0.1719    64.3905     2.3650    17.7369   -10.4405    19.0630
  461.0000     7.8768     0.0957     0.1713    67.2195     2.3673    17.3812   -10.4345    18.8079
  461.5000     7.8628     0.1018     0.1665    70.0485     2.3831    16.5666   -10.5883    18.6849
  462.0000     7.8488     0.1033     0.1571    71.2430     2.3922    16.0107   -11.0357    18.5626
  462.5000     7.8497     0.1033     0.1565    70.6545     2.3945    15.9086   -11.3343    18.5705
  463.0000     7.8357     0.1041     0.1568    67.3914     2.3945    15.8074   -11.6015    18.4474
  463.5000     7.8217     0.1034     0.1568    63.8311     2.3930    15.8162   -11.7430    18.4553
  464.0000     7.8077     0.1056     0.1586    63.6869     2.3890    15.7084   -11.8859    18.0816
  464.5000     7.8088     0.1094     0.1613    65.7744     2.3796    15.6154   -12.0288    17.5950
  465.0000     7.7946     0.1109     0.1616    67.2662     2.3834    15.5160   -12.1732    17.3596
  465.5000     7.7957     0.1110     0.1601    66.9748     2.3955    15.5266   -12.1659    17.2460
  466.0000     7.7965     0.1087     0.1570    66.9827     2.4045    15.5351   -12.1600    17.2533
  466.5000     7.7974     0.0959     0.1477    66.9737     2.4061    15.5436   -12.1541    17.1390
  467.0000     7.7832     0.0906     0.1489    65.8812     2.4001    15.4425   -12.1482    17.0281
  467.5000     7.7692     0.0876     0.1597    63.4335     2.3828    15.2382   -12.1423    17.0341
