~VERSION INFORMATION
 VERS.                2.0:   CWLS LOG ASCII STANDARD - VERSION 2.0
 WRAP.                 NO:   ONE LINE PER DEPTH STEP
~WELL INFORMATION
#MNEM.UNIT      DATA TYPE    INFORMATION
#----------   ------------   ------------------------------
 STRT.F          534.0000:   START DEPTH
 STOP.F         1847.5000:   STOP DEPTH
 STEP.F            0.5000:   STEP LENGTH
 NULL.          -999.2500:   NO VALUE
 COMP. LAWRENCE/ALLISON INC:   COMPANY
 WELL.      18 SHX #18-27:   WELL
 FLD .             TEAPOT:   FIELD
 LOC .      S27 T39N R78W:   LOCATION
 CNTY.            NATRONA:   COUNTY
 STAT.            WYOMING:   STATE
 CTRY. UNITED STATES OF AMERICA:   COUNTRY
 SRVC.            Unknown:   SERVICE COMPANY
 DATE.        01-MAR-1985:   LOGDATE
 API .       490251102000:   API NUMBER
~CURVE INFORMATION
#MNEM.UNIT       API CODE    CURVE DESCRIPTION
#----------   ------------   ------------------------------
 DEPT.F                  :   
 ROP .MIN/FT 91 810 01 00:   RATE OF DRILLING PENETRATION
 TGAS.UNITS  91 830 01 00:   TOTAL GAS FROM HOTWIRE
~PARAMETER INFORMATION
#MNEM.UNIT          VALUE    DESCRIPTION
#----------   ------------   ------------------------------
 DATE.           3-1-1985:   RUN DATE
 DD  .F              1848:   DEPTH DRILLER
 DL  .F              1825:   DEPTH LOGGER
 TLI .F               535:   TOP LOG INTERVAL
 WITN.  ALBERT C. KRAVATZ:   WITNESSED BY
 CLNT.            A2DTECH:   CLIENT CODE
 ORIG.           5" PRINT:   ORIGIN OF DATA
 UWI .       490251102000:   UNIQUE WELL ID
 DICO. A2D Technologies, Inc.:   DIGITIZING COMPANY
~OTHER INFORMATION
~A   DEPT      ROP       TGAS   
# ...
 1020.0000     1.2642     6.2865
 1020.5000     1.3398     6.3307
 1021.0000     1.4153     6.7733
 1021.5000     1.4823     7.2158
 1022.0000     1.4827     7.6583
 1022.5000     1.4830     8.1009
 1023.0000     1.4834     8.5434
 1023.5000     1.4837     8.9860
 1024.0000     1.4840     9.4285
 1024.5000     1.4844     9.8711
 1025.0000     1.4847    10.3136
 1025.5000     1.4851    10.7562
 1026.0000     1.4854    11.1987
 1026.5000     1.4858    11.6413
 1027.0000     1.4861    12.0838
 1027.5000     1.4864    12.5264
 1028.0000     1.4868    12.9689
 1028.5000     1.4871    13.4115
 1029.0000     1.4875    13.8540
 1029.5000     1.4878    14.2966
 1030.0000     1.4882    14.3911
 1030.5000     1.4885    14.2240
 1031.0000     1.4888    14.0568
 1031.5000     1.4892    13.8897
 1032.0000     1.4895    13.7225
 1032.5000     1.4899    13.5553
 1033.0000     1.4902    13.3882
 1033.5000     1.4906    13.2210
 1034.0000     1.4909    13.0539
 1034.5000     1.4912    12.8867
 1035.0000     1.4916    12.7196
 1035.5000     1.4919    12.5524
 1036.0000     1.4923    12.3853
 1036.5000     1.4926    12.2181
 1037.0000     1.4930    12.0510
 1037.5000     1.4933    11.8838
 1038.0000     1.4936    11.7166
 1038.5000     1.4940    11.5495
 1039.0000     1.4943    11.3823
 1039.5000     1.4947    11.2152
 1040.0000     1.4950    11.0480
 1040.5000     1.4953    10.8809
 1041.0000     1.4957    10.7137
 1041.5000     1.4960    10.5466
 1042.0000     1.4964    10.3794
 1042.5000     1.4967    10.2123
 1043.0000     1.4971    10.0451
 1043.5000     1.4974     9.8779
 1044.0000     1.4977     9.7108
 1044.5000     1.4981     9.5436
 1045.0000     1.4984     9.3765
 1045.5000     1.4988     9.2093
 1046.0000     1.4991     9.0422
 1046.5000     1.4995     8.8750
 1047.0000     1.4998     8.7079
 1047.5000     1.5001     8.5407
 1048.0000     1.5005     8.3736
 1048.5000     1.5008     8.2064
 1049.0000     1.5012     8.1146
 1049.5000     1.5015     8.0561
 1050.0000     1.5019     7.9976
 1050.5000     1.5022     7.9391
 1051.0000     1.5025     7.8805
 1051.5000     1.5029     7.8220
 1052.0000     1.5032     7.7635
 1052.5000     1.5036     7.7049
 1053.0000     1.5039     7.6464
 1053.5000     1.5043     7.5879
 1054.0000     1.5046     7.5294
 1054.5000     1.5049     7.4708
 1055.0000     1.5053     7.4123
 1055.5000     1.5056     7.3538
 1056.0000     1.5060     7.2952
 1056.5000     1.5063     7.2367
 1057.0000     1.5067     7.1782
 1057.5000     1.5070     7.1197
 1058.0000     1.5073     7.0611
 1058.5000     1.5077     7.0026
 1059.0000     1.5080     6.9441
 1059.5000     1.5084     6.8855
 1060.0000     1.5087     6.8270
 1060.5000     1.5091     6.7685
 1061.0000     1.5094     6.7100
 1061.5000     1.5097     6.6514
 1062.0000     1.5101     6.5929
 1062.5000     1.5104     6.5344
 1063.0000     1.5108     6.4758
 1063.5000     1.5111     6.4173
 1064.0000     1.5114     6.3588
 1064.5000     1.5118     6.3003
 1065.0000     1.5121     6.2417
 1065.5000     1.5125     6.1832
 1066.0000     1.5128     6.1247
 1066.5000     1.5132     6.0661
 1067.0000     1.5135     6.0076
 1067.5000     1.5138     5.9491
 1068.0000     1.5142     5.8906
 1068.5000     1.5145     5.8320
 1069.0000     1.5149     5.7735
 1069.5000     1.5152     5.7150
 1070.0000     1.5156     5.6564
 1070.5000     1.5159     5.5979
 1071.0000     1.5162     5.5394
 1071.5000     1.5166     5.4809
 1072.0000     1.5169     5.4223
 1072.5000     1.5173     5.3638
 1073.0000     1.5176     5.3053
 1073.5000     1.5180     5.2467
 1074.0000     1.5183     5.1882
 1074.5000     1.5186     5.1297
 1075.0000     1.5190     5.0712
 1075.5000     1.5193     5.0126
 1076.0000     1.5197     4.9541
 1076.5000     1.5200     4.8956
 1077.0000     1.5204     4.8370
 1077.5000     1.5207     4.7785
 1078.0000     1.5210     4.7200
 1078.5000     1.5214     4.6615
 1079.0000     1.5217     4.6029
 1079.5000     1.5221     4.5444
 1080.0000     1.5224     4.4859
 1080.5000     1.4719     4.4273
 1081.0000     1.3462     4.3688
 1081.5000     1.2205     4.3103
 1082.0000     1.0948     4.2518
 1082.5000     1.0365     4.1932
 1083.0000     1.0365     4.1347
 1083.5000     1.0364     4.0762
 1084.0000     1.0364     4.0176
 1084.5000     1.0364     3.9591
 1085.0000     1.0363     3.9006
 1085.5000     1.0363     3.8421
 1086.0000     1.0362     3.7835
 1086.5000     1.0362     3.7250
 1087.0000     1.0361     3.6665
 1087.5000     1.0361     3.6080
 1088.0000     1.0361     3.5494
 1088.5000     1.0360     3.4909
 1089.0000     1.0360     3.4324
 1089.5000     1.0359     3.3738
 1090.0000     1.0359     3.3153
 1090.5000     1.0358     3.2568
 1091.0000     1.0358     3.1983
 1091.5000     1.0358     3.1397
 1092.0000     1.0357     3.0812
 1092.5000     1.0357     3.0227
 1093.0000     1.0356     2.9641
 1093.5000     1.0356     2.9056
 1094.0000     1.0355     2.8471
 1094.5000     1.0355     2.7886
 1095.0000     1.0355     2.7300
 1095.5000     1.0354     2.6715
 1096.0000     1.0354     2.6130
 1096.5000     1.0353     2.5544
 1097.0000     1.0353     2.4959
 1097.5000     1.0352     2.4374
 1098.0000     1.0352     2.3789
 1098.5000     1.0352     2.3203
 1099.0000     1.0351     2.2618
 1099.5000     1.0351     2.2033
 1100.0000     1.0350     2.1447
 1100.5000     1.0350     2.1182
 1101.0000     1.0349     2.1492
 1101.5000     1.0349     2.1803
 1102.0000     1.0349     2.2113
 1102.5000     1.0348     2.2423
 1103.0000     1.0348     2.2734
 1103.5000     1.0347     2.3044
 1104.0000     1.0347     2.3355
 1104.5000     1.0346     2.3665
 1105.0000     1.0346     2.3976
 1105.5000     1.0346     2.4286
 1106.0000     1.0345     2.4597
 1106.5000     1.0345     2.4907
 1107.0000     1.0344     2.5218
 1107.5000     1.0344     2.5528
 1108.0000     1.0343     2.5838
 1108.5000     1.0343     2.6149
 1109.0000     1.0343     2.6459
 1109.5000     1.0342     2.6770
 1110.0000     1.0342     2.7080
 1110.5000     1.0341     2.7391
 1111.0000     1.0341     2.7701
 1111.5000     1.0340     2.8012
 1112.0000     1.0340     2.8322
 1112.5000     1.0340     2.8633
 1113.0000     1.0339     2.8943
 1113.5000     1.0339     2.9253
 1114.0000     1.0338     2.9564
 1114.5000     1.0338     2.9874
 1115.0000     1.0337     3.0185
 1115.5000     1.0337     3.0495
 1116.0000     1.0337     3.0806
 1116.5000     1.0336     3.1116
 1117.0000     1.0336     3.1427
 1117.5000     1.0335     3.1737
 1118.0000     1.0335     3.2048
 1118.5000     1.0334     3.2358
 1119.0000     1.0334     3.2668
 1119.5000     1.0334     3.2979
 1120.0000     1.0333     3.3289
 1120.5000     1.0333     3.3600
 1121.0000     1.0332     3.3910
 1121.5000     1.0332     3.4221
 1122.0000     1.0331     3.4531
 1122.5000     1.0331     3.4842
 1123.0000     1.0331     3.5152
 1123.5000     1.0330     3.5462
 1124.0000     1.0330     3.5773
 1124.5000     1.0329     3.6083
 1125.0000     1.0329     3.6394
 1125.5000     1.0328     3.6704
 1126.0000     1.0328     3.7015
 1126.5000     1.0328     3.7325
 1127.0000     1.0327     3.7636
 1127.5000     1.0327     3.7946
 1128.0000     1.0326     3.8257
 1128.5000     1.0326     3.8567
 1129.0000     1.0325     3.8877
 1129.5000     1.0325     3.9188
 1130.0000     1.0325     3.9498
 1130.5000     1.0324     3.9809
 1131.0000     1.0324     4.0119
 1131.5000     1.0323     4.0430
 1132.0000     1.0323     4.0740
 1132.5000     1.0322     4.1051
 1133.0000     1.0322     4.1361
 1133.5000     1.0322     4.1672
 1134.0000     1.0321     4.1982
 1134.5000     1.0321     4.2292
 1135.0000     1.0320     4.2603
 1135.5000     1.0320     4.2913
 1136.0000     1.0319     4.3224
 1136.5000     1.0319     4.3534
 1137.0000     1.0319     4.3845
 1137.5000     1.0318     4.4155
 1138.0000     1.0318     4.4466
 1138.5000     1.0317     4.4776
 1139.0000     1.0317     4.5087
 1139.5000     1.0316     4.5397
 1140.0000     1.0316     4.5707
 1140.5000     1.0316     4.6018
 1141.0000     1.0315     4.6328
