~VERSION INFORMATION
 VERS.                2.0:   CWLS LOG ASCII STANDARD - VERSION 2.0
 WRAP.                 NO:   ONE LINE PER DEPTH STEP
~WELL INFORMATION
#MNEM.UNIT      DATA TYPE    INFORMATION
#----------   ------------   ------------------------------
 STRT.F            8.0000:   START DEPTH
 STOP.F          664.0000:   STOP DEPTH
 STEP.F            0.5000:   STEP LENGTH
 NULL.          -999.2500:   NO VALUE
 COMP. LAWRENCE/ALLISON INC:   COMPANY
 WELL.    13-61 SX #11-11:   WELL
 FLD .             TEAPOT:   FIELD
 LOC .      S11 T38N R78W:   LOCATION
 CNTY.            NATRONA:   COUNTY
 STAT.            WYOMING:   STATE
 CTRY. UNITED STATES OF AMERICA:   COUNTRY
 SRVC.           Gearhart:   SERVICE COMPANY
 DATE.        22-JUN-1986:   LOGDATE
 API .       490251109700:   API NUMBER
~CURVE INFORMATION
#MNEM.UNIT       API CODE    CURVE DESCRIPTION
#----------   ------------   ------------------------------
 DEPT.F                  :   
 GRR .GAPI   07 310 01 00:   GAMMA RAY FROM RES. LOG.
 ILM .OHMM   07 120 44 00:   INDUCTION LOG MEDIUM
 ILD .OHMM   07 120 46 00:   INDUCTION LOG DEEP
~PARAMETER INFORMATION
#MNEM.UNIT          VALUE    DESCRIPTION
#----------   ------------   ------------------------------
 PD  .                 GL:   PERMANENT DATUM
 EPD .F              5154:   ELEVATION PERMANENT DATUM
 LMF .                 KB:   LOG MEASURED FROM
 DAPD.F                 5:   FEET ABOVE PERMANENT DATUM
 DMF .                 KB:   DRILLING MEASURED FROM
 EKB .F              5159:   KELLING BUSHING
 EGL .F              5154:   GROUND LEVEL
 DATE.            6-22-86:   RUN DATE
 RUN .                  1:   RUN NUMBER
 DD  .F               675:   DEPTH DRILLER
 DL  .F               673:   DEPTH LOGGER
 BLI .F               664:   BOTTOM LOG INTERVAL
 CS  .IN            8.625:   CASING SIZE
 CBD .F                44:   CASING BOTTOM DRILLER
 CBL .F                46:   CASING BOTTOM LOGGER
 BS  .IN            7.875:   BIT SIZE
 BSD .F               675:   BIT SIZE AT DEPTH
 DFT .                AIR:   DRILLING FLUID TYPE
 TCS .HRS            1830:   TIME CURCULATED STOPPED
 MRT .F                69:   MAXIMUM RECORDED TEMPERATURE
 LUN .               7609:   LOGGING UNIT NUMBER
 LUL .           GILLETTE:   LOGGING UNIT LOCATION
 ENGI.            WANGLER:   RECORDING ENGINEER
 WITN.              DAVIS:   WITNESSED BY
 CLNT.            A2DTECH:   CLIENT CODE
 ORIG.       2", 5" PRINT:   ORIGIN OF DATA
 UWI .       490251109700:   UNIQUE WELL ID
 DICO. A2D Technologies, Inc.:   DIGITIZING COMPANY
~OTHER INFORMATION
~A    DEPT      GRR       ILM        ILD   
# ...
  281.0000   102.2337     8.2322     8.3215
  281.5000   104.7027     8.1394     8.1743
  282.0000   108.3387     7.9716     8.0297
  282.5000   111.7511     7.8073     7.8896
  283.0000   113.0203     7.6609     7.7542
  283.5000   111.8053     7.4524     7.6063
  284.0000   108.6522     7.2663     7.4274
  284.5000   105.4131     7.0848     7.2527
  285.0000   104.9663     6.9079     7.0821
  285.5000   107.8001     6.7354     6.9155
  286.0000   110.5452     6.5272     6.7529
  286.5000   112.4823     6.5936     6.6533
  287.0000   108.8293     6.7095     6.6532
  287.5000   104.0424     6.8279     6.8644
  288.0000   103.3962     6.9483     7.0485
  288.5000   104.7356     7.0706     7.2374
  289.0000   104.8371     7.1951     7.4313
  289.5000   103.4449     7.3822     7.6305
  290.0000   102.6324     7.6093     7.8350
  290.5000   103.0805     7.8218     8.0298
  291.0000   102.3617     7.8789     8.0298
  291.5000   101.9301     7.9374     8.0298
  292.0000   102.6381     7.9548     8.0298
  292.5000   110.1950     7.9332     8.0299
  293.0000   114.9983     7.9096     8.0302
  293.5000   114.8170     7.8861     8.0293
  294.0000   113.4668     7.7921     8.0322
  294.5000   112.0963     7.6999     7.8748
  295.0000   112.3974     7.6088     7.7429
  295.5000   114.0483     7.5181     7.6132
  296.0000   116.2648     7.3947     7.4857
  296.5000   116.6411     7.2423     7.3603
  297.0000   114.3473     7.0930     7.2404
  297.5000   112.8311     6.8302     6.9360
  298.0000   112.2036     6.5126     6.5863
  298.5000   110.4801     6.2099     6.2541
  299.0000   108.7743     5.9212     5.9388
  299.5000   109.1043     5.6693     5.7075
  300.0000   109.6970     5.2917     5.6534
  300.5000   110.1885     5.0641     5.6163
  301.0000   109.7295     5.1593     5.6163
  301.5000   109.5138     5.2803     5.7163
  302.0000   109.6970     5.5052     6.0339
  302.5000   108.7355     5.8114     6.3691
  303.0000   107.7615     6.1651     6.7229
  303.5000   107.9010     6.5393     7.0964
  304.0000   111.6965     6.9361     7.4906
  304.5000   116.3444     7.3570     7.8084
  305.0000   115.4457     7.7601     8.0677
  305.5000   112.5634     8.1724     8.3356
  306.0000   110.7967     8.4210     8.5126
  306.5000   111.3127     8.5538     8.5888
  307.0000   112.1583     8.6575     8.6657
  307.5000   111.8306     8.6237     8.7394
  308.0000   111.1701     8.5964     8.9110
  308.5000   107.8548     8.5590     8.7903
  309.0000   103.7578     8.4942     8.6997
  309.5000    99.6924     8.4299     8.6097
  310.0000    98.4834     8.3661     8.5209
  310.5000   103.9971     8.3027     8.4330
  311.0000   111.4884     8.2398     8.3461
  311.5000   115.3528     8.1774     8.2600
  312.0000   115.2925     8.1155     8.1748
  312.5000   114.5260     8.0541     8.0906
  313.0000   113.7587     7.9931     8.0073
  313.5000   113.0018     7.9136     7.8998
  314.0000   112.4256     7.6740     7.7518
  314.5000   113.8745     7.4428     7.5315
  315.0000   115.0774     7.2139     7.2064
  315.5000   112.7602     6.9473     6.8954
  316.0000   110.3728     6.5833     6.4573
  316.5000   108.9257     6.2407     5.9657
  317.0000   111.1648     5.8702     5.4556
  317.5000   113.7745     5.4664     4.8282
  318.0000   116.4043     4.8184     4.2729
  318.5000   118.7679     4.2575     3.8546
  319.0000   117.7404     3.8139     3.5545
  319.5000   114.1997     3.4165     3.2778
  320.0000   109.7147     3.0606     3.0470
  320.5000   105.1179     2.8970     2.8920
  321.0000   102.5869     2.8066     2.8261
  321.5000   100.1060     2.7474     2.7996
  322.0000    97.8814     2.7474     2.9347
  322.5000    99.4956     2.9068     3.0897
  323.0000   102.4264     3.1687     3.3018
  323.5000   106.6996     3.4542     3.6246
  324.0000   111.1291     3.7654     3.9792
  324.5000   115.5689     4.1047     4.3687
  325.0000   120.0633     4.4745     4.7959
  325.5000   121.3107     4.8776     5.2665
  326.0000   120.3733     5.3080     5.5403
  326.5000   117.0964     5.6318     5.7732
  327.0000   115.6204     5.8988     6.0159
  327.5000   115.2139     5.9500     6.1529
  328.0000   117.0647     5.9986     6.1703
  328.5000   118.9378     5.9375     6.0726
  329.0000   120.7795     5.8868     6.0087
  329.5000   122.6629     5.7066     5.8042
  330.0000   126.3493     5.5447     5.5936
  330.5000   129.9200     5.3873     5.3893
  331.0000   133.5016     5.2343     5.1909
  331.5000   134.0810     5.0858     5.0473
  332.0000   128.7865     4.9415     4.9962
  332.5000   122.3124     4.8771     4.9456
  333.0000   119.6229     4.8771     4.9232
  333.5000   118.1397     4.9731     5.0730
  334.0000   120.1085     5.1480     5.2764
  334.5000   123.0111     5.3288     5.4880
  335.0000   125.1786     5.5147     5.7081
  335.5000   123.7752     5.6716     5.9370
  336.0000   122.4583     5.9978     6.1703
  336.5000   122.3860     6.3418     6.5397
  337.0000   124.0874     6.7056     6.9233
  337.5000   125.2600     7.0907     7.3089
  338.0000   124.6507     7.3780     7.4168
  338.5000   123.4893     7.5186     7.5212
  339.0000   122.7146     7.5188     7.6275
  339.5000   122.0129     7.5181     7.6610
  340.0000   121.1526     7.5181     7.6098
  340.5000   120.1234     7.5181     7.5752
  341.0000   120.0397     7.5181     7.5410
  341.5000   122.1771     7.5181     7.4599
  342.0000   125.4446     7.3832     7.2848
  342.5000   128.2200     7.2030     7.1138
  343.0000   127.1887     7.0273     6.9311
  343.5000   125.3061     6.8558     6.6729
  344.0000   125.7321     6.6885     6.4255
  344.5000   127.0191     6.3705     6.2262
  345.0000   125.8422     6.0111     5.9552
  345.5000   123.9413     5.6714     5.6891
  346.0000   122.1472     5.3583     5.4356
  346.5000   122.7010     5.2595     5.1937
  347.0000   125.8706     5.1658     5.0054
  347.5000   129.4550     5.0732     4.9580
  348.0000   130.7763     4.9697     4.9232
  348.5000   129.2909     5.1134     5.1120
  349.0000   127.8158     5.3380     5.3784
  349.5000   127.9297     5.5724     5.6737
  350.0000   130.1649     5.8171     6.0743
  350.5000   132.3607     6.1511     6.5031
  351.0000   134.5568     6.5871     6.9339
  351.5000   135.1994     6.9284     7.1652
  352.0000   130.1985     7.2362     7.4044
  352.5000   124.0460     7.4660     7.5529
  353.0000   118.3428     7.5216     7.6183
  353.5000   117.8643     7.5760     7.6812
  354.0000   118.6807     7.6313     7.7389
  354.5000   119.4914     7.6871     7.7972
  355.0000   120.3019     7.7333     7.8555
  355.5000   121.1082     7.7085     7.8805
  356.0000   121.8905     7.6834     7.8693
  356.5000   124.0278     7.6583     7.8135
  357.0000   126.4862     7.6333     7.7581
  357.5000   127.5716     7.6084     7.7032
  358.0000   127.2815     7.5889     7.6609
  358.5000   124.5305     7.5892     7.6609
  359.0000   122.3545     7.5891     7.6609
  359.5000   122.1906     7.5891     7.6609
  360.0000   124.6878     7.5891     7.6609
  360.5000   127.2035     7.5892     7.6609
  361.0000   129.6994     7.5897     7.6606
  361.5000   131.8397     7.5708     7.6595
  362.0000   133.1857     7.5496     7.6640
  362.5000   132.4687     7.5285     7.4777
  363.0000   130.4406     7.4342     7.3388
  363.5000   127.3602     7.2706     7.2043
  364.0000   126.5608     7.1106     7.0719
  364.5000   126.6016     6.9541     6.9419
  365.0000   129.1235     6.8010     6.8143
  365.5000   133.1225     6.6513     6.6890
  366.0000   137.1109     6.5049     6.5660
  366.5000   139.1903     6.3617     6.4453
  367.0000   136.0621     6.2217     6.3190
  367.5000   133.4743     6.0848     6.1580
  368.0000   133.0946     5.8983     5.9986
  368.5000   135.7843     5.7035     5.7576
  369.0000   138.3797     5.5152     5.5236
  369.5000   137.6794     5.3330     5.2992
  370.0000   136.3671     5.1603     5.2091
  370.5000   134.3059     5.1447     5.2583
  371.0000   132.2360     5.1295     5.3452
  371.5000   130.1669     5.1115     5.4518
