~VERSION INFORMATION
 VERS.                2.0:   CWLS LOG ASCII STANDARD - VERSION 2.0
 WRAP.                 NO:   ONE LINE PER DEPTH STEP
~WELL INFORMATION
#MNEM.UNIT      DATA TYPE    INFORMATION
#----------   ------------   ------------------------------
 STRT.F           70.0000:   START DEPTH
 STOP.F         1236.0000:   STOP DEPTH
 STEP.F            0.5000:   STEP LENGTH
 NULL.          -999.2500:   NO VALUE
 COMP. U S NAVY/INTEX OIL CO:   COMPANY
 WELL. NAVAL PETROLEUM TE ##3 75S-11:   WELL
 FLD .             TEAPOT:   FIELD
 LOC .      S11 T38N R78W:   LOCATION
 CNTY.            NATRONA:   COUNTY
 STAT.            WYOMING:   STATE
 CTRY. UNITED STATES OF AMERICA:   COUNTRY
 SRVC.         Lane Wells:   SERVICE COMPANY
 DATE.        04-MAR-1960:   LOGDATE
 API .       490250633900:   API NUMBER
~CURVE INFORMATION
#MNEM.UNIT       API CODE    CURVE DESCRIPTION
#----------   ------------   ------------------------------
 DEPT.F                  :   
 GR  .GAPI   30 310 01 00:   GAMMA RAY
 SPR .MV     05 010 01 00:   SPONTANEOUS POTENTIAL FROM RES.
 ILD .OHMM   05 120 46 00:   INDUCTION LOG DEEP
 CILD.MMHO   05 110 46 00:   CONDUCTIVITY INDUCTION LOG DEEP
 ASN .OHMM   05 041 18 00:   AMPLIFIED SHORT NORMAL 18"
~PARAMETER INFORMATION
#MNEM.UNIT          VALUE    DESCRIPTION
#----------   ------------   ------------------------------
 PD  .                 GL:   PERMANENT DATUM
 EPD .F              5252:   ELEVATION PERMANENT DATUM
 LMF .                 KB:   LOG MEASURED FROM
 DAPD.F                 5:   FEET ABOVE PERMANENT DATUM
 DMF .                 KB:   DRILLING MEASURED FROM
 EKB .F              5257:   KELLING BUSHING
 EGL .F              5252:   GROUND LEVEL
 DATE.             3-4-60:   RUN DATE
 RUN .                  1:   RUN NUMBER
 DD  .F              1239:   DEPTH DRILLER
 DL  .F              1238:   DEPTH LOGGER
 BLI .F              1236:   BOTTOM LOG INTERVAL
 TLI .F                70:   TOP LOG INTERVAL
 CS  .IN            8.625:   CASING SIZE
 CBD .F                12:   CASING BOTTOM DRILLER
 BS  .IN            7.875:   BIT SIZE
 BSD .F              1239:   BIT SIZE AT DEPTH
 DFT .                GEL:   DRILLING FLUID TYPE
 DFD .                9.2:   DRILLING FLUID DENSITY
 DFV .                 34:   DRILLING FLUID VISCOSITY
 DFPH.                7.5:   DRILLING FLUID PH
 DFL .                8.5:   DRILLING FLUID LOSS
 MSS .                PIT:   MUD SAMPLE SOURCE
 RMS .OHMM              3:   RESISTIVITY MUD SAMPLE
 MST .F                52:   MUD SAMPLE TEMPERATURE
 RMF .OHMM            2.8:   RESISTIVITY MUD FILTRATE SAMPLE
 MFST.F                55:   MUD FILTRATE SAMPLE TEMPERATURE
 RMC .OHMM            3.3:   RESISTIVITY MUD CAKE
 MCST.F                55:   MUD CAKE SAMPLE TEMPERATURE
 MFSS.                MUD:   MUD FILTRATE SAMPLE SOURCE
 MCSS.              PRESS:   MUD CAKE SAMPLE SOURCE
 RMB .OHMM            2.2:   RESISTIVITY MUD AT BHT
 BHT .F                77:   BOTTOM HOLE TEMPERATURE
 TCS .HRS              .5:   TIME CURCULATED STOPPED
 MRT .F                77:   MAXIMUM RECORDED TEMPERATURE
 LUN .               4474:   LOGGING UNIT NUMBER
 LUL .             CASPER:   LOGGING UNIT LOCATION
 ENGI.      GRIGGS/NELSON:   RECORDING ENGINEER
 WITN.  JORGENSEN/HOLLAND:   WITNESSED BY
 CLNT.            A2DTECH:   CLIENT CODE
 ORIG.       2", 5" PRINT:   ORIGIN OF DATA
 UWI .       490250633900:   UNIQUE WELL ID
 DICO. A2D Technologies, Inc.:   DIGITIZING COMPANY
~OTHER INFORMATION
~A   DEPT       GR        SPR          ILD      CILD         ASN 
# ...
  192.0000  -999.2500   -38.5065     6.1683   171.1373     6.8734
  192.5000  -999.2500   -38.5076     6.0973   173.0839     6.7623
  193.0000  -999.2500   -38.4992     6.0266   175.0305     6.6520
  193.5000  -999.2500   -38.2738     5.9559   176.9770     6.5415
  194.0000  -999.2500   -38.0395     5.8848   178.7946     6.4309
  194.5000  -999.2500   -37.8059     5.8130   179.4459     6.3312
  195.0000  -999.2500   -37.5938     5.7580   180.0583     6.3297
  195.5000  -999.2500   -37.5903     5.8960   180.6700     6.3305
  196.0000  -999.2500   -37.5913     6.0312   181.2828     6.3072
  196.5000  -999.2500   -37.5915     6.1650   181.8956     6.2706
  197.0000  -999.2500   -37.5914     6.2989   182.3836     6.2338
  197.5000  -999.2500   -37.5910     6.4332   182.1540     6.2069
  198.0000  -999.2500   -37.5913     6.5241   181.9323     6.2356
  198.5000  -999.2500   -37.6192     6.5953   181.7093     6.2741
  199.0000  -999.2500   -37.7808     6.6666   181.4868     6.3621
  199.5000  -999.2500   -37.9401     6.7380   181.2643     6.4490
  200.0000  -999.2500   -38.0990     6.8094   181.0418     6.5359
  200.5000  -999.2500   -38.2581     6.8808   180.8193     6.6228
  201.0000  -999.2500   -38.4178     6.9522   180.5968     6.7116
  201.5000  -999.2500   -38.5752     7.0238   180.3743     6.7370
  202.0000  -999.2500   -38.6461     7.0963   180.1518     6.7477
  202.5000  -999.2500   -38.4515     7.1184   179.9293     6.7578
  203.0000  -999.2500   -38.2665     7.1300   179.7068     6.7639
  203.5000  -999.2500   -38.0817     7.1413   179.4843     6.7596
  204.0000  -999.2500   -37.8969     7.1527   179.2618     6.7555
  204.5000  -999.2500   -37.7122     7.1642   179.0393     6.7513
  205.0000  -999.2500   -37.5272     7.1758   178.8051     6.7463
  205.5000  -999.2500   -37.3422     7.1880   179.6700     6.7875
  206.0000  -999.2500   -37.1599     7.1978   180.6647     6.8323
  206.5000  -999.2500   -37.0864     7.0418   181.6660     6.7641
  207.0000  -999.2500   -37.2124     6.8654   182.6667     6.6818
  207.5000  -999.2500   -37.3352     6.6890   183.6512     6.5996
  208.0000  -999.2500   -37.4586     6.5129   185.4199     6.5176
  208.5000  -999.2500   -37.5817     6.3368   188.0700     6.4356
  209.0000  -999.2500   -37.7050     6.1608   190.7423     6.3536
  209.5000  -999.2500   -37.8068     5.9847   193.4110     6.2718
  210.0000  -999.2500   -37.8805     5.8087   196.0785     6.1892
  210.5000  -999.2500   -37.9564     5.6326   198.7131     6.1517
  211.0000  -999.2500   -38.0520     5.4564   198.3539     6.2075
  211.5000  -999.2500   -38.1504     5.2808   197.9777     6.2659
  212.0000  -999.2500   -38.2490     5.1038   197.6054     6.3241
  212.5000  -999.2500   -38.3476     5.0275   197.2414     6.3825
  213.0000  -999.2500   -38.4463     5.0261   196.9018     6.4416
  213.5000  -999.2500   -38.5444     5.0261   199.4343     6.4865
  214.0000  -999.2500   -38.6439     5.0262   201.7922     6.3540
  214.5000  -999.2500   -38.5892     5.0262   204.1500     6.2231
  215.0000  -999.2500   -38.4057     5.0262   206.5079     6.0933
  215.5000  -999.2500   -38.2210     5.0263   208.8658     5.9637
  216.0000  -999.2500   -38.0358     5.0263   211.2236     5.8341
  216.5000  -999.2500   -37.8514     5.0223   213.5815     5.7043
  217.0000  -999.2500   -37.6648     4.9959   215.9393     5.5745
  217.5000  -999.2500   -37.6328     4.9696   218.2972     5.4691
  218.0000  -999.2500   -37.6982     4.9434   220.6550     5.3759
  218.5000  -999.2500   -37.7656     4.9172   223.0129     5.2820
  219.0000  -999.2500   -37.8332     4.8909   225.3708     5.1884
  219.5000  -999.2500   -37.9004     4.8648   227.7286     5.1149
  220.0000  -999.2500   -37.9546     4.8500   229.2779     5.1237
  220.5000  -999.2500   -37.9223     4.8762   228.3492     5.2177
  221.0000  -999.2500   -37.8912     4.9013   226.8474     5.3274
  221.5000  -999.2500   -37.8603     4.9263   223.5716     5.4378
  222.0000  -999.2500   -37.8293     4.9513   220.3415     5.5519
  222.5000  -999.2500   -37.7987     4.9763   217.1052     5.6960
  223.0000  -999.2500   -37.7852     5.0013   213.8690     5.8354
  223.5000  -999.2500   -37.8489     5.0263   210.6327     5.9747
  224.0000  -999.2500   -37.9103     5.0514   207.3938     6.1140
  224.5000  -999.2500   -37.9475     5.0764   204.1555     6.2535
  225.0000  -999.2500   -37.8922     5.1010   200.9238     6.3936
  225.5000  -999.2500   -37.8392     5.1045   200.7716     6.5337
  226.0000  -999.2500   -37.7864     5.0706   201.0538     6.4940
  226.5000  -999.2500   -37.7336     5.0374   201.3359     6.4322
  227.0000  -999.2500   -37.6808     5.0039   201.6180     6.3693
  227.5000  -999.2500   -37.6281     4.9700   201.9002     6.3564
  228.0000  -999.2500   -37.5753     4.9383   202.1833     6.3463
  228.5000  -999.2500   -37.5224     5.0076   202.3378     6.3359
  229.0000  -999.2500   -37.4695     5.0845   202.3457     6.3345
  229.5000  -999.2500   -37.4159     5.1611   202.3311     6.3445
  230.0000  -999.2500   -37.4049     5.2377   199.9206     6.3846
  230.5000  -999.2500   -37.5290     5.3147   197.4754     6.4582
  231.0000  -999.2500   -37.6712     5.3852   195.0906     6.5314
  231.5000  -999.2500   -37.8138     5.3423   196.4418     6.6048
  232.0000  -999.2500   -37.9560     5.2958   197.7876     6.6792
  232.5000  -999.2500   -38.0982     5.2498   199.1248     6.7056
  233.0000  -999.2500   -38.2393     5.2039   200.4585     6.6008
  233.5000  -999.2500   -38.3124     5.1581   201.7922     6.4956
  234.0000  -999.2500   -38.2828     5.1122   203.1259     6.3910
  234.5000  -999.2500   -38.2546     5.0664   204.4597     6.2866
  235.0000  -999.2500   -38.2261     5.0202   205.7934     6.1821
  235.5000  -999.2500   -38.1980     4.9744   207.1271     6.0771
  236.0000  -999.2500   -38.1709     4.9468   208.4609     6.0207
  236.5000  -999.2500   -38.1339     5.0355   209.3843     6.0841
  237.0000  -999.2500   -37.8396     5.1232   208.1617     6.2391
  237.5000  -999.2500   -37.5286     5.2106   204.9231     6.3953
  238.0000  -999.2500   -37.2349     5.2979   200.7313     6.5513
  238.5000  -999.2500   -37.2648     5.3852   196.5396     6.7072
  239.0000  -999.2500   -37.3077     5.4726   192.3478     6.8631
  239.5000  -999.2500   -37.3492     5.5599   188.1561     7.0193
  240.0000  -999.2500   -37.3902     5.6473   183.9643     7.1747
  240.5000  -999.2500   -37.4313     5.7347   179.7726     7.2924
  241.0000  -999.2500   -37.4724     5.8203   179.2572     7.3099
  241.5000  -999.2500   -37.5134     5.9347   179.8685     7.2720
  242.0000  -999.2500   -37.5545     5.9328   180.4798     7.1962
  242.5000  -999.2500   -37.5955     5.8932   181.6907     7.1227
  243.0000  -999.2500   -37.6366     5.8450   183.0491     7.0494
  243.5000  -999.2500   -37.6776     5.7966   184.4075     6.9760
  244.0000  -999.2500   -37.7187     5.7483   185.7660     6.9026
  244.5000  -999.2500   -37.7598     5.7001   187.1244     6.8304
  245.0000  -999.2500   -37.8008     5.6518   188.4829     6.7700
  245.5000  -999.2500   -37.8419     5.6036   189.8413     6.7130
  246.0000  -999.2500   -37.8836     5.5553   191.1997     6.6559
  246.5000  -999.2500   -37.9243     5.5067   192.5582     6.5989
  247.0000  -999.2500   -37.9239     5.4408   193.9166     6.5418
  247.5000  -999.2500   -37.7185     5.3486   195.2750     6.4848
  248.0000  -999.2500   -37.5164     5.2571   196.6335     6.4277
  248.5000  -999.2500   -37.3147     5.1661   197.9919     6.3710
  249.0000  -999.2500   -37.1129     5.1492   198.7131     6.3109
  249.5000  -999.2500   -36.9036     5.2196   198.7131     6.2399
  250.0000  -999.2500   -36.9057     5.2892   197.5810     6.2595
  250.5000  -999.2500   -36.9663     5.3591   195.2887     6.3481
  251.0000  -999.2500   -37.0285     5.4290   192.9963     6.4390
  251.5000  -999.2500   -37.0902     5.4989   190.7039     6.5297
  252.0000  -999.2500   -37.1513     5.5687   188.4116     6.6203
  252.5000  -999.2500   -37.2091     5.6386   186.1192     6.7109
