~VERSION INFORMATION
 VERS.                2.0:   CWLS LOG ASCII STANDARD - VERSION 2.0
 WRAP.                 NO:   ONE LINE PER DEPTH STEP
~WELL INFORMATION
#MNEM.UNIT      DATA TYPE    INFORMATION
#----------   ------------   ------------------------------
 STRT.F            0.0000:   START DEPTH
 STOP.F          539.0000:   STOP DEPTH
 STEP.F            0.5000:   STEP LENGTH
 NULL.          -999.2500:   NO VALUE
 COMP. FENIX & SCISSON INC:   COMPANY
 WELL.     NPR 3 SX #23-3:   WELL
 FLD .             TEAPOT:   FIELD
 LOC .       S3 T38N R78W:   LOCATION
 CNTY.            NATRONA:   COUNTY
 STAT.            WYOMING:   STATE
 CTRY. UNITED STATES OF AMERICA:   COUNTRY
 SRVC.           BIRDWELL:   SERVICE COMPANY
 DATE.        27-JUL-1978:   LOGDATE
 API .       490251067500:   API NUMBER
~CURVE INFORMATION
#MNEM.UNIT       API CODE    CURVE DESCRIPTION
#----------   ------------   ------------------------------
 DEPT.F                  :   
 ILD .OHMM   05 120 40 00:   INDUCTION LOG DEEP
 SPR .MV     05 010 01 00:   SPONTANEOUS POTENTIAL
 SN  .OHMM   05 040 16 00:   SHORT NORMAL 16"
 CALD.IN     45 280 60 00:   CALIPER FROM DENSITY LOG
 CORR.G/C3   45 356 01 00:   DENSITY CORRECTION
 DPHI.DEC    45 890 12 00:   DENSITY POROSITY SANDSTONE
 GRD .GAPI   45 310 01 00:   GAMMA RAY FROM DENSITY LOG
 RHOB.G/C3   45 350 01 00:   BULK DENSITY
~PARAMETER INFORMATION
#MNEM.UNIT          VALUE    DESCRIPTION
#----------   ------------   ------------------------------
 PD  .                 GL:   PERMANENT DATUM
 EPD .F              5787:   ELEVATION PERMANENT DATUM
 LMF .                 KB:   LOG MEASURED FROM
 DAPD.F                 4:   FEET ABOVE PERMANENT DATUM
 DMF .                 KB:   DRILLING MEASURED FROM
 EKB .F              5191:   KELLING BUSHING
 EGL .F              5187:   GROUND LEVEL
 DATE.         7-JUL-1978:   RUN DATE
 RUN .                  1:   RUN NUMBER
 DD  .F               540:   DEPTH DRILLER
 DL  .F               540:   DEPTH LOGGER
 BLI .F               539:   BOTTOM LOG INTERVAL
 CS  .IN            8.625:   CASING SIZE
 CBD .F                40:   CASING BOTTOM DRILLER
 BS  .IN            7.875:   BIT SIZE
 BSD .F               540:   BIT SIZE AT DEPTH
 DFT .                KCL:   DRILLING FLUID TYPE
 DFD .                8.6:   DRILLING FLUID DENSITY
 DFV .                 30:   DRILLING FLUID VISCOSITY
 DFPH.                  9:   DRILLING FLUID PH
 MSS .           FLOWLINE:   MUD SAMPLE SOURCE
 MRT .F                74:   MAXIMUM RECORDED TEMPERATURE
 LUN .               2958:   LOGGING UNIT NUMBER
 LUL .               CASP:   LOGGING UNIT LOCATION
 ENGI.            POINTER:   RECORDING ENGINEER
 WITN.              AMEND:   WITNESSED BY
 CLNT.            A2DTECH:   CLIENT CODE
 ORIG.           5" PRINT:   ORIGIN OF DATA
 UWI .       490251067500:   UNIQUE WELL ID
 DICO. A2D Technologies, Inc.:   DIGITIZING COMPANY
~OTHER INFORMATION
~A    DEPT     ILD        SPR         SN         CALD     CORR       DPHI         GRD      RHOB   
# ...
  162.0000    10.6485   -29.4389    10.8064     7.9319     0.0248     0.1192    73.3029     2.4627
  162.5000    10.3677   -29.4263    10.6987     7.9349     0.0307     0.1168    75.3030     2.4640
  163.0000    10.3028   -29.4137    10.5148     7.9896     0.0306     0.1168    74.4986     2.4655
  163.5000    10.0973   -29.3979    10.4601     7.9885     0.0305     0.1168    73.2792     2.4670
  164.0000    10.0354   -29.5372    10.3237     8.0177     0.0304     0.1174    72.6658     2.4669
  164.5000     9.8367   -29.6734    10.1906     8.0466     0.0303     0.1207    71.5979     2.4669
  165.0000     9.8439   -29.9554    10.1283     8.0602     0.0302     0.1240    71.4391     2.4599
  165.5000     9.7140   -30.0883     9.9963     8.1044     0.0301     0.1265    71.4318     2.4518
  166.0000     9.5884   -30.5252     9.9323     8.1032     0.0300     0.1277    71.7275     2.4488
  166.5000     9.5941   -30.8071     9.8707     8.0416     0.0300     0.1289    71.7184     2.4458
  167.0000     9.3964   -31.0923     9.6769     7.9649     0.0359     0.1289    71.4081     2.4465
  167.5000     9.3460   -31.0763     9.5516     7.8877     0.0418     0.1268    71.2492     2.4487
  168.0000     9.2880   -30.9149     9.4268     7.7964     0.0462     0.1223    70.7874     2.4551
  168.5000     9.1041   -30.4558     9.3680     7.7345     0.0416     0.1178    70.7801     2.4637
  169.0000     8.9865   -30.4432     9.1829     7.6730     0.0355     0.1157    71.3838     2.4666
  169.5000     8.8686   -29.8322     9.1896     7.6114     0.0354     0.1158    72.5837     2.4613
  170.0000     8.8743   -30.1172     9.0684     7.5498     0.0368     0.1152    72.8794     2.4591
  170.5000     8.8166   -30.4053     9.0130     7.4731     0.0292     0.1131    70.7491     2.4598
  171.0000     8.7036   -30.3895     8.9567     7.4106     0.0202     0.1110    70.2872     2.4669
  171.5000     8.6492   -29.7812     8.9632     7.3449     0.0171     0.1134    70.1284     2.4710
  172.0000     8.6555   -29.6171     8.9684     7.2729     0.0155     0.1320    70.1211     2.4544
  172.5000     8.6605   -29.7533     8.9736     7.2264     0.0139     0.1326    70.1136     2.4424
  173.0000     8.6668   -29.7406     8.9801     7.1799     0.0138     0.1299    70.1047     2.4447
  173.5000     8.6719   -29.8768     8.9854     7.1486     0.0137     0.1239    70.0974     2.4394
  174.0000     8.6769   -30.1618     8.9906     7.1625     0.0166     0.1243    70.0901     2.4258
  174.5000     8.6820   -30.2980     8.9958     7.1764     0.0166     0.1267    70.0828     2.4093
  175.0000     8.6883   -29.8358     9.0024     7.1752     0.0225     0.1318    70.6815     2.3913
  175.5000     8.6934   -29.6741     9.0076     7.2217     0.0284     0.1375    70.9772     2.3680
  176.0000     8.5799   -29.2121     9.0128     7.2633     0.0342     0.1408    72.0909     2.3553
  176.5000     8.4677   -29.0507     9.0181     7.2926     0.0371     0.1435    73.6881     2.3522
  177.0000     8.2938   -29.0381     9.0063     7.3516     0.0401     0.1457    74.1353     2.3492
  177.5000     8.2482   -29.3304     8.6069     7.3504     0.0400     0.1453    74.2814     2.3492
  178.0000     8.0860   -29.6081     8.4367     7.4097     0.0369     0.1436    74.5771     2.3551
  178.5000     8.0342   -29.7411     8.3265     7.4110     0.0307     0.1409    74.2649     2.3731
  179.0000     7.8730   -30.1781     8.1558     7.4678     0.0217     0.1355    73.6515     2.3911
  179.5000     7.8269   -30.3145     8.1110     7.4965     0.0156     0.1316    73.6424     2.3970
  180.0000     7.7779   -30.7449     8.1169     7.5259     0.0096     0.1298    73.6351     2.4015
  180.5000     7.6763   -31.3243     8.1216     7.5697     0.0095     0.1286    73.6278     2.4030
  181.0000     7.6294   -31.3117     8.1872     7.5837     0.0094     0.1289    74.0751     2.4029
  181.5000     7.6350   -31.0015     8.3582     7.6131     0.0093     0.1292    74.2211     2.4029
  182.0000     7.6394   -30.6881     8.4785     7.6417     0.0092     0.1287    75.1211     2.4051
  182.5000     7.7495   -30.3778     8.6005     7.6403     0.0061     0.1281    78.0556     2.4118
  183.0000     7.8612   -30.0676     8.6369     7.6391     0.0060     0.1245    80.2580     2.4231
  183.5000     7.9757   -30.0550     8.7906     7.6380     0.0059     0.1209    79.0368     2.4305
  184.0000     8.0906   -30.0392     8.8562     7.6368     0.0059     0.1215    77.2113     2.4252
  184.5000     8.0953   -30.0266     8.8611     7.6356     0.0073     0.1215    76.5979     2.4237
  185.0000     8.2120   -30.0149     8.8666     7.6501     0.0087     0.1218    77.0452     2.4237
  185.5000     8.3305   -30.1501     8.8730     7.6937     0.0086     0.1215    77.1894     2.4244
  186.0000     8.3364   -30.2863     8.8781     7.7527     0.0088     0.1210    77.2020     2.4274
  186.5000     8.3413   -30.2705     8.8830     7.7968     0.0144     0.1191    77.3263     2.4358
  187.0000     8.5198   -30.4099     8.8885     7.8111     0.0143     0.1150    77.0141     2.4476
  187.5000     8.5836   -30.5432     8.8949     7.8512     0.0187     0.1150    75.6432     2.4505
  188.0000     8.7684   -30.5271     8.9001     7.8689     0.0201     0.1162    75.4862     2.4535
  188.5000     8.8340   -30.8121     8.9053     7.9281     0.0260     0.1174    75.6465     2.4565
  189.0000     8.9613   -31.1003     8.9105     7.9569     0.0319     0.1186    73.5000     2.4587
  189.5000     9.0905   -31.0845     8.9783     7.9862     0.0348     0.1202    73.3412     2.4595
  190.0000     9.0970   -31.0714     8.9835     8.0149     0.0362     0.1235    74.3927     2.4609
  190.5000     9.0085   -30.4608     8.9887     8.0138     0.0376     0.1247    76.2036     2.4593
  191.0000     8.8597   -29.8530     8.9939     8.0280     0.0375     0.1250    77.1054     2.4563
  191.5000     8.8662   -29.2451     9.0005     8.0114     0.0434     0.1241    77.7042     2.4533
  192.0000     8.6312   -29.6944     8.9429     7.9801     0.0553     0.1238    78.3434     2.4525
  192.5000     8.5784   -29.8151     8.9490     7.9635     0.0736     0.1247    77.0833     2.4532
  193.0000     8.4072   -30.3946     8.9546     7.9019     0.0896     0.1266    76.9247     2.4532
  193.5000     8.4134   -30.3819     8.9600     7.7950     0.1000     0.1283    77.3701     2.4532
  194.0000     8.3047   -30.0476     8.9656     7.6730     0.1089     0.1280    78.1204     2.4494
  194.5000     8.2515   -29.3119     8.9715     7.4301     0.1148     0.1251    78.5676     2.4456
  195.0000     8.2575   -29.1504     8.9768     7.2326     0.1192     0.1224    78.8636     2.4471
  195.5000     8.2057   -29.1378     8.9820     6.9392     0.1176     0.1200    78.2500     2.4565
  196.0000     8.2108   -29.7204     8.9258     6.7617     0.1110     0.1191    77.0303     2.4740
  196.5000     8.2166   -29.7046     8.9323     6.8058     0.0889     0.1182    76.1123     2.4770
  197.0000     8.2214   -29.8440     8.9375     6.8201     0.0544     0.1176    75.1959     2.4792
  197.5000     8.2262   -29.9802     8.8747     6.8790     0.0319     0.1182    75.1886     2.4769
  198.0000     8.2311   -29.9643     8.7663     6.8930     0.0243     0.1260    75.3347     2.4679
  198.5000     8.1807   -29.9486     8.7123     6.9372     0.0242     0.1425    75.3255     2.4366
  199.0000     8.0739   -30.0879     8.6578     6.9360     0.0302     0.1537    74.8535     2.4258
  199.5000     8.0221   -30.2241     8.5450     6.9952     0.0360     0.1561    73.3394     2.4176
  200.0000     8.0280   -30.2083     8.5511     7.0545     0.0389     0.1561    72.7261     2.4010
  200.5000     7.9777   -30.7878     8.5561     7.1137     0.0388     0.1528    72.5672     2.3988
  201.0000     7.9278   -30.7752     8.4446     7.1730     0.0357     0.1465    72.7133     2.4010
  201.5000     7.8254   -31.3578     8.3345     7.2322     0.0297     0.1405    73.9163     2.4047
  202.0000     7.8300   -31.3452     8.3405     7.2912     0.0236     0.1390    76.0101     2.4107
