~VERSION INFORMATION
 VERS.                2.0:   CWLS LOG ASCII STANDARD - VERSION 2.0
 WRAP.                 NO:   ONE LINE PER DEPTH STEP
~WELL INFORMATION
#MNEM.UNIT      DATA TYPE    INFORMATION
#----------   ------------   ------------------------------
 STRT.F           87.0000:   START DEPTH
 STOP.F          987.0000:   STOP DEPTH
 STEP.F            0.5000:   STEP LENGTH
 NULL.          -999.2500:   NO VALUE
 COMP.   FLUOR DANIEL INC:   COMPANY
 WELL. NAVAL PETROLEUM RESERVE 3 SH-2 #53-2:   WELL
 FLD .        TEAPOT DOME:   FIELD
 LOC .       S2 T38N R78W:   LOCATION
 CNTY.            NATRONA:   COUNTY
 STAT.            WYOMING:   STATE
 CTRY. UNITED STATES OF AMERICA:   COUNTRY
 SRVC. Schlumberger Well Surveying Corp:   SERVICE COMPANY
 DATE.        17-JUL-1963:   LOGDATE
 API .       490250645200:   API NUMBER
~CURVE INFORMATION
#MNEM.UNIT       API CODE    CURVE DESCRIPTION
#----------   ------------   ------------------------------
 DEPT.F                  :   
 GR  .GAPI   30 310 01 00:   GAMMA RAY
 SPR .MV     05 010 01 00:   SPONTANEOUS POTENTIAL
 CILD.MMHO   05 110 46 00:   CONDUCTIVITY INDUCTION LOG DEEP
 ILD .OHMM   05 120 46 00:   INDUCTION LOG DEEP
 ASN .OHMM   05 041 16 00:   AMPLIFIED SHORT NORMAL 16"
~PARAMETER INFORMATION
#MNEM.UNIT          VALUE    DESCRIPTION
#----------   ------------   ------------------------------
 PD  .                 GL:   PERMANENT DATUM
 EPD .F              5165:   ELEVATION PERMANENT DATUM
 LMF .                 KB:   LOG MEASURED FROM
 DAPD.F                 5:   FEET ABOVE PERMANENT DATUM
 DMF .                 KB:   DRILLING MEASURED FROM
 EKB .F              5170:   KELLING BUSHING
 EGL .F              5165:   GROUND LEVEL
 DATE.          7-17-1963:   RUN DATE
 RUN .                  1:   RUN NUMBER
 DD  .F               986:   DEPTH DRILLER
 DL  .F               987:   DEPTH LOGGER
 BLI .F               986:   BOTTOM LOG INTERVAL
 TLI .F                30:   TOP LOG INTERVAL
 CS  .IN            8.625:   CASING SIZE
 CBD .F                10:   CASING BOTTOM DRILLER
 BS  .IN            7.875:   BIT SIZE
 BSD .F               986:   BIT SIZE AT DEPTH
 DFT .            GEL-OIL:   DRILLING FLUID TYPE
 DFD .                9.4:   DRILLING FLUID DENSITY
 DFV .                 67:   DRILLING FLUID VISCOSITY
 DFPH.                8.5:   DRILLING FLUID PH
 DFL .                4.6:   DRILLING FLUID LOSS
 MSS .           FLOWLINE:   MUD SAMPLE SOURCE
 RMS .OHMM           3.37:   RESISTIVITY MUD SAMPLE
 MST .F                79:   MUD SAMPLE TEMPERATURE
 RMF .OHMM           1.49:   RESISTIVITY MUD FILTRATE SAMPLE
 MFST.F                83:   MUD FILTRATE SAMPLE TEMPERATURE
 MFSS.           MEASURED:   MUD FILTRATE SAMPLE SOURCE
 BHT .F                80:   BOTTOM HOLE TEMPERATURE
 TCS .HRS            0030:   TIME CURCULATED STOPPED
 MRT .F                80:   MAXIMUM RECORDED TEMPERATURE
 LUN .               4507:   LOGGING UNIT NUMBER
 LUL .              CSPR.:   LOGGING UNIT LOCATION
 ENGI.            WINKLER:   RECORDING ENGINEER
 WITN.          JORGENSON:   WITNESSED BY
 CLNT.            A2DTECH:   CLIENT CODE
 ORIG.      2" & 5" PRINT:   ORIGIN OF DATA
 UWI .       490250645200:   UNIQUE WELL ID
 DICO. A2D Technologies, Inc.:   DIGITIZING COMPANY
~OTHER INFORMATION
~A   DEPT       GR        SPR       CILD          ILD        ASN 
# ...
  636.0000   120.3329   -53.7148   103.0130     9.6988    10.4680
  636.5000   118.1267   -53.7151   103.0151     9.6291    10.4123
  637.0000   119.0095   -53.7158   103.0151     9.5443    10.3470
  637.5000   120.7574   -53.7133   105.4558     9.4569    10.2808
  638.0000   124.0559   -53.4886   108.1909     9.3638    10.2145
  638.5000   126.7347   -53.3109   110.7286     9.2454    10.1484
  639.0000   122.2700   -53.3132   113.2663     9.0232    10.0935
  639.5000   121.4894   -53.2757   115.8040     8.8074    10.0705
  640.0000   127.1461   -53.1674   119.2391     8.5917     9.8260
  640.5000   133.6563   -53.0601   123.4749     8.3760     9.5619
  641.0000   124.5736   -52.9526   126.7739     8.1601     9.2957
  641.5000   124.5775   -52.8453   130.0729     7.9442     9.0247
  642.0000   107.7389   -52.7378   133.3719     7.7310     8.8780
  642.5000   110.5426   -52.6300   136.1809     7.5963     8.8095
  643.0000   106.7217   -52.5230   135.5761     7.6306     8.7512
  643.5000   104.5418   -52.5096   133.8947     7.6620     8.7548
  644.0000   101.3427   -52.5913   132.1632     7.7192     8.8966
  644.5000    95.8508   -52.7548   129.1792     7.9054     9.2028
  645.0000    97.9448   -52.9181   126.1318     8.0904     9.5133
  645.5000    99.5055   -53.0810   123.0835     8.2749     9.6605
  646.0000    99.2054   -53.2457   120.0402     8.4577     9.7098
  646.5000    98.3417   -53.2766   117.0854     8.6790     9.7599
  647.0000   102.9319   -53.2171   116.0402     8.8900     9.8623
  647.5000   107.3768   -53.1561   115.0173     8.8959     9.9675
  648.0000   110.3171   -53.0949   114.0733     8.8953     9.9806
  648.5000   109.5446   -53.0339   114.7358     8.8914     9.9753
  649.0000   108.2110   -52.9729   115.3769     8.8230     9.9602
  649.5000   107.1957   -52.9119   116.0113     8.7550     9.9307
  650.0000   104.0018   -52.8509   116.8619     8.6875     9.8069
  650.5000   106.4209   -52.7899   117.7390     8.6199     9.6846
  651.0000    97.9903   -52.7267   118.6160     8.5524     9.6773
  651.5000   104.7072   -52.6836   119.4930     8.4906     9.6776
  652.0000   108.8340   -52.6448   119.3780     8.4920     9.6792
  652.5000   114.0122   -52.6061   117.0356     8.5720     9.7887
  653.0000   117.3402   -52.5676   114.6619     8.7282     9.9134
  653.5000   113.4937   -52.5286   112.7172     8.8844     9.9420
  654.0000   111.1818   -52.5518   111.5392     9.0408     9.9650
  654.5000   108.7144   -52.6319   110.3773     9.1973     9.9885
  655.0000   107.7509   -52.7124   109.2153     9.3596    10.0475
  655.5000   105.2938   -52.7928   108.0533     9.3970    10.1387
  656.0000   105.8938   -52.8737   107.0352     9.3291    10.2322
  656.5000   107.8756   -52.8864   109.0294     9.1983    10.2800
  657.0000   105.6895   -52.8403   111.1874     9.0677    10.2014
  657.5000   101.0788   -52.7936   113.3453     8.9367    10.0499
  658.0000    98.5102   -52.7467   115.5032     8.8062     9.9509
  658.5000   102.0084   -52.6999   116.5757     8.6879     9.8403
  659.0000   102.3787   -52.6531   117.2723     8.6734     9.8272
  659.5000    99.3498   -52.6065   117.9574     8.6564     9.8068
  660.0000   112.0104   -52.5601   118.6432     8.6391     9.7223
  660.5000   115.4457   -52.5095   119.1299     8.6217     9.7668
  661.0000   112.2660   -52.3431   119.2306     8.6043     9.8592
  661.5000   104.5358   -52.1658   119.3313     8.5870     9.8616
  662.0000   106.0019   -51.9867   119.4320     8.5696     9.8087
  662.5000   110.1978   -51.9706   119.5327     8.5522     9.7556
  663.0000   114.8284   -52.0807   119.6334     8.5349     9.7028
  663.5000   104.1127   -52.1932   119.7341     8.5175     9.6568
  664.0000    96.5259   -52.3048   119.8348     8.5002     9.6690
  664.5000   107.2427   -52.3101   119.9355     8.4828     9.6780
  665.0000   119.3093   -52.3094   120.0362     8.4654     9.6509
  665.5000   126.3921   -52.3092   120.2710     8.4481     9.6385
  666.0000   120.3705   -52.3093   120.7431     8.4307     9.6379
  666.5000   127.9963   -52.3092   121.2151     8.4133     9.6202
  667.0000   124.2359   -52.3097   121.6872     8.3960     9.5693
  667.5000   122.2898   -52.2612   122.1592     8.3786     9.5191
  668.0000   132.3792   -52.1778   122.6313     8.3612     9.4761
  668.5000   125.2212   -52.0939   123.1033     8.3439     9.4954
  669.0000   120.0722   -52.0100   123.5754     8.3266     9.5269
  669.5000   123.9378   -51.9261   124.0474     8.3095     9.5584
  670.0000   115.4485   -51.8423   124.5195     8.2903     9.5771
  670.5000   113.4976   -51.7591   124.9912     8.2213     9.5350
  671.0000   111.6058   -51.7060   125.4636     8.1491     9.4908
  671.5000   115.9688   -51.7062   125.9356     8.0770     9.4471
  672.0000    98.3869   -51.7098   126.6847     8.0050     9.3736
  672.5000   103.3615   -51.8208   127.6294     7.9340     9.2915
  673.0000   105.5715   -51.9374   128.5840     7.9104     9.2764
  673.5000   102.8799   -52.0537   128.8644     7.9674     9.2761
  674.0000   101.5161   -52.1701   128.1407     8.0230     9.2760
  674.5000   109.9858   -52.2888   126.0975     8.0777     9.2738
  675.0000   104.3916   -52.2876   124.0462     8.1941     9.3741
  675.5000   103.1178   -52.2607   121.9948     8.3239     9.4994
  676.0000   110.6170   -52.2332   119.9434     8.4541     9.6901
  676.5000   111.5465   -52.2060   117.8921     8.5841     9.8861
  677.0000   114.3391   -52.1789   116.1688     8.7139     9.9146
  677.5000   111.6634   -52.1517   114.6583     8.8446     9.9088
  678.0000   116.2196   -52.1235   113.6310     8.9199     9.9016
  678.5000   108.7248   -52.0400   113.0653     8.9622     9.9441
  679.0000   109.6533   -51.8713   113.0653     8.9876    10.0014
  679.5000   111.1074   -51.7038   113.0653     8.9427    10.0004
  680.0000   108.1527   -51.5363   113.6151     8.8994     9.9985
  680.5000   111.1270   -51.3669   114.5037     8.8562     9.9536
  681.0000   108.7078   -51.3185   115.3923     8.8131     9.9075
  681.5000   110.2790   -51.3370   116.2808     8.7701     9.8619
  682.0000   105.0118   -51.3568   117.1694     8.7267     9.8153
  682.5000   107.5046   -51.3767   118.0579     8.6662     9.8304
  683.0000   104.5748   -51.3964   118.9465     8.5321     9.8195
  683.5000   103.8288   -51.4161   121.1909     8.4006     9.7254
  684.0000   101.1797   -51.4359   123.4265     8.2693     9.6314
  684.5000   107.7676   -51.4557   125.4998     8.1379     9.5866
  685.0000   102.8572   -51.4758   127.5732     8.0065     9.5140
  685.5000   106.0594   -51.4949   129.6465     7.8752     9.3668
  686.0000   113.2799   -51.4717   131.7198     7.7436     9.2205
  686.5000   104.9675   -51.3045   133.7931     7.6117     9.0738
  687.0000   103.6347   -51.1420   135.8664     7.4906     8.9347
  687.5000   105.4175   -50.9797   136.1809     7.5105     8.8728
  688.0000   104.4893   -50.8172   135.6636     7.5341     8.8133
  688.5000   113.2390   -50.6542   134.8685     7.5573     8.8013
  689.0000   115.1089   -50.5055   134.0735     7.5793     8.8209
  689.5000   122.3118   -50.5257   133.2785     7.6495     8.9875
  690.0000   110.6260   -50.5499   131.4748     7.7410     9.1539
  690.5000   107.2809   -50.5735   129.5045     7.8336     9.2917
  691.0000   114.3401   -50.5969   127.5340     7.9261     9.3776
  691.5000   106.2095   -50.6203   125.5584     8.0186     9.4929
  692.0000   111.3727   -50.6434   123.8539     8.1111     9.4268
  692.5000   108.6983   -50.6669   122.8442     8.2036     9.3785
  693.0000   110.2650   -50.6933   121.8372     8.2961     9.4343
  693.5000   103.1065   -50.8619   120.8301     8.3888     9.4895
  694.0000   100.7512   -51.2013   119.8221     8.4801     9.5473
  694.5000    94.3830   -51.4875   118.8145     8.5279     9.6073
  695.0000   102.4291   -51.1838   118.0869     8.5681     9.7370
  695.5000   101.5471   -50.9069   118.0904     8.6084     9.8017
  696.0000   100.2789   -50.9029   118.0904     8.6490     9.8333
  696.5000   102.7693   -50.8987   118.0904     8.6906     9.8592
