~VERSION INFORMATION
 VERS.                2.0:   CWLS LOG ASCII STANDARD - VERSION 2.0
 WRAP.                 NO:   ONE LINE PER DEPTH STEP
~WELL INFORMATION
#MNEM.UNIT      DATA TYPE    INFORMATION
#----------   ------------   ------------------------------
 STRT.F           25.0000:   START DEPTH
 STOP.F          439.0000:   STOP DEPTH
 STEP.F            0.5000:   STEP LENGTH
 NULL.          -999.2500:   NO VALUE
 COMP. LAWRENCE/ALLISON INC:   COMPANY
 WELL.    63-31 SX #10-10:   WELL
 FLD .             TEAPOT:   FIELD
 LOC .      S10 T38N R78W:   LOCATION
 CNTY.            NATRONA:   COUNTY
 STAT.            WYOMING:   STATE
 CTRY. UNITED STATES OF AMERICA:   COUNTRY
 SRVC.           Gearhart:   SERVICE COMPANY
 DATE.        29-SEP-1988:   LOGDATE
 API .       490251125000:   API NUMBER
~CURVE INFORMATION
#MNEM.UNIT       API CODE    CURVE DESCRIPTION
#----------   ------------   ------------------------------
 DEPT.F                  :   
 GRR .GAPI   07 310 01 00:   GAMMA RAY
 RILD.OHMM   07 120 46 00:   INDUCTION LOG DEEP RESISTIVITY
 RILM.OHMM   07 120 44 00:   INDUCTION LOG MEDIUM RESISTIVITY
~PARAMETER INFORMATION
#MNEM.UNIT          VALUE    DESCRIPTION
#----------   ------------   ------------------------------
 PD  .                 GL:   PERMANENT DATUM
 EPD .F              5165:   ELEVATION PERMANENT DATUM
 LMF .                 KB:   LOG MEASURED FROM
 DAPD.F                10:   FEET ABOVE PERMANENT DATUM
 DMF .                 KB:   DRILLING MEASURED FROM
 EKB .F              5175:   KELLING BUSHING
 EGL .F              5165:   GROUND LEVEL
 DATE.        29-SEP-1988:   RUN DATE
 RUN .                  1:   RUN NUMBER
 DD  .F               440:   DEPTH DRILLER
 DL  .F               440:   DEPTH LOGGER
 BLI .F               439:   BOTTOM LOG INTERVAL
 TLI .F                40:   TOP LOG INTERVAL
 CS  .IN            9.625:   CASING SIZE
 CBD .F                45:   CASING BOTTOM DRILLER
 CBL .F                46:   CASING BOTTOM LOGGER
 BS  .IN             8.75:   BIT SIZE
 BSD .F               440:   BIT SIZE AT DEPTH
 TLAB.HRS            2126:   TIME LOGGER AT BOTTOM
 MRT .F                70:   MAXIMUM RECORDED TEMPERATURE
 LUN .               7597:   LOGGING UNIT NUMBER
 LUL .           GILLETTE:   LOGGING UNIT LOCATION
 ENGI.         WEATHERMON:   RECORDING ENGINEER
 WITN.             STRONG:   WITNESSED BY
 CLNT.            A2DTECH:   CLIENT CODE
 ORIG.        2" 5" PRINT:   ORIGIN OF DATA
 UWI .       490251125000:   UNIQUE WELL ID
 DICO. A2D Technologies, Inc.:   DIGITIZING COMPANY
~OTHER INFORMATION
~A   DEPT       GRR      RILD       RILM   
   25.0000    72.8731  -999.2500  -999.2500
   25.5000    72.8808  -999.2500  -999.2500
   26.0000    72.8884  -999.2500  -999.2500
   26.5000    74.4158  -999.2500  -999.2500
   27.0000    76.5511  -999.2500  -999.2500
   27.5000    74.4311  -999.2500  -999.2500
   28.0000    71.7013  -999.2500  -999.2500
   28.5000    72.3188  -999.2500  -999.2500
   29.0000    73.2383  -999.2500  -999.2500
   29.5000    75.6775  -999.2500  -999.2500
   30.0000    74.1654  -999.2500  -999.2500
   30.5000    71.7414  -999.2500  -999.2500
   31.0000    71.7491  -999.2500  -999.2500
   31.5000    72.6686  -999.2500  -999.2500
   32.0000    73.8920  -999.2500  -999.2500
   32.5000    74.2036  -999.2500  -999.2500
   33.0000    74.8735  -999.2500  -999.2500
   33.5000    75.4812  -999.2500  -999.2500
   34.0000    76.3526  -999.2500  -999.2500
   34.5000    76.6641  -999.2500  -999.2500
   35.0000    75.0505  -999.2500  -999.2500
   35.5000    71.4945  -999.2500  -999.2500
   36.0000    71.8237  -999.2500  -999.2500
   36.5000    73.0519  -999.2500  -999.2500
   37.0000    74.2705  -999.2500  -999.2500
   37.5000    72.7584  -999.2500  -999.2500
   38.0000    70.9423  -999.2500  -999.2500
   38.5000    70.6459  -999.2500  -999.2500
   39.0000    70.9577  -999.2500  -999.2500
   39.5000    71.5732  -999.2500  -999.2500
   40.0000    71.8848  -999.2500  -999.2500
   40.5000    71.8925  -999.2500  -999.2500
   41.0000    72.2041  -999.2500  -999.2500
   41.5000    74.0354  -999.2500  -999.2500
   42.0000    78.2984  -999.2500  -999.2500
   42.5000    78.6081  -999.2500  -999.2500
   43.0000    78.0078  -999.2500  -999.2500
   43.5000    77.7115  -999.2500  -999.2500
   44.0000    77.1113  -999.2500  -999.2500
   44.5000    77.7287  -999.2500  -999.2500
   45.0000    80.4719  -999.2500  -999.2500
   45.5000    86.5586  -999.2500  -999.2500
   46.0000    97.2045    28.2582   294.9792
   46.5000   106.0268     5.5533   265.6301
   47.0000   113.3293     2.2247    23.8784
   47.5000   120.3278     1.9213     5.9497
   48.0000   123.6789     2.2763     3.2406
   48.5000   123.6865     4.2074     2.9593
   49.0000   123.9981     9.5107     3.3789
   49.5000   125.5255    19.1483     7.2328
   50.0000   127.9629    14.0713    10.0418
   50.5000   125.2410    10.1209    13.5578
   51.0000   120.3899     9.0497    14.6393
   51.5000   114.6269     8.3844    13.6512
   52.0000   113.1192     8.5023    11.1481
   52.5000   112.8268     9.1172     9.7624
   53.0000   112.2310    10.1949     9.1034
   53.5000   111.9392    11.4799     9.0395
   54.0000   112.2556    11.8878     9.3602
   54.5000   113.7874    11.1637     9.9667
   55.0000   116.8390    11.0860    10.4654
   55.5000   117.7629    11.0860    10.9125
   56.0000   115.9352    11.1637    11.2210
   56.5000   113.8357    11.2419    11.2203
   57.0000   112.9097    11.4799    11.4572
   57.5000   111.6970    11.7229    11.7002
   58.0000   110.8324    12.0550    11.9488
   58.5000   109.9326    12.3102    12.2073
   59.0000   108.7319    12.4833    12.6373
   59.5000   106.3123    12.7476    12.8976
   60.0000   105.4095    12.8369    12.8968
   60.5000   106.0325    12.9268    12.8961
   61.0000   106.9564    12.9268    12.8953
   61.5000   107.5764    12.8369    12.8946
   62.0000   107.5885    12.7476    12.8768
   62.5000   107.9045    12.5708    12.7141
   63.0000   108.5245    12.5708    12.5370
   63.5000   109.1444    12.5708    12.5363
   64.0000   110.0684    12.4833    12.4484
   64.5000   111.2962    12.4833    12.3610
   65.0000   112.5241    12.3964    12.2743
   65.5000   113.7520    12.3102    12.2736
   66.0000   113.4601    12.1395    12.1875
   66.5000   112.5603    12.1395    12.1868
   67.0000   111.6605    12.0550    12.0171
   67.5000   110.6856    12.0550    12.0164
   68.0000   108.5703    12.0550    11.9320
   68.5000   107.1385    11.9711    11.9314
   69.0000   107.1505    11.9711    11.9307
   69.5000   107.4665    11.9711    11.8470
   70.0000   107.7826    11.9711    11.8463
   70.5000   107.7946    11.8051    11.8456
   71.0000   107.8067    11.6378    11.7625
   71.5000   107.8188    11.4799    11.5180
   72.0000   108.4387    11.2419    11.4372
   72.5000   112.0982    11.1551    11.1994
   73.0000   113.9340    11.0757    11.0435
   73.5000   111.2105    10.9970    10.9660
   74.0000   106.9672    10.9323    10.9653
   74.5000   103.6358    10.8562    10.8884
   75.0000   103.0395    10.8562    10.8878
   75.5000   104.2679    10.7806    10.8871
   76.0000   104.8879    10.7056    10.8108
   76.5000   104.5958    10.6311    10.7349
   77.0000   105.2160    10.5572    10.5854
   77.5000   106.4438    10.4107    10.4380
   78.0000   107.9881    10.2664    10.2927
   78.5000   111.3578    10.2664    10.2204
   79.0000   112.2551    10.1949    10.0080
   79.5000   110.2870    10.0535    10.0074
   80.0000   103.6881    10.0535    10.0068
   80.5000   102.2609    10.0535    10.0764
   81.0000   104.5188    10.1240    10.1464
   81.5000   108.0631    10.1949    10.2169
   82.0000   109.2880    10.2664    10.2163
   82.5000   106.8715    10.2664    10.2157
   83.0000   108.0993    10.2664    10.2151
   83.5000   110.5430    10.2664    10.2145
   84.0000   111.4669    10.2664    10.2139
   84.5000   109.9592    10.1240    10.1378
   85.0000   109.3604     9.8451    10.0010
   85.5000   110.2873     9.2454    10.0005
   86.0000   111.8192     9.1172     9.9999
   86.5000   110.6154     9.1172    10.0694
   87.0000   109.4117     9.1172    10.1393
   87.5000   109.1168     8.9908    10.2098
   88.0000   111.2595     8.8044    10.2807
   88.5000   112.7914     8.6219    10.2800
   89.0000   114.6271     8.4431    10.2079
   89.5000   115.2471     8.4431    10.2073
   90.0000   113.7394     8.5023    10.2067
   90.5000   112.2317     8.6823    10.1351
   91.0000   111.6329     8.8661    10.1345
   91.5000   110.7356     8.8661    10.0634
   92.0000   110.1403     8.9282    10.0628
   92.5000   109.5441     8.9282    10.1329
   93.0000   109.2522     8.9908    10.2033
   93.5000   110.1765     9.1172    10.2742
   94.0000   113.2281     9.1811    10.2020
   94.5000   115.9767     9.2454    10.2014
   95.0000   114.7620     9.2454    10.2008
   95.5000   113.8531     9.3102    10.1292
   96.0000   113.2763     9.3755    10.0581
   96.5000   113.3262     9.3755    10.0576
   97.0000   114.2128     9.3755     9.9870
   97.5000   114.8328     9.4412     9.9864
   98.0000   114.2395     9.4412     9.9858
   98.5000   113.3367     9.3755     9.9853
   99.0000   112.4399     9.3755     9.9152
   99.5000   111.2361     9.3755     9.9146
  100.0000   111.7871     9.2735     9.8796
  100.5000   114.8969     9.1792     9.5711
  101.0000   119.4592     9.2416     9.3700
  101.5000   120.3733     9.1754     9.3674
  102.0000   117.6408     9.1734     9.3648
  102.5000   118.2525     9.1715     9.3622
  103.0000   120.0793     9.1696     9.3596
  103.5000   118.2586     9.2379     9.5551
  104.0000   116.1339     9.4985     9.8919
  104.5000   111.8817     9.6229     9.9585
  105.0000   110.9721     9.6208     9.9556
  105.5000   112.4956     9.5519     9.9529
  106.0000   118.2738     9.7629     9.9501
  106.5000   119.4918     9.8184     9.8781
  107.0000   116.1522     9.6675     9.6707
  107.5000   114.3315     9.3457     9.4017
  108.0000   114.0298     9.2141     9.1402
  108.5000   114.3376     9.1481     9.1376
  109.0000   114.6445     9.2108     9.1991
  109.5000   115.5594     9.1443     9.1325
  110.0000   115.8664     9.0156     9.0665
  110.5000   115.5655     9.0137     8.8707
  111.0000   114.6565     9.0118     8.6227
  111.5000   114.3557     9.0099     8.5070
  112.0000   114.6628     9.0081     8.3867
  112.5000   114.7163     8.8813     8.3260
  113.0000   114.0609     8.6953     8.1512
  113.5000   113.1521     8.4541     7.9795
  114.0000   112.2432     8.2195     7.6500
  114.5000   114.0700     7.8257     7.3341
  115.0000   116.8086     7.5557     7.0804
  115.5000   119.8512     7.3460     6.8835
