~VERSION INFORMATION
 VERS.                2.0:   CWLS LOG ASCII STANDARD - VERSION 2.0
 WRAP.                 NO:   ONE LINE PER DEPTH STEP
~WELL INFORMATION
#MNEM.UNIT      DATA TYPE    INFORMATION
#----------   ------------   ------------------------------
 STRT.F          103.0000:   START DEPTH
 STOP.F          898.0000:   STOP DEPTH
 STEP.F            0.5000:   STEP LENGTH
 NULL.          -999.2500:   NO VALUE
 COMP. LAWRENCE/ALLISON INC:   COMPANY
 WELL. NPR 3 32-66 SX #2-2:   WELL
 FLD .             TEAPOT:   FIELD
 LOC .       S2 T38N R78W:   LOCATION
 CNTY.            NATRONA:   COUNTY
 STAT.            WYOMING:   STATE
 CTRY. UNITED STATES OF AMERICA:   COUNTRY
 SRVC.      Dresser Atlas:   SERVICE COMPANY
 DATE.        30-JAN-1986:   LOGDATE
 API .       490251106900:   API NUMBER
~CURVE INFORMATION
#MNEM.UNIT       API CODE    CURVE DESCRIPTION
#----------   ------------   ------------------------------
 DEPT.F                  :   
 RILD.OHMM   07 120 46 00:   INDUCTION LOG DEEP RESISTIVITY
 RILM.OHMM   07 120 44 00:   INDUCTION LOG MEDIUM RESISTIVITY
 CALD.IN     45 280 60 00:   CALIPER FROM DENSITY
 GRD .GAPI   45 310 01 00:   GAMMA RAY FROM DENSITY LOG
 CORR.G/C3   45 356 01 00:   DENSITY CORRECTION
 PORD.DEC    45 890 10 00:   POROSITY DENSITY LIMESTONE
 DEN .G/C3   45 350 01 00:   COMPENSATED BULK DENSITY
~PARAMETER INFORMATION
#MNEM.UNIT          VALUE    DESCRIPTION
#----------   ------------   ------------------------------
 PD  .                 GL:   PERMANENT DATUM
 EPD .F              5136:   ELEVATION PERMANENT DATUM
 LMF .                 GL:   LOG MEASURED FROM
 DMF .                 GL:   DRILLING MEASURED FROM
 EGL .F              5136:   GROUND LEVEL
 DATE.        30-JAN-1986:   RUN DATE
 RUN .                  1:   RUN NUMBER
 DD  .F               885:   DEPTH DRILLER
 DL  .F               902:   DEPTH LOGGER
 BLI .F               894:   BOTTOM LOG INTERVAL
 CS  .IN            8.625:   CASING SIZE
 CBD .F               130:   CASING BOTTOM DRILLER
 CBL .F               126:   CASING BOTTOM LOGGER
 BS  .IN             6.25:   BIT SIZE
 BSD .F               885:   BIT SIZE AT DEPTH
 DFT .                AIR:   DRILLING FLUID TYPE
 LUN .            HL-6264:   LOGGING UNIT NUMBER
 LUL .           GILLETTE:   LOGGING UNIT LOCATION
 ENGI.     P. M. FAHLSING:   RECORDING ENGINEER
 WITN.        LINDA FIVAS:   WITNESSED BY
 CLNT.            A2DTECH:   CLIENT CODE
 ORIG.           5" PRINT:   ORIGIN OF DATA
 UWI .       490251106900:   UNIQUE WELL ID
 DICO. A2D Technologies, Inc.:   DIGITIZING COMPANY
 R1  . POROSITY WITH LIMESTONE:   REMARKS 1
~OTHER INFORMATION
~A   DEPT     RILD       RILM       CALD        GRD       CORR       PORD        DEN   
# ...
  740.0000    11.1023    11.1019     6.9337   108.7087     0.0363     0.1661     2.3995
  740.5000    11.1873    11.1869     6.9485   108.7087     0.0318     0.1751     2.3874
  741.0000    11.3513    11.2726     6.9482   108.1081     0.0439     0.1763     2.3889
  741.5000    11.5177    11.5173     6.9630   107.5075     0.0545     0.1709     2.3965
  742.0000    11.8496    11.8491     6.9626   103.9039     0.0605     0.1685     2.4010
  742.5000    12.1910    12.2752     6.9623   100.9009     0.0575     0.1667     2.3988
  743.0000    12.1133    11.9483     6.9470    99.6997     0.0711     0.1673     2.3980
  743.5000    11.8726    11.7108     6.9467   102.1021     0.0862     0.1682     2.3995
  744.0000    11.7175    11.6362     6.9448   104.8048     0.0787     0.1673     2.4025
  744.5000    11.5565    11.4049     6.9310   108.1081     0.0727     0.1642     2.4055
  745.0000    11.4109    11.2560     6.9307   109.9099     0.0697     0.1609     2.4108
  745.5000    11.2644    11.0342     6.9304   110.5105     0.0697     0.1576     2.4207
  746.0000    11.1171    10.9511     6.9301   109.3093     0.0561     0.1548     2.4237
  746.5000    10.8964    10.7460     6.9449   109.0090     0.0456     0.1604     2.4182
  747.0000    10.6799    10.6023     6.9445   109.3093     0.0425     0.1643     2.4083
  747.5000    10.5386    10.5399     6.9442   109.9099     0.0426     0.1649     2.4022
  748.0000    10.5479    10.5473     6.9439   112.0120     0.0441     0.1600     2.4039
  748.5000    10.5553    10.5547     6.9588   113.5135     0.0501     0.1480     2.4357
  749.0000    10.5628    10.5622     6.9584   113.5375     0.0636     0.1371     2.4508
  749.5000    10.5702    10.6430     6.9581   113.5135     0.0762     0.1317     2.4592
  750.0000    10.5764    10.6327     6.9578   113.5135     0.0888     0.1293     2.4629
  750.5000    10.5844    10.5387     6.9575   113.3169     0.0940     0.1317     2.4622
  751.0000    10.7395    10.5928     6.9572   113.5011     0.0849     0.1350     2.4546
  751.5000    10.9726    10.8235     6.9569   114.3960     0.0744     0.1383     2.4463
  752.0000    11.2108    11.0592     6.9566   117.0927     0.0638     0.1401     2.4448
  752.5000    11.3751    11.2221     6.9563   120.0897     0.0578     0.1413     2.4463
  753.0000    11.3830    11.3088     6.9560   119.4832     0.0578     0.1419     2.4425
  753.5000    11.3910    11.3176     6.9557   117.0748     0.0609     0.1413     2.4417
  754.0000    11.3990    11.2460     6.9554   113.1649     0.0654     0.1401     2.4477
  754.5000    11.3282    11.2568     6.9551   112.8586     0.0699     0.1429     2.4462
  755.0000    11.3361    11.1856     6.9548   112.8527     0.0790     0.1498     2.4296
  755.5000    11.1880    11.1170     6.9545   111.6455     0.0790     0.1510     2.4258
  756.0000    10.9656    11.0488     6.9542   110.4383     0.0791     0.1498     2.4318
  756.5000    10.5998    10.8321     6.9388   111.0329     0.0760     0.1486     2.4296
  757.0000    10.5322    10.6893     6.9235   113.4294     0.0670     0.1504     2.4288
  757.5000    10.4668    10.5504     6.9232   114.6246     0.0580     0.1507     2.4280
  758.0000    10.3925    10.4133     6.9229   115.5195     0.0625     0.1492     2.4348
  758.5000    10.2659    10.3494     6.9226   117.0189     0.0731     0.1414     2.4447
  759.0000    10.2731    10.2860     6.9223   119.1191     0.0761     0.1390     2.4492
  759.5000    10.1389    10.2228     6.9220   120.6067     0.0671     0.1384     2.4507
  760.0000    10.1460    10.1600     6.9217   120.0000     0.0731     0.1387     2.4522
  760.5000    10.1530    10.0976     6.9364   119.0672     0.0777     0.1335     2.4545
  761.0000    10.1601    10.1056     6.9512   117.8539     0.0732     0.1308     2.4620
  761.5000    10.1672    10.0417     6.9509   114.1622     0.0762     0.1317     2.4567
  762.0000    10.2450    10.1212     6.9506   112.7690     0.0853     0.1323     2.4575
  762.5000    10.2522    10.1291     6.9503   114.6647     0.0989     0.1287     2.4627
  763.0000    10.2594    10.2073     6.9651   117.0730     0.1064     0.1269     2.4673
  763.5000    10.2665    10.2152     6.9798   119.9568     0.1034     0.1263     2.4703
  764.0000    10.2737    10.2231     6.9645   121.7526     0.0974     0.1281     2.4673
  764.5000    10.3523    10.2310     6.9634   122.0484     0.0959     0.1324     2.4597
  765.0000    10.4315    10.4538     6.9488   121.7406     0.0944     0.1378     2.4521
  765.5000    10.5844    10.5346     6.9485   121.7347     0.1005     0.1432     2.4430
  766.0000    10.9650    11.1433     6.9482   121.7287     0.1005     0.1444     2.4385
  766.5000    11.8411    12.1182     6.9495   122.0245     0.0748     0.1450     2.4370
  767.0000    13.0558    12.8667     6.9777   118.7137     0.0521     0.1469     2.4309
  767.5000    14.0017    13.9765     6.9774   110.2994     0.0371     0.1595     2.4143
  768.0000    15.1205    15.2878     6.9771   103.3865     0.0464     0.1855     2.3704
  768.5000    16.3287    16.4890     6.9768   101.5787     0.0648     0.2084     2.3220
  769.0000    17.6335    17.8011     6.9765   103.3745     0.0876     0.2253     2.3023
  769.5000    18.7806    19.0922     6.9762   104.8700     0.1053     0.2319     2.2902
  770.0000    19.5911    20.1954     6.9758   105.7665     0.1082     0.2313     2.2902
  770.5000    20.4365    20.7786     6.9755   103.6569     0.0971     0.2289     2.2925
  771.0000    20.7360    20.6472     6.9752   100.6479     0.0820     0.2274     2.2970
  771.5000    20.3238    20.3789     6.9749   100.0413     0.0735     0.2289     2.2900
  772.0000    20.1670    20.1141     6.9746   100.6375     0.0795     0.2332     2.2839
  772.5000    19.7927    19.9908     6.9743   101.5309     0.0916     0.2396     2.2780
  773.0000    19.6699    19.5986     6.9741   101.8267     0.0886     0.2341     2.2851
  773.5000    19.2659    19.3440     6.9737   102.1210     0.0720     0.2290     2.2973
  774.0000    18.7569    19.0890     6.9734   103.0145     0.0796     0.2229     2.3053
  774.5000    18.2654    18.7109     6.9731   103.6091     0.0751     0.2208     2.3076
  775.0000    18.0267    18.3404     6.9728   103.3028     0.0691     0.2199     2.3091
  775.5000    17.7911    17.8531     6.9725   101.7953     0.0676     0.2193     2.3100
  776.0000    17.4376    17.3821     6.9722    99.9875     0.0736     0.2175     2.3135
  776.5000    17.2094    17.1529     6.9719   100.2819     0.0797     0.2157     2.3249
  777.0000    16.9849    17.0340     6.9716   101.1768     0.0887     0.2098     2.3339
  777.5000    16.7630    16.8187     6.9563   102.3720     0.1008     0.2039     2.3385
  778.0000    16.6583    16.7230     6.9409   104.7684     0.1084     0.2046     2.3294
  778.5000    16.4384    16.6203     6.9406   107.1649     0.1099     0.2070     2.3248
  779.0000    16.3363    16.4045     6.9403   108.1121     0.0933     0.2047     2.3407
  779.5000    16.2378    16.3034     6.9400   107.4532     0.0526     0.1917     2.3566
  780.0000    16.0228    15.9810     6.9397   106.5463     0.0269     0.1889     2.3604
  780.5000    15.4910    15.4490     6.9394   106.5404     0.0466     0.1937     2.3437
  781.0000    15.0783    14.9348     6.9391   107.1351     0.0587     0.2031     2.3369
  781.5000    14.6766    14.4376     6.9388   108.3302     0.0738     0.2015     2.3520
  782.0000    14.5830    14.3491     6.9385   108.9249     0.0859     0.1937     2.3611
  782.5000    14.5957    14.4600     6.9382   109.2192     0.0949     0.1862     2.3664
  783.0000    14.6059    14.5717     6.9379   108.3123     0.0965     0.1886     2.3656
  783.5000    14.6161    14.6843     6.9376   106.5045     0.0920     0.1961     2.3550
  784.0000    14.6263    14.7977     6.9373   104.6805     0.0829     0.2103     2.3338
  784.5000    14.6366    14.9121     6.9370   101.6877     0.0678     0.2163     2.3157
  785.0000    14.6468    14.9236     6.9518   103.5236     0.0618     0.2154     2.3172
