~VERSION INFORMATION
 VERS.                2.0:   CWLS LOG ASCII STANDARD - VERSION 2.0
 WRAP.                 NO:   ONE LINE PER DEPTH STEP
~WELL INFORMATION
#MNEM.UNIT      DATA TYPE    INFORMATION
#----------   ------------   ------------------------------
 STRT.F           18.0000:   START DEPTH
 STOP.F          449.0000:   STOP DEPTH
 STEP.F            0.5000:   STEP LENGTH
 NULL.          -999.2500:   NO VALUE
 COMP.   LAWRENCE-ALLISON:   COMPANY
 WELL. NPR 3 #52-51SX10OB5:   WELL
 FLD .             TEAPOT:   FIELD
 LOC .      S10 T38N R78W:   LOCATION
 CNTY.            NATRONA:   COUNTY
 STAT.            WYOMING:   STATE
 CTRY. UNITED STATES OF AMERICA:   COUNTRY
 SRVC.      Dresser Atlas:   SERVICE COMPANY
 DATE.        20-DEC-1984:   LOGDATE
 API .       490251101000:   API NUMBER
~CURVE INFORMATION
#MNEM.UNIT       API CODE    CURVE DESCRIPTION
#----------   ------------   ------------------------------
 DEPT.F                  :   
 CALD.IN     45 280 60 00:   CALIPER FROM DENSITY LOG
 CNC .DEC    42 890 03 00:   NEUTRON POROSITY SANDSTONE
 CORR.G/C3   45 356 01 00:   DENSITY CORRECTION
 DEN .G/C3   45 350 01 00:   COMPENSATED BULK DENSTIY
 GRD .GAPI   45 310 01 00:   GAMMA RAY FROM DENSITY LOG
 PORD.DEC    45 890 12 00:   POROSITY DENSITY SANDSTONE
 DT  .US/F   60 520 00 00:   INTERVAL TRANSIT TIME
~PARAMETER INFORMATION
#MNEM.UNIT          VALUE    DESCRIPTION
#----------   ------------   ------------------------------
 PD  .                 GL:   PERMANENT DATUM
 EPD .F              5159:   ELEVATION PERMANENT DATUM
 LMF .                 GL:   LOG MEASURED FROM
 DMF .                 GL:   DRILLING MEASURED FROM
 EGL .F              5159:   GROUND LEVEL
 DATE.        20-DEC-1984:   RUN DATE
 RUN .                  1:   RUN NUMBER
 DD  .F               451:   DEPTH DRILLER
 DL  .F               451:   DEPTH LOGGER
 BLI .F               449:   BOTTOM LOG INTERVAL
 TLI .F                20:   TOP LOG INTERVAL
 CS  .IN            8.625:   CASING SIZE
 CBD .F                20:   CASING BOTTOM DRILLER
 CBL .F                20:   CASING BOTTOM LOGGER
 BS  .IN             6.25:   BIT SIZE
 BSD .F               451:   BIT SIZE AT DEPTH
 DFT .          KCL/WATER:   DRILLING FLUID TYPE
 MSS .            MUDTANK:   MUD SAMPLE SOURCE
 RMS .OHMM           .141:   RESISTIVITY MUD SAMPLE
 MST .F                54:   MUD SAMPLE TEMPERATURE
 RMF .OHMM           .106:   RESISTIVITY MUD FILTRATE SAMPLE
 MFST.F                54:   MUD FILTRATE SAMPLE TEMPERATURE
 RMC .OHMM           .176:   RESISTIVITY MUD CAKE
 MCST.F                54:   MUD CAKE SAMPLE TEMPERATURE
 MFSS.               CALC:   MUD FILTRATE SAMPLE SOURCE
 MCSS.               CALC:   MUD CAKE SAMPLE SOURCE
 TCS .HRS               2:   TIME CURCULATED STOPPED
 MRT .F               100:   MAXIMUM RECORDED TEMPERATURE
 LUN .               6270:   LOGGING UNIT NUMBER
 LUL .                 FM:   LOGGING UNIT LOCATION
 ENGI.        TOM GAUGHAN:   RECORDING ENGINEER
 WITN.              LUERS:   WITNESSED BY
 CLNT.            A2DTECH:   CLIENT CODE
 ORIG.           5" PRINT:   ORIGIN OF DATA
 UWI .       490251101000:   UNIQUE WELL ID
 DICO. A2D Technologies, Inc.:   DIGITIZING COMPANY
~OTHER INFORMATION
~A   DEPT     CALD         CNC      CORR        DEN         GRD      PORD         DT   
# ...
  382.0000     6.1638     0.2521     0.0522     2.4919    88.5923     0.1144    89.1749
  382.5000     6.1496     0.2551     0.0370     2.4867    87.4186     0.1198    89.3286
  383.0000     6.1503     0.2634     0.0285     2.4800    87.4290     0.1231    89.5328
  383.5000     6.1509     0.2634     0.0227     2.4741    87.4393     0.1231    89.5977
  384.0000     6.1515     0.2574     0.0169     2.4711    88.3390     0.1234    89.7393
  384.5000     6.1223     0.2547     0.0260     2.4742    90.8639     0.1242    89.8081
  385.0000     6.1082     0.2562     0.0172     2.4713    91.0218     0.1254    89.6487
  385.5000     6.0643     0.2598     0.0114     2.4683    91.0318     0.1260    89.7136
  386.0000     6.0798     0.2610     0.0115     2.4691    92.2253     0.1242    89.7824
  386.5000     6.1248     0.2621     0.0117     2.4714    94.7501     0.1245    90.0735
  387.0000     6.1254     0.2645     0.0118     2.4722    98.6568     0.1242    90.3645
  387.5000     6.1260     0.2669     0.0180     2.4723    99.3559     0.1254    90.9546
  388.0000     6.1265     0.2684     0.0271     2.4689    97.7412     0.1283    91.8416
  388.5000     6.1271     0.2797     0.0182     2.4627    98.1950     0.1301    92.6679
  389.0000     6.1277     0.2848     0.0079     2.4628    98.7967     0.1301    92.7974
  389.5000     6.1284     0.2836     0.0044     2.4651    99.2505     0.1289    92.4885
  390.0000     6.1290     0.2788     0.0087     2.4704    98.9647     0.1201    92.4059
  390.5000     6.1295     0.3152     0.0383     2.4884    99.0059     0.1145    93.6686
  391.0000     6.1301     0.3212     0.0504     2.4914   104.4606     0.1154    96.2765
  391.5000     6.1307     0.3116     0.0610     2.4836   114.5298     0.1240    98.7221
  392.0000     6.1313     0.3005     0.0701     2.4392   118.9776     0.1533   105.0779
  392.5000     6.1319     0.2835     0.0613     2.4115   115.4373     0.1587   105.3690
  393.0000     6.1325     0.2676     0.0405     2.4176   107.7551     0.1523   104.3147
  393.5000     6.1331     0.2601     0.0197     2.4543   101.8479     0.1347   101.4668
  394.0000     6.1337     0.2607    -0.0040     2.4963    97.6843     0.1081    95.6293
  394.5000     6.1343     0.2553    -0.0024     2.5008    95.3591     0.1078    90.6261
  395.0000     6.1348     0.2475     0.0082     2.5001    97.1467     0.1072    90.0081
  395.5000     6.1354     0.2468     0.0203     2.5012    97.7485     0.1066    90.2225
  396.0000     6.1360     0.2538     0.0324     2.5175    97.1642     0.0975    90.3641
  396.5000     6.1367     0.2620     0.0386     2.5205    96.5825     0.0964    90.5060
  397.0000     6.1224     0.2654     0.0447     2.5176    96.5951     0.0984    90.4978
  397.5000     6.0784     0.2702     0.0479     2.5147    97.0489     0.1014    90.7888
  398.0000     6.0791     0.2761     0.0381     2.5065    98.4792     0.1047    90.9284
  398.5000     6.1093     0.2749     0.0212     2.4998   101.9530     0.1047    91.0720
  399.0000     6.1099     0.2737     0.0154     2.5082   104.3299     0.1023    90.8379
  399.5000     6.1254     0.2737     0.0215     2.5119   105.6713     0.0999    90.5311
  400.0000     6.1112     0.2683     0.0292     2.5105   103.1665     0.1010    90.0747
  400.5000     6.0970     0.2617     0.0338     2.5120    98.1469     0.1010    89.3689
  401.0000     6.0826     0.2539     0.0324     2.5136    94.9025     0.0992    88.7117
  401.5000     6.0833     0.2485     0.0296     2.5211    91.4876     0.0944    88.1059
  402.0000     6.0839     0.2497     0.0343     2.5264    90.3367     0.0926    87.4245
  402.5000     6.0844     0.2563     0.0404     2.5257    92.5682     0.0926    87.0427
  403.0000     6.1000     0.2616     0.0435     2.5258    97.3119     0.0935    86.8103
  403.5000     6.1154     0.2565     0.0467     2.5259    99.9847     0.0938    86.8021
  404.0000     6.1159     0.2520     0.0468     2.5259   100.8823     0.0925    86.7921
  404.5000     6.1165     0.2508     0.0469     2.5278   100.5964     0.0916    86.6345
  405.0000     6.0874     0.2504     0.0501     2.5324    99.4083     0.0887    86.6264
  405.5000     6.0881     0.2495     0.0532     2.5369    96.5696     0.0827    86.6930
  406.0000     6.0887     0.2555     0.0563     2.5460    93.8217     0.0800    86.7617
  406.5000     6.0892     0.2590     0.0431     2.5453    94.2780     0.0839    86.7516
  407.0000     6.0750     0.2584     0.0372     2.5342    92.8087     0.0895    86.7433
  407.5000     6.0607     0.2524     0.0254     2.5161    90.4519     0.0982    86.8081
  408.0000     6.0761     0.2509     0.0226     2.5074    90.9057     0.1029    86.9515
  408.5000     6.0916     0.2553     0.0332     2.5075    93.8743     0.1041    87.0181
  409.0000     6.0773     0.2562     0.0423     2.5076    94.4763     0.1040    87.0080
  409.5000     6.0780     0.2541     0.0529     2.5092    93.3051     0.1031    87.2991
  410.0000     6.0786     0.2433     0.0486     2.5078    92.8713     0.1004    87.8886
  410.5000     6.0642     0.2445     0.0472     2.5019    92.7309     0.1051    88.1157
  411.0000     6.0649     0.2513     0.0444     2.4960    92.7434     0.1096    87.9451
  411.5000     6.0655     0.2534     0.0460     2.4931    93.3452     0.1111    87.8623
  412.0000     6.0512     0.2477     0.0402     2.4992    94.9824     0.1047    87.5552
  412.5000     6.0370     0.2432     0.0373     2.5202    92.4039     0.0957    86.6503
  413.0000     6.0377     0.2432     0.0315     2.5233    88.3481     0.0954    86.4927
  413.5000     6.0383     0.2455     0.0317     2.5129    88.5060     0.0990    86.7909
  414.0000     6.0388     0.2524     0.0349     2.4965    94.5812     0.1073    87.6703
  414.5000     6.0394     0.2730     0.0514     2.4861    95.3283     0.1165    88.4096
  415.0000     6.0400     0.2769     0.0411     2.4877    95.1904     0.1156    88.7751
  415.5000     6.0407     0.2774     0.0203     2.4893    95.2029     0.1144    89.2902
  416.0000     6.0413     0.2598     0.0205     2.4939   101.2128     0.1120    89.8800
  416.5000     6.0418     0.2475     0.0386     2.5015   104.9887     0.1077    90.3203
  417.0000     6.0424     0.2490     0.0267     2.5061   104.7029     0.1041    90.7828
  417.5000     6.0280     0.2531     0.0209     2.5121   104.4171     0.1017    91.3505
  418.0000     6.0287     0.2567     0.0301     2.5124   103.5370     0.0993    91.8655
  418.5000     6.0293     0.2588     0.0334     2.5063   104.1412     0.1019    91.6312
  419.0000     6.0300     0.2596     0.0318     2.5034   103.5592     0.1046    91.6231
  419.5000     6.0306     0.2608     0.0275     2.5013   102.2382     0.1066    91.6900
  420.0000     6.0014     0.2736     0.0217     2.5006   102.9388     0.1057    91.9058
  420.5000     5.9872     0.2745     0.0129     2.5007   104.1838     0.1069    91.9199
  421.0000     5.9879     0.2748     0.0025     2.5008   103.7500     0.1068    92.3360
  421.5000     5.9884     0.2747     0.0042     2.5031   102.7245     0.1023    92.7764
  422.0000     5.9890     0.2679     0.0349     2.5152   101.5511     0.0981    93.1419
  422.5000     5.9897     0.2574     0.0508     2.5160   102.4487     0.0975    93.3601
  423.0000     5.9903     0.2600     0.0465     2.5161   107.1924     0.0986    93.3500
  423.5000     5.9909     0.2696     0.0407     2.5162   110.2011     0.1001    93.3417
  424.0000     5.9914     0.2785     0.0408     2.5116   108.3984     0.1007    93.3317
  424.5000     5.9920     0.2812     0.0410     2.5037   103.6747     0.1048    93.1741
  425.0000     5.9926     0.2849     0.0352     2.4993   104.1285     0.1078    93.0913
  425.5000     5.9932     0.2880     0.0293     2.4986   104.8781     0.1089    93.1579
  426.0000     5.9789     0.2853     0.0055     2.5017   105.3319     0.1065    93.1498
  426.5000     5.9945     0.2724     0.0057     2.5122   110.6674     0.0993    93.2912
  427.0000     5.9950     0.2667     0.0118     2.5078   117.4449     0.1011    93.6043
