~VERSION INFORMATION
 VERS.                2.0:   CWLS LOG ASCII STANDARD - VERSION 2.0
 WRAP.                 NO:   ONE LINE PER DEPTH STEP
~WELL INFORMATION
#MNEM.UNIT      DATA TYPE    INFORMATION
#----------   ------------   ------------------------------
 STRT.F            0.0000:   START DEPTH
 STOP.F          542.0000:   STOP DEPTH
 STEP.F            0.5000:   STEP LENGTH
 NULL.          -999.2500:   NO VALUE
 COMP. LAWRENCE/ALLISON INC:   COMPANY
 WELL.          SX #12-11:   WELL
 FLD .             TEAPOT:   FIELD
 LOC .      S11 T38N R78W:   LOCATION
 CNTY.            NATRONA:   COUNTY
 STAT.            WYOMING:   STATE
 CTRY. UNITED STATES OF AMERICA:   COUNTRY
 SRVC.           Gearhart:   SERVICE COMPANY
 DATE.        16-SEP-1988:   LOGDATE
 API .       490251124300:   API NUMBER
~CURVE INFORMATION
#MNEM.UNIT       API CODE    CURVE DESCRIPTION
#----------   ------------   ------------------------------
 DEPT.F                  :   
 GRR .GAPI   07 310 01 00:   GAMMA RAY FROM RES. LOG.
 RLL .OHMM   07 220 00 00:   LATEROLOG RESISTIVITY
 RILD.OHMM   07 120 46 00:   INDUCTION LOG DEEP RESISTIVITY
 RILM.OHMM   07 120 44 00:   INDUCTION LOG MEDIUM RESISTIVITY
 SPR .MV     07 010 01 00:   SPONTANEOUS POTENTIAL
~PARAMETER INFORMATION
#MNEM.UNIT          VALUE    DESCRIPTION
#----------   ------------   ------------------------------
 PD  .                 GL:   PERMANENT DATUM
 EPD .F              5163:   ELEVATION PERMANENT DATUM
 LMF .                 KB:   LOG MEASURED FROM
 DAPD.F                10:   FEET ABOVE PERMANENT DATUM
 DMF .                 KB:   DRILLING MEASURED FROM
 EKB .F              5173:   KELLING BUSHING
 EDF .F              5172:   DRILLING FLOOR
 EGL .F              5163:   GROUND LEVEL
 DATE.            9-16-88:   RUN DATE
 RUN .                  1:   RUN NUMBER
 DD  .F               550:   DEPTH DRILLER
 DL  .F               545:   DEPTH LOGGER
 BLI .F               542:   BOTTOM LOG INTERVAL
 CS  .IN            9.625:   CASING SIZE
 CBD .F                50:   CASING BOTTOM DRILLER
 CBL .F                50:   CASING BOTTOM LOGGER
 BS  .IN             8.75:   BIT SIZE
 BSD .F               550:   BIT SIZE AT DEPTH
 DFT .                MUD:   DRILLING FLUID TYPE
 MSS .           FLOWLINE:   MUD SAMPLE SOURCE
 RMS .OHMM            .55:   RESISTIVITY MUD SAMPLE
 MST .F                70:   MUD SAMPLE TEMPERATURE
 RMF .OHMM            .42:   RESISTIVITY MUD FILTRATE SAMPLE
 MFST.F                71:   MUD FILTRATE SAMPLE TEMPERATURE
 RMC .OHMM            .71:   RESISTIVITY MUD CAKE
 MCST.F                71:   MUD CAKE SAMPLE TEMPERATURE
 MFSS.                  M:   MUD FILTRATE SAMPLE SOURCE
 MCSS.                  M:   MUD CAKE SAMPLE SOURCE
 RMB .OHMM            .30:   RESISTIVITY MUD AT BHT
 BHT .F                81:   BOTTOM HOLE TEMPERATURE
 TCS .HRS            1430:   TIME CURCULATED STOPPED
 TLAB.HRS            1900:   TIME LOGGER AT BOTTOM
 MRT .F                81:   MAXIMUM RECORDED TEMPERATURE
 LUN .               7597:   LOGGING UNIT NUMBER
 LUL .           GILLETTE:   LOGGING UNIT LOCATION
 ENGI.     BENCK/ROUSSEAU:   RECORDING ENGINEER
 WITN.             STRONG:   WITNESSED BY
 CLNT.            A2DTECH:   CLIENT CODE
 ORIG.        2" 5" PRINT:   ORIGIN OF DATA
 UWI .       490251124300:   UNIQUE WELL ID
 DICO. A2D Technologies, Inc.:   DIGITIZING COMPANY
~OTHER INFORMATION
~A    DEPT      GRR       RLL       RILD       RILM        SPR   
# ...
  427.0000    90.4306    14.7294    14.9452    14.2610   -48.1664
  427.5000    87.7346    14.5056    14.6769    14.0310   -48.2943
  428.0000    84.9857    14.2738    14.7955    13.7487   -48.4253
  428.5000    83.5919    14.2738    14.9516    13.7813   -48.3950
  429.0000    84.4778    14.2738    15.1093    13.8406   -48.2823
  429.5000    87.1367    14.2738    15.2414    13.9002   -48.1665
  430.0000    89.7341    14.2738    14.8794    13.9600   -48.0723
  430.5000    92.3132    14.1263    14.5770    14.0088   -48.2881
  431.0000    92.3859    13.7502    14.2808    13.8288   -48.5071
  431.5000    92.0776    13.3841    13.8782    13.6211   -48.7216
  432.0000    91.9377    13.0280    13.9201    13.6627   -48.8292
  432.5000    94.4038    12.7536    13.9895    13.7360   -48.6038
  433.0000    93.5094    12.7539    14.0592    13.8081   -48.3895
  433.5000    91.3006    12.7558    14.1292    13.8782   -48.1765
  434.0000    90.2001    12.7558    14.1977    13.6856   -47.9608
  434.5000    90.2008    13.0366    14.3281    13.5027   -47.7927
  435.0000    91.8583    13.3768    14.4597    13.3686   -47.5692
  435.5000    89.9035    13.7258    14.5924    13.5765   -47.3466
  436.0000    87.3971    14.0840    14.7264    13.7447   -47.5500
  436.5000    87.3140    14.3055    14.8616    13.9151   -48.1387
  437.0000    88.6307    14.4082    14.9584    14.0876   -48.1794
  437.5000    91.0257    14.2237    14.6265    14.1407   -48.0682
  438.0000    92.8772    14.0568    14.3743    13.8419   -47.9527
  438.5000    91.2776    13.8918    14.1263    13.6456   -47.8723
  439.0000    89.7189    13.7288    13.9417    13.4522   -47.9939
  439.5000    88.1723    13.5677    13.8135    13.2615   -48.1130
  440.0000    86.8580    13.4084    13.6864    13.0736   -48.2316
  440.5000    87.0737    13.2511    13.5606    12.8882   -48.3502
  441.0000    89.1777    13.0955    13.4359    12.7048   -48.4685
  441.5000    91.0733    12.9418    13.3123    12.5197   -48.5714
  442.0000    92.9437    12.7900    13.1897    12.4514   -48.6751
  442.5000    94.8153    12.7343    13.0683    12.3832   -48.7823
  443.0000    96.6130    12.6771    12.9457    12.3146   -48.8491
  443.5000    98.2878    12.6202    12.8759    12.2866   -48.1017
  444.0000    99.4806    12.5636    13.3064    12.6142   -47.3190
  444.5000    98.7624    12.5190    13.8097    12.8547   -47.0863
  445.0000    98.7506    12.8422    14.6137    13.0998   -47.1450
  445.5000   100.5273    13.1697    15.4621    13.7560   -47.2016
  446.0000    99.8123    13.5021    16.5114    15.0406   -46.8429
  446.5000    93.0848    15.8176    17.8168    16.7253   -45.9453
  447.0000    86.6769    18.4650    19.2291    18.8101   -45.4952
  447.5000    80.6005    21.5419    23.8659    21.1434   -45.1213
  448.0000    78.3148    24.4882    25.8346    23.7661   -44.7490
  448.5000    78.2765    25.9160    27.9657    25.7251   -44.3765
  449.0000    79.8285    26.9849    30.2726    27.4223   -44.2107
  449.5000    81.5219    24.9865    32.7857    29.2315   -44.2685
  450.0000    81.1258    23.6717    35.7330    31.3582   -44.3250
  450.5000    78.5433    24.0967    36.7051    31.0637   -44.3856
  451.0000    76.3831    24.5745    37.8198    30.7401   -44.5120
  451.5000    77.9421    24.8097    35.5752    30.4198   -44.6500
  452.0000    79.4658    24.5042    33.2643    29.8352   -44.7926
  452.5000    80.8379    24.2339    31.2198    28.7166   -44.6432
  453.0000    80.9841    23.9667    30.3276    27.6400   -44.4319
  453.5000    81.1554    23.5671    29.4433    26.6037   -44.2200
  454.0000    81.3391    23.1270    28.5847    25.6063   -44.0085
  454.5000    81.4963    23.0180    27.7512    24.6452   -43.7969
  455.0000    84.2850    23.0693    26.9420    23.7166   -43.5840
  455.5000    89.0568    23.1373    26.1564    22.8072   -43.3760
  456.0000    93.9026    23.2347    25.3937    23.0592   -43.4011
  456.5000    94.5163    22.8602    24.3491    23.3378   -43.4391
  457.0000    92.2087    22.2229    24.5162    23.6144   -43.4760
  457.5000    89.8151    21.9645    24.8060    23.8943   -43.5126
  458.0000    89.0051    22.0483    25.1005    24.1775   -43.5502
  458.5000    88.5269    22.1903    25.3983    24.4640   -43.6391
  459.0000    91.1879    22.3340    25.6993    24.7540   -43.8125
  459.5000    95.5504    22.4769    26.0040    25.0466   -43.9783
  460.0000    96.9010    22.5907    26.3123    25.2776   -43.8613
  460.5000    90.9957    22.2396    26.6243    24.9413   -43.7138
  461.0000    85.4777    21.9645    26.8544    24.6678   -43.5673
  461.5000    81.5179    23.0591    27.0362    24.3972   -43.4157
  462.0000    79.7095    24.9374    27.2182    24.1296   -43.5729
  462.5000    78.6162    26.9523    27.4021    23.8649   -43.8837
  463.0000    78.3770    28.5535    27.5031    23.6031   -44.1932
  463.5000    78.1153    27.1602    26.4128    23.3442   -44.5444
  464.0000    78.0502    24.9679    25.5746    23.0881   -44.8890
  464.5000    80.9908    22.9526    24.7631    22.8033   -45.2037
  465.0000    83.9162    21.3958    24.2762    22.9921   -45.0939
  465.5000    86.8741    20.5702    24.1281    23.2099   -44.9642
  466.0000    86.9391    20.6470    23.9814    23.4534   -44.8348
  466.5000    85.8415    20.7082    23.8342    22.8420   -44.7062
  467.0000    86.0096    20.7701    23.6742    22.1759   -44.5886
  467.5000    87.4374    20.8316    22.8885    21.5293   -44.6375
  468.0000    88.8758    20.8937    22.0503    20.9015   -44.6895
  468.5000    90.3187    20.9591    21.2427    20.2920   -44.7411
  469.0000    91.7561    20.7778    20.4647    19.7003   -44.7912
  469.5000    93.2082    20.5829    19.7787    19.1259   -44.9134
  470.0000    93.8364    20.3898    19.5194    18.5682   -45.0697
  470.5000    92.7474    20.1985    19.2635    18.1119   -45.1326
  471.0000    91.5221    20.0090    19.0110    17.8152   -44.6160
  471.5000    90.6989    19.8135    18.7617    17.5275   -44.6326
  472.0000    90.5857    19.5756    18.5158    17.2443   -44.6820
  472.5000    90.9376    19.3308    18.2731    16.9653   -44.7296
  473.0000    92.7960    19.0889    18.0335    16.7385   -44.7760
  473.5000    94.6493    18.8499    17.7971    17.2614   -44.8500
  474.0000    96.5014    18.6140    17.5638    17.5413   -44.9432
  474.5000    98.3554    18.3810    17.3335    17.0571   -45.0365
  475.0000   100.2177    18.1510    17.1063    16.7161   -45.1299
  475.5000   102.0019    17.9238    16.8820    16.3818   -45.2238
  476.0000   102.0201    17.6995    16.6607    16.0543   -45.3191
  476.5000   100.8361    17.4779    16.4423    15.6770   -45.3948
  477.0000    99.6629    17.2592    16.2366    15.8285   -45.0943
  477.5000    96.1692    17.0432    16.0673    16.0151   -44.8101
  478.0000    91.4462    16.8299    15.9000    16.2053   -44.9912
  478.5000    86.7076    16.6192    15.7344    16.4277   -45.1861
  479.0000    84.0101    16.4112    15.5705    16.1830   -45.3849
  479.5000    85.3123    16.2058    15.4082    15.8974   -45.1254
  480.0000    87.2103    16.0030    15.2477    15.6169   -44.7027
  480.5000    89.1662    15.8027    15.0889    15.3413   -44.3894
  481.0000    87.6963    15.6049    14.9317    15.0706   -44.5788
  481.5000    85.7602    15.4096    14.7761    14.8046   -44.7617
  482.0000    83.8206    15.2167    14.6221    14.5432   -44.9457
  482.5000    82.7919    15.0263    14.4698    14.2867   -44.9859
  483.0000    84.3932    14.8404    14.3190    14.0346   -44.9677
  483.5000    86.5631    14.6225    14.1691    13.9245   -44.9481
  484.0000    88.4381    14.4093    14.0088    13.8311   -44.9286
  484.5000    89.3515    14.1976    13.9263    13.7383   -44.9092
  485.0000    90.5089    13.9893    13.8361    13.6461   -44.8899
  485.5000    92.9804    13.7839    13.7464    13.2628   -44.8705
  486.0000    95.4436    13.5816    13.6574    12.7826   -44.8511
  486.5000    96.4937    13.3823    13.5689    12.3188   -44.8318
  487.0000    94.3136    13.1858    13.4810    11.8749   -44.8124
  487.5000    93.8556    12.9924    13.3936    11.5066   -44.7988
