~VERSION INFORMATION
 VERS.                2.0:   CWLS LOG ASCII STANDARD - VERSION 2.0
 WRAP.                 NO:   ONE LINE PER DEPTH STEP
~WELL INFORMATION
#MNEM.UNIT      DATA TYPE    INFORMATION
#----------   ------------   ------------------------------
 STRT.F            0.0000:   START DEPTH
 STOP.F          789.0000:   STOP DEPTH
 STEP.F            0.5000:   STEP LENGTH
 NULL.          -999.2500:   NO VALUE
 COMP. U S NAVY-INTEX OIL:   COMPANY
 WELL.        NPR #35-S-2:   WELL
 FLD .             TEAPOT:   FIELD
 LOC .       S2 T38N R78W:   LOCATION
 CNTY.            NATRONA:   COUNTY
 STAT.            WYOMING:   STATE
 CTRY. UNITED STATES OF AMERICA:   COUNTRY
 SRVC.      NL McCullough:   SERVICE COMPANY
 DATE.        14-AUG-1961:   LOGDATE
 API .       490250644100:   API NUMBER
~CURVE INFORMATION
#MNEM.UNIT       API CODE    CURVE DESCRIPTION
#----------   ------------   ------------------------------
 DEPT.F                  :   
 GR  .GAPI   42 310 01 00:   GAMMA RAY
 NPHI.DEC    42 890 00 00:   NEUTRON POROSITY
~PARAMETER INFORMATION
#MNEM.UNIT          VALUE    DESCRIPTION
#----------   ------------   ------------------------------
 PD  .                 GL:   PERMANENT DATUM
 EPD .F              5133:   ELEVATION PERMANENT DATUM
 LMF .                 KB:   LOG MEASURED FROM
 DAPD.F                 6:   FEET ABOVE PERMANENT DATUM
 DMF .                 KB:   DRILLING MEASURED FROM
 EKB .F              5139:   KELLING BUSHING
 EGL .F              5133:   GROUND LEVEL
 DATE.        14-AUG-1961:   RUN DATE
 RUN .                  1:   RUN NUMBER
 DD  .F               790:   DEPTH DRILLER
 DL  .F               791:   DEPTH LOGGER
 BLI .F             789.5:   BOTTOM LOG INTERVAL
 BS  .IN            7.875:   BIT SIZE
 BSD .F               790:   BIT SIZE AT DEPTH
 DFT .        OIL EMULSON:   DRILLING FLUID TYPE
 DFD .                9.5:   DRILLING FLUID DENSITY
 TCS .HRS             1.5:   TIME CURCULATED STOPPED
 LUN .               1206:   LOGGING UNIT NUMBER
 ENGI.            JACKSON:   RECORDING ENGINEER
 WITN.          JORGENDEN:   WITNESSED BY
 CLNT.            A2DTECH:   CLIENT CODE
 ORIG.           2" PRINT:   ORIGIN OF DATA
 UWI .       490250644100:   UNIQUE WELL ID
 DICO. A2D Technologies, Inc.:   DIGITIZING COMPANY
~OTHER INFORMATION
~A    DEPT        GR     NPHI   
    0.0000     3.3253  -999.2500
    0.5000     3.0492  -999.2500
    1.0000     2.8687  -999.2500
    1.5000     2.8340  -999.2500
    2.0000     2.8766  -999.2500
    2.5000     2.9614  -999.2500
    3.0000     2.9934  -999.2500
    3.5000     3.1756  -999.2500
    4.0000     3.7843  -999.2500
    4.5000     4.3781  -999.2500
    5.0000     4.6899  -999.2500
    5.5000     5.1272  -999.2500
    6.0000     5.4602  -999.2500
    6.5000     6.2592  -999.2500
    7.0000     7.0566  -999.2500
    7.5000     6.7834  -999.2500
    8.0000     6.7089  -999.2500
    8.5000     6.6808  -999.2500
    9.0000     6.5982  -999.2500
    9.5000     6.4673  -999.2500
   10.0000     6.7796  -999.2500
   10.5000     6.7551  -999.2500
   11.0000     6.7200  -999.2500
   11.5000     6.6797  -999.2500
   12.0000     6.7177  -999.2500
   12.5000     6.8263  -999.2500
   13.0000     6.9752  -999.2500
   13.5000     7.0759  -999.2500
   14.0000     7.2052  -999.2500
   14.5000     7.6337  -999.2500
   15.0000     7.6899  -999.2500
   15.5000     7.6591  -999.2500
   16.0000     7.6403  -999.2500
   16.5000     7.7608  -999.2500
   17.0000     7.7933  -999.2500
   17.5000     7.6347  -999.2500
   18.0000     7.4886  -999.2500
   18.5000     6.9843  -999.2500
   19.0000     6.7123  -999.2500
   19.5000     6.7305  -999.2500
   20.0000     6.9551  -999.2500
   20.5000     7.1968  -999.2500
   21.0000     7.2933  -999.2500
   21.5000     7.2374  -999.2500
   22.0000     7.0082  -999.2500
   22.5000     6.7184  -999.2500
   23.0000     6.5187  -999.2500
   23.5000     6.4829  -999.2500
   24.0000     6.5993  -999.2500
   24.5000     6.6383  -999.2500
   25.0000     6.5250  -999.2500
   25.5000     6.3250  -999.2500
   26.0000     6.2303  -999.2500
   26.5000     6.1735  -999.2500
   27.0000     6.1102  -999.2500
   27.5000     6.0719  -999.2500
   28.0000     6.0951  -999.2500
   28.5000     6.2855  -999.2500
   29.0000     6.4808  -999.2500
   29.5000     6.7942  -999.2500
   30.0000     6.7590  -999.2500
   30.5000     6.4964  -999.2500
   31.0000     6.3423  -999.2500
   31.5000     6.3076  -999.2500
   32.0000     6.5566  -999.2500
   32.5000     6.7814  -999.2500
   33.0000     6.8224  -999.2500
   33.5000     6.7819  -999.2500
   34.0000     6.6365  -999.2500
   34.5000     6.5203  -999.2500
   35.0000     6.4644  -999.2500
   35.5000     6.4366  -999.2500
   36.0000     6.4375  -999.2500
   36.5000     6.5723  -999.2500
   37.0000     6.7195  -999.2500
   37.5000     6.8111  -999.2500
   38.0000     6.8541  -999.2500
   38.5000     6.5971  -999.2500
   39.0000     6.4167  -999.2500
   39.5000     6.2483  -999.2500
   40.0000     5.8336  -999.2500
   40.5000     5.6824  -999.2500
   41.0000     5.7184  -999.2500
   41.5000     5.7811  -999.2500
   42.0000     5.7102  -999.2500
   42.5000     5.4667  -999.2500
   43.0000     5.3958  -999.2500
   43.5000     5.4661  -999.2500
   44.0000     5.6911  -999.2500
   44.5000     5.6646  -999.2500
   45.0000     5.6117  -999.2500
   45.5000     5.5932  -999.2500
   46.0000     5.5892  -999.2500
   46.5000     5.4447  -999.2500
   47.0000     5.1020  -999.2500
   47.5000     4.9342  -999.2500
   48.0000     4.7287  -999.2500
   48.5000     4.5956  -999.2500
   49.0000     4.5882  -999.2500
   49.5000     4.5896  -999.2500
   50.0000     4.8104  -999.2500
   50.5000     5.0762  -999.2500
   51.0000     5.0825  -999.2500
   51.5000     5.0073  -999.2500
   52.0000     4.8825  -999.2500
   52.5000     4.7179  -999.2500
   53.0000     4.6459  -999.2500
   53.5000     4.4226  -999.2500
   54.0000     3.9770  -999.2500
   54.5000     3.9620  -999.2500
   55.0000     3.9945  -999.2500
   55.5000     4.2120  -999.2500
   56.0000     4.2674  -999.2500
   56.5000     4.2274  -999.2500
   57.0000     4.2200  -999.2500
   57.5000     4.2125  -999.2500
   58.0000     4.2052  -999.2500
   58.5000     4.0725  -999.2500
   59.0000     3.8382  -999.2500
   59.5000     3.4492  -999.2500
   60.0000     3.3187    -0.0625
   60.5000     3.4397     0.1907
   61.0000     3.4971     0.2424
   61.5000     3.3990     0.2692
   62.0000     3.3592     0.2764
   62.5000     3.3064     0.2843
   63.0000     2.9976     0.2882
   63.5000     2.9663     0.2857
   64.0000     2.9380     0.2816
   64.5000     2.9136     0.2807
   65.0000     3.0348     0.2684
   65.5000     3.1261     0.2568
   66.0000     3.2600     0.2422
   66.5000     3.3000     0.2341
   67.0000     3.3002     0.2278
   67.5000     3.2998     0.2258
   68.0000     3.2173     0.2316
   68.5000     3.1566     0.2323
   69.0000     3.1343     0.2271
   69.5000     3.3275     0.2263
   70.0000     3.4226     0.2441
   70.5000     3.4676     0.2505
   71.0000     3.6902     0.2507
   71.5000     4.0156     0.2485
   72.0000     4.4893     0.2429
   72.5000     4.6682     0.2398
   73.0000     4.7651     0.2387
   73.5000     4.8621     0.2375
   74.0000     4.9215     0.2326
   74.5000     4.7832     0.2208
   75.0000     4.7423     0.2161
   75.5000     4.8196     0.2154
   76.0000     4.8763     0.2279
   76.5000     4.9155     0.2367
   77.0000     4.8670     0.2425
   77.5000     4.7784     0.2501
   78.0000     4.7596     0.2543
   78.5000     4.8095     0.2491
   79.0000     5.0512     0.2433
   79.5000     5.1139     0.2425
   80.0000     5.1614     0.2322
   80.5000     5.2483     0.2290
   81.0000     5.2557     0.2280
   81.5000     5.1578     0.2204
   82.0000     4.8844     0.2180
   82.5000     4.7874     0.2204
   83.0000     4.8873     0.2208
   83.5000     4.8379     0.2199
   84.0000     4.7312     0.2095
   84.5000     4.6368     0.2059
   85.0000     4.5961     0.2050
   85.5000     4.6716     0.2053
   86.0000     4.9776     0.2046
   86.5000     4.9158     0.1977
   87.0000     4.7962     0.1954
   87.5000     4.7940     0.1883
   88.0000     4.9210     0.1859
   88.5000     5.1145     0.1948
   89.0000     5.1379     0.1995
   89.5000     4.9618     0.2025
   90.0000     5.0545     0.2022
   90.5000     5.0388     0.2022
   91.0000     4.8675     0.2040
   91.5000     4.7221     0.2074
   92.0000     4.7481     0.2091
   92.5000     4.7678     0.2004
   93.0000     4.7301     0.2028
   93.5000     4.8100     0.2070
   94.0000     4.9649     0.2060
   94.5000     5.0340     0.2075
   95.0000     4.8780     0.2118
   95.5000     4.5191     0.2149
   96.0000     4.4504     0.2151
   96.5000     4.4725     0.2073
   97.0000     4.7162     0.2021
   97.5000     4.7995     0.1973
   98.0000     4.7981     0.1982
   98.5000     4.7394     0.2000
   99.0000     4.6824     0.2003
   99.5000     4.6005     0.1906
  100.0000     4.4297     0.1907
  100.5000     4.3163     0.1912
  101.0000     4.3619     0.1927
  101.5000     4.4012     0.1994
  102.0000     4.3482     0.2069
  102.5000     4.1732     0.2079
  103.0000     4.2199     0.2094
  103.5000     4.3434     0.2133
  104.0000     4.4154     0.2180
  104.5000     4.4759     0.2230
  105.0000     4.5453     0.2281
  105.5000     4.5898     0.2357
  106.0000     4.4771     0.2442
  106.5000     4.3857     0.2492
  107.0000     4.3739     0.2493
  107.5000     4.3416     0.2425
  108.0000     4.3029     0.2407
  108.5000     4.3935     0.2382
  109.0000     4.4469     0.2295
  109.5000     4.5150     0.2148
  110.0000     4.6498     0.1990
  110.5000     4.8783     0.1947
  111.0000     4.8331     0.2014
  111.5000     4.7836     0.2059
  112.0000     4.7198     0.2062
  112.5000     4.6247     0.2062
  113.0000     4.4698     0.2058
  113.5000     4.2739     0.2031
  114.0000     4.2175     0.1993
  114.5000     4.3174     0.1952
  115.0000     4.4936     0.2047
  115.5000     4.4556     0.2128
  116.0000     4.2938     0.2146
  116.5000     4.1308     0.2171
  117.0000     4.1896     0.2187
  117.5000     4.3807     0.2191
  118.0000     4.6370     0.2154
  118.5000     4.6910     0.2120
  119.0000     4.6685     0.2103
  119.5000     4.4574     0.2184
  120.0000     4.2668     0.2360
  120.5000     4.2528     0.2384
  121.0000     4.1434     0.2376
