~VERSION INFORMATION
 VERS.                2.0:   CWLS LOG ASCII STANDARD - VERSION 2.0
 WRAP.                 NO:   ONE LINE PER DEPTH STEP
~WELL INFORMATION
#MNEM.UNIT      DATA TYPE    INFORMATION
#----------   ------------   ------------------------------
 STRT.F           27.0000:   START DEPTH
 STOP.F          670.0000:   STOP DEPTH
 STEP.F            0.5000:   STEP LENGTH
 NULL.          -999.2500:   NO VALUE
 COMP. LAWRENCE/ALLISON INC:   COMPANY
 WELL. SX 11 WP 26 #26-11:   WELL
 FLD .           N.P.R #3:   FIELD
 LOC .      S11 T38N R78W:   LOCATION
 CNTY.            NATRONA:   COUNTY
 STAT.            WYOMING:   STATE
 CTRY. UNITED STATES OF AMERICA:   COUNTRY
 SRVC.            Unknown:   SERVICE COMPANY
 DATE.        11-SEP-1984:   LOGDATE
 API .       490251097700:   API NUMBER
~CURVE INFORMATION
#MNEM.UNIT       API CODE    CURVE DESCRIPTION
#----------   ------------   ------------------------------
 DEPT.F                  :   
 CNC .DEC    42 890 03 00:   NEUTRON POROSITY SANDSTONE
 AC  .US/F   60 520 00 00:   ACCOUSTIC SONIC
 SPR .MV     07 010 01 00:   SPONTANEOUS POTENTIAL
 RILD.OHMM   07 120 46 00:   INDUCTION LOG DEEP RESISTIVITY
 RILM.OHMM   07 120 44 00:   INDUCTION LOG MEDIUM RESISTIVITY
 RFOC.OHMM   07 220 04 00:   RESISTIVITY FOCUSED LOG
 GRD .GAPI   45 310 01 00:   GAMMA RAY FROM DENSITY LOG
 CALD.IN     45 280 60 00:   CALIPER FROM DENSITY LOG
 DEN .G/C3   45 350 01 00:   COMPENSATED BULK DENSTIY
 CORR.G/C3   45 356 01 00:   DENSITY CORRECTION
 PORD.DEC    45 890 12 00:   POROSITY DENSITY SANDSTONE
~PARAMETER INFORMATION
#MNEM.UNIT          VALUE    DESCRIPTION
#----------   ------------   ------------------------------
 PD  .                 GL:   PERMANENT DATUM
 EPD .F              5186:   ELEVATION PERMANENT DATUM
 LMF .                 GL:   LOG MEASURED FROM
 DMF .                 GL:   DRILLING MEASURED FROM
 EGL .F              5186:   GROUND LEVEL
 DATE.            9-11-84:   RUN DATE
 RUN .                  1:   RUN NUMBER
 DD  .F               672:   DEPTH DRILLER
 DL  .F               668:   DEPTH LOGGER
 BLI .F               668:   BOTTOM LOG INTERVAL
 TLI .F                45:   TOP LOG INTERVAL
 CS  .IN            8.625:   CASING SIZE
 CBD .F                42:   CASING BOTTOM DRILLER
 CBL .F                45:   CASING BOTTOM LOGGER
 BS  .IN            7.875:   BIT SIZE
 BSD .F               672:   BIT SIZE AT DEPTH
 DFT .          KCL WATER:   DRILLING FLUID TYPE
 MSS .               TANK:   MUD SAMPLE SOURCE
 RMS .OHMM            .36:   RESISTIVITY MUD SAMPLE
 MST .F                82:   MUD SAMPLE TEMPERATURE
 MFSS.                  C:   MUD FILTRATE SAMPLE SOURCE
 MCSS.                  C:   MUD CAKE SAMPLE SOURCE
 TCS .HRS               3:   TIME CURCULATED STOPPED
 MRT .F               100:   MAXIMUM RECORDED TEMPERATURE
 LUN .            HL 6307:   LOGGING UNIT NUMBER
 LUL .           GILLETTE:   LOGGING UNIT LOCATION
 ENGI.      FAHLSING/MACK:   RECORDING ENGINEER
 WITN.            JOHNSON:   WITNESSED BY
 CLNT.            A2DTECH:   CLIENT CODE
 ORIG.       2", 5" PRINT:   ORIGIN OF DATA
 UWI .       490251097700:   UNIQUE WELL ID
 DICO. A2D Technologies, Inc.:   DIGITIZING COMPANY
~OTHER INFORMATION
~A   DEPT      CNC          AC       SPR       RILD       RILM       RFOC        GRD       CALD        DEN       CORR       PORD   
   27.0000  -999.2500    95.9250  -999.2500  -999.2500  -999.2500  -999.2500  -999.2500  -999.2500  -999.2500  -999.2500  -999.2500
   27.5000  -999.2500    79.5920  -999.2500  -999.2500  -999.2500  -999.2500  -999.2500  -999.2500  -999.2500  -999.2500  -999.2500
   28.0000  -999.2500    74.8110  -999.2500  -999.2500  -999.2500  -999.2500  -999.2500  -999.2500  -999.2500  -999.2500  -999.2500
   28.5000  -999.2500    75.7910  -999.2500  -999.2500  -999.2500  -999.2500  -999.2500  -999.2500  -999.2500  -999.2500  -999.2500
   29.0000  -999.2500    77.0660  -999.2500  -999.2500  -999.2500  -999.2500  -999.2500  -999.2500  -999.2500  -999.2500  -999.2500
   29.5000  -999.2500    78.1970  -999.2500  -999.2500  -999.2500  -999.2500  -999.2500  -999.2500  -999.2500  -999.2500  -999.2500
   30.0000  -999.2500    76.7640  -999.2500  -999.2500  -999.2500  -999.2500  -999.2500  -999.2500  -999.2500  -999.2500  -999.2500
   30.5000  -999.2500    73.7080  -999.2500  -999.2500  -999.2500  -999.2500  -999.2500  -999.2500  -999.2500  -999.2500  -999.2500
   31.0000  -999.2500    70.6530  -999.2500  -999.2500  -999.2500  -999.2500  -999.2500  -999.2500  -999.2500  -999.2500  -999.2500
   31.5000  -999.2500    67.5970  -999.2500  -999.2500  -999.2500  -999.2500  -999.2500  -999.2500  -999.2500  -999.2500  -999.2500
   32.0000  -999.2500    66.8430  -999.2500  -999.2500  -999.2500  -999.2500  -999.2500  -999.2500  -999.2500  -999.2500  -999.2500
   32.5000  -999.2500    66.8430  -999.2500  -999.2500  -999.2500  -999.2500  -999.2500  -999.2500  -999.2500  -999.2500  -999.2500
   33.0000  -999.2500    66.5440  -999.2500  -999.2500  -999.2500  -999.2500  -999.2500  -999.2500  -999.2500  -999.2500  -999.2500
   33.5000  -999.2500    64.6510  -999.2500  -999.2500  -999.2500  -999.2500  -999.2500  -999.2500  -999.2500  -999.2500  -999.2500
   34.0000  -999.2500    60.2950  -999.2500  -999.2500  -999.2500  -999.2500  -999.2500  -999.2500  -999.2500  -999.2500  -999.2500
   34.5000  -999.2500    55.7950  -999.2500  -999.2500  -999.2500  -999.2500  -999.2500  -999.2500  -999.2500  -999.2500  -999.2500
   35.0000  -999.2500    54.1550  -999.2500  -999.2500  -999.2500  -999.2500  -999.2500  -999.2500  -999.2500  -999.2500  -999.2500
   35.5000  -999.2500    53.3370  -999.2500  -999.2500  -999.2500  -999.2500  -999.2500  -999.2500  -999.2500  -999.2500  -999.2500
   36.0000     0.3114    52.9980  -999.2500  -999.2500  -999.2500  -999.2500    74.0560  -999.2500  -999.2500  -999.2500  -999.2500
   36.5000     0.3209    53.9940  -999.2500  -999.2500  -999.2500  -999.2500    76.0440  -999.2500  -999.2500  -999.2500  -999.2500
   37.0000     0.3305    55.8880  -999.2500  -999.2500  -999.2500  -999.2500    78.0320  -999.2500  -999.2500  -999.2500  -999.2500
   37.5000     0.3234    57.7970  -999.2500  -999.2500  -999.2500  -999.2500    78.1970  -999.2500  -999.2500  -999.2500  -999.2500
   38.0000     0.3075    58.1770  -999.2500  -999.2500  -999.2500  -999.2500    77.3610  -999.2500  -999.2500  -999.2500  -999.2500
   38.5000     0.3011    56.9740  -999.2500  -999.2500  -999.2500  -999.2500    78.0650  -999.2500  -999.2500  -999.2500  -999.2500
   39.0000     0.2994    55.9740  -999.2500  -999.2500  -999.2500  -999.2500    78.8780  -999.2500  -999.2500  -999.2500  -999.2500
   39.5000     0.2960    55.7100  -999.2500  -999.2500  -999.2500  -999.2500    78.7280  -999.2500  -999.2500  -999.2500  -999.2500
   40.0000     0.2771    55.6670  -999.2500  -999.2500  -999.2500  -999.2500    76.4730  -999.2500  -999.2500  -999.2500  -999.2500
   40.5000     0.2802    55.3820  -999.2500  -999.2500  -999.2500  -999.2500    74.7610  -999.2500  -999.2500  -999.2500  -999.2500
   41.0000     0.2830    55.0960  -999.2500  -999.2500  -999.2500  -999.2500    77.6710  -999.2500  -999.2500  -999.2500  -999.2500
   41.5000     0.2854    54.9900  -999.2500  -999.2500  -999.2500  -999.2500    80.5470  -999.2500  -999.2500  -999.2500  -999.2500
   42.0000     0.2848    66.1640  -999.2500  -999.2500  -999.2500  -999.2500    83.5720  -999.2500  -999.2500  -999.2500  -999.2500
   42.5000     0.2985    79.4640  -999.2500  -999.2500  -999.2500  -999.2500    83.4720  -999.2500  -999.2500  -999.2500  -999.2500
   43.0000     0.3061    93.6760  -999.2500  -999.2500  -999.2500  -999.2500    81.4870  -999.2500  -999.2500  -999.2500  -999.2500
   43.5000     0.3672   108.0610  -999.2500  -999.2500  -999.2500  -999.2500    78.5220  -999.2500  -999.2500  -999.2500  -999.2500
   44.0000     0.4202   118.8350  -999.2500  -999.2500  -999.2500  -999.2500    74.5410  -999.2500  -999.2500  -999.2500  -999.2500
   44.5000     0.3424   117.2790  -999.2500  -999.2500  -999.2500  -999.2500    70.4480     7.9980  -999.2500  -999.2500  -999.2500
   45.0000     0.2990   115.3560  -999.2500  -999.2500  -999.2500     1.8800    70.2250     7.9980     2.1620  -999.2500     0.2980
   45.5000     0.2660   113.5560  -999.2500  1799.6776  1704.9360     3.8000    74.0370     7.9980     2.2870    -0.1460     0.2180
   46.0000     0.2567   115.0100  -999.2500  1113.5487   929.2527     5.7820    80.5450     7.9850     2.3620     0.0170     0.1860
   46.5000     0.2561   116.3760  -999.2500     4.3710    32.2979     7.5730    87.7870     7.9980     2.3580     0.0380     0.1880
   47.0000     0.2582   117.6390  -999.2500     2.4380     4.8640     8.5320    90.1060     7.9980     2.3680     0.0580     0.1870
   47.5000     0.2662   117.5400  -999.2500     2.4830     8.0130     7.9960    92.2170     7.9980     2.3720     0.0780     0.1850
   48.0000     0.2752   115.8750    98.4940     6.6910    11.1170     7.5090    93.9370     7.9980     2.3770     0.0830     0.1830
   48.5000     0.2705   114.3340    86.4660    14.9670    15.6690     7.3630    93.0900     7.9980     2.3750     0.0550     0.1830
   49.0000     0.2634   111.9160    74.4370    23.2440    23.4120    10.8400    90.5790     7.9980     2.3720     0.0550     0.1840
   49.5000     0.2609   109.1040    58.2500    30.6920    34.5960    11.6370    88.1470     7.9980     2.3870     0.0640     0.1740
   50.0000     0.2723   106.2910    45.7030    20.5320    30.1870    12.5220    85.7220     8.0070     2.4100     0.0600     0.1600
   50.5000     0.2722   104.6910    17.4940    10.3520    23.8870    13.4070    83.2880     8.0250     2.4340     0.0400     0.1480
   51.0000     0.2713   108.4590    -8.7770    10.2570    17.5870    14.0290    80.7700     8.0420     2.4260     0.0320     0.1480
   51.5000     0.2744   112.6260   -12.6590    10.7410    15.5250    13.0170    81.0840     8.0600     2.4020     0.0460     0.1640
   52.0000     0.2772   116.7930   -15.4380    10.5010    20.6830    11.8860    82.3740     8.0780     2.3790     0.0600     0.1770
   52.5000     0.2768   119.6760   -11.0700    10.2810    23.9350    12.0560    83.6870     8.0950     2.3620     0.0610     0.1910
   53.0000     0.2762   119.2180     0.2110    10.9010    17.9860    12.4030    84.7560     8.0870     2.3620     0.0480     0.1900
   53.5000     0.2786   118.7600    17.0590    11.8280    13.7730    12.7490    82.6310     8.0730     2.3700     0.0430     0.1850
   54.0000     0.2905   118.7160    35.9080    12.6770    14.9630    13.2750    80.5290     8.0580     2.3780     0.0470     0.1800
   54.5000     0.2978   118.8350    42.7300    12.5450    14.5930    13.2380    78.4290     8.0440     2.3840     0.0510     0.1740
   55.0000     0.2990   117.7420    44.3670    12.3950    13.8270    13.1620    77.4650     8.0290     2.3870     0.0420     0.1730
   55.5000     0.2974   116.5760    45.9730    12.2450    13.2350    12.9300    79.8720     8.0150     2.3890     0.0330     0.1710
   56.0000     0.2961   115.3490    46.5550    12.1070    13.0930    12.6020    82.1800     8.0010     2.3880     0.0240     0.1690
   56.5000     0.2955   117.0880    45.5560    12.2190    12.9500    12.2740    80.8560     7.9860     2.3870     0.0240     0.1740
   57.0000     0.2927   118.8020    44.4560    12.1500    12.8080    11.9460    79.0080     7.9960     2.3820     0.0350     0.1790
