~VERSION INFORMATION
 VERS.                2.0:   CWLS LOG ASCII STANDARD - VERSION 2.0
 WRAP.                 NO:   ONE LINE PER DEPTH STEP
~WELL INFORMATION
#MNEM.UNIT      DATA TYPE    INFORMATION
#----------   ------------   ------------------------------
 STRT.F          610.5000:   START DEPTH
 STOP.F         2311.0000:   STOP DEPTH
 STEP.F            0.5000:   STEP LENGTH
 NULL.          -999.2500:   NO VALUE
 COMP. BROWN JOHN E&C INC:   COMPANY
 WELL.  48-1SHX-34 #48-34:   WELL
 FLD .             TEAPOT:   FIELD
 LOC .      S34 T39N R78W:   LOCATION
 CNTY.            NATRONA:   COUNTY
 STAT.            WYOMING:   STATE
 CTRY. UNITED STATES OF AMERICA:   COUNTRY
 SRVC.            Unknown:   SERVICE COMPANY
 DATE.        16-SEP-1991:   LOGDATE
 API .       490251109000:   API NUMBER
~CURVE INFORMATION
#MNEM.UNIT       API CODE    CURVE DESCRIPTION
#----------   ------------   ------------------------------
 DEPT.F                  :   
 ROP .MIN/FT 91 810 01 00:   RAT OF DRILLING PENETRATION
 TGAS.UNITS  91 830 01 00:   TOTAL GAS FROM HOTWIRE
~PARAMETER INFORMATION
#MNEM.UNIT          VALUE    DESCRIPTION
#----------   ------------   ------------------------------
 EKB .F              5163:   KELLING BUSHING
 EGL .F              5152:   GROUND LEVEL
 DATE.            9-16-91:   RUN DATE
 DD  .F              2311:   DEPTH DRILLER
 TCS .HRS            0200:   TIME CURCULATED STOPPED
 TLAB.HRS            0115:   TIME LOGGER AT BOTTOM
 ENGI.             HENDRY:   RECORDING ENGINEER
 WITN.               HUSK:   WITNESSED BY
 CLNT.            A2DTECH:   CLIENT CODE
 ORIG.           5" PRINT:   ORIGIN OF DATA
 UWI .       490251109000:   UNIQUE WELL ID
 DICO. A2D Technologies, Inc.:   DIGITIZING COMPANY
~OTHER INFORMATION
~A   DEPT        ROP       TGAS 
# ...
 1339.5000     1.0835     7.8151
 1340.0000     1.0682     7.8151
 1340.5000     1.0528     7.8151
 1341.0000     1.0372     7.8151
 1341.5000     1.0259     7.8151
 1342.0000     1.0718     7.8151
 1342.5000     1.1163     7.8151
 1343.0000     1.1602     7.8151
 1343.5000     1.2017     7.8151
 1344.0000     1.2150     7.8151
 1344.5000     1.2251     7.8151
 1345.0000     1.2248     7.8151
 1345.5000     1.2253     7.8151
 1346.0000     1.2046     7.8151
 1346.5000     1.1756     7.8151
 1347.0000     1.1204     7.8151
 1347.5000     1.0325     7.8151
 1348.0000     1.0095     7.8151
 1348.5000     1.0060     7.8151
 1349.0000     1.0032     7.8151
 1349.5000     0.9997     7.8151
 1350.0000     0.9716     7.8151
 1350.5000     0.9172     7.8151
 1351.0000     0.8630     7.8151
 1351.5000     0.8296     7.8151
 1352.0000     0.8186     7.8151
 1352.5000     0.8220     7.8151
 1353.0000     0.8735     7.8151
 1353.5000     0.9230     7.8151
 1354.0000     0.9722     7.8151
 1354.5000     0.9969     7.8151
 1355.0000     0.9926     7.8151
 1355.5000     0.9891     7.8151
 1356.0000     1.0200     7.8151
 1356.5000     1.0955     7.8151
 1357.0000     1.1704     7.8151
 1357.5000     1.2263     7.8151
 1358.0000     1.2572     7.8151
 1358.5000     1.2695     7.8151
 1359.0000     1.2556     7.8151
 1359.5000     1.2421     7.8152
 1360.0000     1.2286     7.8148
 1360.5000     1.2165     7.8080
 1361.0000     1.1295     7.8011
 1361.5000     1.0462     7.7943
 1362.0000     1.0422     7.7875
 1362.5000     1.0369     7.7807
 1363.0000     1.0316     7.7739
 1363.5000     1.0259     7.7671
 1364.0000     1.0330     7.7603
 1364.5000     1.0551     7.7535
 1365.0000     1.1303     7.7467
 1365.5000     1.2202     7.7399
 1366.0000     1.2084     7.7331
 1366.5000     1.1589     7.7263
 1367.0000     1.1087     7.7195
 1367.5000     1.0584     7.7127
 1368.0000     1.0089     7.7059
 1368.5000     1.0022     7.6991
 1369.0000     1.0067     7.6923
 1369.5000     1.0103     7.6855
 1370.0000     0.9664     7.6787
 1370.5000     0.9185     7.6719
 1371.0000     0.8703     7.6651
 1371.5000     0.8451     7.6583
 1372.0000     0.8385     7.6515
 1372.5000     0.8777     7.6447
 1373.0000     0.9522     7.6379
 1373.5000     0.9640     7.6311
 1374.0000     0.9776     7.6243
 1374.5000     0.9913     7.6175
 1375.0000     1.0050     7.6107
 1375.5000     1.0188     7.6039
 1376.0000     1.0325     7.5971
 1376.5000     1.0460     7.5903
 1377.0000     1.0582     7.5835
 1377.5000     1.1293     7.5767
 1378.0000     1.1981     7.5699
 1378.5000     1.1651     7.5631
 1379.0000     1.0908     7.5563
 1379.5000     1.0346     7.5495
 1380.0000     1.0326     7.5427
 1380.5000     1.0297     7.5359
 1381.0000     1.0267     7.5291
 1381.5000     1.0237     7.5223
 1382.0000     1.0207     7.5155
 1382.5000     1.0178     7.5087
 1383.0000     1.0149     7.5019
 1383.5000     1.0125     7.4951
 1384.0000     0.9853     7.4883
 1384.5000     0.9541     7.4815
 1385.0000     0.9227     7.4747
 1385.5000     0.8914     7.4679
 1386.0000     0.8596     7.4611
 1386.5000     0.8500     7.4543
 1387.0000     0.9037     7.4475
 1387.5000     0.9516     7.4407
 1388.0000     0.9623     7.4339
 1388.5000     0.9735     7.4271
 1389.0000     0.9812     7.4203
 1389.5000     0.9749     7.4135
 1390.0000     0.9445     7.4067
 1390.5000     0.9145     7.3999
 1391.0000     0.8844     7.3931
 1391.5000     0.8545     7.3863
 1392.0000     0.8361     7.3795
 1392.5000     0.8778     7.3727
 1393.0000     0.9220     7.3659
 1393.5000     0.9660     7.3591
 1394.0000     1.0087     7.3523
 1394.5000     1.0112     7.3455
 1395.0000     1.0094     7.3387
 1395.5000     1.0075     7.3319
 1396.0000     1.0057     7.3251
 1396.5000     1.0039     7.3183
 1397.0000     1.0022     7.3113
 1397.5000     1.0004     7.3109
 1398.0000     0.9928     7.3109
 1398.5000     0.9430     7.3109
 1399.0000     0.8927     7.3109
 1399.5000     0.8423     7.3109
 1400.0000     0.8080     7.3109
 1400.5000     0.8413     7.3109
 1401.0000     0.9364     7.3109
 1401.5000     0.9806     7.3109
 1402.0000     1.0025     7.3109
 1402.5000     1.0100     7.3109
 1403.0000     1.0175     7.3109
 1403.5000     1.0250     7.3109
 1404.0000     1.0330     7.3109
 1404.5000     1.0616     7.3109
 1405.0000     1.1387     7.3109
 1405.5000     1.2372     7.3109
 1406.0000     1.2505     7.3109
 1406.5000     1.2620     7.3109
 1407.0000     1.2736     7.3109
 1407.5000     1.2749     7.3109
 1408.0000     1.2605     7.3109
 1408.5000     1.2284     7.3109
 1409.0000     1.1775     7.3109
 1409.5000     1.1022     7.3109
 1410.0000     1.0609     7.3109
 1410.5000     1.0517     7.3109
 1411.0000     1.0421     7.3109
 1411.5000     1.0327     7.3109
 1412.0000     1.0246     7.3109
 1412.5000     1.0556     7.3109
 1413.0000     1.1271     7.3109
 1413.5000     1.1979     7.3109
 1414.0000     1.2390     7.3110
 1414.5000     1.1918     7.3136
 1415.0000     1.1378     7.3246
 1415.5000     1.0835     7.3351
 1416.0000     1.0296     7.3456
 1416.5000     1.0013     7.3561
 1417.0000     1.0083     7.3666
 1417.5000     1.0147     7.3771
 1418.0000     1.0220     7.3876
 1418.5000     0.9870     7.3981
 1419.0000     0.9296     7.4086
 1419.5000     0.8739     7.4191
 1420.0000     0.8535     7.4296
 1420.5000     0.8361     7.4401
 1421.0000     0.8423     7.4506
 1421.5000     0.8494     7.4611
 1422.0000     0.8567     7.4716
 1422.5000     0.8805     7.4821
 1423.0000     0.9300     7.4926
 1423.5000     0.9797     7.5032
 1424.0000     0.9957     7.5137
 1424.5000     0.9916     7.5242
 1425.0000     0.9871     7.5347
 1425.5000     0.9827     7.5452
 1426.0000     0.9784     7.5557
 1426.5000     0.9725     7.5662
 1427.0000     0.9288     7.5767
 1427.5000     0.8834     7.5872
 1428.0000     0.8384     7.5977
 1428.5000     0.8099     7.6082
 1429.0000     0.8103     7.6187
 1429.5000     0.8104     7.6292
 1430.0000     0.8160     7.6397
 1430.5000     0.8309     7.6502
 1431.0000     0.8976     7.6607
 1431.5000     0.9560     7.6712
 1432.0000     0.9741     7.6817
 1432.5000     0.9864     7.6922
 1433.0000     0.9862     7.7027
 1433.5000     0.9862     7.7132
 1434.0000     0.9862     7.7237
 1434.5000     0.9862     7.7342
 1435.0000     0.9862     7.7447
 1435.5000     0.9860     7.7553
 1436.0000     0.9761     7.7658
 1436.5000     0.9469     7.7763
 1437.0000     0.9180     7.7868
 1437.5000     0.8890     7.7973
 1438.0000     0.8601     7.8076
 1438.5000     0.8357     7.8153
 1439.0000     0.8433     7.8151
 1439.5000     0.8504     7.8151
 1440.0000     0.8567     7.8151
 1440.5000     0.8867     7.8151
 1441.0000     0.9256     7.8151
 1441.5000     0.9649     7.8151
 1442.0000     0.9963     7.8151
 1442.5000     0.9685     7.8151
 1443.0000     0.9154     7.8151
 1443.5000     0.8525     7.8151
 1444.0000     0.8219     7.8151
 1444.5000     0.8184     7.8151
 1445.0000     0.8155     7.8151
 1445.5000     0.8126     7.8151
 1446.0000     0.8097     7.8151
 1446.5000     0.8068     7.8151
 1447.0000     0.8039     7.8151
 1447.5000     0.8012     7.8151
 1448.0000     0.7975     7.8151
 1448.5000     0.7443     7.8151
 1449.0000     0.6855     7.8151
 1449.5000     0.6261     7.8151
 1450.0000     0.6175     7.8151
 1450.5000     0.6574     7.8151
 1451.0000     0.6990     7.8151
 1451.5000     0.7432     7.8151
 1452.0000     0.7872     7.8151
 1452.5000     0.7926     7.8151
 1453.0000     0.7989     7.8151
 1453.5000     0.8054     7.8151
 1454.0000     0.8118     7.8151
 1454.5000     0.8187     7.8151
 1455.0000     0.8488     7.8151
 1455.5000     0.9343     7.8151
 1456.0000     1.0195     7.8151
 1456.5000     1.0048     7.8151
 1457.0000     0.9408     7.8151
 1457.5000     0.8774     7.8151
 1458.0000     0.8429     7.8151
 1458.5000     0.8319     7.8151
 1459.0000     0.8214     7.8154
 1459.5000     0.8109     7.8154
 1460.0000     0.8003     7.8119
 1460.5000     0.7899     7.6612
