~VERSION INFORMATION
 VERS.                2.0:   CWLS LOG ASCII STANDARD - VERSION 2.0
 WRAP.                 NO:   ONE LINE PER DEPTH STEP
~WELL INFORMATION
#MNEM.UNIT      DATA TYPE    INFORMATION
#----------   ------------   ------------------------------
 STRT.F            8.0000:   START DEPTH
 STOP.F          551.0000:   STOP DEPTH
 STEP.F            0.5000:   STEP LENGTH
 NULL.          -999.2500:   NO VALUE
 COMP.   FLUOR DANIEL INC:   COMPANY
 WELL. NAVAL PETROLEUM RESERVE 3 S-10 #31-10:   WELL
 FLD .        TEAPOT DOME:   FIELD
 LOC .      S10 T38N R78W:   LOCATION
 CNTY.            NATRONA:   COUNTY
 STAT.            WYOMING:   STATE
 CTRY. UNITED STATES OF AMERICA:   COUNTRY
 SRVC.       Schlumberger:   SERVICE COMPANY
 DATE.        21-JUN-1970:   LOGDATE
 API .       490251039400:   API NUMBER
~CURVE INFORMATION
#MNEM.UNIT       API CODE    CURVE DESCRIPTION
#----------   ------------   ------------------------------
 DEPT.F                  :   
 SPR .MV     05 010 01 00:   SPONTANEOUS POTENTIAL FROM RES.
 ASN .OHMM   05 041 16 00:   AMPLIFIED SHORT NORMAL 16"
 ILD .OHMM   05 120 46 00:   INDUCTION LOG DEEP
 CILD.MMHO   05 110 46 00:   CONDUCTIVITY INDUCTION LOG DEEP
 CALD.IN     45 280 60 00:   CALIPER FROM DENSITY LOG
 CORR.G/C3   45 356 01 00:   DENSITY CORRECTION
 RHOB.G/C3   45 350 01 00:   BULK DENSITY
 DPHI.DEC    45 890 12 00:   DENSITY POROSITY SANDSTONE
~PARAMETER INFORMATION
#MNEM.UNIT          VALUE    DESCRIPTION
#----------   ------------   ------------------------------
 PD  .                 GL:   PERMANENT DATUM
 EPD .F              5256:   ELEVATION PERMANENT DATUM
 LMF .                 KB:   LOG MEASURED FROM
 DAPD.F                10:   FEET ABOVE PERMANENT DATUM
 DMF .                 KB:   DRILLING MEASURED FROM
 EKB .F              5266:   KELLING BUSHING
 EGL .F              5256:   GROUND LEVEL
 DATE.        27-JUN-1970:   RUN DATE
 RUN .                  1:   RUN NUMBER
 DD  .F               553:   DEPTH DRILLER
 DL  .F               552:   DEPTH LOGGER
 BLI .F               551:   BOTTOM LOG INTERVAL
 TLI .F                44:   TOP LOG INTERVAL
 CS  .IN             9.75:   CASING SIZE
 BS  .IN                9:   BIT SIZE
 BSD .F               553:   BIT SIZE AT DEPTH
 DFT .        FRESHGELMUD:   DRILLING FLUID TYPE
 DFD .                9.2:   DRILLING FLUID DENSITY
 BHT .F               100:   BOTTOM HOLE TEMPERATURE
 TCS .HRS               1:   TIME CURCULATED STOPPED
 MRT .F               100:   MAXIMUM RECORDED TEMPERATURE
 ENGI.             TUSNES:   RECORDING ENGINEER
 WITN.                HAZ:   WITNESSED BY
 CLNT.            A2DTECH:   CLIENT CODE
 ORIG.           5" PRINT:   ORIGIN OF DATA
 UWI .       490251039400:   UNIQUE WELL ID
 DICO. A2D Technologies, Inc.:   DIGITIZING COMPANY
~OTHER INFORMATION
~A    DEPT     SPR        ASN        ILD       CILD         CALD     CORR       RHOB       DPHI   
# ...
  413.0000   -35.8290    21.2115    22.2994    46.9954     8.6310     0.0055     2.4843     0.1097
  413.5000   -36.2933    20.9020    22.2994    46.9954     8.6171     0.0168     2.4483     0.1184
  414.0000   -36.6023    20.5152    21.9136    46.2250     8.6181     0.0296     2.3779     0.1303
  414.5000   -36.9113    20.2057    21.5278    46.2250     8.5741     0.0379     2.3539     0.1755
  415.0000   -36.9098    20.0511    21.1420    46.9954     8.4250     0.0402     2.3538     0.1710
  415.5000   -36.5977    19.8191    20.9080    48.5362     8.4089     0.0440     2.3828     0.1532
  416.0000   -36.2856    19.7418    20.7562    49.3066     8.4270     0.0553     2.4036     0.1592
  416.5000   -35.8182    19.6645    20.7562    49.3066     8.4581     0.0590     2.4021     0.1604
  417.0000   -35.5061    19.5873    20.8436    49.3066     8.4892     0.0613     2.3849     0.1543
  417.5000   -35.1940    19.5101    21.0648    48.5362     8.5067     0.0645     2.4007     0.1549
  418.0000   -34.8819    19.4328    21.2191    47.7658     8.5363     0.0599     2.3737     0.1615
  418.5000   -34.7251    19.2782    21.3735    47.7658     8.5376     0.0051     2.3603     0.1798
  419.0000   -35.0341    19.2009    21.2963    47.7658     8.5536    -0.0031     2.3498     0.1843
  419.5000   -35.1879    19.0463    21.0648    49.3066     8.5096    -0.0060     2.3438     0.1888
  420.0000   -35.3416    18.8916    20.7562    50.0770     8.4954     0.0128     2.3334     0.1917
  420.5000   -35.3401    18.6596    20.2932    50.8475     8.4667     0.0030     2.3312     0.1923
  421.0000   -35.1729    18.5050    19.8302    51.7363     8.4377    -0.0097     2.3425     0.1802
  421.5000   -34.8556    18.3503    19.3673    53.1587     8.4084     0.0024     2.3523     0.1659
  422.0000   -34.7143    18.2731    18.9815    53.9291     8.3496     0.0152     2.4044     0.1471
  422.5000   -34.8681    18.1919    18.6728    54.6995     8.3204     0.0191     2.4116     0.1462
  423.0000   -35.1771    18.0412    18.5185    54.6995     8.2914     0.0122     2.3974     0.1558
  423.5000   -35.1752    17.9639    18.3642    54.6995     8.2927     0.0286     2.4177     0.1455
  424.0000   -35.1736    17.9641    18.3642    54.6995     8.3087     0.0408     2.3923     0.1509
  424.5000   -35.1721    17.9642    18.2870    54.6995     8.3548     0.0131     2.3616     0.1717
  425.0000   -35.0153    17.9644    18.2870    54.6995     8.4159    -0.0041     2.3578     0.1752
  425.5000   -35.0137    17.9645    18.3642    53.9291     8.5239    -0.0078     2.3699     0.1706
  426.0000   -34.7016    18.0421    18.3642    53.9291     8.6600     0.0005     2.3729     0.1733
  426.5000   -34.7001    18.1197    18.5185    53.1587     8.7044     0.0095     2.3655     0.1751
  427.0000   -34.5433    18.1972    18.6728    52.3883     8.6906     0.0148     2.3573     0.1748
  427.5000   -34.3865    18.1974    18.9815    52.3883     8.6613     0.0171     2.3618     0.1774
  428.0000   -34.2296    18.1975    19.2130    50.8475     8.6326     0.0194     2.3701     0.1729
  428.5000   -34.0728    18.1977    19.5216    50.8475     8.6184     0.0187     2.3747     0.1711
  429.0000   -33.7607    18.1979    19.8302    50.0770     8.6046     0.0089     2.3693     0.1749
  429.5000   -33.4486    18.1980    19.9846    50.0770     8.6057    -0.0030     2.3470     0.1764
  430.0000   -33.2918    18.1982    20.1389    50.0770     8.6067     0.0063     2.3568     0.1788
  430.5000   -33.1350    18.1209    20.1389    50.0770     8.6077     0.0151     2.3711     0.1673
  431.0000   -33.1334    18.0437    20.1389    50.0770     8.6088     0.0143     2.3749     0.1736
  431.5000   -33.1319    17.9664    20.0540    50.1257     8.5945     0.0174     2.3599     0.1802
  432.0000   -33.2860    17.8892    19.9074    50.8475     8.5808     0.0182     2.3525     0.1742
  432.5000   -33.2841    17.7345    19.7402    50.9633     8.5819     0.0145     2.3660     0.1814
  433.0000   -33.4379    17.6573    19.2901    52.3883     8.5829     0.0025     2.3436     0.1816
  433.5000   -33.4363    17.5026    18.8272    53.9291     8.5689     0.0145     2.3744     0.1702
  434.0000   -33.4348    17.3480    18.3642    55.4700     8.5700     0.0281     2.3849     0.1644
  434.5000   -33.5885    17.1934    17.9784    56.2404     8.5710     0.0221     2.3722     0.1779
  435.0000   -33.5870    17.0387    17.5926    57.7812     8.5723     0.0109     2.3549     0.1824
  435.5000   -33.5854    16.8841    17.2840    58.5516     8.5732     0.0027     2.3520     0.1733
  436.0000   -33.5839    16.7294    17.0525    59.3220     8.5744     0.0128     2.3791     0.1601
  436.5000   -33.5823    16.6521    16.8981    59.3220     8.5754     0.0223     2.3881     0.1634
  437.0000   -33.5807    16.4975    16.7438    59.3220     8.5764     0.0170     2.3777     0.1739
  437.5000   -33.5533    16.4202    16.7438    59.3220     8.5925     0.0103     2.3710     0.1755
  438.0000   -33.4221    16.2656    16.7438    60.0924     8.5782     0.0074     2.3853     0.1648
  438.5000   -33.4205    16.1884    16.7438    60.0924     8.5795     0.0021     2.3673     0.1735
  439.0000   -33.4190    16.1112    16.7438    60.0924     8.5653     0.0037     2.3538     0.1648
  439.5000   -33.4174    16.1113    16.8210    60.0924     8.5513     0.0195     2.3862     0.1405
  440.0000   -33.4159    16.1115    16.8210    60.0924     8.5676     0.0330     2.4080     0.1394
  440.5000   -33.4144    16.0342    16.8981    60.0924     8.5687     0.0368     2.4050     0.1685
  441.0000   -33.4128    16.0344    16.9753    60.0924     8.5847     0.0143     2.3615     0.1835
  441.5000   -33.4113    16.0345    16.8981    60.0924     8.5857    -0.0044     2.3421     0.1871
  442.0000   -33.4097    15.8799    16.8981    60.0924     8.5868     0.0124     2.3735     0.1680
  442.5000   -33.4082    15.8026    16.8210    60.0924     8.5728     0.0285     2.3918     0.1597
  443.0000   -33.4067    15.7248    16.8210    59.3220     8.5438     0.0468     2.3880     0.1624
  443.5000   -33.2498    15.5707    16.8210    58.5516     8.5001     0.0723     2.3798     0.1563
  444.0000   -33.2483    15.5709    16.8981    57.6684     8.4711     0.0866     2.3993     0.1393
  444.5000   -33.2468    15.6484    17.1296    56.2404     8.4568     0.0972     2.4159     0.1322
  445.0000   -33.2452    15.7260    17.4383    55.4700     8.4731     0.1032     2.4212     0.1307
  445.5000   -33.0884    15.8036    17.8292    53.9291     8.5192     0.0995     2.4092     0.1460
  446.0000   -33.0869    15.9585    18.2870    53.9291     8.5803     0.0673     2.3822     0.1544
  446.5000   -33.0853    16.0361    18.3642    53.9291     8.6114     0.0320     2.3935     0.1345
  447.0000   -33.0838    16.0213    18.2664    54.6995     8.6272     0.0283     2.4153     0.1408
  447.5000   -33.0822    15.8042    17.8883    55.4700     8.5984     0.0201     2.3831     0.1537
  448.0000   -32.9254    15.5722    17.4383    57.0108     8.5842     0.0089     2.3787     0.1467
  448.5000   -32.7686    15.3401    17.0525    58.5516     8.5254     0.0540     2.4160     0.1365
  449.0000   -32.4565    15.1081    16.5895    60.0924     8.4514     0.0698     2.4347     0.1285
  449.5000   -32.1444    14.8760    16.1265    61.6333     8.4224     0.0893     2.4501     0.1244
  450.0000   -31.9876    14.7883    15.3549    63.5008     8.4234     0.0946     2.4561     0.1199
  450.5000   -31.7932    14.6625    15.0436    65.4832     8.4547     0.0718     2.4281     0.1304
  451.0000   -31.6854    14.5508    14.7327    67.4656     8.4865     0.0431     2.4021     0.1421
  451.5000   -31.3806    14.3958    14.5761    68.5670     8.5467     0.0279     2.3856     0.1541
  452.0000   -31.2298    14.3183    14.4967    69.3374     8.5627     0.0167     2.4134     0.1464
  452.5000   -30.9240    14.2407    14.4172    69.3374     8.5788     0.0093     2.4029     0.1421
  453.0000   -30.6139    14.0857    14.3378    69.3374     8.5799     0.0048     2.3833     0.1634
