~VERSION INFORMATION
 VERS.                2.0:   CWLS LOG ASCII STANDARD - VERSION 2.0
 WRAP.                 NO:   ONE LINE PER DEPTH STEP
~WELL INFORMATION
#MNEM.UNIT      DATA TYPE    INFORMATION
#----------   ------------   ------------------------------
 STRT.F            1.0000:   START DEPTH
 STOP.F          478.0000:   STOP DEPTH
 STEP.F            0.1000:   STEP LENGTH
 NULL.          -999.2500:   NO VALUE
 COMP. LAWRENCE/ALLISON INC:   COMPANY
 WELL.     58-61 SX #58-3:   WELL
 FLD .             TEAPOT:   FIELD
 LOC .       S3 T38N R78W:   LOCATION
 CNTY.            NATRONA:   COUNTY
 STAT.            WYOMING:   STATE
 CTRY. UNITED STATES OF AMERICA:   COUNTRY
 SRVC.           Gearhart:   SERVICE COMPANY
 DATE.        08-JUL-1988:   LOGDATE
 API .       490251123400:   API NUMBER
~CURVE INFORMATION
#MNEM.UNIT       API CODE    CURVE DESCRIPTION
#----------   ------------   ------------------------------
 DEPT.F                  :   
 GRR .GAPI   07 310 01 00:   GAMMA RAY
 RILD.OHMM   07 120 46 00:   INDUCTION LOG DEEP RESISTIVITY
 RILM.OHMM   07 120 44 00:   INDUCTION LOG MEDIUM RESISTIVITY
~PARAMETER INFORMATION
#MNEM.UNIT          VALUE    DESCRIPTION
#----------   ------------   ------------------------------
 PD  .                 GL:   PERMANENT DATUM
 EPD .F              5184:   ELEVATION PERMANENT DATUM
 LMF .                 KB:   LOG MEASURED FROM
 DAPD.F                 5:   FEET ABOVE PERMANENT DATUM
 DMF .                 KB:   DRILLING MEASURED FROM
 EKB .F              5189:   KELLING BUSHING
 EGL .F              5184:   GROUND LEVEL
 DATE.        08-JUL-1988:   RUN DATE
 RUN .                  1:   RUN NUMBER
 DD  .F               485:   DEPTH DRILLER
 DL  .F               486:   DEPTH LOGGER
 BLI .F               478:   BOTTOM LOG INTERVAL
 CS  .IN            9.625:   CASING SIZE
 CBD .F                45:   CASING BOTTOM DRILLER
 CBL .F                44:   CASING BOTTOM LOGGER
 BS  .IN             8.75:   BIT SIZE
 BSD .F               485:   BIT SIZE AT DEPTH
 DFT .                AIR:   DRILLING FLUID TYPE
 TCS .HRS            2200:   TIME CURCULATED STOPPED
 TLAB.HRS            2315:   TIME LOGGER AT BOTTOM
 LUN .               7597:   LOGGING UNIT NUMBER
 LUL .           GILLETTE:   LOGGING UNIT LOCATION
 ENGI.           JOHNSTON:   RECORDING ENGINEER
 WITN.              FIVAS:   WITNESSED BY
 CLNT.            A2DTECH:   CLIENT CODE
 ORIG.           5" PRINT:   ORIGIN OF DATA
 UWI .       490251123400:   UNIQUE WELL ID
 DICO. A2D Technologies, Inc.:   DIGITIZING COMPANY
~OTHER INFORMATION
~A    DEPT     GRR       RILD       RILM   
# ...
   37.4000    83.4745  -999.2500  -999.2500
   37.5000    83.9719  -999.2500  -999.2500
   37.6000    84.2084  -999.2500  -999.2500
   37.7000    84.4512  -999.2500  -999.2500
   37.8000    84.6940  -999.2500  -999.2500
   37.9000    84.9368  -999.2500  -999.2500
   38.0000    85.1897  -999.2500  -999.2500
   38.1000    85.1904  -999.2500  -999.2500
   38.2000    85.1912  -999.2500  -999.2500
   38.3000    85.1920  -999.2500  -999.2500
   38.4000    85.1452  -999.2500  -999.2500
   38.5000    84.8900  -999.2500  -999.2500
   38.6000    84.2064  -999.2500  -999.2500
   38.7000    83.6477  -999.2500  -999.2500
   38.8000    83.1644  -999.2500  -999.2500
   38.9000    82.7248  -999.2500  -999.2500
   39.0000    82.4659  -999.2500  -999.2500
   39.1000    82.0180  -999.2500  -999.2500
   39.2000    81.6975  -999.2500  -999.2500
   39.3000    81.5577  -999.2500  -999.2500
   39.4000    81.5584  -999.2500  -999.2500
   39.5000    81.5592  -999.2500  -999.2500
   39.6000    81.5599  -999.2500  -999.2500
   39.7000    81.5607  -999.2500  -999.2500
   39.8000    81.5615  -999.2500  -999.2500
   39.9000    81.5261  -999.2500  -999.2500
   40.0000    81.2596  -999.2500  -999.2500
   40.1000    81.0435  -999.2500  -999.2500
   40.2000    80.8022  -999.2500  -999.2500
   40.3000    80.5610  -999.2500  -999.2500
   40.4000    80.2873  -999.2500  -999.2500
   40.5000    79.7459  -999.2500  -999.2500
   40.6000    79.3207  -999.2500  -999.2500
   40.7000    78.8374  -999.2500  -999.2500
   40.8000    78.4441  -999.2500  -999.2500
   40.9000    78.1743  -999.2500  -999.2500
   41.0000    77.6253  -999.2500  -999.2500
   41.1000    77.4168  -999.2500  -999.2500
   41.2000    77.0278  -999.2500  -999.2500
   41.3000    76.8895  -999.2500  -999.2500
   41.4000    77.4734  -999.2500  -999.2500
   41.5000    79.1465  -999.2500  -999.2500
   41.6000    82.2276  -999.2500  -999.2500
   41.7000    85.5711  -999.2500  -999.2500
   41.8000    88.8007  -999.2500  -999.2500
   41.9000    92.0640  -999.2500  -999.2500
   42.0000    94.3249  -999.2500  -999.2500
   42.1000    96.1396  -999.2500  -999.2500
   42.2000    98.4588  -999.2500  -999.2500
   42.3000   101.1158  -999.2500  -999.2500
   42.4000   104.2114  -999.2500  -999.2500
   42.5000   107.0753  -999.2500  -999.2500
   42.6000   109.6469  -999.2500  -999.2500
   42.7000   112.3851  -999.2500  -999.2500
   42.8000   114.7314  -999.2500  -999.2500
   42.9000   116.8837  -999.2500  -999.2500
   43.0000   118.9152  -999.2500  -999.2500
   43.1000   120.2736  -999.2500  -999.2500
   43.2000   121.8361  -999.2500  -999.2500
   43.3000   123.2180  -999.2500  -999.2500
   43.4000   124.4385  -999.2500  -999.2500
   43.5000   125.8915  -999.2500  -999.2500
   43.6000   127.1543  -999.2500  -999.2500
   43.7000   128.2365  -999.2500  -999.2500
   43.8000   129.2726  -999.2500  -999.2500
   43.9000   130.4719  -999.2500  -999.2500
   44.0000   131.1988  -999.2500  -999.2500
   44.1000   132.4848     2.0988     5.7982
   44.2000   133.6879     2.2077     4.8619
   44.3000   134.5933     2.3305     4.2589
   44.4000   135.3202     2.4437     3.5446
   44.5000   136.0470     2.5747     3.1838
   44.6000   136.9565     2.7598     2.9754
   44.7000   137.6831     2.9207     2.8302
   44.8000   138.2276     3.0840     2.7985
   44.9000   138.9598     3.3410     2.7985
   45.0000   139.6813     3.6871     2.8341
   45.1000   140.4082     4.1430     2.9071
   45.2000   141.0177     4.9021     3.0197
   45.3000   141.5025     5.5600     3.1751
   45.4000   141.9985     6.6018     3.3595
   45.5000   142.2357     7.7459     3.5541
   45.6000   142.3035     8.7831     3.7259
   45.7000   142.1907    10.0087     3.8927
   45.8000   141.9494    12.5544     4.1146
   45.9000   141.6988    14.5429     4.2801
   46.0000   141.4669    15.7186     4.4519
   46.1000   141.2256    16.3474     4.6721
   46.2000   141.0941    16.4495     4.9251
   46.3000   141.0948    16.2873     5.1526
   46.4000   141.0956    15.8807     5.5138
   46.5000   141.3252    15.1960     5.7953
   46.6000   141.9029    14.2620     6.1937
   46.7000   142.5238    13.1480     6.7347
   46.8000   143.0531    12.4542     7.3183
   46.9000   143.8309    11.5515     7.9205
   47.0000   144.2817    10.7959     8.4939
   47.1000   144.9302    10.4031     9.0290
   47.2000   145.5549    10.1477     9.5161
   47.3000   145.9990     9.8490     9.9416
   47.4000   146.2626     9.5575    10.1676
   47.5000   146.7059     9.2531    10.4454
   47.6000   147.0309     8.8889    10.8435
   47.7000   147.3720     8.4588    11.2252
   47.8000   147.8199     8.2087    11.3486
   47.9000   148.0873     7.9659    11.4125
   48.0000   148.3055     7.7625    11.3237
   48.1000   148.0802     7.6026    11.1974
   48.2000   147.5969     7.5094    11.0355
   48.3000   147.0804     7.4340    10.7933
   48.4000   146.2702     7.4049    10.5787
   48.5000   145.6297     7.4047    10.3899
   48.6000   144.9044     7.4176    10.1595
   48.7000   144.1791     7.5089     9.9339
   48.8000   143.4537     7.5856     9.7163
   48.9000   142.6321     7.6710     9.5245
   49.0000   142.2129     7.7753     9.3527
   49.1000   141.7296     7.9140     9.1741
   49.2000   141.3333     8.1093     8.9893
   49.3000   141.1175     8.1924     8.7434
   49.4000   141.1185     8.3469     8.5155
   49.5000   141.3252     8.5159     8.4763
   49.6000   141.7127     8.6439     8.3484
   49.7000   142.2807     8.6965     8.1630
   49.8000   142.9858     8.8315     7.9850
   49.9000   143.5502     8.9475     7.8295
   50.0000   143.9252     8.9015     7.6134
   50.1000   144.3739     8.9599     7.6134
   50.2000   144.8225     9.0689     7.5813
   50.3000   145.2712     9.1630     7.5603
   50.4000   145.7198     9.2312     7.5603
   50.5000   146.1841     9.2830     7.5603
   50.6000   146.5894     9.3258     7.5603
   50.7000   146.5900     9.3257     7.5603
   50.8000   146.8131     9.3255     7.5603
   50.9000   147.0565     9.3254     7.5603
   51.0000   147.1988     9.3253     7.5603
   51.1000   147.1994     9.3155     7.5603
   51.2000   147.2001     9.2600     7.5934
   51.3000   147.2006     9.2114     7.6134
   51.4000   147.2012     9.1952     7.6256
   51.5000   147.2018     9.1724     7.6668
   51.6000   147.1620     9.1209     7.6668
   51.7000   146.8996     9.0670     7.7354
   51.8000   146.6776     8.9714     7.7987
   51.9000   146.4354     8.9058     7.8295
   52.0000   146.0921     8.8559     7.8317
   52.1000   145.6071     8.8062     7.8845
   52.2000   145.0817     8.7545     7.9202
   52.3000   144.4146     8.7078     7.9648
   52.4000   143.8487     8.6590     8.0096
   52.5000   143.2625     8.5885     8.0575
   52.6000   142.5348     8.5024     8.1653
   52.7000   141.7463     8.4529     8.2028
   52.8000   141.3018     8.4073     8.2490
   52.9000   140.8168     8.3270     8.2954
   53.0000   140.3318     8.2554     8.3421
   53.1000   139.8064     8.2191     8.3971
   53.2000   139.0180     8.2190     8.4757
   53.3000   138.5734     8.2189     8.5155
   53.4000   137.9265     8.2187     8.5315
   53.5000   137.4011     8.2186     8.5838
   53.6000   137.1589     8.2290     8.6962
   53.7000   136.8966     8.2761     8.7373
   53.8000   136.8971     8.3216     8.7572
   53.9000   136.8977     8.3340     8.7916
   54.0000   136.8983     8.3565     8.8857
   54.1000   136.9799     8.3923     8.9431
   54.2000   137.5066     8.3922     8.9431
   54.3000   137.9523     8.4387     8.9736
   54.4000   138.4384     8.4509     9.0059
   54.5000   138.9246     8.4741     9.0059
   54.6000   139.4108     8.5216     9.0059
   54.7000   139.9375     8.5697     9.0498
   54.8000   139.9381     8.5695     9.0691
   54.9000   140.2624     8.6054     9.0691
   55.0000   140.6474     8.6295     9.0691
   55.1000   140.8909     8.6416     9.0691
   55.2000   141.1545     8.6900     9.0691
   55.3000   141.1551     8.7388     9.0371
   55.4000   141.3176     8.7878     9.0059
   55.5000   141.4598     8.8371     9.0059
