~VERSION INFORMATION
 VERS.                2.0:   CWLS LOG ASCII STANDARD - VERSION 2.0
 WRAP.                 NO:   ONE LINE PER DEPTH STEP
~WELL INFORMATION
#MNEM.UNIT      DATA TYPE    INFORMATION
#----------   ------------   ------------------------------
 STRT.F           40.0000:   START DEPTH
 STOP.F          684.0000:   STOP DEPTH
 STEP.F            0.5000:   STEP LENGTH
 NULL.          -999.2500:   NO VALUE
 COMP.    FENIX & SCISSON:   COMPANY
 WELL.   N P R-3 #26SX2-2:   WELL
 FLD .             TEAPOT:   FIELD
 LOC .       S2 T38N R78W:   LOCATION
 CNTY.            NATRONA:   COUNTY
 STAT.            WYOMING:   STATE
 CTRY. UNITED STATES OF AMERICA:   COUNTRY
 SRVC.            Unknown:   SERVICE COMPANY
 DATE.        26-JAN-1978:   LOGDATE
 API .       490251056400:   API NUMBER
~CURVE INFORMATION
#MNEM.UNIT       API CODE    CURVE DESCRIPTION
#----------   ------------   ------------------------------
 DEPT.F                  :   
 ILD .OHMM   05 120 46 00:   INDUCTION LOG DEEP
 SN  .OHMM   05 040 16 00:   SHORT NORMAL 16"
 SPR .MV     05 010 01 00:   SPONTANEOUS POTENTIAL FROM RES.
 CALD.IN     45 280 60 00:   CALIPER FROM DENSITY LOG
 CORR.G/C3   45 356 01 00:   DENSITY CORRECTION
 DPHI.DEC    45 890 12 00:   DENSITY POROSITY SANDSTONE
 GRD .GAPI   45 310 01 00:   GAMMA RAY FROM DENSITY LOG
 RHOB.G/C3   45 350 01 00:   BULK DENSITY
~PARAMETER INFORMATION
#MNEM.UNIT          VALUE    DESCRIPTION
#----------   ------------   ------------------------------
 PD  .                 GL:   PERMANENT DATUM
 EPD .F              5142:   ELEVATION PERMANENT DATUM
 LMF .                 KB:   LOG MEASURED FROM
 DMF .                 KB:   DRILLING MEASURED FROM
 EKB .F              5146:   KELLING BUSHING
 EGL .F              5142:   GROUND LEVEL
 DATE.        26-JAN-1978:   RUN DATE
 RUN .                  1:   RUN NUMBER
 DD  .F               690:   DEPTH DRILLER
 DL  .F               684:   DEPTH LOGGER
 BLI .F               684:   BOTTOM LOG INTERVAL
 TLI .F                50:   TOP LOG INTERVAL
 CS  .IN            8.625:   CASING SIZE
 CBD .F                39:   CASING BOTTOM DRILLER
 CBL .F                40:   CASING BOTTOM LOGGER
 BS  .IN            7.875:   BIT SIZE
 BSD .F               690:   BIT SIZE AT DEPTH
 DFT .                KCL:   DRILLING FLUID TYPE
 DFD .                8.5:   DRILLING FLUID DENSITY
 DFV .                 33:   DRILLING FLUID VISCOSITY
 DFPH.                  9:   DRILLING FLUID PH
 MSS .           FLOWLINE:   MUD SAMPLE SOURCE
 RMS .OHMM           0.48:   RESISTIVITY MUD SAMPLE
 MST .F                75:   MUD SAMPLE TEMPERATURE
 RMF .OHMM           0.46:   RESISTIVITY MUD FILTRATE SAMPLE
 MFST.F                75:   MUD FILTRATE SAMPLE TEMPERATURE
 RMC .OHMM              1:   RESISTIVITY MUD CAKE
 MCST.F                75:   MUD CAKE SAMPLE TEMPERATURE
 MFSS.               MEAS:   MUD FILTRATE SAMPLE SOURCE
 MCSS.               MEAS:   MUD CAKE SAMPLE SOURCE
 RMB .OHMM           0.47:   RESISTIVITY MUD AT BHT
 BHT .F                76:   BOTTOM HOLE TEMPERATURE
 TCS .HRS               1:   TIME CURCULATED STOPPED
 MRT .F                76:   MAXIMUM RECORDED TEMPERATURE
 LUN .               2958:   LOGGING UNIT NUMBER
 LUL .             CASPER:   LOGGING UNIT LOCATION
 ENGI.           REYNOLDS:   RECORDING ENGINEER
 WITN.       MR. MCGINLEY:   WITNESSED BY
 CLNT.            A2DTECH:   CLIENT CODE
 ORIG.      2.5" 5" PRINT:   ORIGIN OF DATA
 UWI .       490251056400:   UNIQUE WELL ID
 DICO. A2D Technologies, Inc.:   DIGITIZING COMPANY
~OTHER INFORMATION
~A   DEPT      ILD         SN        SPR       CALD       CORR       DPHI         GRD        RHOB 
# ...
  566.5000    12.4827    12.9903   -53.6280     9.0831     0.1636     0.1632    81.6009     2.3806
  567.0000    12.4906    12.8192   -53.7662     9.0830     0.1513     0.1597    81.2467     2.3861
  567.5000    12.4982    12.6546   -53.6052     9.1132     0.1422     0.1588    80.2421     2.3877
  568.0000    12.4199    12.4900   -53.5951     9.1131     0.1395     0.1789    79.1498     2.3853
  568.5000    12.4293    12.4124   -53.5849     9.1129     0.1395     0.1951    78.4317     2.3687
  569.0000    12.4368    12.3357   -53.5748     9.1127     0.1395     0.2042    77.9239     2.3550
  569.5000    12.3572    12.3442   -53.5647     9.0822     0.1414     0.2072    80.9435     2.3383
  570.0000    12.3665    12.3527   -53.5545     9.0820     0.1520     0.2103    83.4661     2.3262
  570.5000    12.3740    12.4482   -53.5444     9.0819     0.1676     0.2151    84.1586     2.3186
  571.0000    12.2948    12.4566   -53.5342     9.0818     0.1905     0.2230    82.8101     2.3095
  571.5000    12.2194    12.4650   -53.5241     9.0512     0.2371     0.2308    79.1389     2.2989
  572.0000    12.2271    12.2185   -53.6622     9.0511     0.2484     0.2180    75.4677     2.2868
  572.5000    12.1493    12.0595   -53.8003     9.0481     0.2514     0.2054    76.0779     2.3161
  573.0000    11.9919    11.9849   -53.7877     9.0204     0.2605     0.2063    79.1345     2.3201
  573.5000    11.9172    11.8290   -53.7775     9.0202     0.2666     0.2107    77.9098     2.3163
  574.0000    11.8423    11.7554   -53.7674     9.0201     0.2726     0.2142    75.7431     2.3136
  574.5000    11.6876    11.6584   -53.7572     9.0199     0.2757     0.2106    75.1545     2.3104
  575.0000    11.6145    11.5310   -53.7471     9.0198     0.2757     0.2077    78.3640     2.3080
  575.5000    11.6226    11.5389   -53.7370     9.0196     0.2758     0.2069    79.1271     2.3079
  576.0000    11.5488    11.5469   -53.8755     9.0195     0.2665     0.1984    77.5435     2.3253
  576.5000    11.4766    11.4751   -53.8649     9.0193     0.2538     0.1864    76.6774     2.3504
  577.0000    11.4065    11.4835   -53.8547     9.0191     0.2356     0.1803    77.3670     2.3594
  577.5000    11.3749    11.4136   -53.9929     9.0190     0.2232     0.1770    80.0077     2.3625
  578.0000    11.3421    11.4213   -54.2793     9.0188     0.2123     0.1758    83.3190     2.3685
  578.5000    11.3492    11.3487   -54.4149     9.0187     0.2054     0.1813    84.9278     2.3640
  579.0000    11.3562    11.3577   -54.7013     9.0185     0.2022     0.1885    83.0915     2.3549
  579.5000    11.3633    11.3659   -54.8420     8.9880     0.2003     0.1940    82.4784     2.3473
  580.0000    11.3712    11.2953   -54.9776     8.9858     0.1989     0.1960    81.5595     2.3382
  580.5000    11.3781    11.3031   -54.9674     8.9573     0.1973     0.1922    81.5580     2.3367
  581.0000    11.3850    11.3109   -54.9573     8.9631     0.1973     0.1916    81.5565     2.3367
  581.5000    11.3919    11.3187   -54.9471     8.9874     0.1973     0.1958    82.7783     2.3366
  582.0000    11.3988    11.2503   -54.9370     8.9872     0.2004     0.1971    84.0163     2.3363
  582.5000    11.4056    11.2578   -54.9267     8.9871     0.2004     0.1982    84.9160     2.3351
  583.0000    11.4914    11.3432   -54.7680     8.9869     0.2009     0.1990    84.4984     2.3351
  583.5000    11.4985    11.3509   -54.4592     8.9868     0.2021     0.1994    83.2350     2.3351
  584.0000    11.5070    11.3585   -54.1525     8.9866     0.2034     0.1970    82.7706     2.3351
  584.5000    11.4333    11.3662   -53.9941     8.9864     0.2004     0.1898    83.1881     2.3374
  585.0000    11.4409    11.3739   -53.9840     8.9863     0.2005     0.1915    83.2466     2.3408
  585.5000    11.4488    11.3815   -53.9739     8.9862     0.2005     0.1940    82.6142     2.3396
  586.0000    11.4557    11.3892   -53.9637     8.9860     0.2005     0.1958    81.8104     2.3381
  586.5000    11.3824    11.4756   -53.9536     8.9859     0.2005     0.1935    81.2337     2.3411
  587.0000    11.2353    11.5692   -54.0919     8.9857     0.2005     0.1862    80.6206     2.3487
  587.5000    11.1649    11.6507   -54.5264     8.9856     0.2005     0.1837    82.7598     2.3517
  588.0000    10.9436    11.7407   -54.6645     8.9854     0.2087     0.1813    83.9815     2.3502
  588.5000    10.8752    11.7486   -54.8026     8.9853     0.2169     0.1807    84.5917     2.3502
  589.0000    10.8834    11.7565   -54.7899     8.9851     0.2247     0.1850    85.2018     2.3518
  589.5000    10.8900    11.7645   -54.7798     8.9850     0.2293     0.1813    85.5071     2.3562
  590.0000    10.8966    11.6897   -54.7697     8.9848     0.2355     0.1704    85.8104     2.3645
  590.5000    10.9784    11.7803   -54.6112     8.9543     0.2248     0.1717    83.5490     2.3789
  591.0000    11.0609    11.9010   -54.6011     8.9541     0.2127     0.1729    82.0194     2.3766
  591.5000    11.1440    12.0424   -54.5910     8.9369     0.2007     0.1660    82.5204     2.3825
  592.0000    11.2277    12.1337   -54.4325     8.9234     0.1946     0.1625    83.1499     2.3886
  592.5000    11.4687    12.1448   -54.2741     8.8928     0.1977     0.1614    83.3566     2.3910
  593.0000    11.6346    12.3187   -54.2639     8.8927     0.2037     0.1653    82.1642     2.3879
  593.5000    11.9729    12.4998   -54.2535     8.8925     0.2128     0.1804    80.9006     2.3752
  594.0000    12.4077    12.7692   -54.0929     8.8924     0.2159     0.1920    80.1183     2.3501
  594.5000    13.1035    13.2253   -53.9345     8.8922     0.2221     0.1972    79.8751     2.3380
  595.0000    13.8532    13.9834   -53.9243     8.8921     0.2249     0.1992    81.8194     2.3319
  595.5000    14.6457    15.0935   -53.9142     8.8919     0.2239     0.2007    85.4876     2.3289
  596.0000    15.6981    16.7466   -53.6075     8.8918     0.2108     0.2013    85.8980     2.3258
  596.5000    16.9422    18.3266   -53.4491     8.8916     0.1991     0.2007    81.8149     2.3258
  597.0000    18.5381    19.5111   -53.2907     8.8915     0.1847     0.1886    77.8379     2.3258
  597.5000    20.2845    20.4880   -53.2805     8.9218     0.1683     0.1742    73.8354     2.3327
  598.0000    22.3485    21.5139   -53.2704     8.9216     0.1717     0.1826    71.6452     2.3675
  598.5000    23.3184    22.1409   -53.2601     8.9214     0.1827     0.1911    70.1004     2.3728
  599.0000    23.8050    22.2979   -53.5467     8.9517     0.1922     0.1886    69.2691     2.3470
  599.5000    24.1525    22.3161   -53.6848     8.9515     0.1979     0.1620    69.2676     2.3656
  600.0000    24.3339    22.4854   -53.5238     8.9514     0.1767     0.1548    70.0816     2.3985
  600.5000    24.2334    22.2943   -53.5920     8.9514     0.1479     0.1760    71.4024     2.3760
  601.0000    24.0578    22.0660   -53.6734     8.9514     0.1331     0.1957    72.6219     2.3532
  601.5000    23.8822    21.8376   -53.7548     8.9514     0.1253     0.2067    72.9243     2.3304
  602.0000    23.6972    21.3259   -53.8362     8.9514     0.1485     0.2177    73.2263     2.3061
  602.5000    23.3955    20.9012   -53.9177     8.9514     0.1646     0.2216    73.8340     2.2955
  603.0000    23.0875    20.7689   -53.9991     8.9514     0.1585     0.2239    75.0535     2.2909
  603.5000    22.9361    20.2158   -54.0805     8.9514     0.1404     0.2220    75.9672     2.2955
  604.0000    22.7881    20.0663   -54.1619     8.9514     0.1283     0.2145    74.9949     2.3015
  604.5000    22.3316    19.6879   -54.2433     8.9514     0.1524     0.2178    73.7359     2.2916
  605.0000    21.7365    19.5633   -54.3260     8.9514     0.1887     0.2296    72.4771     2.2782
  605.5000    20.7230    19.9849   -54.3173     8.9514     0.1887     0.2257    71.2182     2.2712
  606.0000    19.3533    20.2728   -54.3084     8.9514     0.1766     0.2195    70.1376     2.2729
  606.5000    18.8344    20.7069   -54.1495     8.9514     0.1734     0.2225    70.3441     2.2744
