~VERSION INFORMATION
 VERS.                2.0:   CWLS LOG ASCII STANDARD - VERSION 2.0
 WRAP.                 NO:   ONE LINE PER DEPTH STEP
~WELL INFORMATION
#MNEM.UNIT      DATA TYPE    INFORMATION
#----------   ------------   ------------------------------
 STRT.F          779.5000:   START DEPTH
 STOP.F         2194.0000:   STOP DEPTH
 STEP.F            0.5000:   STEP LENGTH
 NULL.          -999.2500:   NO VALUE
 COMP. LAWRENCE/ALLISON INC:   COMPANY
 WELL.        27 X #10-10:   WELL
 FLD .             TEAPOT:   FIELD
 LOC .      S10 T38N R78W:   LOCATION
 CNTY.            NATRONA:   COUNTY
 STAT.            WYOMING:   STATE
 CTRY. UNITED STATES OF AMERICA:   COUNTRY
 SRVC.            Unknown:   SERVICE COMPANY
 DATE.        21-AUG-1987:   LOGDATE
 API .       490251118900:   API NUMBER
~CURVE INFORMATION
#MNEM.UNIT       API CODE    CURVE DESCRIPTION
#----------   ------------   ------------------------------
 DEPT.F                  :   
 ROP .MIN/FT 91 810 01 00:   RATE OF DRILLING PENETRATION
 TGAS.UNITS  91 830 01 00:   TOTAL GAS FROM HOTWIRE
~PARAMETER INFORMATION
#MNEM.UNIT          VALUE    DESCRIPTION
#----------   ------------   ------------------------------
 EKB .F              5237:   KELLING BUSHING
 EGL .F              5236:   GROUND LEVEL
 DATE.        21-AUG-1987:   RUN DATE
 BLI .F              2180:   BOTTOM LOG INTERVAL
 TLI .F               780:   TOP LOG INTERVAL
 LUN .              T-148:   LOGGING UNIT NUMBER
 ENGI.            R. HUSK:   RECORDING ENGINEER
 WITN.           C. TOWER:   WITNESSED BY
 CLNT.            A2DTECH:   CLIENT CODE
 ORIG.           5" PRINT:   ORIGIN OF DATA
 UWI .       490251118900:   UNIQUE WELL ID
 DICO. A2D Technologies, Inc.:   DIGITIZING COMPANY
~OTHER INFORMATION
~A   DEPT      ROP         TGAS 
# ...
 1873.0000     0.5379    65.2890
 1873.5000     0.5373    65.3245
 1874.0000     0.5368    65.3600
 1874.5000     0.5362    65.3956
 1875.0000     0.5356    65.4311
 1875.5000     0.5351    65.4666
 1876.0000     0.5454    65.5021
 1876.5000     0.5449    65.5442
 1877.0000     0.5444    65.1224
 1877.5000     0.5438    65.5873
 1878.0000     0.5325    65.6089
 1878.5000     0.5428    65.6305
 1879.0000     0.5422    65.6521
 1879.5000     0.5406    65.2303
 1880.0000     0.5302    65.6952
 1880.5000     0.5838    67.9416
 1881.0000     0.6374    71.3632
 1881.5000     0.6801    73.1045
 1882.0000     0.7229    73.5345
 1882.5000     0.7224    73.9593
 1883.0000     0.6894    74.3869
 1883.5000     0.6239    74.3759
 1884.0000     0.5686    74.3630
 1884.5000     0.5246    73.4766
 1885.0000     0.5032    73.0281
 1885.5000     0.5027    71.7037
 1886.0000     0.5022    69.9413
 1886.5000     0.5016    68.1530
 1887.0000     0.5011    67.2899
 1887.5000     0.5005    66.8414
 1888.0000     0.5000    66.3929
 1888.5000     0.4995    66.3824
 1889.0000     0.4989    66.3719
 1889.5000     0.4984    66.3613
 1890.0000     0.4978    66.3504
 1890.5000     0.4973    66.3376
 1891.0000     0.5004    66.3271
 1891.5000     0.5187    66.3166
 1892.0000     0.5473    66.7466
 1892.5000     0.5865    66.7335
 1893.0000     0.6570    66.2847
 1893.5000     0.7192    66.2718
 1894.0000     0.7424    66.2613
 1894.5000     0.7257    66.6887
 1895.0000     0.6807    66.2402
 1895.5000     0.6366    66.2297
 1896.0000     0.6151    66.2190
 1896.5000     0.6098    66.2060
 1897.0000     0.6159    66.1955
 1897.5000     0.6196    66.1849
 1898.0000     0.6190    65.7364
 1898.5000     0.6185    65.7259
 1899.0000     0.6180    65.7153
 1899.5000     0.6174    65.7022
 1900.0000     0.6275    65.7630
 1900.5000     0.6262    65.9690
 1901.0000     0.6249    66.0907
 1901.5000     0.6236    66.0641
 1902.0000     0.6223    66.0429
 1902.5000     0.6209    66.0217
 1903.0000     0.6196    66.0000
 1903.5000     0.6182    65.9739
 1904.0000     0.6169    65.9527
 1904.5000     0.6114    65.9314
 1905.0000     0.5876    65.9102
 1905.5000     0.5579    65.8890
 1906.0000     0.5216    65.8677
 1906.5000     0.5090    65.8465
 1907.0000     0.4963    65.8248
 1907.5000     0.4884    65.7987
 1908.0000     0.4870    65.7775
 1908.5000     0.4857    65.7562
 1909.0000     0.4843    65.7350
 1909.5000     0.4830    65.7138
 1910.0000     0.4816    65.6925
 1910.5000     0.4802    65.6713
 1911.0000     0.4789    65.6496
 1911.5000     0.4775    65.6235
 1912.0000     0.4762    66.9162
 1912.5000     0.4746    68.2088
 1913.0000     0.4733    71.2533
 1913.5000     0.4828    76.4875
 1914.0000     0.5032    80.8458
 1914.5000     0.5235    79.0728
 1915.0000     0.5439    75.0363
 1915.5000     0.5425    68.9520
 1916.0000     0.5411    67.6169
 1916.5000     0.5398    68.9148
 1917.0000     0.5384    70.2075
 1917.5000     0.5371    71.0621
 1918.0000     0.5357    70.5977
 1918.5000     0.5311    69.2626
 1919.0000     0.5149    67.4529
 1919.5000     0.4992    64.8352
 1920.0000     0.5411    63.3298
 1920.5000     0.5411    61.3826
 1921.0000     0.5411    61.4762
 1921.5000     0.5411    61.5511
 1922.0000     0.5411    62.0640
 1922.5000     0.5411    62.5769
 1923.0000     0.5411    63.5277
 1923.5000     0.5411    64.4786
 1924.0000     0.5411    65.8979
 1924.5000     0.5411    67.3283
 1925.0000     0.5411    69.5396
 1925.5000     0.5411    71.3664
 1926.0000     0.5411    73.6311
 1926.5000     0.5411    75.8958
 1927.0000     0.5411    78.1605
 1927.5000     0.5411    79.9872
 1928.0000     0.5411    80.0621
 1928.5000     0.5411    80.1371
 1929.0000     0.5411    80.2120
 1929.5000     0.5411    80.2883
 1930.0000     0.5411    80.3650
 1930.5000     0.5411    80.4555
 1931.0000     0.5411    80.5304
 1931.5000     0.5411    80.6053
 1932.0000     0.5411    80.6803
 1932.5000     0.5411    80.7552
 1933.0000     0.5411    80.8301
 1933.5000     0.5411    80.9051
 1934.0000     0.5411    80.9800
 1934.5000     0.5411    80.6168
 1935.0000     0.5411    80.2539
 1935.5000     0.5411    79.8909
 1936.0000     0.5411    79.9845
 1936.5000     0.5411    80.0595
 1937.0000     0.5411    80.1344
 1937.5000     0.5411    80.2093
 1938.0000     0.5411    80.2842
 1938.5000     0.5411    80.3592
 1939.0000     0.5411    80.4341
 1939.5000     0.5411    80.5090
 1940.0000     0.5411    80.5839
 1940.5000     0.5409    79.2881
 1941.0000     0.5406    77.9338
 1941.5000     0.5403    77.9231
 1942.0000     0.5400    77.9123
 1942.5000     0.5398    77.9015
 1943.0000     0.5395    77.8905
 1943.5000     0.5392    77.8774
 1944.0000     0.5516    77.8666
 1944.5000     0.6002    77.8559
 1945.0000     0.6809    77.8452
 1945.5000     0.7406    77.8344
 1946.0000     0.7543    77.8237
 1946.5000     0.7381    77.8129
 1947.0000     0.6487    77.8022
 1947.5000     0.5587    77.7914
 1948.0000     0.5476    77.7798
 1948.5000     0.5473    77.3320
 1949.0000     0.5471    77.3203
 1949.5000     0.5360    77.3102
 1950.0000     0.5249    76.8609
 1950.5000     0.4922    76.8483
 1951.0000     0.4470    76.8376
 1951.5000     0.3709    76.8268
 1952.0000     0.3398    76.3781
 1952.5000     0.3649    76.3674
 1953.0000     0.4044    76.3557
 1953.5000     0.4785    75.9079
 1954.0000     0.5272    75.0204
 1954.5000     0.5441    75.0105
 1955.0000     0.5438    74.9998
 1955.5000     0.5501    74.9881
 1956.0000     0.5758    74.9774
 1956.5000     0.6169    74.9657
 1957.0000     0.6810    74.9541
 1957.5000     0.7311    74.9434
 1958.0000     0.7122    74.9326
 1958.5000     0.6614    74.9219
 1959.0000     0.6222    75.3518
 1959.5000     0.5884    75.7790
 1960.0000     0.5303    75.9123
 1960.5000     0.5189    76.1712
 1961.0000     0.5076    76.1272
 1961.5000     0.5070    76.0833
 1962.0000     0.5065    76.0393
 1962.5000     0.5060    75.9953
 1963.0000     0.5072    75.9513
 1963.5000     0.5158    75.9073
 1964.0000     0.5152    75.8633
 1964.5000     0.5146    75.8194
 1965.0000     0.5105    75.7754
 1965.5000     0.5027    75.7314
 1966.0000     0.5022    75.6874
 1966.5000     0.5066    75.6435
 1967.0000     0.5119    75.5995
 1967.5000     0.5114    75.5555
 1968.0000     0.5171    75.5115
 1968.5000     0.5211    75.4675
 1969.0000     0.5206    75.4236
 1969.5000     0.5200    75.3796
 1970.0000     0.5195    75.3356
 1970.5000     0.5189    75.2916
 1971.0000     0.5183    75.2476
 1971.5000     0.5178    75.2037
 1972.0000     0.5173    75.1597
 1972.5000     0.5168    75.1157
 1973.0000     0.5162    75.0717
 1973.5000     0.5157    75.0277
 1974.0000     0.5116    74.9838
 1974.5000     0.4659    74.9398
 1975.0000     0.4185    74.8905
 1975.5000     0.3683    75.3285
 1976.0000     0.3588    75.7664
 1976.5000     0.3952    75.7664
 1977.0000     0.4398    75.7664
 1977.5000     0.4843    75.7664
 1978.0000     0.5108    76.2044
 1978.5000     0.5103    77.0803
 1979.0000     0.5097    79.2701
 1979.5000     0.5151    81.0219
 1980.0000     0.5384    84.0876
 1980.5000     0.6160    83.2295
 1981.0000     0.7126    80.6285
 1981.5000     0.7659    78.4602
 1982.0000     0.7543    77.5914
 1982.5000     0.6561    76.7512
 1983.0000     0.5795    76.3346
 1983.5000     0.5571    76.3614
 1984.0000     0.5563    76.3828
 1984.5000     0.5555    76.4042
 1985.0000     0.5664    76.4256
 1985.5000     0.5756    76.4470
 1986.0000     0.5747    76.4684
 1986.5000     0.5739    76.9278
 1987.0000     0.5731    76.9492
 1987.5000     0.5745    76.9708
 1988.0000     0.5823    76.9927
 1988.5000     0.5814    77.0187
 1989.0000     0.5806    77.0402
 1989.5000     0.5798    77.0616
 1990.0000     0.5754    77.0830
 1990.5000     0.5674    76.6611
 1991.0000     0.5666    77.1258
 1991.5000     0.5702    77.1472
 1992.0000     0.5945    77.1686
 1992.5000     0.6430    77.1900
 1993.0000     0.7134    77.6496
 1993.5000     0.7463    77.6715
 1994.0000     0.7002    77.6975
