~VERSION INFORMATION
 VERS.                2.0:   CWLS LOG ASCII STANDARD - VERSION 2.0
 WRAP.                 NO:   ONE LINE PER DEPTH STEP
~WELL INFORMATION
#MNEM.UNIT      DATA TYPE    INFORMATION
#----------   ------------   ------------------------------
 STRT.F           28.0000:   START DEPTH
 STOP.F          687.0000:   STOP DEPTH
 STEP.F            0.5000:   STEP LENGTH
 NULL.          -999.2500:   NO VALUE
 COMP. LAWRENCE/ALLISON INC:   COMPANY
 WELL.      41 STX #15-15:   WELL
 FLD .             TEAPOT:   FIELD
 LOC .      S15 T38N R78W:   LOCATION
 CNTY.            NATRONA:   COUNTY
 STAT.            WYOMING:   STATE
 CTRY. UNITED STATES OF AMERICA:   COUNTRY
 SRVC.           Gearhart:   SERVICE COMPANY
 DATE.        24-AUG-1987:   LOGDATE
 API .       490251118800:   API NUMBER
~CURVE INFORMATION
#MNEM.UNIT       API CODE    CURVE DESCRIPTION
#----------   ------------   ------------------------------
 DEPT.F                  :   
 GRR .GAPI   07 310 01 00:   GAMMA RAY
 ILD .OHMM   07 120 46 00:   INDUCTION LOG DEEP
 ILM .OHMM   07 120 44 00:   INDUCTION LOG MEDIUM
~PARAMETER INFORMATION
#MNEM.UNIT          VALUE    DESCRIPTION
#----------   ------------   ------------------------------
 PD  .                 GL:   PERMANENT DATUM
 EPD .F              5230:   ELEVATION PERMANENT DATUM
 LMF .                 KB:   LOG MEASURED FROM
 DAPD.F              10.5:   FEET ABOVE PERMANENT DATUM
 DMF .                 KB:   DRILLING MEASURED FROM
 EKB .F            5240.5:   KELLING BUSHING
 EDF .F            5239.5:   DRILLING FLOOR
 EGL .F              5230:   GROUND LEVEL
 DATE.        24-AUG-1987:   RUN DATE
 RUN .                  1:   RUN NUMBER
 DD  .F               693:   DEPTH DRILLER
 DL  .F               695:   DEPTH LOGGER
 BLI .F               687:   BOTTOM LOG INTERVAL
 TLI .F                30:   TOP LOG INTERVAL
 CS  .IN            9.625:   CASING SIZE
 CBD .F                48:   CASING BOTTOM DRILLER
 CBL .F                48:   CASING BOTTOM LOGGER
 BS  .IN             8.75:   BIT SIZE
 BSD .F               693:   BIT SIZE AT DEPTH
 DFT .                AIR:   DRILLING FLUID TYPE
 TCS .HRS            0700:   TIME CURCULATED STOPPED
 TLAB.HRS            0617:   TIME LOGGER AT BOTTOM
 MRT .F                80:   MAXIMUM RECORDED TEMPERATURE
 LUN .               7597:   LOGGING UNIT NUMBER
 LUL .           GILLETTE:   LOGGING UNIT LOCATION
 ENGI.         WEATHERMON:   RECORDING ENGINEER
 WITN.             STRONG:   WITNESSED BY
 CLNT.            A2DTECH:   CLIENT CODE
 ORIG.       2", 5" PRINT:   ORIGIN OF DATA
 UWI .       490251118800:   UNIQUE WELL ID
 DICO. A2D Technologies, Inc.:   DIGITIZING COMPANY
~OTHER INFORMATION
~A   DEPT       GRR       ILD        ILM   
# ...
  210.0000   140.9656     9.0324     8.7500
  210.5000   136.1614     8.9730     8.6912
  211.0000   135.2728     8.9755     8.6335
  211.5000   136.8130     8.9779     8.5767
  212.0000   144.0875     8.9804     8.5791
  212.5000   145.9239     9.1082     8.5814
  213.0000   145.9476     9.2378     8.5838
  213.5000   145.0591     9.3693     8.6556
  214.0000   143.5781     9.5027     8.8921
  214.5000   142.3934     9.5713     9.0188
  215.0000   141.5106     9.6405     9.0840
  215.5000   140.9174     9.5766     9.0865
  216.0000   140.3142     9.5792     9.0889
  216.5000   136.4519     9.5824     9.1547
  217.0000   136.7777     9.5850     9.0933
  217.5000   137.4057     9.6539     9.1597
  218.0000   139.8463     9.6569     9.3548
  218.5000   141.0785     9.6596     9.4880
  219.0000   140.1958     9.6622     9.5567
  219.5000   137.5005     9.6646     9.5593
  220.0000   130.8777     9.6673     9.6961
  220.5000   129.0828     9.6701     9.7662
  221.0000   129.1125     9.6726     9.8369
  221.5000   131.5531     9.7752     9.8395
  222.0000   132.7855     9.8813     9.7742
  222.5000   132.0644     9.8079     9.7086
  223.0000   128.0048     9.6164     9.4462
  223.5000   127.4183     9.4866     9.2536
  224.0000   130.7713     9.2945     9.0661
  224.5000   134.4203     9.0423     8.9867
  225.0000   138.0694     8.7980     8.9461
  225.5000   141.8490     8.7391     8.6989
  226.0000   144.1572     8.7420     8.3909
  226.5000   141.1219     8.8052     8.1249
  227.0000   135.9637     8.7462     8.0709
  227.5000   134.2585     8.8100     8.1299
  228.0000   134.5903     8.8124     8.1887
  228.5000   135.8225     8.8148     8.2479
  229.0000   136.7525     8.8173     8.2502
  229.5000   137.0784     8.8815     8.3098
  230.0000   137.3983     9.0079     8.4869
  230.5000   136.2135     9.0731     8.6676
  231.0000   135.3368     9.1386     8.7911
  231.5000   131.7352     9.2047     8.7960
  232.0000   130.8238     9.2712     8.8572
  232.5000   132.0847     9.4032     8.8601
  233.0000   133.9577     9.6033     8.9242
  233.5000   135.4975     9.7400     9.1143
  234.0000   137.2977     9.7507     9.2441
  234.5000   137.6236     9.6112     9.3110
  235.0000   137.3452     9.5474     9.3135
  235.5000   135.8583     9.4769     9.2510
  236.0000   124.0995     9.4873     9.1267
  236.5000   122.9088     9.4243     9.0660
  237.0000   127.7723     9.4269     8.9436
  237.5000   131.7235     9.4294     8.9461
  238.0000   138.0917     9.3662     8.8867
  238.5000   139.0217     9.3694     8.8892
  239.0000   138.7433     9.4371     8.8300
  239.5000   134.5036     9.5054     8.8330
  240.0000   133.9569     9.6406     8.8354
  240.5000   134.8870     9.6433     8.8378
  241.0000   134.3065     9.7130     8.9018
  241.5000   134.2087     9.7852     8.9042
  242.0000   135.2662     9.9298     8.9686
  242.5000   137.4047    10.1467     9.0964
  243.0000   137.1263    10.2786     9.2259
  243.5000   134.7331    10.4249     9.6205
  244.0000   129.6208    10.5732     9.8966
  244.5000   124.2065    10.7983    10.1750
  245.0000   122.7196    11.0281    10.3924
  245.5000   122.4411    11.3412    10.3947
  246.0000   124.6122    11.5026    10.3255
  246.5000   128.0060    11.6664    10.4009
  247.0000   130.6754    11.7507    10.6225
  247.5000   131.2974    11.8356    10.9242
  248.0000   130.4207    12.0898    11.4708
  248.5000   127.4233    12.5262    11.9615
  249.0000   122.6132    12.8888    12.0480
  249.5000   121.4225    13.2388    12.3046
  250.0000   119.8806    13.4266    12.6542
  250.5000   117.2004    13.8074    13.7543
  251.0000   113.7804    13.8102    13.8519
  251.5000   107.6109    13.8130    13.7581
  252.0000   105.2073    13.7197    13.6648
  252.5000   108.8550    13.6277    13.4784
  253.0000   110.9877    13.3508    13.3871
  253.5000   111.6097    13.2613    13.2964
  254.0000   111.6276    13.1723    13.0248
  254.5000   111.3388    12.9039    12.7584
  255.0000   111.9654    12.6410    12.6715
  255.5000   115.6086    12.3809    12.5856
  256.0000   116.8349    12.2155    12.5878
  256.5000   115.6443    12.2181    12.3303
  257.0000   113.8494    12.2211    12.0780
  257.5000   112.9607    12.3087    11.8309
  258.0000   115.7100    12.3112    11.4293
  258.5000   119.0857    12.3993    11.4308
  259.0000   120.9124    12.3162    11.4324
  259.5000   121.4960    12.1492    11.5940
  260.0000   120.3054    11.9838    11.5956
  260.5000   120.6253    11.9868    11.6779
  261.0000   120.3411    11.9893    11.6795
  261.5000   117.9420    11.9918    11.6811
  262.0000   114.6366    11.9113    11.7640
  262.5000   112.8373    11.8315    11.5233
  263.0000   114.3702    11.8905    11.3658
  263.5000   114.9922    11.9189    11.0567
  264.0000   114.4058    11.8384    10.9814
  264.5000   111.1004    11.8414    10.9833
  265.0000   109.3051    11.7620    11.2938
  265.5000   111.1361    11.6832    11.7753
  266.0000   111.7583    11.5226    11.8588
  266.5000   109.6072    11.4475    11.6162
  267.0000   107.5643    11.4836    11.4457
  267.5000   108.4929    11.2951    11.0691
  268.0000   112.7404    10.9127    10.6933
  268.5000   117.2899    10.5432    10.5471
  269.0000   119.1205    10.2570    10.4036
  269.5000   118.8362    10.1877    10.2613
  270.0000   118.2498    10.1194    10.1217
  270.5000   117.9611    10.1220    10.0528
  271.0000   117.3792    10.1241     9.9157
  271.5000   116.7928    10.1262     9.7807
  272.0000   119.8318    10.1282     9.8501
  272.5000   122.2665    10.0603     9.7834
  273.0000   121.6801    10.0624     9.6500
  273.5000   120.7915    10.0645     9.5846
  274.0000   116.2778    10.0666     9.5859
  274.5000   116.2956    10.1386     9.5872
  275.0000   115.0051    10.0707     9.6553
  275.5000   114.2210    10.0732     9.7241
  276.0000   115.1451    10.0753     9.7931
  276.5000   117.5799    10.0073     9.8623
  277.0000   118.2020     9.9407     9.6608
  277.5000   116.4071     9.4719     9.5287
  278.0000   114.3102     9.0880     9.3991
  278.5000   115.2344     8.9642     9.2709
  279.0000   116.7628     8.8427     9.0812
  279.5000   118.8954     8.8449     8.3571
  280.0000   123.7471     8.8467     8.0176
  280.5000   126.1819     8.8485     7.9082
  281.0000   126.8039     8.7892     7.9053
  281.5000   127.1239     8.8522     8.0209
  282.0000   123.1501     8.8573     8.1341
  282.5000   118.2931     8.9794     8.1352
  283.0000   115.5349     9.0438     8.0800
  283.5000   114.8086     9.1089     8.3087
  284.0000   120.5711     9.1741     8.5436
  284.5000   125.1206     9.1760     8.7245
  285.0000   126.0448     9.2417     8.7864
  285.5000   124.2500     9.1793     8.7876
  286.0000   119.7361     9.2455     8.7277
  286.5000   120.0561     9.5073     8.6686
  287.0000   124.0014     9.7091     8.9760
  287.5000   125.8319     9.9151     9.1026
  288.0000   126.1519     9.9861     9.2953
  288.5000   125.8671     9.9881     9.2965
  289.0000   125.5831     9.9211     9.2978
  289.5000   124.6948     9.8546     9.2348
  290.0000   125.0554     9.7886     9.2361
  290.5000   126.2417     9.7230     9.1735
  291.0000   125.6592     9.7926     9.1116
  291.5000   125.9791     9.7270     9.1129
  292.0000   127.2055     9.7294     9.1776
  292.5000   131.4529     9.7314     9.1788
  293.0000   133.2834     9.5327     9.3083
  293.5000   132.9992     9.4688     9.3743
  294.0000   129.6938     9.5371     9.4409
  294.5000   122.7629     9.6053     9.4422
  295.0000   121.2658     9.6073     9.3779
  295.5000   120.0796     9.6093     9.3795
  296.0000   118.8890     9.6781     9.4460
  296.5000   119.5111     9.4808     9.5793
  297.0000   121.6437     9.2877     9.6473
  297.5000   126.2086     9.2244     9.6486
  298.0000   130.6831     9.2274     9.2566
  298.5000   137.7966     9.2385     9.2671
  299.0000   140.1485     9.3604     9.3239
  299.5000   139.5622     9.4275     9.2604
  300.0000   132.3658     9.4048     9.1214
  300.5000   121.7412     9.1099     8.8228
