~VERSION INFORMATION
 VERS.                2.0:   CWLS LOG ASCII STANDARD - VERSION 2.0
 WRAP.                 NO:   ONE LINE PER DEPTH STEP
~WELL INFORMATION
#MNEM.UNIT      DATA TYPE    INFORMATION
#----------   ------------   ------------------------------
 STRT.F            0.0000:   START DEPTH
 STOP.F          580.0000:   STOP DEPTH
 STEP.F            0.5000:   STEP LENGTH
 NULL.          -999.2500:   NO VALUE
 COMP. Fluor Daniel (NPOSR) Inc:   COMPANY
 WELL.    NPR 3 #53-3-X-3:   WELL
 FLD .             TEAPOT:   FIELD
 LOC .       S3 T38N R78W:   LOCATION
 CNTY.            NATRONA:   COUNTY
 STAT.            WYOMING:   STATE
 CTRY. UNITED STATES OF AMERICA:   COUNTRY
 SRVC.      Western Atlas:   SERVICE COMPANY
 DATE.        15-APR-1996:   LOGDATE
 API .       490252277800:   API NUMBER
~CURVE INFORMATION
#MNEM.UNIT       API CODE    CURVE DESCRIPTION
#----------   ------------   ------------------------------
 DEPT.F                  :   
 GRR .GAPI   07 310 01 00:   GAMMA RAY FROM RES. LOG.
 RILD.OHMM   07 120 46 00:   INDUCTION LOG DEEP RESISTIVITY
 RILM.OHMM   07 120 44 00:   INDUCTION LOG MEDIUM RESISTIVITY
~PARAMETER INFORMATION
#MNEM.UNIT          VALUE    DESCRIPTION
#----------   ------------   ------------------------------
 PD  .                 GL:   PERMANENT DATUM
 EPD .F              5105:   ELEVATION PERMANENT DATUM
 LMF .                 KB:   LOG MEASURED FROM
 DAPD.F                10:   FEET ABOVE PERMANENT DATUM
 DMF .                 KB:   DRILLING MEASURED FROM
 EKB .F              5115:   KELLING BUSHING
 EDF .F              5114:   DRILLING FLOOR
 EGL .F              5105:   GROUND LEVEL
 DATE.        15-APR-1996:   RUN DATE
 RUN .                  1:   RUN NUMBER
 DD  .F               594:   DEPTH DRILLER
 DL  .F               588:   DEPTH LOGGER
 BLI .F               580:   BOTTOM LOG INTERVAL
 CS  .IN            9.625:   CASING SIZE
 CBD .F                54:   CASING BOTTOM DRILLER
 CBL .F                56:   CASING BOTTOM LOGGER
 BS  .IN             8.75:   BIT SIZE
 BSD .F               594:   BIT SIZE AT DEPTH
 DFT .                AIR:   DRILLING FLUID TYPE
 MRT .F                85:   MAXIMUM RECORDED TEMPERATURE
 LUN .            HL-6530:   LOGGING UNIT NUMBER
 LUL .             CASPER:   LOGGING UNIT LOCATION
 ENGI.             RAUTIO:   RECORDING ENGINEER
 WITN.              HARDY:   WITNESSED BY
 CLNT.            A2DTECH:   CLIENT CODE
 ORIG.       2", 5" PRINT:   ORIGIN OF DATA
 UWI .       490252277800:   UNIQUE WELL ID
 DICO. A2D Technologies, Inc.:   DIGITIZING COMPANY
~OTHER INFORMATION
~A    DEPT      GRR      RILD       RILM   
# ...
  364.0000    90.3980    24.0648    24.6156
  364.5000    91.3214    23.9866    24.6156
  365.0000    92.2442    23.9068    24.2936
  365.5000    93.1757    23.7508    23.9781
  366.0000    94.1280    23.5977    23.6668
  366.5000    93.8498    23.3130    23.3595
  367.0000    93.8177    22.8330    23.0562
  367.5000    95.1837    22.3628    22.7568
  368.0000    95.1687    22.0319    22.4613
  368.5000    94.8428    21.7522    22.1697
  369.0000    94.4581    21.4761    21.8818
  369.5000    92.3090    21.2114    21.5895
  370.0000    90.1619    20.9716    21.2430
  370.5000    90.5434    20.5683    20.9020
  371.0000    92.8977    20.2788    20.5665
  371.5000    95.3906    20.2788    20.2788
  372.0000    95.9367    20.2788    20.2788
  372.5000    95.6126    20.2787    20.2788
  373.0000    95.7803    20.2588    20.5732
  373.5000    97.0106    20.2279    20.9609
  374.0000    97.3192    20.1972    21.4333
  374.5000    96.0556    20.1666    21.3623
  375.0000    96.0474    20.1360    21.2365
  375.5000    98.8213    20.1055    21.0530
  376.0000   102.2968    20.0417    20.7991
  376.5000   101.3971    19.9534    20.5482
  377.0000    97.4076    19.7916    20.3003
  377.5000    93.1347    19.5529    20.0555
  378.0000    91.3895    19.3170    19.9079
  378.5000    92.5158    19.0840    19.9872
  379.0000    91.9464    18.8355    20.0443
  379.5000    92.2154    18.9695    20.0925
  380.0000    95.6233    19.4467    20.2788
  380.5000    96.0194    20.0214    20.2788
  381.0000    93.3031    20.6131    21.6371
  381.5000    87.5365    21.2365    22.9906
  382.0000    83.2919    21.2365    23.5055
  382.5000    85.1790    20.9606    23.1076
  383.0000    86.9392    20.5409    22.0400
  383.5000    86.0421    20.1236    20.9380
  384.0000    85.2875    19.2589    19.8846
  384.5000    88.0764    18.4314    18.8847
  385.0000    92.8925    17.6400    17.9354
  385.5000    94.1451    16.9070    17.0338
  386.0000    93.0704    16.3325    16.5526
  386.5000    92.1029    16.1542    16.4413
  387.0000    91.8029    16.0425    16.3353
  387.5000    92.2755    15.9317    16.2299
  388.0000    92.9488    15.8216    16.1252
  388.5000    94.4640    15.6609    16.0211
  389.0000    95.8907    15.6609    15.9134
  389.5000    95.7574    15.5301    15.7980
  390.0000    93.5787    15.1982    15.6833
  390.5000    92.1414    14.9643    15.5696
  391.0000    92.0597    14.7735    15.3608
  391.5000    93.1341    14.5859    15.0736
  392.0000    93.5706    14.4127    14.7932
  392.5000    92.5814    14.3484    14.5433
  393.0000    91.3777    14.2753    14.4942
  393.5000    91.6582    14.2025    14.3968
  394.0000    91.9064    14.1223    14.3007
  394.5000    92.1701    14.0206    14.2052
  395.0000    92.8360    13.9196    14.1104
  395.5000    93.5386    13.8193    14.0163
  396.0000    94.2332    13.7197    13.9228
  396.5000    94.9816    13.6209    13.8298
  397.0000    97.3564    13.5228    13.7375
  397.5000   101.2036    13.4252    13.6459
  398.0000   104.6294    13.3272    13.5548
  398.5000   105.1506    13.2621    13.5111
  399.0000   103.2770    13.4681    13.7110
  399.5000   100.9615    13.6630    13.8637
  400.0000    98.7867    13.7773    14.0180
  400.5000    96.9652    13.8922    14.1741
  401.0000    97.2660    14.0082    14.3319
  401.5000    98.5743    14.1251    14.4915
  402.0000   100.6237    14.2028    14.6812
  402.5000   102.2584    14.2704    14.6446
  403.0000   101.2254    14.3384    14.5867
  403.5000    99.7438    14.4127    14.4127
  404.0000    97.5328    14.1328    14.1937
  404.5000    95.3218    13.8557    13.9576
  405.0000    95.2077    13.5840    13.7254
  405.5000    96.6836    13.3176    13.4971
  406.0000    98.0915    13.0565    13.2726
  406.5000    97.4419    12.7999    13.0518
  407.0000    99.1757    12.5508    12.8347
  407.5000   101.2189    12.3626    12.6212
  408.0000   102.6261    12.2344    12.4113
  408.5000   102.6194    12.1058    12.2068
  409.0000   103.0784    11.9835    12.1084
  409.5000   103.5359    11.9835    11.9841
  410.0000   103.0099    11.9835    12.1008
  410.5000   101.2510    12.0946    12.2815
  411.0000    99.3389    12.3980    12.5495
  411.5000    97.4765    12.8510    13.2365
  412.0000    97.5936    13.9315    14.2333
  412.5000    97.4436    15.0987    15.7593
  413.0000    94.1804    16.3633    17.4489
  413.5000    90.2732    17.7338    19.3197
  414.0000    86.3443    19.2574    21.0666
  414.5000    82.3576    21.1777    22.6042
  415.0000    79.0065    23.2896    24.0813
  415.5000    77.2476    25.2076    24.7326
  416.0000    78.3647    25.8138    25.0787
  416.5000    79.7366    26.0171    24.3776
  417.0000    81.2177    25.3329    24.0075
  417.5000    82.4456    24.8132    23.6447
  418.0000    80.5829    24.3688    23.2869
  418.5000    77.8898    24.2761    22.9285
  419.0000    76.8467    24.1647    22.6437
  419.5000    78.4218    24.2462    22.8450
  420.0000    83.5423    24.3750    23.7344
  420.5000    86.9566    25.1872    24.8438
  421.0000    86.8991    25.8098    25.4807
  421.5000    86.3470    26.0171    26.1831
  422.0000    85.7347    26.7941    26.9037
  422.5000    83.1357    27.7533    27.7575
  423.0000    81.2004    27.7533    27.7533
  423.5000    80.6388    27.7533    27.7533
  424.0000    80.8235    27.4223    27.0180
  424.5000    81.7081    26.9682    26.2346
  425.0000    83.8579    26.5216    25.4740
  425.5000    87.7287    26.0824    24.6156
  426.0000    88.5891    25.6504    24.8438
  426.5000    87.2900    25.2244    24.6002
  427.0000    87.1648    24.8101    24.4332
  427.5000    87.0036    24.5558    24.2815
  428.0000    86.8459    24.4530    24.1340
  428.5000    86.6891    24.3476    23.9874
  429.0000    86.4453    24.2426    23.8417
  429.5000    85.5148    24.1538    23.6968
  430.0000    84.0159    24.1098    23.5529
  430.5000    82.5319    24.0657    23.4098
  431.0000    81.7185    24.0218    23.2896
  431.5000    82.6625    23.9779    23.3359
  432.0000    84.9701    23.9431    23.3842
  432.5000    87.1428    23.9435    23.4326
  433.0000    88.2942    23.9436    23.4810
  433.5000    89.0665    23.9673    23.6569
  434.0000    90.6036    24.1948    23.9655
  434.5000    91.0605    24.3895    24.1654
  435.0000    89.3862    23.8057    22.9887
  435.5000    85.8434    23.3158    22.1597
  436.0000    83.3630    22.8604    21.3606
  436.5000    85.3802    22.8672    20.6566
  437.0000    89.9295    22.5102    20.3663
  437.5000    94.8463    22.1866    20.2616
  438.0000    94.8234    21.8693    20.2109
  438.5000    90.2817    21.5566    20.1604
  439.0000    85.6401    21.2483    20.1101
  439.5000    83.3179    20.9445    20.0925
  440.0000    83.9676    20.5615    19.5706
  440.5000    88.7664    20.1466    19.0942
  441.0000    92.3146    19.7406    18.6294
  441.5000    93.3949    19.3424    18.1759
  442.0000    93.6722    18.9526    17.6572
  442.5000    95.0989    18.6164    17.7962
  443.0000    96.5240    18.4278    17.9674
  443.5000    96.6031    18.2425    18.1523
  444.0000    96.2811    17.8785    17.8114
  444.5000    94.1715    17.3672    17.4417
  445.0000    93.4508    16.8695    17.0802
  445.5000    95.4577    16.4005    16.7279
  446.0000    96.5401    16.1024    16.3985
  446.5000    95.6611    15.8180    16.0093
  447.0000    93.5251    15.5171    15.6482
  447.5000    91.7995    15.0302    15.2953
  448.0000    90.7772    14.5195    14.9511
  448.5000    89.7370    14.4127    14.6786
  449.0000    88.7082    14.2803    14.5868
  449.5000    88.5235    14.1795    14.4929
  450.0000    90.2266    14.0831    14.4003
  450.5000    91.1978    14.0032    14.3082
  451.0000    90.8196    13.8908    14.2166
  451.5000    90.9926    13.7796    14.1257
  452.0000    93.1568    13.6677    14.0353
  452.5000    94.1746    13.5706    13.9455
  453.0000    94.0441    13.4765    13.8562
  453.5000    93.9132    13.3838    13.7676
  454.0000    93.7888    13.2640    13.6795
  454.5000    93.6624    13.2708    13.5111
