~VERSION INFORMATION
 VERS.                2.0:   CWLS LOG ASCII STANDARD - VERSION 2.0
 WRAP.                 NO:   ONE LINE PER DEPTH STEP
~WELL INFORMATION
#MNEM.UNIT      DATA TYPE    INFORMATION
#----------   ------------   ------------------------------
 STRT.F           87.0000:   START DEPTH
 STOP.F          987.0000:   STOP DEPTH
 STEP.F            0.5000:   STEP LENGTH
 NULL.          -999.2500:   NO VALUE
 COMP.   FLUOR DANIEL INC:   COMPANY
 WELL. NAVAL PETROLEUM RESERVE 3 SH-2 #53-2:   WELL
 FLD .        TEAPOT DOME:   FIELD
 LOC .       S2 T38N R78W:   LOCATION
 CNTY.            NATRONA:   COUNTY
 STAT.            WYOMING:   STATE
 CTRY. UNITED STATES OF AMERICA:   COUNTRY
 SRVC. Schlumberger Well Surveying Corp:   SERVICE COMPANY
 DATE.        17-JUL-1963:   LOGDATE
 API .       490250645200:   API NUMBER
~CURVE INFORMATION
#MNEM.UNIT       API CODE    CURVE DESCRIPTION
#----------   ------------   ------------------------------
 DEPT.F                  :   
 GR  .GAPI   30 310 01 00:   GAMMA RAY
 SPR .MV     05 010 01 00:   SPONTANEOUS POTENTIAL
 CILD.MMHO   05 110 46 00:   CONDUCTIVITY INDUCTION LOG DEEP
 ILD .OHMM   05 120 46 00:   INDUCTION LOG DEEP
 ASN .OHMM   05 041 16 00:   AMPLIFIED SHORT NORMAL 16"
~PARAMETER INFORMATION
#MNEM.UNIT          VALUE    DESCRIPTION
#----------   ------------   ------------------------------
 PD  .                 GL:   PERMANENT DATUM
 EPD .F              5165:   ELEVATION PERMANENT DATUM
 LMF .                 KB:   LOG MEASURED FROM
 DAPD.F                 5:   FEET ABOVE PERMANENT DATUM
 DMF .                 KB:   DRILLING MEASURED FROM
 EKB .F              5170:   KELLING BUSHING
 EGL .F              5165:   GROUND LEVEL
 DATE.          7-17-1963:   RUN DATE
 RUN .                  1:   RUN NUMBER
 DD  .F               986:   DEPTH DRILLER
 DL  .F               987:   DEPTH LOGGER
 BLI .F               986:   BOTTOM LOG INTERVAL
 TLI .F                30:   TOP LOG INTERVAL
 CS  .IN            8.625:   CASING SIZE
 CBD .F                10:   CASING BOTTOM DRILLER
 BS  .IN            7.875:   BIT SIZE
 BSD .F               986:   BIT SIZE AT DEPTH
 DFT .            GEL-OIL:   DRILLING FLUID TYPE
 DFD .                9.4:   DRILLING FLUID DENSITY
 DFV .                 67:   DRILLING FLUID VISCOSITY
 DFPH.                8.5:   DRILLING FLUID PH
 DFL .                4.6:   DRILLING FLUID LOSS
 MSS .           FLOWLINE:   MUD SAMPLE SOURCE
 RMS .OHMM           3.37:   RESISTIVITY MUD SAMPLE
 MST .F                79:   MUD SAMPLE TEMPERATURE
 RMF .OHMM           1.49:   RESISTIVITY MUD FILTRATE SAMPLE
 MFST.F                83:   MUD FILTRATE SAMPLE TEMPERATURE
 MFSS.           MEASURED:   MUD FILTRATE SAMPLE SOURCE
 BHT .F                80:   BOTTOM HOLE TEMPERATURE
 TCS .HRS            0030:   TIME CURCULATED STOPPED
 MRT .F                80:   MAXIMUM RECORDED TEMPERATURE
 LUN .               4507:   LOGGING UNIT NUMBER
 LUL .              CSPR.:   LOGGING UNIT LOCATION
 ENGI.            WINKLER:   RECORDING ENGINEER
 WITN.          JORGENSON:   WITNESSED BY
 CLNT.            A2DTECH:   CLIENT CODE
 ORIG.      2" & 5" PRINT:   ORIGIN OF DATA
 UWI .       490250645200:   UNIQUE WELL ID
 DICO. A2D Technologies, Inc.:   DIGITIZING COMPANY
~OTHER INFORMATION
~A   DEPT       GR        SPR       CILD          ILD        ASN 
# ...
  270.0000  -999.2500   -65.5622   162.0409     6.3435     7.0734
  270.5000  -999.2500   -65.5622   159.6808     6.4400     7.0803
  271.0000  -999.2500   -65.5622   158.1575     6.5371     7.0866
  271.5000  -999.2500   -65.5622   157.7345     6.5983     7.0035
  272.0000  -999.2500   -65.5622   157.2864     6.6298     7.0231
  272.5000  -999.2500   -65.5622   155.2973     6.6606     7.3362
  273.0000  -999.2500   -65.5622   153.1826     6.6913     7.5123
  273.5000  -999.2500   -65.5622   151.7405     6.7221     7.3967
  274.0000  -999.2500   -65.5622   150.8090     6.7531     7.2934
  274.5000  -999.2500   -65.5622   150.4168     6.7830     7.4024
  275.0000  -999.2500   -65.5622   150.8295     6.7840     7.5040
  275.5000  -999.2500   -65.5622   151.2563     6.7850     7.4880
  276.0000  -999.2500   -65.5622   152.5377     6.7052     7.4328
  276.5000  -999.2500   -65.5622   154.9950     6.5793     7.4080
  277.0000  -999.2500   -65.5622   159.0553     6.4524     7.3992
  277.5000  -999.2500   -65.5622   163.1156     6.3254     7.1181
  278.0000  -999.2500   -65.5622   167.4841     6.1985     6.8856
  278.5000  -999.2500   -65.5622   172.2211     6.0715     6.8478
  279.0000  -999.2500   -65.5622   176.9581     5.9446     6.7966
  279.5000  -999.2500   -65.5622   180.6281     5.8162     6.6799
  280.0000  -999.2500   -65.5622   183.4171     5.7791     6.6102
  280.5000  -999.2500   -65.5622   183.4171     5.7780     6.5848
  281.0000  -999.2500   -65.5622   182.4121     5.7801     6.5680
  281.5000  -999.2500   -65.5622   178.6228     5.9072     6.6190
  282.0000  -999.2500   -65.5624   174.5125     6.0476     6.7463
  282.5000  -999.2500   -65.5624   170.3931     6.1879     6.9382
  283.0000  -999.2500   -65.5610   166.2773     6.3282     6.9992
  283.5000  -999.2500   -65.4858   162.1622     6.4679     6.9358
  284.0000  -999.2500   -65.3057   158.0470     6.5864     7.0491
  284.5000  -999.2500   -65.1266   153.9318     6.5983     7.2668
  285.0000  -999.2500   -64.9650   152.2373     6.6134     7.2932
  285.5000  -999.2500   -65.0214   152.8903     6.6287     7.3006
  286.0000  -999.2500   -65.0825   153.5281     6.6442     7.3340
  286.5000  -999.2500   -65.1406   154.1638     6.6596     7.3321
  287.0000  -999.2500   -65.2782   154.8021     6.6744     7.3080
  287.5000  -999.2500   -65.4455   155.5483     6.6566     7.3580
  288.0000  -999.2500   -65.6144   156.6834     6.5953     7.3410
  288.5000  -999.2500   -65.7619   158.2312     6.5345     7.2389
  289.0000  -999.2500   -65.7102   160.2613     6.4736     7.1450
  289.5000  -999.2500   -65.6615   162.2915     6.4125     7.1065
  290.0000  -999.2500   -65.6140   164.3216     6.3732     7.0705
  290.5000  -999.2500   -65.5552   166.3518     6.3557     7.0217
  291.0000  -999.2500   -65.1410   167.5544     6.3382     6.9173
  291.5000  -999.2500   -65.0820   167.9774     6.3207     6.8626
  292.0000  -999.2500   -65.0152   168.2689     6.3032     6.8930
  292.5000  -999.2500   -64.9478   167.7441     6.2852     6.9249
  293.0000  -999.2500   -64.8803   167.2195     6.2814     6.9565
  293.5000  -999.2500   -64.8128   166.6941     6.2814     7.0364
  294.0000  -999.2500   -64.7480   166.1695     6.2812     7.1300
  294.5000  -999.2500   -64.6946   165.6503     6.3042     7.2206
  295.0000  -999.2500   -64.6416   164.7235     6.3422     7.2677
  295.5000  -999.2500   -64.5918   163.2262     6.3868     7.2371
  296.0000  -999.2500   -64.7020   160.3406     6.5731     7.2006
  296.5000  -999.2500   -64.9662   155.6480     6.7643     7.1655
  297.0000  -999.2500   -64.9595   150.9284     6.9548     7.2256
  297.5000  -999.2500   -64.9604   146.2132     7.1451     7.4118
  298.0000  -999.2500   -65.0180   141.5004     7.3355     7.7434
  298.5000  -999.2500   -65.2829   136.7875     7.5261     8.0910
  299.0000  -999.2500   -65.3491   134.2155     7.7168     8.4189
  299.5000  -999.2500   -65.3003   132.1608     7.8883     8.6080
  300.0000  -999.2500   -65.2521   131.1558     7.8913     8.7945
  300.5000  -999.2500   -65.2041   132.1608     7.8886     8.6062
  301.0000  -999.2500   -65.1426   134.6387     7.6904     8.3645
  301.5000  -999.2500   -64.9907   137.3851     7.4685     8.2722
  302.0000  -999.2500   -64.8349   141.3742     7.2462     8.1402
  302.5000  -999.2500   -64.7970   145.8794     7.0246     7.9579
  303.0000  -999.2500   -64.8674   150.3846     6.8018     7.8495
  303.5000  -999.2500   -64.9391   155.2724     6.6845     7.8059
  304.0000  -999.2500   -65.0112   155.2574     6.6963     7.7627
  304.5000  -999.2500   -65.0831   153.0096     6.8031     7.7216
  305.0000  -999.2500   -65.1549   150.4523     6.9110     7.6778
  305.5000  -999.2500   -65.2270   147.9347     7.0380     7.6928
  306.0000  -999.2500   -65.2989   144.8497     7.2067     7.8936
  306.5000  -999.2500   -65.3608   140.5774     7.3814     8.0901
  307.0000  -999.2500   -65.3391   136.3052     7.6005     8.3492
  307.5000  -999.2500   -65.3187   132.0329     7.8302     8.5132
  308.0000  -999.2500   -65.2986   127.7606     8.0604     8.6820
  308.5000  -999.2500   -65.2784   123.4883     8.2906     8.8526
  309.0000  -999.2500   -65.2583   119.2161     8.5210     9.0557
  309.5000  -999.2500   -65.2382   115.6181     8.7536     9.2750
  310.0000  -999.2500   -65.2181   114.3719     8.9868     9.4919
  310.5000  -999.2500   -65.1981   114.9313     8.9729     9.6532
  311.0000  -999.2500   -65.1780   117.5678     8.7262     9.6576
  311.5000  -999.2500   -65.1464   122.1822     8.4084     9.6069
  312.0000  -999.2500   -65.0459   128.1407     8.0943     9.4938
  312.5000  -999.2500   -64.9258   132.9146     7.7789     8.9467
  313.0000  -999.2500   -64.7033   138.8342     7.4573     8.5244
  313.5000  -999.2500   -64.4793   143.6030     7.2758     8.1852
  314.0000  -999.2500   -64.2556   144.4211     7.2322     7.8980
  314.5000  -999.2500   -64.0315   144.6922     7.1882     7.7557
  315.0000  -999.2500   -63.7996   144.9599     7.2138     7.8098
  315.5000  -999.2500   -63.8454   145.2238     7.2438     8.0782
  316.0000  -999.2500   -63.9627   143.3807     7.2735     8.3273
  316.5000  -999.2500   -64.0803   141.4626     7.3032     8.2231
  317.0000  -999.2500   -64.1277   139.5444     7.3333     8.1094
  317.5000  -999.2500   -64.0418   137.6082     7.3627     8.1770
  318.0000  -999.2500   -63.9583   137.1589     7.3581     8.2869
  318.5000  -999.2500   -63.8743   141.0873     7.1691     8.2327
  319.0000  -999.2500   -63.7905   145.8744     6.9820     7.9931
  319.5000  -999.2500   -63.7066   150.2802     6.7954     7.7570
  320.0000  -999.2500   -63.6228   154.6859     6.6085     7.5853
  320.5000  -999.2500   -63.5385   158.3877     6.4182     7.5317
  321.0000  -999.2500   -63.4552   158.9178     6.4110     7.4211
  321.5000  -999.2500   -63.3713   159.4478     6.4891     7.2739
  322.0000  -999.2500   -63.2875   159.9778     6.5712     7.1312
  322.5000  -999.2500   -63.2037   161.3065     6.4635     7.1050
  323.0000  -999.2500   -63.1197   163.3166     6.3098     7.1978
  323.5000  -999.2500   -63.0352   163.6020     6.2882     7.3918
  324.0000  -999.2500   -62.9554   163.8897     6.2963     7.4688
  324.5000  -999.2500   -62.9896   164.1775     6.3052     7.3619
  325.0000  -999.2500   -63.0289   164.4652     6.3138     7.2292
  325.5000  -999.2500   -63.0677   164.7529     6.3223     7.0961
  326.0000  -999.2500   -63.1064   165.0406     6.3308     6.9644
  326.5000  -999.2500   -63.1451   165.3266     6.3394     6.8781
  327.0000  -999.2500   -63.1838   164.5162     6.3479     6.8670
  327.5000  -999.2500   -63.2225   163.7106     6.3564     6.9293
  328.0000  -999.2500   -63.2612   162.9049     6.3650     6.9949
  328.5000  -999.2500   -63.2998   162.0879     6.3737     7.0614
  329.0000  -999.2500   -63.3392   161.3060     6.3814     7.1150
  329.5000  -999.2500   -63.3271   162.7680     6.3836     7.1848
  330.0000  -999.2500   -63.2857   165.6292     6.2552     7.1887
  330.5000  -999.2500   -63.2439   169.3524     6.1055     7.0911
