~VERSION INFORMATION
 VERS.                2.0:   CWLS LOG ASCII STANDARD - VERSION 2.0
 WRAP.                 NO:   ONE LINE PER DEPTH STEP
~WELL INFORMATION
#MNEM.UNIT      DATA TYPE    INFORMATION
#----------   ------------   ------------------------------
 STRT.F           14.0000:   START DEPTH
 STOP.F          630.0000:   STOP DEPTH
 STEP.F            0.5000:   STEP LENGTH
 NULL.          -999.2500:   NO VALUE
 COMP. LAWRENCE/ALLISON INC:   COMPANY
 WELL.    78-53 SX #10-10:   WELL
 FLD .             TEAPOT:   FIELD
 LOC .      S10 T38N R78W:   LOCATION
 CNTY.            NATRONA:   COUNTY
 STAT.            WYOMING:   STATE
 CTRY. UNITED STATES OF AMERICA:   COUNTRY
 SRVC.           Gearhart:   SERVICE COMPANY
 DATE.        08-JUL-1986:   LOGDATE
 API .       490251108200:   API NUMBER
~CURVE INFORMATION
#MNEM.UNIT       API CODE    CURVE DESCRIPTION
#----------   ------------   ------------------------------
 DEPT.F                  :   
 GRR .GAPI   07 310 01 00:   GAMMA RAY FROM RES. LOG.
 RILD.OHMM   07 120 46 00:   INDUCTION LOG DEEP RESISTIVITY
 RILM.OHMM   07 120 44 00:   INDUCTION LOG MEDIUM
~PARAMETER INFORMATION
#MNEM.UNIT          VALUE    DESCRIPTION
#----------   ------------   ------------------------------
 PD  .                 GL:   PERMANENT DATUM
 EPD .F              5152:   ELEVATION PERMANENT DATUM
 LMF .                 KB:   LOG MEASURED FROM
 DAPD.F                 5:   FEET ABOVE PERMANENT DATUM
 DMF .                 KB:   DRILLING MEASURED FROM
 EKB .F              5157:   KELLING BUSHING
 EGL .F              5152:   GROUND LEVEL
 DATE.             7-8-86:   RUN DATE
 RUN .                  1:   RUN NUMBER
 DD  .F               630:   DEPTH DRILLER
 DL  .F               634:   DEPTH LOGGER
 BLI .F               625:   BOTTOM LOG INTERVAL
 TLI .F                47:   TOP LOG INTERVAL
 CS  .IN            8.625:   CASING SIZE
 CBD .F                47:   CASING BOTTOM DRILLER
 CBL .F                47:   CASING BOTTOM LOGGER
 BS  .IN            7.875:   BIT SIZE
 BSD .F               630:   BIT SIZE AT DEPTH
 DFT .               FOAM:   DRILLING FLUID TYPE
 TCS .HRS            1530:   TIME CURCULATED STOPPED
 TLAB.HRS            1644:   TIME LOGGER AT BOTTOM
 MRT .F                65:   MAXIMUM RECORDED TEMPERATURE
 LUN .               7609:   LOGGING UNIT NUMBER
 LUL .           GILLETTE:   LOGGING UNIT LOCATION
 ENGI.         WEATHERMON:   RECORDING ENGINEER
 WITN.             STRONG:   WITNESSED BY
 CLNT.            A2DTECH:   CLIENT CODE
 ORIG.       2", 5" PRINT:   ORIGIN OF DATA
 UWI .       490251108200:   UNIQUE WELL ID
 DICO. A2D Technologies, Inc.:   DIGITIZING COMPANY
~OTHER INFORMATION
~A   DEPT       GRR      RILD       RILM   
# ...
  287.0000   114.2159     5.6826     5.9784
  287.5000   114.9572     5.5022     5.7430
  288.0000   115.3624     5.3275     5.5170
  288.5000   114.2987     5.1583     5.3524
  289.0000   112.9414     5.0002     5.2618
  289.5000   111.4225     4.9517     5.1420
  290.0000   109.8939     5.0167     5.1993
  290.5000   108.3942     5.1561     5.3242
  291.0000   106.9706     5.2915     5.4523
  291.5000   107.5927     5.4920     5.6110
  292.0000   110.3993     5.7014     5.8435
  292.5000   111.1990     5.9637     6.0856
  293.0000   111.4654     6.2620     6.3378
  293.5000   112.5559     6.5762     6.6003
  294.0000   113.6046     6.9063     6.8738
  294.5000   113.0896     7.2531     7.1586
  295.0000   110.7508     7.6161     7.4552
  295.5000   109.7834     8.0025     7.7136
  296.0000   111.8319     7.9987     7.7616
  296.5000   114.2690     7.9998     7.8099
  297.0000   115.0946     7.9990     7.8585
  297.5000   115.8648     8.0012     7.9073
  298.0000   115.1336     7.7582     7.9248
  298.5000   114.1612     7.5935     7.8046
  299.0000   113.1873     7.4327     7.6802
  299.5000   112.8501     7.2631     7.4786
  300.0000   113.2124     7.0846     7.2812
  300.5000   113.5699     6.9105     7.0893
  301.0000   113.9302     6.7406     6.9025
  301.5000   114.2895     6.5749     6.7209
  302.0000   114.6488     6.4133     6.5668
  302.5000   115.0097     6.2557     6.4804
  303.0000   115.3703     6.1019     6.3887
  303.5000   115.7148     6.0342     6.2979
  304.0000   115.2858     5.9778     6.2072
  304.5000   113.4208     6.0752     6.3380
  305.0000   112.7243     6.3212     6.4786
  305.5000   113.5490     6.5771     6.6562
  306.0000   116.0720     6.8434     6.8942
  306.5000   118.5661     7.1204     7.1409
  307.0000   121.0424     7.4087     7.3965
  307.5000   122.9516     7.7086     7.6609
  308.0000   122.5376     8.0207     7.9350
  308.5000   120.5231     8.0752     8.1514
  309.0000   117.3481     8.0608     8.3084
  309.5000   115.1118     8.0384     8.4629
  310.0000   116.5464     8.0160     8.6202
  310.5000   119.4404     7.9996     8.7057
  311.0000   122.3581     7.9914     8.6109
  311.5000   122.5583     7.9793     8.5468
  312.0000   120.6786     7.9671     8.4831
  312.5000   118.1444     7.9549     8.3895
  313.0000   116.6209     7.9428     8.2418
  313.5000   115.9781     7.9308     8.0967
  314.0000   116.5154     7.9227     7.9996
  314.5000   117.1131     7.9165     8.0214
  315.0000   117.5957     7.9103     8.0380
  315.5000   117.4674     7.9041     8.0546
  316.0000   117.3442     7.8978     8.0752
  316.5000   117.2192     7.8916     8.0675
  317.0000   117.4347     7.8854     8.0539
  317.5000   118.4512     7.8791     8.0403
  318.0000   119.7742     7.8729     8.0267
  318.5000   121.1104     7.8668     8.0133
  319.0000   120.8662     7.8607     7.9976
  319.5000   120.4759     7.8575     8.0037
  320.0000   120.9469     7.8568     7.8640
  320.5000   122.1857     7.6665     7.7898
  321.0000   125.3170     7.5007     7.7164
  321.5000   128.4011     7.3385     7.5207
  322.0000   129.9612     7.1810     7.3070
  322.5000   127.6830     6.9607     7.0993
  323.0000   125.5280     6.7471     6.8975
  323.5000   124.2906     6.5401     6.7015
  324.0000   123.0150     6.3395     6.5111
  324.5000   122.6629     6.1448     6.3260
  325.0000   123.6003     5.9551     6.1462
  325.5000   124.4566     5.7548     5.9219
  326.0000   122.7554     5.7581     5.9586
  326.5000   122.2178     5.7559     6.0090
  327.0000   122.3780     6.0222     6.1405
  327.5000   121.8503     6.2307     6.3478
  328.0000   120.3505     6.4465     6.5618
  328.5000   118.0346     6.6697     6.7830
  329.0000   118.0109     6.9007     7.0123
  329.5000   116.4634     7.2166     7.2470
  330.0000   114.2885     7.2132     7.3731
  330.5000   111.9690     7.2134     7.4249
  331.0000   112.6612     7.2170     7.4891
  331.5000   114.3392     6.6493     7.1005
  332.0000   115.7199     6.2714     6.6423
  332.5000   115.3029     5.9219     6.2123
  333.0000   114.9607     5.7716     5.8588
  333.5000   115.6616     5.6287     5.6292
  334.0000   116.3365     5.4917     5.5410
  334.5000   116.4871     5.3907     5.4416
  335.0000   115.7283     5.3907     5.5526
  335.5000   115.1039     5.7058     5.6839
  336.0000   116.4146     5.9327     5.8136
  336.5000   118.4596     6.1487     6.1567
  337.0000   119.6733     6.3118     6.4995
  337.5000   118.4096     6.6880     6.8594
  338.0000   117.7420     7.0866     7.2393
  338.5000   117.0727     7.5089     7.6435
  339.0000   115.0343     7.7336     7.9787
  339.5000   111.3308     7.8767     8.1608
  340.0000   107.5553     8.0225     8.3421
  340.5000   108.0112     8.1709     8.4800
  341.0000   110.2833     8.3221     8.5274
  341.5000   112.3399     8.4761     8.5750
  342.0000   111.1089     8.5837     8.6230
  342.5000   110.6808     8.6547     8.6712
  343.0000   111.5753     8.7263     8.7196
  343.5000   112.8748     8.7987     8.7683
  344.0000   111.2445     8.8705     8.8173
  344.5000   108.4594     8.9027     8.8666
  345.0000   107.4315     8.9415     8.9162
  345.5000   109.1423     8.9808     8.9660
  346.0000   110.9592     9.0202     9.0161
  346.5000   112.5831     9.0599     9.0665
  347.0000   111.0579     9.0997     9.1171
  347.5000   109.4425     9.1397     9.1680
  348.0000   107.8428     9.1799     9.2193
  348.5000   106.2287     9.2202     9.2708
  349.0000   105.7341     9.2607     9.3855
  349.5000   105.7210     9.2977     9.4845
  350.0000   105.5143     8.9473     9.5975
  350.5000   104.6582     8.6379     9.7120
  351.0000   104.0744     8.3391     9.7451
  351.5000   104.2653     8.0507     8.8099
  352.0000   106.4525     7.7722     8.1092
  352.5000   109.3404     7.4903     7.8110
  353.0000   112.3223     7.3049     7.5237
  353.5000   109.5403     7.0796     7.2470
  354.0000   104.8142     7.2554     7.0796
  354.5000   100.0127     7.5717     7.1312
  355.0000    98.3349     7.9948     7.5004
  355.5000    99.0497     8.5108     8.1361
  356.0000   100.1542     9.0594     8.8258
  356.5000   101.3344     9.6432     9.4021
  357.0000   104.3076    10.3395     9.9768
  357.5000   107.2859    10.9085    10.5866
  358.0000   108.9204    11.1522    11.2336
  358.5000   107.7764    11.4047    11.3264
  359.0000   106.4324    11.5268    11.3264
  359.5000   107.2259    11.6877    11.3264
  360.0000   109.3171    11.9055    11.3264
  360.5000   109.7916    12.1273    11.3264
  361.0000   103.6675    12.3935    11.9369
  361.5000    94.7308    13.0547    12.6450
  362.0000    84.0351    14.1429    13.2886
  362.5000    74.1564    15.3228    14.5823
  363.0000    69.5252    16.8286    16.0962
  363.5000    67.1121    18.6601    17.7670
  364.0000    64.4316    20.6979    19.6116
  364.5000    60.6780    22.9537    21.6487
  365.0000    56.9718    25.2548    23.8987
  365.5000    54.2271    26.8355    26.3733
  366.0000    54.6469    28.5273    27.8451
  366.5000    57.1717    29.8785    28.5546
  367.0000    59.5847    30.6888    29.2642
  367.5000    61.9789    31.5258    29.5058
  368.0000    64.3720    32.4887    29.7401
  368.5000    66.7717    32.4843    30.1868
  369.0000    69.2341    32.6386    30.7491
  369.5000    69.5149    32.7298    31.3219
  370.0000    68.0584    32.9509    31.8472
  370.5000    66.2789    33.3442    32.1403
  371.0000    62.9730    33.6946    32.4689
  371.5000    59.6792    34.2737    32.9272
  372.0000    57.3509    35.4050    34.2725
  372.5000    58.1194    36.5736    35.6728
  373.0000    59.1561    37.7808    37.1303
  373.5000    59.3604    38.4329    38.6474
  374.0000    59.7217    38.7958    40.2265
  374.5000    60.6354    38.7327    41.8701
  375.0000    61.5249    38.3614    42.2202
  375.5000    61.5509    37.9980    42.2202
  376.0000    60.7572    37.6387    41.4405
  376.5000    61.5491    37.3644    40.6826
  377.0000    64.6023    37.5308    39.9369
  377.5000    64.4517    37.6931    39.4380
