~VERSION INFORMATION
 VERS.                2.0:   CWLS LOG ASCII STANDARD - VERSION 2.0
 WRAP.                 NO:   ONE LINE PER DEPTH STEP
~WELL INFORMATION
#MNEM.UNIT      DATA TYPE    INFORMATION
#----------   ------------   ------------------------------
 STRT.F           30.0000:   START DEPTH
 STOP.F          440.0000:   STOP DEPTH
 STEP.F            0.5000:   STEP LENGTH
 NULL.          -999.2500:   NO VALUE
 COMP. LAWRENCE/ALLISON INC:   COMPANY
 WELL. NPR #3 #52-31 SX 10:   WELL
 FLD .             TEAPOT:   FIELD
 LOC .      S10 T38N R78W:   LOCATION
 CNTY.            NATRONA:   COUNTY
 STAT.            WYOMING:   STATE
 CTRY. UNITED STATES OF AMERICA:   COUNTRY
 SRVC.           Gearhart:   SERVICE COMPANY
 DATE.        27-SEP-1988:   LOGDATE
 API .       490251124800:   API NUMBER
~CURVE INFORMATION
#MNEM.UNIT       API CODE    CURVE DESCRIPTION
#----------   ------------   ------------------------------
 DEPT.F                  :   
 GRR .GAPI   07 310 01 00:   GAMMA RAY FROM RES. LOG.
 RLL .OHMM   07 220 00 00:   LATEROLOG RESISTIVITY
 ILD .OHMM   07 120 46 00:   INDUCTION LOG DEEP
 ILM .OHMM   07 120 44 00:   INDUCTION LOG MEDIUM
 SPR .MV     07 010 01 00:   SPONTANEOUS POTENTIAL
~PARAMETER INFORMATION
#MNEM.UNIT          VALUE    DESCRIPTION
#----------   ------------   ------------------------------
 PD  .                 GL:   PERMANENT DATUM
 EPD .F              5179:   ELEVATION PERMANENT DATUM
 LMF .                 KB:   LOG MEASURED FROM
 DAPD.F                 8:   FEET ABOVE PERMANENT DATUM
 DMF .                 KB:   DRILLING MEASURED FROM
 EKB .F              5187:   KELLING BUSHING
 EDF .F              5185:   DRILLING FLOOR
 EGL .F              5179:   GROUND LEVEL
 DATE.            9-27-88:   RUN DATE
 RUN .                  1:   RUN NUMBER
 DD  .F               441:   DEPTH DRILLER
 DL  .F               442:   DEPTH LOGGER
 BLI .F               441:   BOTTOM LOG INTERVAL
 TLI .F                40:   TOP LOG INTERVAL
 CS  .IN            9.625:   CASING SIZE
 CBD .F                50:   CASING BOTTOM DRILLER
 CBL .F                50:   CASING BOTTOM LOGGER
 BS  .IN             8.75:   BIT SIZE
 BSD .F               441:   BIT SIZE AT DEPTH
 DFT .                MUD:   DRILLING FLUID TYPE
 MSS .           MUD TANK:   MUD SAMPLE SOURCE
 RMS .OHMM              2:   RESISTIVITY MUD SAMPLE
 MST .F                64:   MUD SAMPLE TEMPERATURE
 RMF .OHMM            2.4:   RESISTIVITY MUD FILTRATE SAMPLE
 MFST.F                66:   MUD FILTRATE SAMPLE TEMPERATURE
 RMC .OHMM              3:   RESISTIVITY MUD CAKE
 MCST.F                67:   MUD CAKE SAMPLE TEMPERATURE
 MFSS.                  M:   MUD FILTRATE SAMPLE SOURCE
 MCSS.                  M:   MUD CAKE SAMPLE SOURCE
 RMB .OHMM            1.3:   RESISTIVITY MUD AT BHT
 BHT .F                70:   BOTTOM HOLE TEMPERATURE
 TCS .HRS            0910:   TIME CURCULATED STOPPED
 TLAB.HRS            1113:   TIME LOGGER AT BOTTOM
 MRT .F                70:   MAXIMUM RECORDED TEMPERATURE
 LUN .               7597:   LOGGING UNIT NUMBER
 LUL .           GILLETTE:   LOGGING UNIT LOCATION
 ENGI.         WEATHERMON:   RECORDING ENGINEER
 WITN.             STRONG:   WITNESSED BY
 CLNT.            A2DTECH:   CLIENT CODE
 ORIG.       2", 5" PRINT:   ORIGIN OF DATA
 UWI .       490251124800:   UNIQUE WELL ID
 DICO. A2D Technologies, Inc.:   DIGITIZING COMPANY
~OTHER INFORMATION
~A   DEPT       GRR       RLL        ILD        ILM        SPR   
# ...
  335.0000    80.0291    11.6014    13.6954    12.2992   -77.6642
  335.5000    80.9229    11.6179    13.8191    12.2599   -76.9984
  336.0000    80.8869    11.6338    13.9192    12.2209   -77.4567
  336.5000    80.5237    11.6507    14.7328    12.4586   -77.7672
  337.0000    79.7061    11.6660    15.5905    12.6838   -77.7644
  337.5000    78.9148    12.2083    16.4982    13.7265   -77.7696
  338.0000    76.3939    13.3150    17.4588    15.1772   -78.0616
  338.5000    73.2089    15.9383    18.4753    17.2753   -79.0161
  339.0000    70.5082    17.3612    19.5509    18.4075   -79.7985
  339.5000    70.2888    18.3897    20.6892    19.5822   -79.7796
  340.0000    70.0165    19.4790    21.8937    20.7575   -79.7707
  340.5000    69.7412    20.7575    23.1684    21.0928   -80.0758
  341.0000    69.4671    20.5480    24.3285    21.4147   -80.4244
  341.5000    69.1869    20.1415    25.1189    21.7353   -80.3511
  342.0000    68.5389    19.8150    25.9350    22.5915   -79.9308
  342.5000    66.4643    22.4819    26.7846    24.3907   -79.5042
  343.0000    63.1225    25.0162    27.7003    26.3372   -79.0831
  343.5000    60.8039    27.8362    27.6821    27.9777   -78.7811
  344.0000    59.7020    31.2445    27.6919    29.2765   -78.7240
  344.5000    60.5544    31.8307    27.6886    29.2895   -79.0079
  345.0000    61.8040    31.2445    27.6912    27.8436   -79.2979
  345.5000    65.0491    27.2419    27.3867    26.8016   -79.5893
  346.0000    68.4271    23.6743    27.0083    25.2227   -79.8806
  346.5000    71.0235    21.5531    26.6349    23.8561   -79.8643
  347.0000    71.9668    21.9810    26.2666    23.9636   -79.6160
  347.5000    69.1491    22.4887    25.9034    24.0613   -79.3668
  348.0000    64.7912    23.0082    25.5453    24.1577   -79.1175
  348.5000    62.5218    23.5397    25.0118    24.2544   -78.8665
  349.0000    65.8480    23.6420    24.4397    24.3104   -78.7739
  349.5000    70.3724    22.6343    23.8806    23.3517   -78.7722
  350.0000    73.3675    21.9518    23.3344    22.5994   -78.7723
  350.5000    72.7995    21.2898    22.8006    21.8713   -78.7718
  351.0000    72.1958    20.5745    22.3306    21.1667   -78.7758
  351.5000    71.9805    19.5481    21.6924    20.5835   -78.9093
  352.0000    72.3693    18.5667    21.3444    19.7803   -79.0524
  352.5000    72.6176    17.5670    21.5893    19.0086   -79.1717
  353.0000    72.1473    17.2360    21.8757    18.2250   -78.5478
  353.5000    71.6965    17.4996    22.3961    18.2250   -77.8480
  354.0000    71.3969    18.3458    23.2228    20.5575   -77.1519
  354.5000    72.6108    20.6103    24.0364    23.6695   -76.7237
  355.0000    73.0135    23.9600    24.7435    25.9556   -76.5626
  355.5000    69.5357    27.8661    25.4715    27.0025   -76.4034
  356.0000    65.6402    30.9555    26.2210    27.9472   -76.2454
  356.5000    62.4889    30.9555    26.6879    28.2081   -76.0866
  357.0000    62.4790    30.9555    26.1472    27.3109   -75.9267
  357.5000    65.5788    28.5021    25.6295    26.4736   -75.7588
  358.0000    69.0779    24.4681    25.1221    25.4322   -75.9396
  358.5000    72.5584    20.9675    24.3290    23.9027   -76.2014
  359.0000    74.6831    20.4900    23.4620    22.4701   -76.4637
  359.5000    73.4564    19.9524    22.6262    21.1258   -76.7256
  360.0000    71.7556    19.4147    22.0437    20.5407   -76.9867
  360.5000    70.6432    18.8916    21.5825    20.0809   -77.2490
  361.0000    72.8119    18.5669    21.1310    19.6227   -77.3474
  361.5000    74.7692    18.5983    20.9173    19.2756   -77.3075
  362.0000    74.8499    18.6214    20.8332    19.3605   -77.2655
  362.5000    73.8563    18.6445    20.7495    19.4251   -77.2236
  363.0000    73.1051    18.6676    20.6661    19.4900   -77.1809
  363.5000    73.8326    18.6906    20.5655    19.5551   -77.1218
  364.0000    74.5285    18.7139    20.5916    19.6203   -77.0042
  364.5000    74.6333    18.7383    20.6249    19.6947   -76.8880
  365.0000    72.5813    18.6420    20.6581    19.7708   -76.7717
  365.5000    70.6000    18.5300    20.6911    19.8477   -76.6555
  366.0000    68.5826    18.4179    20.7247    19.9243   -76.5392
  366.5000    68.1917    18.3956    20.7575    20.0000   -76.4226
  367.0000    69.1523    18.3958    20.5584    19.7446   -76.3093
  367.5000    71.6698    18.3951    20.3651    19.4973   -76.2008
  368.0000    74.2945    18.0335    20.1733    19.2530   -75.9161
  368.5000    76.9262    17.6417    19.9834    19.0118   -75.8180
  369.0000    79.4294    17.4590    19.7954    18.7736   -75.7258
  369.5000    78.5588    17.2910    19.6091    18.5384   -75.6347
  370.0000    77.1098    16.4538    19.4246    18.3062   -75.5565
  370.5000    75.8139    16.3642    19.2420    18.0768   -75.6134
  371.0000    75.5040    16.1658    19.0444    17.8503   -75.6699
  371.5000    75.1402    15.5614    18.7717    17.6267   -75.7188
  372.0000    74.7539    15.3997    18.5026    17.4059   -75.4548
  372.5000    75.5563    15.2426    18.2376    17.1878   -74.7695
  373.0000    76.8829    15.0871    17.9764    16.9725   -74.0876
  373.5000    76.1870    14.9333    17.7189    16.6644   -73.3993
  374.0000    73.9466    14.7810    17.4651    16.4897   -72.7307
  374.5000    71.8547    14.6302    17.2150    16.3170   -73.5179
  375.0000    72.2243    14.5182    16.9684    16.1460   -74.4941
  375.5000    72.5443    14.4249    16.7254    15.9768   -74.3231
  376.0000    71.7635    14.3322    16.4858    15.8094   -73.5811
  376.5000    71.0794    13.9534    16.2497    15.6438   -73.1650
  377.0000    72.1561    13.5118    16.0170    15.4799   -73.2445
  377.5000    73.2882    13.0795    15.8069    15.3177   -73.3256
  378.0000    74.4120    12.7770    15.6469    15.1572   -73.1106
  378.5000    75.5358    12.7000    15.4885    14.9984   -72.7900
  379.0000    76.6637    12.6838    15.3317    14.8412   -72.4676
  379.5000    76.7538    12.6838    15.1765    14.6856   -72.1454
  380.0000    75.3175    13.0424    15.0229    14.5318   -71.8102
  380.5000    73.9329    12.9987    14.8708    14.3796   -71.5299
  381.0000    73.0339    12.9505    14.7174    14.2557   -71.1438
  381.5000    73.5163    12.9101    14.7020    14.1540   -70.7582
  382.0000    74.7166    12.8814    14.6839    14.0530   -70.3718
  382.5000    75.9709    12.8527    14.6653    13.9528   -70.3206
  383.0000    75.8184    12.8240    14.6467    13.8532   -70.3211
  383.5000    75.2084    12.7955    14.6281    13.7904   -70.3220
  384.0000    74.5855    12.7670    14.6097    13.9429   -70.3231
  384.5000    74.1880    12.7385    14.5909    14.0557   -70.3331
  385.0000    76.1944    12.7101    14.5601    14.1803   -69.9506
  385.5000    78.4170    12.6818    14.4870    14.1197   -69.5195
  386.0000    79.2068    12.6536    14.4142    14.0530   -69.0861
  386.5000    77.2313    12.6253    14.3419    13.9866   -68.9917
  387.0000    75.2974    12.5971    14.2698    13.9204   -69.1799
  387.5000    75.0562    12.5665    14.1982    13.8546   -69.3708
  388.0000    76.6745    12.4572    14.1269    13.7892   -69.5618
  388.5000    77.6502    12.3373    14.0559    13.7240   -69.7247
  389.0000    77.0232    12.2187    13.9853    13.6591   -69.6436
  389.5000    77.4919    12.1011    13.9192    13.5945   -69.5492
  390.0000    79.3942    11.9959    13.8246    13.5364   -69.3983
  390.5000    81.2836    12.0710    13.7358    13.2893   -69.2256
  391.0000    83.1667    12.1546    13.6476    13.0678   -69.0510
  391.5000    84.4147    12.2388    13.5599    12.8499   -68.8800
  392.0000    84.9459    12.3350    13.4728    12.5665   -68.7188
  392.5000    84.9602    12.1558    13.4146    12.5926   -68.5567
  393.0000    84.7427    11.9519    13.5189    12.6315   -68.2127
  393.5000    84.5143    11.7508    13.4858    12.6705   -67.7950
  394.0000    84.3401    11.5571    13.4616    12.7097   -67.3756
  394.5000    85.2602    11.6071    13.4375    12.7490   -66.9618
  395.0000    86.2275    11.6677    13.4112    12.7883   -66.6921
  395.5000    84.9952    11.7285    13.3624    12.8279   -66.4508
