~VERSION INFORMATION
 VERS.                2.0:   CWLS LOG ASCII STANDARD - VERSION 2.0
 WRAP.                 NO:   ONE LINE PER DEPTH STEP
~WELL INFORMATION
#MNEM.UNIT      DATA TYPE    INFORMATION
#----------   ------------   ------------------------------
 STRT.F           10.0000:   START DEPTH
 STOP.F         2599.5000:   STOP DEPTH
 STEP.F            0.5000:   STEP LENGTH
 NULL.          -999.2500:   NO VALUE
 COMP. FENIX & SCISSON INC:   COMPANY
 WELL.   34-SHX-33 #34-33:   WELL
 FLD .             TEAPOT:   FIELD
 LOC .      S33 T39N R78W:   LOCATION
 CNTY.            NATRONA:   COUNTY
 STAT.            WYOMING:   STATE
 CTRY. UNITED STATES OF AMERICA:   COUNTRY
 SRVC.           BIRDWELL:   SERVICE COMPANY
 DATE.        20-FEB-1978:   LOGDATE
 API .       490251058400:   API NUMBER
~CURVE INFORMATION
#MNEM.UNIT       API CODE    CURVE DESCRIPTION
#----------   ------------   ------------------------------
 DEPT.F                  :   
 GR  .GAPI   30 310 01 00:   GAMMA RAY
 CALI.IN     70 280 01 00:   CALIPER
~PARAMETER INFORMATION
#MNEM.UNIT          VALUE    DESCRIPTION
#----------   ------------   ------------------------------
 PD  .                 GL:   PERMANENT DATUM
 EPD .F              5174:   ELEVATION PERMANENT DATUM
 LMF .                 KB:   LOG MEASURED FROM
 DAPD.F                10:   FEET ABOVE PERMANENT DATUM
 DMF .                 KB:   DRILLING MEASURED FROM
 EKB .F              5184:   KELLING BUSHING
 EGL .F              5174:   GROUND LEVEL
 DATE.            2-20-78:   RUN DATE
 RUN .                  1:   RUN NUMBER
 DD  .F              2590:   DEPTH DRILLER
 DL  .F              2600:   DEPTH LOGGER
 BLI .F              2600:   BOTTOM LOG INTERVAL
 CS  .IN            8.625:   CASING SIZE
 CBD .F               737:   CASING BOTTOM DRILLER
 BS  .IN            8.625:   BIT SIZE
 BSD .F              2590:   BIT SIZE AT DEPTH
 TCS .HRS               2:   TIME CURCULATED STOPPED
 LUL .             CASPER:   LOGGING UNIT LOCATION
 ENGI.             MILLER:   RECORDING ENGINEER
 WITN.           MCGINLEY:   WITNESSED BY
 CLNT.            A2DTECH:   CLIENT CODE
 ORIG.           5" PRINT:   ORIGIN OF DATA
 UWI .       490251058400:   UNIQUE WELL ID
 DICO. A2D Technologies, Inc.:   DIGITIZING COMPANY
~OTHER INFORMATION
~A   DEPT        GR      CALI   
# ...
  496.0000    87.2595  -999.2500
  496.5000    84.6706  -999.2500
  497.0000    83.7633  -999.2500
  497.5000    83.7394  -999.2500
  498.0000    85.1423  -999.2500
  498.5000    89.3862  -999.2500
  499.0000    93.7725  -999.2500
  499.5000    93.6335  -999.2500
  500.0000    91.1914  -999.2500
  500.5000    88.0265  -999.2500
  501.0000    83.1498  -999.2500
  501.5000    80.2884  -999.2500
  502.0000    80.1420  -999.2500
  502.5000    81.8506  -999.2500
  503.0000    84.7498  -999.2500
  503.5000    88.1717  -999.2500
  504.0000    91.5889  -999.2500
  504.5000    93.7512  -999.2500
  505.0000    93.6736  -999.2500
  505.5000    91.4425  -999.2500
  506.0000    89.3125  -999.2500
  506.5000    89.5456  -999.2500
  507.0000    90.0165  -999.2500
  507.5000    90.4661  -999.2500
  508.0000    89.6841  -999.2500
  508.5000    88.7801  -999.2500
  509.0000    87.9611  -999.2500
  509.5000    88.8482  -999.2500
  510.0000    91.1756  -999.2500
  510.5000    92.6850  -999.2500
  511.0000    93.1794  -999.2500
  511.5000    93.6709  -999.2500
  512.0000    92.2363  -999.2500
  512.5000    89.9650  -999.2500
  513.0000    87.7473  -999.2500
  513.5000    88.2064  -999.2500
  514.0000    88.7009  -999.2500
  514.5000    87.1908  -999.2500
  515.0000    85.7142  -999.2500
  515.5000    85.5563  -999.2500
  516.0000    87.8390  -999.2500
  516.5000    89.4663  -999.2500
  517.0000    90.5435  -999.2500
  517.5000    92.7726  -999.2500
  518.0000    95.5838  -999.2500
  518.5000    96.8091  -999.2500
  519.0000    95.0294  -999.2500
  519.5000    92.9377  -999.2500
  520.0000    91.1553  -999.2500
  520.5000    93.7020  -999.2500
  521.0000    96.6217  -999.2500
  521.5000    99.5316  -999.2500
  522.0000    99.3550  -999.2500
  522.5000    98.3705  -999.2500
  523.0000    98.5833  -999.2500
  523.5000    98.9438  -999.2500
  524.0000    93.3168  -999.2500
  524.5000    85.9340  -999.2500
  525.0000    81.7064  -999.2500
  525.5000    83.9727  -999.2500
  526.0000    88.9737  -999.2500
  526.5000    93.7773  -999.2500
  527.0000    96.2536  -999.2500
  527.5000    93.5782  -999.2500
  528.0000    90.2976  -999.2500
  528.5000    86.9553  -999.2500
  529.0000    83.6312  -999.2500
  529.5000    81.3813  -999.2500
  530.0000    81.8548  -999.2500
  530.5000    86.8207  -999.2500
  531.0000    91.7747  -999.2500
  531.5000    96.7083  -999.2500
  532.0000   100.6423  -999.2500
  532.5000   101.6659  -999.2500
  533.0000   101.8428  -999.2500
  533.5000   101.9232  -999.2500
  534.0000   100.5943  -999.2500
  534.5000    99.3037  -999.2500
  535.0000    98.0325  -999.2500
  535.5000    96.7698  -999.2500
  536.0000    96.3587  -999.2500
  536.5000    97.0677  -999.2500
  537.0000    97.6684  -999.2500
  537.5000    96.7029  -999.2500
  538.0000    96.1216  -999.2500
  538.5000    98.7590  -999.2500
  539.0000    97.3134  -999.2500
  539.5000    95.3266  -999.2500
  540.0000    96.5244  -999.2500
  540.5000    99.4782  -999.2500
  541.0000    99.2173  -999.2500
  541.5000    97.7474  -999.2500
  542.0000    96.4042  -999.2500
  542.5000    91.0000  -999.2500
  543.0000    85.0232  -999.2500
  543.5000    84.4075  -999.2500
  544.0000    94.3608  -999.2500
  544.5000    97.0227  -999.2500
  545.0000    99.1304  -999.2500
  545.5000   103.8064  -999.2500
  546.0000   117.8077  -999.2500
  546.5000   130.8474  -999.2500
  547.0000   137.2699  -999.2500
  547.5000   143.9302  -999.2500
  548.0000   148.3467  -999.2500
  548.5000   147.7808  -999.2500
  549.0000   146.4218  -999.2500
  549.5000   137.4442  -999.2500
  550.0000   120.5519  -999.2500
  550.5000    94.6354  -999.2500
  551.0000    91.9463  -999.2500
  551.5000    93.1273  -999.2500
  552.0000    94.2921  -999.2500
  552.5000    93.3776  -999.2500
  553.0000    92.1200  -999.2500
  553.5000    91.5030  -999.2500
  554.0000    92.4199  -999.2500
  554.5000    93.3338  -999.2500
  555.0000    93.9532  -999.2500
  555.5000    94.6622  -999.2500
  556.0000    95.3689  -999.2500
  556.5000    95.7058  -999.2500
  557.0000    95.8787  -999.2500
  557.5000    96.0153  -999.2500
  558.0000    95.2166  -999.2500
  558.5000    94.3746  -999.2500
  559.0000    93.6517  -999.2500
  559.5000    94.3619  -999.2500
  560.0000    94.8334  -999.2500
  560.5000    93.5717  -999.2500
  561.0000    93.9539  -999.2500
  561.5000    97.7935  -999.2500
  562.0000    99.3316  -999.2500
  562.5000    97.0642  -999.2500
  563.0000    94.7167  -999.2500
  563.5000    93.2122  -999.2500
  564.0000    91.9529  -999.2500
  564.5000    91.2911  -999.2500
  565.0000    91.2590  -999.2500
  565.5000    92.8090  -999.2500
  566.0000    95.3024  -999.2500
  566.5000    94.5560  -999.2500
  567.0000    93.2910  -999.2500
  567.5000    91.9994  -999.2500
  568.0000    90.7278  -999.2500
  568.5000    89.7620  -999.2500
  569.0000    90.2933  -999.2500
  569.5000    90.1899  -999.2500
  570.0000    89.6925  -999.2500
  570.5000    89.4040  -999.2500
  571.0000    93.5015  -999.2500
  571.5000    97.3494  -999.2500
  572.0000    96.3649  -999.2500
  572.5000    94.8110  -999.2500
  573.0000    95.2024  -999.2500
  573.5000   100.5886  -999.2500
  574.0000   105.0772  -999.2500
  574.5000   102.4949  -999.2500
  575.0000    96.9924  -999.2500
  575.5000    90.9705  -999.2500
  576.0000    89.4605  -999.2500
  576.5000    94.8066  -999.2500
  577.0000    95.8681  -999.2500
  577.5000    93.8817  -999.2500
  578.0000    91.7975  -999.2500
  578.5000    89.7322  -999.2500
  579.0000    87.6759  -999.2500
  579.5000    87.6014  -999.2500
  580.0000    90.7399  -999.2500
  580.5000    91.5517  -999.2500
  581.0000    91.8851  -999.2500
  581.5000    92.3641  -999.2500
  582.0000    93.0923  -999.2500
  582.5000    93.8104  -999.2500
  583.0000    94.5435  -999.2500
  583.5000    94.9545  -999.2500
  584.0000    91.2168  -999.2500
  584.5000    86.5067  -999.2500
  585.0000    81.7224  -999.2500
  585.5000    78.3710  -999.2500
  586.0000    88.6481  -999.2500
  586.5000   100.2549  -999.2500
  587.0000   103.9302  -999.2500
  587.5000   105.2007  -999.2500
  588.0000   106.5616  -999.2500
  588.5000   111.5049  -999.2500
  589.0000   118.0886  -999.2500
  589.5000   120.1761  -999.2500
  590.0000   104.6600  -999.2500
  590.5000    90.2648  -999.2500
  591.0000    87.2498  -999.2500
  591.5000    90.3638  -999.2500
  592.0000    94.5262  -999.2500
  592.5000    94.9678  -999.2500
  593.0000    93.3190  -999.2500
  593.5000    91.7720  -999.2500
  594.0000    92.8414  -999.2500
  594.5000    92.2590  -999.2500
  595.0000    90.6548  -999.2500
  595.5000    89.2934  -999.2500
  596.0000    90.7233  -999.2500
  596.5000    91.7005  -999.2500
  597.0000    91.6963  -999.2500
  597.5000    91.6307  -999.2500
  598.0000    88.6285  -999.2500
  598.5000    85.6803  -999.2500
  599.0000    85.2844  -999.2500
  599.5000    88.1721  -999.2500
  600.0000    92.0996  -999.2500
  600.5000    95.9492  -999.2500
  601.0000    96.2322  -999.2500
  601.5000    89.3222  -999.2500
  602.0000    83.7797  -999.2500
  602.5000    78.7346  -999.2500
  603.0000    78.2111  -999.2500
  603.5000    79.7334  -999.2500
  604.0000    84.5608  -999.2500
  604.5000    89.3337  -999.2500
  605.0000    94.1156  -999.2500
  605.5000    98.7645  -999.2500
  606.0000    98.3501  -999.2500
  606.5000    96.1599  -999.2500
  607.0000    93.0179  -999.2500
  607.5000    88.2496  -999.2500
  608.0000    83.4873  -999.2500
  608.5000    78.8296  -999.2500
  609.0000    78.2068  -999.2500
  609.5000    80.7550  -999.2500
  610.0000    85.2426  -999.2500
  610.5000    86.9012  -999.2500
  611.0000    83.9820  -999.2500
  611.5000    81.4083  -999.2500
  612.0000    82.2867  -999.2500
  612.5000    82.3762  -999.2500
  613.0000    77.1033  -999.2500
  613.5000    70.1808  -999.2500
  614.0000    63.7937  -999.2500
  614.5000    61.0568  -999.2500
  615.0000    58.8422  -999.2500
  615.5000    58.7486  -999.2500
  616.0000    60.2351  -999.2500
  616.5000    61.5921  -999.2500
  617.0000    61.0797  -999.2500
