~VERSION INFORMATION
 VERS.                2.0:   CWLS LOG ASCII STANDARD - VERSION 2.0
 WRAP.                 NO:   ONE LINE PER DEPTH STEP
~WELL INFORMATION
#MNEM.UNIT      DATA TYPE    INFORMATION
#----------   ------------   ------------------------------
 STRT.F           34.5000:   START DEPTH
 STOP.F          756.0000:   STOP DEPTH
 STEP.F            0.5000:   STEP LENGTH
 NULL.          -999.2500:   NO VALUE
 COMP. FENIX & SCISSON INC:   COMPANY
 WELL.    36 SX 11 #36-11:   WELL
 FLD .        TEAPOT DOME:   FIELD
 LOC .      S11 T38N R78W:   LOCATION
 CNTY.            NATRONA:   COUNTY
 STAT.            WYOMING:   STATE
 CTRY. UNITED STATES OF AMERICA:   COUNTRY
 SRVC.           BIRDWELL:   SERVICE COMPANY
 DATE.        21-FEB-1978:   LOGDATE
 API .       490251059700:   API NUMBER
~CURVE INFORMATION
#MNEM.UNIT       API CODE    CURVE DESCRIPTION
#----------   ------------   ------------------------------
 DEPT.F                  :   
 SPR .MV     05 010 01 00:   SPONTANEOUS POTENTIAL FROM RES.
 SN  .OHMM   05 040 16 00:   SHORT NORMAL 16"
 ILD .OHMM   05 120 46 00:   INDUCTION LOG DEEP
 RHOB.G/C3   45 350 01 00:   BULK DENSITY
 DPHI.DEC    45 890 12 00:   DENSITY POROSITY SANDSTONE
 GRD .GAPI   45 310 01 00:   GAMMA RAY FROM DENSITY LOG
 CALD.IN     45 280 60 00:   CALIPER
 CORR.G/C3   45 356 01 00:   DENSITY CORRECTION
~PARAMETER INFORMATION
#MNEM.UNIT          VALUE    DESCRIPTION
#----------   ------------   ------------------------------
 PD  .                 GL:   PERMANENT DATUM
 EPD .F              5175:   ELEVATION PERMANENT DATUM
 LMF .                 KB:   LOG MEASURED FROM
 DAPD.F                 4:   FEET ABOVE PERMANENT DATUM
 DMF .                 KB:   DRILLING MEASURED FROM
 EKB .F              5179:   KELLING BUSHING
 EGL .F              5175:   GROUND LEVEL
 DATE.          2-21-1978:   RUN DATE
 RUN .                  1:   RUN NUMBER
 DD  .F               765:   DEPTH DRILLER
 DL  .F               760:   DEPTH LOGGER
 BLI .F               754:   BOTTOM LOG INTERVAL
 TLI .F                40:   TOP LOG INTERVAL
 CS  .IN            8.625:   CASING SIZE
 CBD .F                39:   CASING BOTTOM DRILLER
 CBL .F                40:   CASING BOTTOM LOGGER
 BS  .IN            7.875:   BIT SIZE
 BSD .F               765:   BIT SIZE AT DEPTH
 DFT .         LIGNO/SULF:   DRILLING FLUID TYPE
 DFD .                8.6:   DRILLING FLUID DENSITY
 DFV .                 33:   DRILLING FLUID VISCOSITY
 DFPH.               10.5:   DRILLING FLUID PH
 DFL .                 84:   DRILLING FLUID LOSS
 MSS .          FLOW LINE:   MUD SAMPLE SOURCE
 RMS .OHMM            1.8:   RESISTIVITY MUD SAMPLE
 MST .F                56:   MUD SAMPLE TEMPERATURE
 RMF .OHMM            1.8:   RESISTIVITY MUD FILTRATE SAMPLE
 MFST.F                58:   MUD FILTRATE SAMPLE TEMPERATURE
 RMC .OHMM              4:   RESISTIVITY MUD CAKE
 MCST.F                62:   MUD CAKE SAMPLE TEMPERATURE
 MFSS.               MEAS:   MUD FILTRATE SAMPLE SOURCE
 RMB .OHMM           1.48:   RESISTIVITY MUD AT BHT
 BHT .F                68:   BOTTOM HOLE TEMPERATURE
 TCS .HRS               5:   TIME CURCULATED STOPPED
 MRT .F                68:   MAXIMUM RECORDED TEMPERATURE
 LUN .               2958:   LOGGING UNIT NUMBER
 LUL .               CASP:   LOGGING UNIT LOCATION
 ENGI.            POINTER:   RECORDING ENGINEER
 WITN.           MCGINLEY:   WITNESSED BY
 CLNT.            A2DTECH:   CLIENT CODE
 ORIG.       2", 5" PRINT:   ORIGIN OF DATA
 UWI .       490251059700:   UNIQUE WELL ID
 DICO. A2D Technologies, Inc.:   DIGITIZING COMPANY
~OTHER INFORMATION
~A   DEPT      SPR         SN        ILD       RHOB       DPHI         GRD      CALD       CORR   
# ...
  682.5000   -30.6407     9.6769     8.8729     2.4904     0.1071    92.7567     8.0481     0.0247
  683.0000   -30.7158     9.8917     8.9767     2.4995     0.1030    90.9972     8.0408     0.0234
  683.5000   -30.7911    10.1113     9.0817     2.5001     0.1037    90.2474     8.0335     0.0215
  684.0000   -30.8675    10.3359     9.2339     2.4952     0.1059    89.5209     8.0262     0.0220
  684.5000   -30.9422    10.5654     9.4952     2.4904     0.1078    89.2430     8.0190     0.0247
  685.0000   -30.7941    10.7964     9.7639     2.4855     0.1089    92.1756     8.0117     0.0212
  685.5000   -30.6253    10.9076     9.9673     2.4806     0.1098    93.1648     8.0044     0.0191
  686.0000   -30.6537    11.0213    10.0214     2.4806     0.1102    90.6399     7.9971     0.0238
  686.5000   -30.9944    11.0141    10.0757     2.4876     0.1088    88.9461     7.9898     0.0288
  687.0000   -31.3282    11.1471    10.1304     2.4951     0.1064    89.9742     7.9825     0.0290
  687.5000   -31.5274    11.2338    10.1853     2.4983     0.1040    89.7028     7.9752     0.0286
  688.0000   -31.4380    11.3213    10.2405     2.4990     0.1026    89.9686     7.9713     0.0282
  688.5000   -31.3539    11.4094    10.2961     2.4997     0.1038    90.0311     7.9681     0.0279
  689.0000   -31.2705    11.4982    10.3519     2.4936     0.1052    89.5233     7.9650     0.0275
  689.5000   -31.1826    11.5877    10.4205     2.4865     0.1065    84.0054     7.9619     0.0273
  690.0000   -31.4392    11.6437    10.4107     2.4858     0.1070    77.7564     7.9587     0.0316
  690.5000   -31.6486    11.6437    10.3981     2.4930     0.1017    74.4512     7.9556     0.0418
  691.0000   -31.3524    11.6437    10.3854     2.4992     0.0962    73.6812     7.9524     0.0405
  691.5000   -31.0604    11.6437    10.3727     2.4945     0.1036    77.6318     7.9493     0.0376
  692.0000   -31.0664    11.6436    10.3600     2.4897     0.1095    81.5017     7.9462     0.0358
  692.5000   -31.2565    11.6457    10.3473     2.4851     0.1106    85.3779     7.9430     0.0442
  693.0000   -31.4498    11.5853    10.3347     2.4827     0.1124    87.6756     7.9398     0.0525
  693.5000   -31.6410    11.4906    10.3198     2.4773     0.1143    88.4329     7.9366     0.0518
  694.0000   -31.6776    11.3967    10.2955     2.4691     0.1162    89.1795     7.9341     0.0529
  694.5000   -31.4908    11.3200    10.2716     2.4689     0.1182    90.1143     7.9586     0.0812
  695.0000   -31.3066    11.3001    10.2478     2.4708     0.1208    91.9539     7.9852     0.0962
  695.5000   -31.1208    11.2799    10.2239     2.4702     0.1236    91.4096     8.0117     0.0711
  696.0000   -30.9548    11.2598    10.2002     2.4620     0.1262    91.6456     8.0381     0.0373
  696.5000   -31.0524    11.2397    10.1765     2.4537     0.1253    91.9415     8.0649     0.0169
  697.0000   -31.1555    11.2231    10.1526     2.4552     0.1208    90.3514     8.0680     0.0174
  697.5000   -31.2573    11.1354    10.1044     2.4633     0.1166    90.0057     8.0582     0.0176
  698.0000   -31.3483    11.0056     9.9890     2.4766     0.1140    93.0184     8.0450     0.0179
  698.5000   -31.4008    10.8783     9.8749     2.4877     0.1111    93.4029     8.0305     0.0182
  699.0000   -31.4569    10.7526     9.7620     2.4892     0.1083    92.7588     8.0159     0.0185
  699.5000   -31.5136    10.6293     9.6505     2.4900     0.1074    91.5198     8.0014     0.0188
  700.0000   -31.5702    10.5158     9.5403     2.4905     0.1064    90.2723     7.9970     0.0190
  700.5000   -31.6269    10.3098     9.4313     2.4910     0.1070    90.7440     8.0033     0.0193
  701.0000   -31.6838    10.1222     9.3236     2.4915     0.1074    92.6052     8.0094     0.0196
  701.5000   -31.7451     9.9410     9.2171     2.4932     0.1068    94.2386     8.0157     0.0199
  702.0000   -31.6138     9.8236     9.1118     2.4955     0.1061    95.4157     8.0219     0.0202
  702.5000   -31.4283     9.7310     9.0076     2.4965     0.1054    96.6250     8.0282     0.0204
  703.0000   -31.2417     9.6379     8.9049     2.4969     0.1046    97.8676     8.0340     0.0207
  703.5000   -31.0553     9.5456     8.8152     2.4973     0.1042    99.9032     8.0322     0.0210
  704.0000   -30.8686     9.4543     8.7793     2.4977     0.1043   100.7778     8.0300     0.0208
  704.5000   -30.6832     9.3637     8.7430     2.4981     0.1047    99.5067     8.0278     0.0205
  705.0000   -30.5532     9.2740     8.7070     2.4985     0.1052   100.1541     8.0256     0.0203
  705.5000   -30.6116     9.1854     8.6710     2.4982     0.1054   100.8197     8.0235     0.0200
  706.0000   -30.6658     9.1553     8.6352     2.4968     0.1052   101.0701     8.0213     0.0197
  706.5000   -30.7197     9.1553     8.5996     2.4946     0.1047    97.3562     8.0191     0.0195
  707.0000   -30.8090     9.1553     8.5749     2.5024     0.1042    95.4607     8.0170     0.0192
  707.5000   -30.9322     9.1553     8.5615     2.5097     0.1042    95.2195     8.0148     0.0189
  708.0000   -31.0553     9.1553     8.5481     2.5068     0.1032    95.6861     8.0126     0.0185
  708.5000   -31.1778     9.1553     8.5347     2.5022     0.1019    97.3780     8.0105     0.0180
  709.0000   -31.3029     9.1554     8.5214     2.4975     0.1006    99.1727     8.0083     0.0175
  709.5000   -31.2530     9.1559     8.5077     2.4929     0.0994    99.4559     8.0062     0.0171
  710.0000   -31.0931     9.1559     8.4581     2.4883     0.0981    99.4626     8.0040     0.0185
  710.5000   -30.9307     9.0572     8.3811     2.4914     0.0968    99.7145     8.0019     0.0219
  711.0000   -30.7676     8.9576     8.3047     2.4971     0.0955   100.8541     7.9997     0.0253
  711.5000   -30.7747     8.8592     8.2291     2.5031     0.0944   101.9480     7.9975     0.0287
  712.0000   -30.8088     8.7620     8.1542     2.5032     0.0930   102.4760     7.9954     0.0322
  712.5000   -30.8434     8.6659     8.0799     2.5015     0.0945    97.8724     7.9941     0.0330
  713.0000   -30.8776     8.5708     8.0063     2.5057     0.0955    92.7851     7.9948     0.0310
  713.5000   -30.9121     8.5024     7.9334     2.5111     0.0939    91.5350     7.9954     0.0260
  714.0000   -30.9459     8.4229     7.8645     2.5057     0.0922    96.5826     7.9961     0.0185
  714.5000   -30.9303     8.3498     7.7997     2.4857     0.0990    98.8321     7.9967     0.0107
  715.0000   -30.9114     8.2773     7.7354     2.4804     0.1054    98.9893     7.9974     0.0105
  715.5000   -30.8927     8.2054     7.6717     2.4827     0.1050    99.0761     7.9980     0.0138
  716.0000   -30.8741     8.1341     7.6085     2.4862     0.1036    98.6121     7.9986     0.0172
  716.5000   -30.8554     8.0634     7.5458     2.4897     0.1022    98.2400     7.9993     0.0188
  717.0000   -30.8368     7.9933     7.4836     2.4915     0.0997    97.8351     7.9999     0.0178
  717.5000   -30.8182     7.9241     7.4220     2.4957     0.0966    99.1080     8.0005     0.0169
  718.0000   -30.7995     7.8962     7.3608     2.4995     0.1066   101.7935     8.0012     0.0160
  718.5000   -30.7807     7.9250     7.3002     2.4914     0.1124   106.4059     8.0018     0.0150
  719.0000   -30.7620     7.9456     7.2656     2.4828     0.1127   110.9327     8.0025     0.0141
  719.5000   -30.7585     7.9664     7.3743     2.4742     0.1198   113.8959     8.0031     0.0132
  720.0000   -30.8662     8.1295     7.4516     2.4655     0.1254   108.2488     8.0037     0.0135
  720.5000   -30.9744     8.3754     7.5296     2.4608     0.1108   101.4426     8.0044     0.0146
  721.0000   -31.0837     8.6563     7.6969     2.4656     0.1032   103.2638     8.0050     0.0236
  721.5000   -31.2872     8.9466     7.8939     2.4805     0.1008   105.3301     8.0056     0.0310
  722.0000   -31.6540     9.2467     8.3012     2.4948     0.0984   102.9022     8.0063     0.0278
  722.5000   -32.0276     9.5569     8.7744     2.5080     0.0958   101.5669     8.0069     0.0247
