~VERSION INFORMATION
 VERS.                2.0:   CWLS LOG ASCII STANDARD - VERSION 2.0
 WRAP.                 NO:   ONE LINE PER DEPTH STEP
~WELL INFORMATION
#MNEM.UNIT      DATA TYPE    INFORMATION
#----------   ------------   ------------------------------
 STRT.F            2.5000:   START DEPTH
 STOP.F          548.0000:   STOP DEPTH
 STEP.F            0.5000:   STEP LENGTH
 NULL.          -999.2500:   NO VALUE
 COMP. LAWRENCE/ALLISON INC:   COMPANY
 WELL.    55-61 SX #10-10:   WELL
 FLD .           N.P.R #3:   FIELD
 LOC .      S10 T38N R78W:   LOCATION
 CNTY.            NATRONA:   COUNTY
 STAT.            WYOMING:   STATE
 CTRY. UNITED STATES OF AMERICA:   COUNTRY
 SRVC.            Unknown:   SERVICE COMPANY
 DATE.        05-SEP-1984:   LOGDATE
 API .       490251098100:   API NUMBER
~CURVE INFORMATION
#MNEM.UNIT       API CODE    CURVE DESCRIPTION
#----------   ------------   ------------------------------
 DEPT.F                  :   
 GRR .GAPI   07 310 01 00:   GAMMA RAY FROM RES
 SPR .MV     07 010 01 00:   SPONTANEOUS POTENTIAL
 RFOC.OHMM   07 220 04 00:   RESISTIVITY FOCUSED LOG
 RILD.OHMM   07 120 46 00:   INDUCTION LOG DEEP RESISTIVITY
 RILM.OHMM   07 120 44 00:   INDUCTION LOG MEDIUM RESISTIVITY
 CALD.IN     45 280 60 00:   CALIPER FROM DENSITY LOG
 DEN .G/C3   45 350 01 00:   COMPENSATED BULK DENSTIY
 CNC .DEC    42 890 03 00:   NEUTRON POROSITY SANDSTONE
 PORD.DEC    45 890 12 00:   POROSITY DENSITY SANDSTONE
 CORR.G/C3   45 356 01 00:   DENSITY CORRECTION
 AC  .US/F   60 520 00 00:   ACCOUSTIC SONIC
~PARAMETER INFORMATION
#MNEM.UNIT          VALUE    DESCRIPTION
#----------   ------------   ------------------------------
 PD  .                 GL:   PERMANENT DATUM
 EPD .F              5191:   ELEVATION PERMANENT DATUM
 LMF .                 KB:   LOG MEASURED FROM
 DAPD.F                12:   FEET ABOVE PERMANENT DATUM
 DMF .                 KB:   DRILLING MEASURED FROM
 EKB .F              5203:   KELLING BUSHING
 EGL .F              5191:   GROUND LEVEL
 DATE.         5-SEP-1984:   RUN DATE
 RUN .                  1:   RUN NUMBER
 DD  .F               540:   DEPTH DRILLER
 DL  .F               550:   DEPTH LOGGER
 BLI .F               548:   BOTTOM LOG INTERVAL
 CS  .IN            8.625:   CASING SIZE
 CBD .F                42:   CASING BOTTOM DRILLER
 CBL .F                54:   CASING BOTTOM LOGGER
 BS  .IN            7.875:   BIT SIZE
 BSD .F               540:   BIT SIZE AT DEPTH
 DFT .        KCL POLYMER:   DRILLING FLUID TYPE
 MSS .           FLOWLINE:   MUD SAMPLE SOURCE
 RMS .OHMM            .79:   RESISTIVITY MUD SAMPLE
 MST .F                74:   MUD SAMPLE TEMPERATURE
 RMF .OHMM            .59:   RESISTIVITY MUD FILTRATE SAMPLE
 MFST.F                74:   MUD FILTRATE SAMPLE TEMPERATURE
 RMC .OHMM            .99:   RESISTIVITY MUD CAKE
 MCST.F                74:   MUD CAKE SAMPLE TEMPERATURE
 MFSS.               CALC:   MUD FILTRATE SAMPLE SOURCE
 MCSS.               CALC:   MUD CAKE SAMPLE SOURCE
 RMB .OHMM            .65:   RESISTIVITY MUD AT BHT
 BHT .F                90:   BOTTOM HOLE TEMPERATURE
 TCS .HRS               3:   TIME CURCULATED STOPPED
 MRT .F                90:   MAXIMUM RECORDED TEMPERATURE
 LUN .               6274:   LOGGING UNIT NUMBER
 LUL .               GLTE:   LOGGING UNIT LOCATION
 ENGI.             RAUTIO:   RECORDING ENGINEER
 WITN.            JOHNSON:   WITNESSED BY
 CLNT.            A2DTECH:   CLIENT CODE
 ORIG. 2", 2.5", 5" PRINT:   ORIGIN OF DATA
 UWI .       490251098100:   UNIQUE WELL ID
 DICO. A2D Technologies, Inc.:   DIGITIZING COMPANY
~OTHER INFORMATION
~A    DEPT      GRR       SPR       RFOC       RILD       RILM       CALD        DEN        CNC       PORD       CORR         AC   
# ...
  429.5000    95.6230   -71.9240    11.2550    10.5560    10.3250     7.8890     2.4970     0.2700     0.1060     0.0070    91.7870
  430.0000    94.8650   -72.1050    11.4220    10.5390    10.3250     7.8900     2.4990     0.2660     0.1100     0.0070    91.8600
  430.5000    95.7550   -72.2870    11.2150    10.5220    10.2980     7.8910     2.5030     0.2670     0.1080     0.0150    92.2410
  431.0000    97.5630   -72.3520    11.2150    10.5160    10.1820     7.8930     2.5060     0.2690     0.1040     0.0230    92.6220
  431.5000    98.9120   -72.1660    10.9990    10.5170    10.0660     7.8940     2.5030     0.2700     0.1040     0.0150    93.0030
  432.0000    99.1440   -71.9780    10.7490    10.4080     9.9500     7.8950     2.5030     0.2700     0.1050     0.0060    93.3840
  432.5000    97.0310   -71.7940    10.4990    10.2430     9.8350     7.8970     2.5010     0.2760     0.1060     0.0010    93.7650
  433.0000    95.0960   -71.9010    10.3680    10.0780     9.7190     7.8980     2.4930     0.2820     0.1090     0.0020    94.1460
  433.5000    94.6600   -72.0260    10.2920     9.9130     9.6030     7.8990     2.4870     0.2880     0.1140     0.0030    94.5270
  434.0000    96.7030   -72.1510    10.2160     9.7480     9.4870     7.9010     2.4840     0.2860     0.1180     0.0100    94.8800
  434.5000    99.1140   -72.2760    10.1400     9.5830     9.3710     7.9020     2.4860     0.2790     0.1180     0.0050    94.7830
  435.0000    98.7840   -72.4000    10.0630     9.4210     9.2480     7.9030     2.4960     0.2730     0.1140    -0.0060    94.6920
  435.5000    98.4160   -72.5250     9.9870     9.2620     9.2230     7.9040     2.5120     0.2700     0.1050    -0.0110    94.6010
  436.0000    98.6360   -72.5270     9.9110     9.1020     9.1520     7.9060     2.5190     0.2730     0.0980     0.0020    94.5100
  436.5000    99.7600   -72.2970     9.8350     8.9430     9.0790     7.9070     2.5070     0.2790     0.1010     0.0150    94.5970
  437.0000   100.4000   -72.0690     9.7580     8.7840     8.9140     7.9070     2.4940     0.2850     0.1080     0.0170    94.7640
  437.5000   100.4020   -71.8420     9.6780     8.6240     8.5570     7.9070     2.4920     0.2860     0.1130     0.0090    94.9300
  438.0000   101.5950   -71.6210     9.9300     8.3320     8.1950     7.9070     2.4920     0.2910     0.1120     0.0010    95.0800
  438.5000   104.7070   -71.3300    10.3250     7.9020     7.8330     7.9070     2.4810     0.2990     0.1140    -0.0070    95.9440
  439.0000   102.9230   -70.9510    10.0080     7.4870     7.5500     7.9070     2.4640     0.3030     0.1230     0.0020    98.1100
  439.5000   100.0820   -70.5730     9.0520     7.2770     7.5230     7.9070     2.4510     0.2950     0.1360     0.0090   100.4580
  440.0000    97.5250   -70.1910     8.0970     7.0860     7.4870     7.9070     2.4470     0.2870     0.1390     0.0140   100.7640
  440.5000    95.1910   -70.1880     7.1420     7.1510     7.7990     7.9070     2.4740     0.2860     0.1270     0.0190    99.5750
  441.0000    95.1480   -70.5570     7.9600     7.6730     8.2680     7.9070     2.4930     0.2850     0.1150     0.0210    97.7970
  441.5000    95.6740   -70.9240     9.0350     8.1610     8.7370     7.9070     2.4990     0.2840     0.1090     0.0210    96.0190
  442.0000    95.7560   -71.2990    10.1100     8.6490     9.2060     7.9070     2.4890     0.2810     0.1120     0.0210    94.4820
  442.5000    95.4750   -71.2580    10.4200     9.1360     9.6750     7.9070     2.4800     0.2730     0.1180     0.0160    93.9140
  443.0000    96.3150   -71.0310    10.5380     9.6240    10.1440     7.9070     2.4740     0.2630     0.1220     0.0040    93.3330
  443.5000    98.2550   -71.2170    10.6130    10.1120    10.6140     7.9070     2.4830     0.2540     0.1210    -0.0090    92.6830
  444.0000   101.1740   -71.5050    10.7690    10.6000    11.0130     7.9070     2.4950     0.2490     0.1140    -0.0060    92.0330
  444.5000   100.9320   -71.7950    10.9350    10.9100    11.0320     7.9070     2.5000     0.2570     0.1070     0.0150    91.3830
  445.0000    97.9640   -72.0880    11.1000    11.0370    11.0500     7.9070     2.4960     0.2650     0.1090     0.0100    90.8630
  445.5000    93.0210   -72.4130    11.2650    11.2010    11.0680     7.9070     2.4890     0.2660     0.1140     0.0050    90.4470
  446.0000    90.4490   -72.4470    11.5280    11.3660    11.0870     7.9070     2.4960     0.2580     0.1110     0.0030    90.1000
  446.5000    89.5390   -72.3130    11.4220    11.5280    11.1050     7.9070     2.5100     0.2520     0.1060     0.0100    90.3590
  447.0000    89.2670   -72.1720    11.3970    11.4710    11.2150     7.9070     2.5160     0.2570     0.0990     0.0170    90.5810
  447.5000    90.6200   -72.0300    11.3560    11.3800    11.1900     7.9070     2.5150     0.2640     0.0980     0.0140    90.8030
  448.0000    92.1250   -71.8880    11.3140    11.2880    11.1520     7.9070     2.5110     0.2740     0.1010     0.0080    90.3150
  448.5000    93.2090   -71.7800    11.2730    11.1970    11.1130     7.9070     2.5030     0.2740     0.1040     0.0010    89.3150
  449.0000    92.8960   -71.7860    11.2320    11.1120    11.0750     7.9070     2.5040     0.2720     0.1050     0.0060    88.1080
  449.5000    94.0130   -71.8000    11.1900    11.1750    11.0360     7.9070     2.5140     0.2700     0.1010     0.0210    88.6030
  450.0000   100.6940   -71.5000    11.1490    11.2330    10.9980     7.9070     2.5170     0.2650     0.0970     0.0360    89.2280
  450.5000   100.8620   -71.3510    11.1120    11.2910    10.9590     7.9070     2.5170     0.2600     0.0980     0.0410    89.8530
  451.0000    96.7730   -71.1980    11.1430    11.3490    10.9210     7.9070     2.5120     0.2540     0.1000     0.0370    90.2210
  451.5000    92.6920   -71.0480    11.1780    11.4070    10.8820     7.9070     2.5100     0.2470     0.1010     0.0260    90.4210
  452.0000    92.4670   -70.7960    11.2120    11.4650    10.8440     7.9070     2.5120     0.2450     0.1010     0.0150    90.6210
  452.5000    92.2850   -71.2000    11.2470    11.5280    10.8100     7.9110     2.5130     0.2500     0.1000     0.0140    90.8210
  453.0000    91.6370   -71.6380    11.2810    11.5280    10.5890     7.9230     2.5120     0.2570     0.0990     0.0230    91.0210
  453.5000    90.4880   -72.0760    11.3180    11.4610    10.4200     7.9360     2.5090     0.2650     0.1000     0.0190    91.2210
  454.0000    91.1700   -72.3450    10.9330    10.9380    10.2500     7.9430     2.5030     0.2680     0.1030     0.0040    91.6100
  454.5000    93.2150   -72.0770    10.5180    10.4160    10.0440     7.9140     2.5020     0.2673     0.1050     0.0100    92.1100
  455.0000    95.1280   -71.8140    10.1030     9.8620     9.6140     7.9100     2.4990     0.2663     0.1070     0.0190    92.7290
  455.5000    97.1000   -71.5760     9.6870     9.4680     9.1520     7.9120     2.4950     0.2657     0.1090     0.0270    93.7290
  456.0000    99.1020   -71.5840     9.2720     9.0490     8.6910     7.9150     2.4920     0.2678     0.1110     0.0350    94.8800
  456.5000    98.4630   -71.6310     8.8570     8.6300     8.2070     7.9180     2.4940     0.2798     0.1110     0.0370    95.4110
  457.0000    95.7230   -71.6800     8.5720     8.2210     7.5320     7.9210     2.4970     0.2949     0.1090     0.0370    95.9610
  457.5000    95.5460   -71.7310     8.3900     7.3340     6.8240     7.9240     2.4890     0.2986     0.1100     0.0220    96.2750
  458.0000    97.5280   -71.8210     8.2090     6.4470     6.0940     7.9270     2.4720     0.3003     0.1160     0.0070    97.0260
  458.5000    98.3610   -71.9220     8.0580     5.6160     5.2590     7.9260     2.4480     0.3133     0.1330    -0.0070    99.1260
  459.0000    96.9900   -71.6400     7.5910     4.8280     4.4230     7.9250     2.4130     0.3321     0.1490    -0.0080   101.7410
  459.5000    96.4770   -71.3520     6.7060     4.0410     3.8600     7.9230     2.3750     0.3632     0.1740    -0.0090   105.7410
