~VERSION INFORMATION
 VERS.                2.0:   CWLS LOG ASCII STANDARD - VERSION 2.0
 WRAP.                 NO:   ONE LINE PER DEPTH STEP
~WELL INFORMATION
#MNEM.UNIT      DATA TYPE    INFORMATION
#----------   ------------   ------------------------------
 STRT.F           80.0000:   START DEPTH
 STOP.F         1011.0000:   STOP DEPTH
 STEP.F            0.5000:   STEP LENGTH
 NULL.          -999.2500:   NO VALUE
 COMP.          U.S. NAVY:   COMPANY
 WELL. RES 3 TEAPOT DOM #61S-11:   WELL
 FLD .             TEAPOT:   FIELD
 LOC .      S11 T38N R78W:   LOCATION
 CNTY.            NATRONA:   COUNTY
 STAT.            WYOMING:   STATE
 CTRY. UNITED STATES OF AMERICA:   COUNTRY
 SRVC.       Schlumberger:   SERVICE COMPANY
 DATE.        23-JUL-1964:   LOGDATE
 API .       490250637500:   API NUMBER
~CURVE INFORMATION
#MNEM.UNIT       API CODE    CURVE DESCRIPTION
#----------   ------------   ------------------------------
 DEPT.F                  :   
 CALS.IN     60 280 50 00:   CALIPER FROM SONIC LOG
 DT  .US/F   60 520 33 00:   INTERVAL TRANSIT TIME
 GR  .GAPI   30 310 01 00:   GAMMA RAY
 CILD.MMHO   05 110 46 00:   CONDUCTIVITY INDUCTION LOG DEEP
 ILD .OHMM   05 120 46 00:   INDUCTION LOG DEEP
 ASN .OHMM   05 041 16 00:   AMPLIFIED SHORT NORMAL 16"
 SPR .MV     05 010 01 00:   SPONTANEOUS POTENTIAL FROM RES.
~PARAMETER INFORMATION
#MNEM.UNIT          VALUE    DESCRIPTION
#----------   ------------   ------------------------------
 PD  .                 GL:   PERMANENT DATUM
 EPD .F              5199:   ELEVATION PERMANENT DATUM
 LMF .                 KB:   LOG MEASURED FROM
 DAPD.F                 5:   FEET ABOVE PERMANENT DATUM
 DMF .                 KB:   DRILLING MEASURED FROM
 EKB .F              5204:   KELLING BUSHING
 EGL .F              5199:   GROUND LEVEL
 DATE.          7-23-1964:   RUN DATE
 RUN .                  1:   RUN NUMBER
 DD  .F              1010:   DEPTH DRILLER
 DL  .F              1012:   DEPTH LOGGER
 BLI .F              1011:   BOTTOM LOG INTERVAL
 TLI .F                88:   TOP LOG INTERVAL
 CS  .IN            8.625:   CASING SIZE
 CBD .F                10:   CASING BOTTOM DRILLER
 BS  .IN             6.75:   BIT SIZE
 BSD .F              1010:   BIT SIZE AT DEPTH
 DFT .            GEL-OIL:   DRILLING FLUID TYPE
 DFD .                9.8:   DRILLING FLUID DENSITY
 DFV .                 54:   DRILLING FLUID VISCOSITY
 MSS .           FLOWLINE:   MUD SAMPLE SOURCE
 RMS .OHMM           1.47:   RESISTIVITY MUD SAMPLE
 MST .F                86:   MUD SAMPLE TEMPERATURE
 RMF .OHMM            .96:   RESISTIVITY MUD FILTRATE SAMPLE
 MFST.F                86:   MUD FILTRATE SAMPLE TEMPERATURE
 RMC .OHMM           2.10:   RESISTIVITY MUD CAKE
 MCST.F                86:   MUD CAKE SAMPLE TEMPERATURE
 MFSS.                 FP:   MUD FILTRATE SAMPLE SOURCE
 MCSS.                 FP:   MUD CAKE SAMPLE SOURCE
 TCS .HRS               2:   TIME CURCULATED STOPPED
 LUN .               4507:   LOGGING UNIT NUMBER
 LUL .              CSPR.:   LOGGING UNIT LOCATION
 ENGI.             DANNER:   RECORDING ENGINEER
 WITN.          JORGENSEN:   WITNESSED BY
 CLNT.            A2DTECH:   CLIENT CODE
 ORIG.      2" & 5" PRINT:   ORIGIN OF DATA
 UWI .       490250637500:   UNIQUE WELL ID
 DICO. A2D Technologies, Inc.:   DIGITIZING COMPANY
~OTHER INFORMATION
~A   DEPT     CALS         DT         GR        CILD         ILD        ASN      SPR   
# ...
  899.0000     6.6444    93.6691    11.0511    78.7519    12.5113    14.7267   -33.0993
  899.5000     6.6442    94.8017    16.4565    78.7519    12.5149    14.6534   -33.0958
  900.0000     6.6440    94.7287    14.6547    79.5282    12.4448    14.5803   -32.8060
  900.5000     6.6412    93.6777    15.4353    79.9440    12.3190    14.5070   -32.8692
  901.0000     6.6331    94.0693    17.1826    80.3598    12.1932    14.4339   -32.9372
  901.5000     6.6294    94.7470    19.2729    80.7756    12.0810    14.3606   -33.2194
  902.0000     6.6320    93.9157    22.2641    81.1913    11.9322    14.2138   -33.2139
  902.5000     6.6599    93.3131    23.1532    81.6851    11.7893    14.2032   -33.2084
  903.0000     6.6751    94.9735    20.8589    82.4227    11.7911    14.1411   -33.2029
  903.5000     6.6753    95.2016    19.8058    83.1585    11.7925    14.1416   -33.0532
  904.0000     6.6754    94.5276    18.7604    82.4067    11.7939    14.2156   -32.7588
  904.5000     6.6756    94.2294    15.8957    81.6566    11.9426    14.3633   -32.4655
  905.0000     6.6908    93.8559    13.1812    80.8318    12.1723    14.5110   -32.1722
  905.5000     6.6910    92.9552    10.1664    77.9259    12.6085    14.6683   -31.7350
  906.0000     6.6911    92.2052     9.1065    75.6900    13.0517    15.1011   -31.2978
  906.5000     6.6913    91.9070    15.2479    72.7111    13.5686    15.6170   -30.8427
  907.0000     6.6914    91.3076    17.4883    69.7322    14.0119    16.1329   -30.1343
  907.5000     6.6916    89.1268    19.1311    66.7533    14.4551    16.7960   -29.8410
  908.0000     6.6917    88.6019    14.9151    63.6549    14.9102    17.3119   -29.6916
  908.5000     6.6919    90.1117    17.3057    60.7938    15.2683    17.8521   -29.9738
  909.0000     6.6920    91.7713    16.3900    59.3008    15.3433    18.4911   -30.4000
  909.5000     6.6922    91.3978    16.6785    60.7813    15.4184    18.7124   -30.2354
  910.0000     6.6923    87.7863    17.8679    63.0012    15.1989    18.7864   -29.5242
  910.5000     6.6925    84.5513    17.2453    66.0302    14.7521    17.6824   -28.9431
  911.0000     6.6926    82.4459    17.0935    71.1576    13.8766    16.6518   -28.3620
  911.5000     6.6928    80.7922    19.3310    75.6081    13.1416    15.6818   -27.7810
  912.0000     6.6929    79.3645    18.4183    80.8016    12.5539    14.8119   -27.6315
  912.5000     6.6931    78.8404    15.7037    83.7663    12.0399    14.0759   -28.0696
  913.0000     6.6932    80.1681    14.9441    85.9881    11.5258    13.6344   -28.6277
  913.5000     6.6934    83.9066    17.0315    87.5434    11.1514    13.3403   -28.9099
  914.0000     6.6935    87.2984    19.1217    88.9455    11.0132    13.0463   -29.0483
  914.5000     6.6786    89.9939    20.6144    88.9366    11.0886    12.9678   -29.1866
  915.0000     6.6788    91.4313    15.4945    88.1866    11.3109    12.9736   -29.1797
  915.5000     6.6638    91.6602    17.8851    85.9506    11.4596    13.1949   -29.1741
  916.0000     6.6640    91.6632    13.0685    84.4576    11.5346    13.5635   -29.1673
  916.5000     6.6641    91.6662    13.5071    84.4502    11.6834    13.8585   -29.1617
  917.0000     6.6492    91.6692    14.9968    83.6987    11.8323    14.0062   -29.1562
  917.5000     6.6192    91.2203    16.6366    85.1775    11.8337    14.0803   -28.7190
  918.0000     6.6042    88.4372    18.2963    85.9150    11.8352    14.0070   -27.8502
  918.5000     6.5290    87.7624    20.1062    85.9062    11.7629    13.9338   -26.8374
  919.0000     6.5291    87.4642    21.5532    85.8989    11.5434    13.7870   -26.6867
  919.5000     6.5293    87.3911    21.3912    86.6349    11.2506    13.6401   -26.5373
  920.0000     6.5143    87.3949    19.4275    87.3707    11.1044    13.3461   -26.3878
  920.5000     6.3637    88.0003    19.2684    88.6213    10.8853    13.1234   -26.2384
  921.0000     6.0622    89.2081    22.4068    89.5847    10.6654    12.8316   -26.2329
  921.5000     6.0170    90.4912    24.7974    91.0617    10.3726    12.6846   -26.2274
  922.0000     6.5904    91.6237    22.3832    91.7993    10.2268    12.4643   -26.2205
  922.5000     6.6810    91.5514    24.1732    92.5334    10.1545    12.3910   -26.2149
  923.0000     6.6812    91.3284    27.3145    93.2692    10.1563    12.3178   -25.9216
  923.5000     6.6813    91.6326    30.3057    94.0050    10.3786    12.2439   -25.4844
  924.0000     6.6815    91.6416    32.5462    93.9961    10.6009    12.1714   -25.0473
  924.5000     6.6816    91.1115    32.9850    93.9890    10.6760    12.1719   -24.8978
  925.0000     6.6817    90.8133    28.0180    93.9819    10.6778    12.0986   -24.8909
  925.5000     6.6819    90.8162    23.7418    94.7177    10.6792    12.0992   -25.0307
  926.0000     6.6820    90.8193    20.4869    94.7088    10.6066    12.0996   -25.1676
  926.5000     6.6822    90.6627    27.2289    94.7017    10.5344    12.1000   -25.3074
  927.0000     6.6823    90.5240    28.5684    94.6946    10.4624    12.1004   -25.5896
  927.5000     6.6675    90.6783    28.2563    95.4322    10.3903    12.1010   -25.7266
  928.0000     6.6676    90.3801    26.7430    96.1664    10.3920    12.1014   -25.7209
  928.5000     6.6526    89.9305    31.2357    97.6450    10.3194    12.1018   -25.7142
  929.0000     6.6377    90.0848    31.6773    97.6361    10.2476    12.1022   -25.7086
  929.5000     6.6077    90.5396    28.9598    98.3737    10.2490    12.0290   -25.8484
  930.0000     6.5777    90.1661    30.4495    99.1095    10.1768    11.8626   -26.2731
  930.5000     6.5929    89.6412    34.7920    99.8454    10.1045    11.5880   -26.2676
  931.0000     6.6082    90.2474    38.2336   100.5795    10.1063    11.7358   -26.1180
  931.5000     6.6385    91.0779    38.3724   100.5721    10.0337    11.8099   -25.6796
  932.0000     6.6688    90.8550    36.7085   101.3081    10.0355    11.8103   -25.3863
  932.5000     6.6689    91.3105    30.5405   101.2992     9.9629    11.6635   -24.9491
  933.0000     6.6540    92.4430    24.4425   102.0368     9.9647    11.5166   -24.9436
  933.5000     6.6391    93.0484    22.9689   102.0279     9.8924    11.2962   -24.9381
  934.0000     6.6241    92.9754    20.8925   101.2779     9.8942    11.2229   -24.9324
  934.5000     6.6394    92.9791    25.5354   101.2690     9.8956    11.0761   -25.2134
  935.0000     6.6546    93.7351    26.8749   101.2619     9.8970    11.3712   -25.9273
  935.5000     6.6548    93.0604    29.7189   101.2548     9.8984    11.5925   -26.3534
  936.0000     6.6549    91.9338    25.9504   100.5047     9.9038    11.8207   -26.6356
  936.5000     6.6400    91.6356    28.0407   100.4976     9.9752    11.9616   -26.6301
  937.0000     6.4893    92.2410    29.0799   100.4904    10.0503    12.0357   -26.6245
  937.5000     6.4442    91.9428    26.2152   100.4816    10.1990    12.1098   -26.6177
  938.0000     6.4449    90.6567    24.8550    99.7315    10.3477    12.1838   -26.4683
  938.5000     6.4747    90.5933    26.7952    98.9815    10.4963    12.1843   -26.4627
  939.0000     6.5689    92.1776    26.3299    97.4885    10.7270    12.2637   -26.4572
  939.5000     6.6282    91.9307    21.9638    95.2525    11.0150    12.4061   -26.5957
  940.0000     6.6712    91.0548    18.0480    92.9172    11.3109    12.6275   -26.8873
  940.5000     6.5960    92.3379    17.7357    87.0641    11.6069    12.9224   -27.8781
  941.0000     6.4905    93.0939    19.3454    82.5994    11.9029    13.5120   -29.3114
  941.5000     6.4756    93.3228    24.1658    78.1346    12.4934    14.1751   -30.7447
  942.0000     6.5512    94.0788    25.2050    72.9269    13.5997    14.9935   -31.8903
  942.5000     6.6418    97.4703    25.4965    68.4496    14.2639    15.8697   -32.7480
  943.0000     6.6570    97.0968    21.8781    66.2244    14.7807    16.4593   -33.0370
  943.5000     6.6572    96.3468    23.0675    64.7314    15.1503    16.9015   -33.1686
  944.0000     6.5819    97.2534    22.6052    64.7243    15.2990    17.3438   -34.0264
