~VERSION INFORMATION
 VERS.                2.0:   CWLS LOG ASCII STANDARD - VERSION 2.0
 WRAP.                 NO:   ONE LINE PER DEPTH STEP
~WELL INFORMATION
#MNEM.UNIT      DATA TYPE    INFORMATION
#----------   ------------   ------------------------------
 STRT.F            0.0000:   START DEPTH
 STOP.F          530.0000:   STOP DEPTH
 STEP.F            0.5000:   STEP LENGTH
 NULL.          -999.2500:   NO VALUE
 COMP.   LAWRENCE-ALLISON:   COMPANY
 WELL. NPR 3 #51-56SX10 OB3:   WELL
 FLD .             TEAPOT:   FIELD
 LOC .      S10 T38N R78W:   LOCATION
 CNTY.            NATRONA:   COUNTY
 STAT.            WYOMING:   STATE
 CTRY. UNITED STATES OF AMERICA:   COUNTRY
 SRVC.           Gearhart:   SERVICE COMPANY
 DATE.        28-JUN-1987:   LOGDATE
 API .       490251100800:   API NUMBER
~CURVE INFORMATION
#MNEM.UNIT       API CODE    CURVE DESCRIPTION
#----------   ------------   ------------------------------
 DEPT.F                  :   
 CALD.IN     45 280 60 00:   CALIPER ROM DENSITY LOG
 CNC .DEC    45 890 03 00:   NEUTRON POROSITY SANDSTONE
 CORR.G/C3   45 356 01 00:   DENSITY CORRECTION
 DEN .G/C3   45 350 01 00:   COMPENSATED BULK DENSTIY
 PORD.DEC    45 890 12 00:   POROSITY DENSITY SANDSTONE
 GRR .GAPI   07 310 01 00:   GAMMA RAY
 ILD .OHMM   07 120 46 00:   INDUCTION LOG DEEP
 ILM .OHMM   07 120 44 00:   INDUCTION LOG MEDIUM
 LL  .OHMM   07 220 00 00:   LATEROLOG RESISTIVITY
 SPR .MV     07 010 01 00:   SPONTANEOUS POTENTIAL
 DT  .US/F   60 520 00 00:   INTERVAL TRANSIT TIME
~PARAMETER INFORMATION
#MNEM.UNIT          VALUE    DESCRIPTION
#----------   ------------   ------------------------------
 PD  .                 GL:   PERMANENT DATUM
 EPD .F              5198:   ELEVATION PERMANENT DATUM
 LMF .                 KB:   LOG MEASURED FROM
 DAPD.F                 8:   FEET ABOVE PERMANENT DATUM
 DMF .                 KB:   DRILLING MEASURED FROM
 EKB .F              5206:   KELLING BUSHING
 EDF .F              5204:   DRILLING FLOOR
 EGL .F              5198:   GROUND LEVEL
 DATE.        28-JUN-1987:   RUN DATE
 RUN .                  1:   RUN NUMBER
 DD  .F               535:   DEPTH DRILLER
 DL  .F               536:   DEPTH LOGGER
 BLI .F               533:   BOTTOM LOG INTERVAL
 BS  .IN             7.87:   BIT SIZE
 BSD .F               535:   BIT SIZE AT DEPTH
 DFT .                MUD:   DRILLING FLUID TYPE
 RMS .OHMM           0.84:   RESISTIVITY MUD SAMPLE
 MST .F                57:   MUD SAMPLE TEMPERATURE
 RMF .OHMM           0.63:   RESISTIVITY MUD FILTRATE SAMPLE
 MFST.F                57:   MUD FILTRATE SAMPLE TEMPERATURE
 RMC .OHMM           1.05:   RESISTIVITY MUD CAKE
 MCST.F                57:   MUD CAKE SAMPLE TEMPERATURE
 MFSS.               CALC:   MUD FILTRATE SAMPLE SOURCE
 MCSS.               CALC:   MUD CAKE SAMPLE SOURCE
 RMB .OHMM           0.59:   RESISTIVITY MUD AT BHT
 BHT .F                80:   BOTTOM HOLE TEMPERATURE
 TCS .HRS            1200:   TIME CURCULATED STOPPED
 TLAB.HRS            1322:   TIME LOGGER AT BOTTOM
 LUN .               7650:   LOGGING UNIT NUMBER
 LUL .           GILLETTE:   LOGGING UNIT LOCATION
 ENGI. JOHNSTON/HUCKFELDT:   RECORDING ENGINEER
 WITN.             STRONG:   WITNESSED BY
 CLNT.            A2DTECH:   CLIENT CODE
 ORIG.      2.5" 5" PRINT:   ORIGIN OF DATA
 UWI .       490251100800:   UNIQUE WELL ID
 DICO. A2D Technologies, Inc.:   DIGITIZING COMPANY
~OTHER INFORMATION
~A    DEPT    CALD        CNC       CORR        DEN       PORD         GRR         ILD        ILM       LL        SPR         DT   
# ...
   61.0000     6.4396     0.2825    -0.0400     2.4413     0.1419    59.2252     5.8817     4.7963     5.7380   -41.2913   103.3394
   61.5000     6.4402     0.2903    -0.0232     2.4513     0.1362    58.6271     5.7971     4.7977     5.6594   -41.4414   102.4883
   62.0000     6.4407     0.2852     0.0023     2.4608     0.1304    58.3744     5.6622     4.7990     5.5084   -41.1411   101.2396
   62.5000     6.4413     0.2572     0.0478     2.4624     0.1292    57.4324     5.5865     4.9010     5.5100   -41.1411    97.9944
   63.0000     6.4419     0.2607     0.0419     2.4670     0.1238    57.4354     5.5508     5.1202     5.5115   -42.3423    96.6406
   63.5000     6.4425     0.2622     0.0361     2.4783     0.1129    58.6402     5.5130     5.3193     5.5250   -43.5435    96.6472
   64.0000     6.4431     0.2610     0.0287     2.4882     0.1117    76.6611     5.5148     5.4003     5.6211   -45.0450    97.1074
   64.5000     6.4437     0.2637     0.0167     2.4943     0.1147    82.0694     5.5929     5.6359     5.7065   -46.0210    98.0966
   65.0000     6.4443     0.2695    -0.0012     2.4853     0.1243    86.2765     5.5944     5.8307     5.7506   -47.2473    99.7662
   65.5000     6.4449     0.2717    -0.0147     2.4703     0.1267    88.6818     5.6735     5.9132     5.8323   -48.4985   100.9066
   66.0000     6.4456     0.2795     0.0021     2.4628     0.1306    89.9019     5.9147     5.9969     5.8339   -50.1502   101.2156
   66.5000     6.4461     0.2898     0.0294     2.4621     0.1305    92.3954     6.0817     5.9985     5.9165   -52.0771   101.2979
   67.0000     6.4467     0.2906     0.0536     2.4651     0.1273    99.6937     6.3403     6.1679     6.0835   -52.5526   101.2245
   67.5000     6.4473     0.2834     0.0718     2.4742     0.1217    99.2242     6.5299     6.3420     6.1696   -52.8529   101.0844
   68.0000     6.4479     0.2641     0.0690     2.4788     0.1202    97.3374     6.7035     6.4402     6.4319   -53.1532   101.2439
   68.5000     6.4485     0.2662     0.0465     2.4773     0.1250    95.9064     6.7984     6.5229     6.6178   -53.4535   102.8379
   69.0000     6.4491     0.2749     0.0195     2.4700     0.1349    95.9099     6.9260     6.5471     6.7183   -53.4535   104.1295
   69.5000     6.4497     0.2848    -0.0061     2.4526     0.1355    96.8618     7.0894     6.6171     6.8022   -53.4535   104.5896
   70.0000     6.4503     0.2830    -0.0019     2.4534     0.1346   103.1237     7.0914     6.6190     6.8985   -53.1532   104.5963
   70.5000     6.4509     0.2783     0.0531     2.4542     0.1361   103.7272     7.1918     6.6208     6.9004   -53.1532   104.6029
   71.0000     6.4515     0.2743     0.0698     2.4505     0.1384   103.1295     7.1942     6.6226     6.9023   -53.1532   104.4567
   71.5000     6.4520     0.2654     0.0564     2.4498     0.1384    98.3276     7.2960     6.7167     6.9042   -53.1532   104.3139
   72.0000     6.4376     0.2578     0.0294     2.4506     0.1372    98.3305     7.2979     6.7185     6.9061   -53.1532   103.9426
   72.5000     6.4384     0.2590    -0.0006     2.4522     0.1351    98.9340     7.4012     6.8136     6.8138   -53.1532   103.4089
   73.0000     6.4390     0.2671    -0.0080     2.4537     0.1338   101.9640     7.4147     6.8154     6.7222   -53.3033   101.9607
   73.5000     6.4098     0.2752     0.0042     2.4643     0.1311   103.1441     7.4051     6.9119     6.6320   -53.4535   100.4117
   74.0000     6.4104     0.2758     0.0209     2.4682     0.1262   103.0350     7.4099     6.9137     6.5428   -53.4535   100.7207
   74.5000     6.3961     0.2695     0.0226     2.4599     0.1298   101.7928     7.5121     6.9156     6.5446   -53.4535   100.8785
   75.0000     6.3967     0.2547     0.0272     2.4577     0.1337   100.5506     7.4111     6.9175     6.5464   -53.4535   101.1119
   75.5000     6.4122     0.2507     0.0336     2.4585     0.1334    99.9089     7.3893     6.9195     6.5482   -53.4535   101.1942
   76.0000     6.4128     0.2498     0.0260     2.4714     0.1253    99.8438     7.1834     6.9214     6.5500   -53.4535   101.6544
   76.5000     6.4134     0.2524     0.0156     2.4668     0.1267   102.4214     7.0801     6.9233     6.5518   -53.4535   102.5680
   77.0000     6.4288     0.2641     0.0081     2.4502     0.1355   108.5711     7.0213     6.9252     6.5536   -53.5035   103.9352
   77.5000     6.4294     0.2759    -0.0026     2.4442     0.1439   112.7782     6.9768     6.9271     6.5225   -53.7538   105.0001
   78.0000     6.4599     0.2810    -0.0096     2.4369     0.1453   112.9169     7.1231     7.0255     6.4674   -53.7538   105.5389
   78.5000     6.4902     0.2831    -0.0049     2.4400     0.1423   109.7810     7.3242     7.1250     6.4692   -54.3544   105.6281
   79.0000     6.4907     0.3000     0.0058     2.4446     0.1417   106.1803     7.5310     7.2258     6.4713   -54.3544   106.2311
   79.5000     6.4616     0.3098     0.0104     2.4401     0.1432   103.1802     7.8512     7.4298     6.5629   -54.3544   106.5401
   80.0000     6.4621     0.3035     0.0181     2.4409     0.1422   101.9019     7.8533     7.5350     6.5647   -54.3544   106.5467
   80.5000     6.4628     0.3008     0.0589     2.4440     0.1413   100.6997     7.8553     7.5370     6.5664   -54.3544   106.5534
   81.0000     6.4634     0.2914     0.0606     2.4425     0.1410   100.1859     7.8574     7.5391     6.7518   -54.0541   106.5600
   81.5000     6.4640     0.2844     0.0517     2.4418     0.1425   100.1892     7.8596     7.4377     6.9424   -53.7538   106.2643
   82.0000     6.4646     0.2832     0.0141     2.4434     0.1427   101.2252     7.8618     7.4399     6.9469   -54.3544   106.0442
   82.5000     6.4652     0.2805     0.0143     2.4450     0.1394   105.7808     7.8640     7.4420     7.0524   -54.3544   105.4462
   83.0000     6.4657     0.2753     0.0174     2.4480     0.1368   106.8048     7.8661     7.4440     7.1424   -54.3544   104.9993
   83.5000     6.4663     0.2768     0.0251     2.4579     0.1318   105.8589     7.8683     7.4461     7.1444   -54.3544   104.4769
   84.0000     6.4520     0.2861     0.0403     2.4617     0.1300   103.2077     7.8705     7.4481     7.1463   -54.3544   104.4837
   84.5000     6.4527     0.2949     0.0525     2.4603     0.1309   101.4088     7.8726     7.4506     7.0501   -53.6286   104.4919
   85.0000     6.4532     0.2954     0.0617     2.4604     0.1311   102.0123     7.8748     7.4525     7.0524   -52.8529   104.4985
   85.5000     6.4687     0.2821     0.0611     2.4628     0.1284   103.8170     7.8774     7.4545     7.0543   -51.9520   104.5052
   86.0000     6.4841     0.2839     0.0364     2.4657     0.1293   105.6217     7.8795     7.4565     6.9600   -51.9520   104.5118
   86.5000     6.4699     0.3034     0.0290     2.4575     0.1320   106.8258     7.8816     7.4585     6.9619   -51.9520   104.6696
   87.0000     6.4705     0.3058     0.0261     2.4515     0.1368   102.4565     7.7757     7.3576     6.7743   -51.9520   104.9786
   87.5000     6.5008     0.3009     0.0263     2.4425     0.1425    99.5245     7.5662     7.1601     6.7761   -52.5526   105.0609
   88.0000     6.5162     0.2979     0.0264     2.4388     0.1443    99.6276     7.3624     6.9672     6.6850   -52.8529   104.9164
   88.5000     6.5168     0.2907     0.0295     2.4373     0.1445   100.4194     7.1640     6.7795     6.5953   -52.8529   104.5450
   89.0000     6.5174     0.2867     0.0387     2.4442     0.1403   100.8348     7.1536     6.6884     6.5067   -52.8529   104.5518
   89.5000     6.5031     0.2713     0.0570     2.4525     0.1357   101.4384     7.0697     6.5021     6.4193   -52.8529   104.5586
   90.0000     6.4889     0.2635     0.0601     2.4518     0.1378   102.3624     6.9748     6.2529     6.2464   -52.5526   104.5667
   90.5000     6.4746     0.2707     0.0497     2.4489     0.1381   103.8474     6.8497     6.0331     6.2249   -52.9780   104.5734
   91.0000     6.4752     0.2725     0.0453     2.4497     0.1363   106.2527     6.7512     5.9146     6.0227   -53.3033   104.5800
