~VERSION INFORMATION
 VERS.                2.0:   CWLS LOG ASCII STANDARD - VERSION 2.0
 WRAP.                 NO:   ONE LINE PER DEPTH STEP
~WELL INFORMATION
#MNEM.UNIT      DATA TYPE    INFORMATION
#----------   ------------   ------------------------------
 STRT.F           20.0000:   START DEPTH
 STOP.F          436.5000:   STOP DEPTH
 STEP.F            0.5000:   STEP LENGTH
 NULL.          -999.2500:   NO VALUE
 COMP. FENIX & SCISSON INC:   COMPANY
 WELL. NPR 3 SX-10 #55-10:   WELL
 FLD .        YEAPOT DOME:   FIELD
 LOC .      S10 T38N R78W:   LOCATION
 CNTY.            NATRONA:   COUNTY
 STAT.            WYOMING:   STATE
 CTRY. UNITED STATES OF AMERICA:   COUNTRY
 SRVC.           BIRDWELL:   SERVICE COMPANY
 DATE.        06-JUN-1978:   LOGDATE
 API .       490251062900:   API NUMBER
~CURVE INFORMATION
#MNEM.UNIT       API CODE    CURVE DESCRIPTION
#----------   ------------   ------------------------------
 DEPT.F                  :   
 GRD .GAPI   45 310 01 00:   GAMMA RAY FROM DENSITY LOG
 CALD.IN     45 280 60 00:   CALIPER FROM DENSITY LOG
 RHOB.G/C3   45 350 01 00:   BULK DENSITY
 DPHI.DEC    45 890 12 00:   DENSITY POROSITY SANDSTONE
 CORR.G/C3   45 356 01 00:   DENSITY CORRECTION
 SPR .MV     05 010 01 00:   SPONTANEOUS POTENTIAL FROM RES.
 SN  .OHMM   05 040 16 00:   SHORT NORMAL 16"
 ILD .OHMM   05 120 46 00:   INDUCTION LOG DEEP
~PARAMETER INFORMATION
#MNEM.UNIT          VALUE    DESCRIPTION
#----------   ------------   ------------------------------
 PD  .                 GL:   PERMANENT DATUM
 EPD .F              5202:   ELEVATION PERMANENT DATUM
 LMF .                 KB:   LOG MEASURED FROM
 DAPD.F                 4:   FEET ABOVE PERMANENT DATUM
 DMF .                 KB:   DRILLING MEASURED FROM
 EKB .F              5206:   KELLING BUSHING
 EGL .F              5202:   GROUND LEVEL
 DATE.             6-6-78:   RUN DATE
 RUN .                  1:   RUN NUMBER
 DD  .F               425:   DEPTH DRILLER
 DL  .F               436:   DEPTH LOGGER
 BLI .F               432:   BOTTOM LOG INTERVAL
 TLI .F                40:   TOP LOG INTERVAL
 CS  .IN            8.625:   CASING SIZE
 CBD .F                40:   CASING BOTTOM DRILLER
 CBL .F                40:   CASING BOTTOM LOGGER
 BS  .IN            7.875:   BIT SIZE
 BSD .F               425:   BIT SIZE AT DEPTH
 DFT .            KCL/OIL:   DRILLING FLUID TYPE
 DFD .                8.6:   DRILLING FLUID DENSITY
 DFV .                 34:   DRILLING FLUID VISCOSITY
 DFPH.                 10:   DRILLING FLUID PH
 DFL .                7.6:   DRILLING FLUID LOSS
 MSS .                PIT:   MUD SAMPLE SOURCE
 TCS .HRS               4:   TIME CURCULATED STOPPED
 LUN .               2958:   LOGGING UNIT NUMBER
 LUL .               CASP:   LOGGING UNIT LOCATION
 ENGI.            POINTER:   RECORDING ENGINEER
 WITN.           MCGINLEY:   WITNESSED BY
 CLNT.            A2DTECH:   CLIENT CODE
 ORIG. 1", 2", 2.5", 5" PRINT:   ORIGIN OF DATA
 UWI .       490251062900:   UNIQUE WELL ID
 DICO. A2D Technologies, Inc.:   DIGITIZING COMPANY
~OTHER INFORMATION
~A   DEPT       GRD      CALD       RHOB       DPHI       CORR        SPR         SN        ILD   
# ...
   60.5000   121.0081     7.3743     2.3348     0.2060     0.0546  -999.2500  -999.2500     5.2347
   61.0000   121.1524     7.4316     2.3713     0.1858     0.0501  -999.2500  -999.2500     5.2972
   61.5000   121.8645     7.4903     2.4058     0.1663     0.0456  -999.2500  -999.2500     5.3606
   62.0000   121.1534     7.5479     2.4116     0.1668     0.0474  -999.2500  -999.2500     5.4246
   62.5000   120.4373     7.6007     2.4060     0.1675     0.0544  -999.2500  -999.2500     5.4958
   63.0000   119.5128     7.5488     2.4144     0.1668     0.0525  -999.2500  -999.2500     5.6280
   63.5000   119.8347     7.4950     2.4100     0.1652     0.0439  -999.2500  -999.2500     5.7632
   64.0000   122.0143     7.4349     2.3935     0.1732     0.0368  -999.2500  -999.2500     5.9018
   64.5000   124.4437     7.3798     2.3917     0.1763     0.0291  -999.2500  -999.2500     6.0435
   65.0000   121.9737     7.3326     2.3953     0.1740     0.0261  -999.2500  -999.2500     6.1891
   65.5000   119.4715     7.3545     2.3983     0.1726     0.0253  -999.2500  -999.2500     6.3588
   66.0000   118.0551     7.3755     2.4018     0.1729     0.0283  -999.2500  -999.2500     6.5436
   66.5000   117.6738     7.3947     2.4059     0.1734     0.0309  -999.2500  -999.2500     6.7339
   67.0000   118.7344     7.4391     2.4286     0.1634     0.0336  -999.2500  -999.2500     6.9296
   67.5000   119.1052     7.4959     2.4513     0.1520     0.0364  -999.2500  -999.2500     7.1311
   68.0000   118.9364     7.6445     2.4614     0.1405     0.0391  -999.2500  -999.2500     7.3383
   68.5000   118.7491     7.8674     2.4734     0.1268     0.0418  -999.2500  -999.2500     7.5517
   69.0000   117.6595     7.9381     2.4747     0.1259     0.0445  -999.2500  -999.2500     7.7712
   69.5000   116.2418     8.0112     2.4755     0.1274     0.0473  -999.2500  -999.2500     7.9971
   70.0000   114.8193     8.0741     2.4757     0.1278     0.0499  -999.2500  -999.2500     8.2296
   70.5000   113.4495     8.1459     2.4768     0.1261     0.0520  -999.2500  -999.2500     8.4689
   71.0000   112.0230     8.1636     2.4806     0.1244     0.0498  -999.2500  -999.2500     8.7154
   71.5000   110.5387     8.1583     2.4815     0.1266     0.0478  -999.2500  -999.2500     8.9689
   72.0000   109.3064     8.1027     2.4706     0.1323     0.0456  -999.2500  -999.2500     9.1002
   72.5000   108.2353     8.0513     2.4608     0.1381     0.0435  -999.2500  -999.2500     9.1002
   73.0000   109.3552     7.9951     2.4501     0.1439     0.0414  -999.2500  -999.2500     9.0999
   73.5000   109.8910     7.9496     2.4402     0.1496     0.0393  -999.2500  -999.2500     9.0998
   74.0000   108.1984     7.8561     2.4307     0.1554     0.0371  -999.2500  -999.2500     9.0998
   74.5000   106.6107     7.7312     2.4209     0.1611     0.0352  -999.2500  -999.2500     9.1001
   75.0000   106.1569     7.6147     2.4113     0.1669     0.0328  -999.2500  -999.2500     9.0993
   75.5000   106.3839     7.4987     2.4017     0.1726     0.0347  -999.2500  -999.2500     9.1021
   76.0000   106.5779     7.3801     2.3910     0.1784     0.0375  -999.2500  -999.2500     8.9317
   76.5000   106.8197     7.2635     2.3870     0.1807     0.0403  -999.2500  -999.2500     8.7852
   77.0000   106.1762     7.1478     2.3937     0.1770     0.0431  -999.2500  -999.2500     8.6412
   77.5000   104.5873     7.0249     2.3991     0.1732     0.0458  -999.2500  -999.2500     8.4995
   78.0000   103.0160     6.9604     2.4049     0.1694     0.0486  -999.2500  -999.2500     8.3592
   78.5000   102.1176     6.9543     2.4108     0.1657     0.0514  -999.2500  -999.2500     8.3245
   79.0000   103.2820     6.9309     2.4163     0.1620     0.0540  -999.2500  -999.2500     8.2898
   79.5000   101.8164     6.9767     2.4228     0.1589     0.0583  -999.2500  -999.2500     8.2554
   80.0000   103.4129     7.0613     2.4225     0.1579     0.0663  -999.2500  -999.2500     8.2210
   80.5000   105.2758     7.2571     2.4285     0.1514     0.0703  -999.2500  -999.2500     8.1868
   81.0000   107.1631     7.4481     2.4393     0.1458     0.0640  -999.2500  -999.2500     8.1527
   81.5000   106.9700     7.6450     2.4415     0.1482     0.0579  -999.2500  -999.2500     8.1188
   82.0000   106.8088     7.8430     2.4378     0.1506     0.0608  -999.2500  -999.2500     8.0850
   82.5000   105.0136     8.0336     2.4348     0.1531     0.0667  -999.2500  -999.2500     8.0514
   83.0000   104.7842     8.2270     2.4332     0.1511     0.0742  -999.2500  -999.2500     8.0179
   83.5000   106.8496     8.2410     2.4448     0.1434     0.0682  -999.2500  -999.2500     7.9391
   84.0000   106.7721     8.1310     2.4469     0.1470     0.0508  -999.2500  -999.2500     7.8020
   84.5000   106.6104     7.8150     2.4323     0.1542     0.0369  -999.2500  -999.2500     7.6672
   85.0000   106.5075     7.9299     2.4189     0.1615     0.0336  -999.2500  -999.2500     7.5348
   85.5000   106.9615     8.4305     2.4051     0.1687     0.0304  -999.2500  -999.2500     7.4046
   86.0000   107.5492     7.5680     2.3914     0.1760     0.0290  -999.2500  -999.2500     7.2767
   86.5000   106.5427     7.7274     2.3775     0.1832     0.0304  -999.2500  -999.2500     7.1940
   87.0000   105.0111     7.9999     2.3639     0.1904     0.0316  -999.2500  -999.2500     7.1387
   87.5000   104.4913     7.4831     2.3508     0.1977     0.0341  -999.2500  -999.2500     7.0839
   88.0000   103.9799     6.9706     2.3433     0.2049     0.0379  -999.2500  -999.2500     7.0295
   88.5000   103.5210     6.8011     2.3408     0.2053     0.0416  -999.2500  -999.2500     6.9756
   89.0000   103.0119     6.8204     2.3441     0.2022     0.0454  -999.2500  -999.2500     6.9220
   89.5000   102.5347     6.9052     2.3682     0.1952     0.0492  -999.2500  -999.2500     6.8689
   90.0000   102.0504     7.2114     2.3912     0.1804     0.0528  -999.2500  -999.2500     6.7951
   90.5000   101.5087     7.5517     2.4068     0.1702     0.0569  -999.2500  -999.2500     6.6965
   91.0000   101.9111     7.8916     2.4018     0.1702     0.0609  -999.2500  -999.2500     6.5993
   91.5000   103.5605     8.0730     2.3964     0.1726     0.0729  -999.2500  -999.2500     6.5035
   92.0000   102.7377     8.1648     2.3881     0.1766     0.0847  -999.2500  -999.2500     6.4091
   92.5000   101.6800     8.2703     2.3739     0.1801     0.0959  -999.2500  -999.2500     6.3517
   93.0000   100.5657     8.1770     2.3737     0.1830     0.1060  -999.2500  -999.2500     6.3465
   93.5000    99.6012     8.0533     2.3803     0.1849     0.0901  -999.2500  -999.2500     6.3414
   94.0000    99.0214     7.9245     2.3582     0.1870     0.0739  -999.2500  -999.2500     6.3363
   94.5000    98.5643     7.8009     2.3265     0.2009     0.0603  -999.2500  -999.2500     6.3312
   95.0000    99.2566     7.6747     2.3033     0.2257     0.0579  -999.2500  -999.2500     6.3261
   95.5000   100.2449     7.5489     2.3273     0.2120     0.0552  -999.2500  -999.2500     6.3210
   96.0000    99.5051     7.4237     2.3687     0.1979     0.0430  -999.2500  -999.2500     6.3159
   96.5000    98.0316     7.2979     2.4025     0.1837     0.0321  -999.2500  -999.2500     6.3109
   97.0000    96.6011     7.1719     2.4107     0.1680     0.0261  -999.2500  -999.2500     6.3058
   97.5000    95.1870     7.0479     2.4190     0.1637     0.0229  -999.2500  -999.2500     6.3008
   98.0000    93.7503     6.9177     2.4270     0.1584     0.0229  -999.2500  -999.2500     6.2952
   98.5000    92.3269     6.8384     2.4354     0.1538     0.0307  -999.2500  -999.2500     6.2966
   99.0000    90.9012     6.9458     2.4444     0.1486     0.0368  -999.2500  -999.2500     6.0773
   99.5000    89.4676     7.1146     2.4485     0.1434     0.0389  -999.2500  -999.2500     5.9252
  100.0000    88.0503     7.2749     2.4463     0.1445     0.0408  -999.2500  -999.2500     5.6847
  100.5000    86.6126     7.4748     2.4449     0.1456     0.0428  -999.2500  -999.2500     5.3613
