~VERSION INFORMATION
 VERS.                2.0:   CWLS LOG ASCII STANDARD - VERSION 2.0
 WRAP.                 NO:   ONE LINE PER DEPTH STEP
~WELL INFORMATION
#MNEM.UNIT      DATA TYPE    INFORMATION
#----------   ------------   ------------------------------
 STRT.F           84.0000:   START DEPTH
 STOP.F         1141.0000:   STOP DEPTH
 STEP.F            0.5000:   STEP LENGTH
 NULL.          -999.2500:   NO VALUE
 COMP.           U S NAVY:   COMPANY
 WELL.     NPR#3 #78-S-11:   WELL
 FLD .             TEAPOT:   FIELD
 LOC .      S11 T38N R78W:   LOCATION
 CNTY.            NATRONA:   COUNTY
 STAT.            WYOMING:   STATE
 CTRY. UNITED STATES OF AMERICA:   COUNTRY
 SRVC.       Schlumberger:   SERVICE COMPANY
 DATE.        28-AUG-1966:   LOGDATE
 API .       490250970700:   API NUMBER
~CURVE INFORMATION
#MNEM.UNIT       API CODE    CURVE DESCRIPTION
#----------   ------------   ------------------------------
 DEPT.F                  :   
 SPR .MV     05 010 01 00:   SPONTANEOUS POTENTIAL FROM RES.
 ASN .OHMM   05 041 16 00:   AMPLIFIED SHORT NORMAL 16"
 ILD .OHMM   05 120 46 00:   INDUCTION LOG DEEP
 CILD.MMHO   05 110 46 00:   CONDUCTIVITY INDUCTION LOG DEEP
 GRD .GAPI   45 310 01 00:   GAMMA RAY FROM DENSITY LOG
 CALD.IN     45 280 60 00:   CALIPER FROM DENSITY LOG
 DPHI.DEC    45 890 12 00:   DENSITY POROSITY SANDSTONE
 RHOB.G/C3   45 350 01 00:   BULK DENSITY
~PARAMETER INFORMATION
#MNEM.UNIT          VALUE    DESCRIPTION
#----------   ------------   ------------------------------
 PD  .                 GL:   PERMANENT DATUM
 EPD .F              5245:   ELEVATION PERMANENT DATUM
 LMF .                 KB:   LOG MEASURED FROM
 DAPD.F                 5:   FEET ABOVE PERMANENT DATUM
 DMF .                 KB:   DRILLING MEASURED FROM
 EKB .F              5250:   KELLING BUSHING
 EGL .F              5245:   GROUND LEVEL
 DATE.            8-28-66:   RUN DATE
 RUN .                  1:   RUN NUMBER
 DD  .F              1142:   DEPTH DRILLER
 DL  .F              1142:   DEPTH LOGGER
 BLI .F              1141:   BOTTOM LOG INTERVAL
 TLI .F                85:   TOP LOG INTERVAL
 CS  .IN            8.625:   CASING SIZE
 CBD .F                10:   CASING BOTTOM DRILLER
 BS  .IN             6.75:   BIT SIZE
 BSD .F              1142:   BIT SIZE AT DEPTH
 DFT .           CHEM GEL:   DRILLING FLUID TYPE
 DFD .               10.7:   DRILLING FLUID DENSITY
 DFV .                 40:   DRILLING FLUID VISCOSITY
 MSS .          FLOW LINE:   MUD SAMPLE SOURCE
 RMS .OHMM           1.58:   RESISTIVITY MUD SAMPLE
 MST .F                70:   MUD SAMPLE TEMPERATURE
 RMF .OHMM            .93:   RESISTIVITY MUD FILTRATE SAMPLE
 MFST.F                70:   MUD FILTRATE SAMPLE TEMPERATURE
 MFSS.                  M:   MUD FILTRATE SAMPLE SOURCE
 RMB .OHMM           1.19:   RESISTIVITY MUD AT BHT
 BHT .F                94:   BOTTOM HOLE TEMPERATURE
 TCS .HRS               1:   TIME CURCULATED STOPPED
 MRT .F                94:   MAXIMUM RECORDED TEMPERATURE
 LUN .               4507:   LOGGING UNIT NUMBER
 LUL .               CSPR:   LOGGING UNIT LOCATION
 ENGI.             KNOBEL:   RECORDING ENGINEER
 WITN.         MAY/TUTTLE:   WITNESSED BY
 CLNT.            A2DTECH:   CLIENT CODE
 ORIG.           5" PRINT:   ORIGIN OF DATA
 UWI .       490250970700:   UNIQUE WELL ID
 DICO. A2D Technologies, Inc.:   DIGITIZING COMPANY
~OTHER INFORMATION
~A   DEPT      SPR          ASN        ILD      CILD       GRD       CALD       DPHI       RHOB   
# ...
  286.5000   -46.9194     8.3974     8.3549   132.6089  -999.2500  -999.2500  -999.2500  -999.2500
  287.0000   -46.9135     8.2772     8.0501   134.1302  -999.2500  -999.2500  -999.2500  -999.2500
  287.5000   -46.7567     8.0818     7.7702   135.5266  -999.2500  -999.2500  -999.2500  -999.2500
  288.0000   -46.5999     8.0216     7.5435   137.7729  -999.2500  -999.2500  -999.2500  -999.2500
  288.5000   -46.4431     8.0365     7.5417   137.7655  -999.2500  -999.2500  -999.2500  -999.2500
  289.0000   -46.1354     7.9312     7.5403   137.7580  -999.2500  -999.2500  -999.2500  -999.2500
  289.5000   -45.9786     7.9761     7.5388   138.5043  -999.2500  -999.2500  -999.2500  -999.2500
  290.0000   -45.8218     8.0811     7.5373   140.0006  -999.2500  -999.2500  -999.2500  -999.2500
  290.5000   -45.5142     8.1410     7.5358   139.9913  -999.2500  -999.2500  -999.2500  -999.2500
  291.0000   -45.2066     8.0958     7.5343   139.9838  -999.2500  -999.2500  -999.2500  -999.2500
  291.5000   -45.2006     7.9305     7.5328   139.2245  -999.2500  -999.2500  -999.2500  -999.2500
  292.0000   -45.1946     7.8080     7.5313   138.4652  -999.2500  -999.2500  -999.2500  -999.2500
  292.5000   -45.1885     7.8851     7.7550   136.9539  -999.2500  -999.2500  -999.2500  -999.2500
  293.0000   -45.3335     8.0802     7.8290   135.4427  -999.2500  -999.2500  -999.2500  -999.2500
  293.5000   -45.9308     8.1401     7.8271   133.1796  -999.2500  -999.2500  -999.2500  -999.2500
  294.0000   -46.3774     7.9297     7.8256   132.4203  -999.2500  -999.2500  -999.2500  -999.2500
  294.5000   -46.2191     7.8695     7.7490   131.6610  -999.2500  -999.2500  -999.2500  -999.2500
  295.0000   -46.0623     7.9745     7.6725   133.1573  -999.2500  -999.2500  -999.2500  -999.2500
  295.5000   -45.9054     8.0344     7.5208   135.4073  -999.2500  -999.2500  -999.2500  -999.2500
  296.0000   -45.8995     7.8813     7.4443   137.6555  -999.2500  -999.2500  -999.2500  -999.2500
  296.5000   -45.8935     7.7451     7.2175   139.1499  -999.2500  -999.2500  -999.2500  -999.2500
  297.0000   -45.8875     7.6239     7.0659   141.4000  -999.2500  -999.2500  -999.2500  -999.2500
  297.5000   -45.8816     7.5328     6.9143   143.6466  -999.2500  -999.2500  -999.2500  -999.2500
  298.0000   -45.7248     7.5081     6.6875   145.8945  -999.2500  -999.2500  -999.2500  -999.2500
  298.5000   -45.7188     7.5380     6.6110   148.1427  -999.2500  -999.2500  -999.2500  -999.2500
  299.0000   -45.5620     7.5679     6.5344   149.6391  -999.2500  -999.2500  -999.2500  -999.2500
  299.5000   -45.4052     7.5677     6.4578   151.1353  -999.2500  -999.2500  -999.2500  -999.2500
  300.0000   -45.2498     7.5826     6.4840   152.6316  -999.2500  -999.2500  -999.2500  -999.2500
  300.5000   -45.2491     7.5674     6.6489   151.8223  -999.2500  -999.2500  -999.2500  -999.2500
  301.0000   -45.0980     7.5222     6.8138   151.0129  -999.2500  -999.2500  -999.2500  -999.2500
  301.5000   -44.7964     7.4470     6.9775   150.2036  -999.2500  -999.2500  -999.2500  -999.2500
  302.0000   -44.6455     7.3117     6.9760   149.3942  -999.2500  -999.2500  -999.2500  -999.2500
  302.5000   -44.6455     7.2515     6.9745   148.5849  -999.2500  -999.2500  -999.2500  -999.2500
  303.0000   -44.6455     7.1913     6.9775   148.1203  -999.2500  -999.2500  -999.2500  -999.2500
  303.5000   -44.6455     7.2212     7.1216   147.3684  -999.2500  -999.2500  -999.2500  -999.2500
  304.0000   -44.6455     7.4913     7.1952   145.8647  -999.2500  -999.2500  -999.2500  -999.2500
  304.5000   -44.6455     7.6713     7.2688   144.3609  -999.2500  -999.2500  -999.2500  -999.2500
  305.0000   -44.7964     7.8814     7.4175   142.8571  -999.2500  -999.2500  -999.2500  -999.2500
  305.5000   -44.7964     8.0314     7.4910   141.3534  -999.2500  -999.2500  -999.2500  -999.2500
  306.0000   -44.7964     8.0162     7.5646   139.8496  -999.2500  -999.2500  -999.2500  -999.2500
  306.5000   -44.7964     7.8809     7.6479   137.5940  -999.2500  -999.2500  -999.2500  -999.2500
  307.0000   -44.7964     7.8658     7.7118   135.3383  -999.2500  -999.2500  -999.2500  -999.2500
  307.5000   -44.6455     7.9257     7.7853   134.5865  -999.2500  -999.2500  -999.2500  -999.2500
  308.0000   -44.6455     8.0607     7.7838   134.5865  -999.2500  -999.2500  -999.2500  -999.2500
  308.5000   -44.7964     8.3308     7.8574   133.0827  -999.2500  -999.2500  -999.2500  -999.2500
  309.0000   -45.2489     8.4808     8.0061   132.3308  -999.2500  -999.2500  -999.2500  -999.2500
  309.5000   -45.2489     8.6458     8.0939   131.5789  -999.2500  -999.2500  -999.2500  -999.2500
  310.0000   -45.2489     8.7057     8.3781   129.3233  -999.2500  -999.2500  -999.2500  -999.2500
  310.5000   -45.2489     8.6905     8.6769   127.0677  -999.2500  -999.2500  -999.2500  -999.2500
  311.0000   -45.2438     8.6303     9.0508   125.5639  -999.2500  -999.2500  -999.2500  -999.2500
  311.5000   -44.9472     8.5851     9.3496   123.3083  -999.2500  -999.2500  -999.2500  -999.2500
  312.0000   -44.7964     8.8402     9.6484   120.3008  -999.2500  -999.2500  -999.2500  -999.2500
  312.5000   -44.7964     9.5308     9.8721   118.0451  -999.2500  -999.2500  -999.2500  -999.2500
  313.0000   -44.7964     9.8309    10.0207   116.5414  -999.2500  -999.2500  -999.2500  -999.2500
  313.5000   -44.9472     9.9969    10.1698   115.0376  -999.2500  -999.2500  -999.2500  -999.2500
  314.0000   -44.9472     9.0498    10.2433   115.0376  -999.2500  -999.2500  -999.2500  -999.2500
  314.5000   -44.7964     9.4701    10.1664   114.2857  -999.2500  -999.2500  -999.2500  -999.2500
  315.0000   -44.7964     9.7402    10.0898   115.7895  -999.2500  -999.2500  -999.2500  -999.2500
  315.5000   -44.6455     9.5899     9.9382   118.0451  -999.2500  -999.2500  -999.2500  -999.2500
  316.0000   -44.4947     9.0643     9.7865   121.0526  -999.2500  -999.2500  -999.2500  -999.2500
  316.5000   -44.0422     9.0941     9.5598   123.3083  -999.2500  -999.2500  -999.2500  -999.2500
  317.0000   -44.0422     9.0488     9.3331   124.8120  -999.2500  -999.2500  -999.2500  -999.2500
  317.5000   -45.2489     8.8223     9.0313   127.0677  -999.2500  -999.2500  -999.2500  -999.2500
  318.0000   -45.3997     8.6432     8.7295   128.5714  -999.2500  -999.2500  -999.2500  -999.2500
  318.5000   -45.2489     8.7482     8.4277   129.3233  -999.2500  -999.2500  -999.2500  -999.2500
  319.0000   -45.2489     8.7316     8.1259   130.8271  -999.2500  -999.2500  -999.2500  -999.2500
  319.5000   -45.0980     8.5485     7.8241   133.0827  -999.2500  -999.2500  -999.2500  -999.2500
  320.0000   -44.7964     8.2803     7.5223   135.3383  -999.2500  -999.2500  -999.2500  -999.2500
  320.5000   -44.7964     8.2371     7.3707   137.5940  -999.2500  -999.2500  -999.2500  -999.2500
  321.0000   -44.9472     8.2520     7.2190   142.8571  -999.2500  -999.2500  -999.2500  -999.2500
  321.5000   -45.2489     8.1602     7.1424   146.6165  -999.2500  -999.2500  -999.2500  -999.2500
  322.0000   -45.3997     8.0034     7.1409   147.3684  -999.2500  -999.2500  -999.2500  -999.2500
  322.5000   -45.3997     7.7004     7.1394   146.6165  -999.2500  -999.2500  -999.2500  -999.2500
  323.0000   -45.3997     7.5287     7.2130   145.1128  -999.2500  -999.2500  -999.2500  -999.2500
  323.5000   -45.0980     7.4854     7.2866   144.3609  -999.2500  -999.2500  -999.2500  -999.2500
  324.0000   -44.6455     7.5626     7.3605   143.6090  -999.2500  -999.2500  -999.2500  -999.2500
  324.5000   -44.4947     7.5405     7.4341   142.8571  -999.2500  -999.2500  -999.2500  -999.2500
  325.0000   -44.6455     7.4525     7.5077   142.8571  -999.2500  -999.2500  -999.2500  -999.2500
  325.5000   -44.7964     7.4874     7.5058   142.1053  -999.2500  -999.2500  -999.2500  -999.2500
  326.0000   -44.7964     7.5926     7.5043   141.3534  -999.2500  -999.2500  -999.2500  -999.2500
  326.5000   -44.7964     7.6226     7.5028   141.3534  -999.2500  -999.2500  -999.2500  -999.2500
