~VERSION INFORMATION
 VERS.                2.0:   CWLS LOG ASCII STANDARD - VERSION 2.0
 WRAP.                 NO:   ONE LINE PER DEPTH STEP
~WELL INFORMATION
#MNEM.UNIT      DATA TYPE    INFORMATION
#----------   ------------   ------------------------------
 STRT.F            8.0000:   START DEPTH
 STOP.F          508.0000:   STOP DEPTH
 STEP.F            0.1000:   STEP LENGTH
 NULL.          -999.2500:   NO VALUE
 COMP. LAWRENCE/ALLISON INC:   COMPANY
 WELL. NPR 3 47-12 SX #3-3:   WELL
 FLD .             TEAPOT:   FIELD
 LOC .       S3 T38N R78W:   LOCATION
 CNTY.            NATRONA:   COUNTY
 STAT.            WYOMING:   STATE
 CTRY. UNITED STATES OF AMERICA:   COUNTRY
 SRVC.           Gearhart:   SERVICE COMPANY
 DATE.        12-AUG-1988:   LOGDATE
 API .       490251124100:   API NUMBER
~CURVE INFORMATION
#MNEM.UNIT       API CODE    CURVE DESCRIPTION
#----------   ------------   ------------------------------
 DEPT.F                  :   
 GRR .GAPI   07 310 01 00:   GAMMA RAY
 RILD.OHMM   07 120 46 00:   INDUCTION LOG DEEP RESISTIVITY
 RILM.OHMM   07 120 44 00:   INDUCTION LOG MEDIUM RESISTIVITY
~PARAMETER INFORMATION
#MNEM.UNIT          VALUE    DESCRIPTION
#----------   ------------   ------------------------------
 PD  .                 GL:   PERMANENT DATUM
 EPD .F              5208:   ELEVATION PERMANENT DATUM
 LMF .                 KB:   LOG MEASURED FROM
 DAPD.F                10:   FEET ABOVE PERMANENT DATUM
 DMF .                 KB:   DRILLING MEASURED FROM
 EKB .F              5218:   KELLING BUSHING
 EDF .F              5216:   DRILLING FLOOR
 EGL .F              5208:   GROUND LEVEL
 DATE.        12-AUG-1988:   RUN DATE
 RUN .                  1:   RUN NUMBER
 DD  .F               515:   DEPTH DRILLER
 DL  .F               516:   DEPTH LOGGER
 BLI .F               508:   BOTTOM LOG INTERVAL
 TLI .F                50:   TOP LOG INTERVAL
 CS  .IN            9.625:   CASING SIZE
 CBD .F                50:   CASING BOTTOM DRILLER
 CBL .F                50:   CASING BOTTOM LOGGER
 BS  .IN             8.75:   BIT SIZE
 BSD .F               515:   BIT SIZE AT DEPTH
 DFT .                AIR:   DRILLING FLUID TYPE
 TCS .HRS            1500:   TIME CURCULATED STOPPED
 TLAB.HRS            1640:   TIME LOGGER AT BOTTOM
 MRT .F                70:   MAXIMUM RECORDED TEMPERATURE
 LUN .               7597:   LOGGING UNIT NUMBER
 LUL .           GILLETTE:   LOGGING UNIT LOCATION
 ENGI.         WEATHERMON:   RECORDING ENGINEER
 WITN.             STRONG:   WITNESSED BY
 CLNT.            A2DTECH:   CLIENT CODE
 ORIG.       2", 5" PRINT:   ORIGIN OF DATA
 UWI .       490251124100:   UNIQUE WELL ID
 DICO. A2D Technologies, Inc.:   DIGITIZING COMPANY
~OTHER INFORMATION
~A    DEPT      GRR      RILD       RILM   
# ...
  390.2000    79.8197    31.9022    31.2692
  390.3000    79.8203    31.9015    31.2238
  390.4000    79.8209    31.8595    31.2225
  390.5000    80.0110    31.6772    31.2211
  390.6000    80.1247    31.4597    31.2198
  390.7000    80.1253    31.3156    31.2185
  390.8000    80.1631    31.2410    31.2172
  390.9000    80.4291    31.2403    31.2159
  391.0000    80.4296    31.2396    31.2146
  391.1000    80.4302    31.2388    31.2133
  391.2000    80.5673    31.2381    31.2120
  391.3000    80.8196    31.2374    31.2107
  391.4000    81.0719    31.2367    31.2094
  391.5000    81.3404    31.2360    31.2081
  391.6000    81.5766    31.2352    31.2068
  391.7000    81.8289    31.2344    31.2056
  391.8000    82.0812    31.2337    31.2042
  391.9000    82.4166    31.2331    31.2028
  392.0000    82.8563    31.2324    31.2016
  392.1000    82.8569    31.2316    31.2003
  392.2000    82.8575    31.2309    31.2943
  392.3000    82.4931    31.2300    31.4154
  392.4000    81.9902    31.2295    31.4140
  392.5000    81.5683    31.2288    31.4126
  392.6000    81.2876    31.2280    31.4114
  392.7000    80.7426    31.2273    31.4101
  392.8000    80.5125    31.2265    31.4088
  392.9000    80.0814    31.2258    31.4075
  393.0000    79.5784    31.3603    31.4062
  393.1000    79.1538    31.4417    31.4047
  393.2000    78.9026    31.4410    31.4036
  393.3000    78.6282    31.4402    31.4023
  393.4000    78.6287    31.4394    31.4009
  393.5000    78.4519    31.6017    31.3996
  393.6000    78.4540    31.6569    31.3983
  393.7000    78.7064    31.6561    31.3969
  393.8000    78.9587    31.6554    31.3957
  393.9000    79.2370    31.6547    31.3944
  394.0000    79.9152    31.6538    31.3930
  394.1000    80.4960    31.8054    31.4455
  394.2000    80.8759    31.8727    31.6095
  394.3000    81.2018    31.8720    31.6079
  394.4000    81.6606    31.8713    31.7702
  394.5000    81.6612    31.8705    31.8259
  394.6000    81.8853    31.8698    31.8246
  394.7000    82.1376    31.8690    31.8759
  394.8000    82.3900    31.9709    32.0440
  394.9000    82.5713    32.0893    32.0424
  395.0000    82.5517    32.0886    32.0412
  395.1000    82.2700    32.0878    32.0399
  395.2000    82.0495    32.0871    32.1273
  395.3000    81.6279    32.2169    32.2607
  395.4000    81.1249    32.3089    32.2457
  395.5000    80.6908    32.3082    32.0344
  395.6000    80.4221    32.3074    31.8722
  395.7000    79.8530    32.3066    31.8100
  395.8000    79.4162    32.3060    31.7229
  395.9000    79.2490    32.3052    31.5386
  396.0000    79.1325    32.2251    31.3669
  396.1000    78.9477    32.0804    31.3654
  396.2000    78.9482    32.0797    31.2085
  396.3000    78.9490    32.0790    31.0273
  396.4000    79.1657    31.9333    30.8471
  396.5000    79.5834    31.8558    30.6678
  396.6000    80.0874    31.7884    30.4895
  396.7000    80.5915    31.6064    30.2864
  396.8000    81.0956    31.4148    30.1364
  396.9000    81.6757    31.2457    29.8494
  397.0000    81.8901    31.0668    29.5811
  397.1000    82.3054    30.9799    29.4093
  397.2000    82.6973    30.9259    29.2384
  397.3000    83.0112    30.7333    29.0419
  397.4000    83.5152    30.3398    28.8998
  397.5000    84.0999    30.3391    28.6262
  397.6000    84.3119    30.2238    28.3672
  397.7000    84.4036    30.0508    28.2025
  397.8000    84.2945    29.8387    28.0330
  397.9000    84.1022    29.5064    27.6557
  398.0000    84.0868    29.5055    27.3901
  398.1000    83.4984    29.3685    27.1726
  398.2000    83.4989    29.1011    27.0148
  398.3000    83.3415    28.7696    26.8579
  398.4000    83.0902    28.4694    26.7017
  398.5000    82.9522    28.2997    26.5193
  398.6000    83.1988    27.9906    26.5184
  398.7000    83.1995    27.7899    26.4223
  398.8000    83.4064    27.6308    26.3325
  398.9000    83.5032    27.4725    26.2984
  399.0000    83.6087    27.3152    26.1480
  399.1000    83.8611    27.1425    26.1467
  399.2000    84.1101    27.1419    26.1458
  399.3000    84.1109    27.1413    26.1446
  399.4000    84.5197    27.1407    26.1436
  399.5000    84.7171    27.2200    26.1425
  399.6000    84.8202    27.5253    26.1414
  399.7000    84.9693    27.7092    26.1401
  399.8000    84.7189    27.7087    26.1392
  399.9000    84.7196    27.8062    26.1381
  400.0000    84.5855    28.3048    26.0914
  400.1000    84.4181    28.3032    25.9543
  400.2000    84.2506    28.3687    25.9531
  400.3000    84.0664    28.5323    25.9516
  400.4000    83.8148    28.6970    26.0139
  400.5000    83.5130    28.8924    26.1645
  400.6000    83.3117    29.0293    26.3158
  400.7000    83.0602    29.0909    26.4924
  400.8000    82.9095    29.1623    26.6213
  400.9000    82.8093    29.3306    26.6745
  401.0000    82.3056    29.4930    26.7436
  401.1000    82.0037    29.4910    26.8983
  401.2000    81.8025    29.6350    27.0647
  401.3000    81.7022    29.8060    27.4203
  401.4000    81.6020    29.8988    27.4189
  401.5000    81.4008    29.8972    27.6361
  401.6000    81.4015    29.8955    27.8788
  401.7000    81.1500    29.8936    28.0400
  401.8000    80.8984    30.0435    28.2022
  401.9000    80.6469    30.0989    28.3806
  402.0000    80.4962    30.1811    28.8335
  402.1000    80.3959    30.3554    29.0963
  402.2000    79.8923    30.5305    29.4440
  402.3000    79.6407    30.7256    29.7893
  402.4000    79.3892    30.7241    29.8344
  402.5000    78.9864    30.7224    30.2028
  402.6000    78.4827    30.7207    30.3672
  402.7000    77.9790    30.7190    30.5431
  402.8000    77.4753    30.7173    30.6206
  402.9000    77.2238    30.7154    30.6189
  403.0000    76.9723    30.5509    30.5875
  403.1000    76.8720    30.3722    30.4034
  403.2000    76.8726    30.1945    30.2299
  403.3000    76.8732    30.0178    29.9170
  403.4000    76.8738    29.8422    29.6696
  403.5000    77.4797    29.6572    29.4285
  403.6000    77.8836    29.3338    29.1195
  403.7000    78.5397    29.1187    28.9475
  403.8000    79.2968    28.8565    28.5482
  403.9000    80.1043    28.5214    28.2780
  404.0000    81.1135    28.2158    27.9491
  404.1000    82.3245    28.0448    27.6239
  404.2000    82.9302    27.7313    27.3021
  404.3000    83.6872    27.5317    26.9840
  404.4000    84.5451    27.3707    26.6224
  404.5000    85.5541    27.2106    26.3602
  404.6000    86.5634    27.0229    26.0536
  404.7000    87.0683    26.7050    25.8882
  404.8000    87.5732    26.7035    25.8068
  404.9000    87.9268    26.4576    25.5170
  405.0000    88.2804    26.2411    25.3496
  405.1000    88.7349    26.0876    25.2188
  405.2000    88.9876    25.9349    24.9712
  405.3000    89.2403    25.7831    24.6806
  405.4000    89.4931    25.6047    24.3932
  405.5000    89.5946    25.4824    24.1091
  405.6000    89.5951    25.3334    23.8044
  405.7000    89.5957    25.2475    23.6768
  405.8000    89.5964    25.2123    23.5381
  405.9000    89.5970    25.0647    23.3288
  406.0000    89.3959    24.8948    23.1466
  406.1000    89.1443    24.8937    23.1453
  406.2000    88.9936    24.7992    23.1439
  406.3000    88.9438    24.6542    23.1427
  406.4000    88.6923    24.5462    23.1415
  406.5000    88.3904    24.5448    23.1401
  406.6000    88.1892    24.5432    23.1388
  406.7000    87.9377    24.5420    23.1376
  406.8000    87.6862    24.5407    23.1362
  406.9000    87.4346    24.5393    23.2677
  407.0000    87.1831    24.5379    23.4023
  407.1000    87.1838    24.5366    23.5377
  407.2000    86.9825    24.5351    23.6186
  407.3000    86.7310    24.5338    23.6172
  407.4000    86.5803    24.5325    23.6160
  407.5000    86.5809    24.5311    23.7791
  407.6000    86.5815    24.5298    23.7780
  407.7000    86.5822    24.5284    23.7767
  407.8000    86.5828    24.5269    23.7754
  407.9000    86.5834    24.3961    23.7741
  408.0000    86.5839    24.3545    23.7727
  408.1000    86.5845    24.3532    23.7712
  408.2000    86.5852    24.3519    23.7701
  408.3000    86.8379    24.3505    23.8606
