~VERSION INFORMATION
 VERS.                2.0:   CWLS LOG ASCII STANDARD - VERSION 2.0
 WRAP.                 NO:   ONE LINE PER DEPTH STEP
~WELL INFORMATION
#MNEM.UNIT      DATA TYPE    INFORMATION
#----------   ------------   ------------------------------
 STRT.F           38.0000:   START DEPTH
 STOP.F          818.0000:   STOP DEPTH
 STEP.F            0.5000:   STEP LENGTH
 NULL.          -999.2500:   NO VALUE
 COMP. FENIX & SCISSON INC:   COMPANY
 WELL. NAVAL PETROLEUM RESERVE 3 SX-1 #32-14:   WELL
 FLD .             TEAPOT:   FIELD
 LOC .      S14 T38N R78W:   LOCATION
 CNTY.            NATRONA:   COUNTY
 STAT.            WYOMING:   STATE
 CTRY. UNITED STATES OF AMERICA:   COUNTRY
 SRVC.            Unknown:   SERVICE COMPANY
 DATE.        03-MAY-1978:   LOGDATE
 API .       490251061900:   API NUMBER
~CURVE INFORMATION
#MNEM.UNIT       API CODE    CURVE DESCRIPTION
#----------   ------------   ------------------------------
 DEPT.F                  :   
 SPR .MV     05 010 01 00:   SPONTANEOUS POTENTIAL FROM RES.
 ILD .OHMM   05 120 46 00:   INDUCTION LOG DEEP
 SN  .OHMM   05 040 16 00:   SHORT NORMAL 16"
 CALD.IN     45 280 60 00:   CALIPER
 GRD .GAPI   45 310 01 00:   GAMMA RAY FROM DENSITY LOG
 RHOB.G/C3   45 350 01 00:   BULK DENSITY
 DPHI.DEC    45 890 12 00:   DENSITY POROSITY SANDSTONE
 CORR.G/C3   45 356 01 00:   DENSITY CORRECTION
~PARAMETER INFORMATION
#MNEM.UNIT          VALUE    DESCRIPTION
#----------   ------------   ------------------------------
 PD  .                 GL:   PERMANENT DATUM
 EPD .F              5209:   ELEVATION PERMANENT DATUM
 LMF .                 KB:   LOG MEASURED FROM
 DAPD.F                 4:   FEET ABOVE PERMANENT DATUM
 DMF .                 KB:   DRILLING MEASURED FROM
 EKB .F              5213:   KELLING BUSHING
 EGL .F              5209:   GROUND LEVEL
 DATE.           5-3-1978:   RUN DATE
 RUN .                  1:   RUN NUMBER
 DD  .F               806:   DEPTH DRILLER
 DL  .F               824:   DEPTH LOGGER
 BLI .F               818:   BOTTOM LOG INTERVAL
 TLI .F                50:   TOP LOG INTERVAL
 CS  .IN            8.625:   CASING SIZE
 CBD .F                40:   CASING BOTTOM DRILLER
 BS  .IN            7.875:   BIT SIZE
 BSD .F               806:   BIT SIZE AT DEPTH
 DFT .                KCL:   DRILLING FLUID TYPE
 DFD .                8.6:   DRILLING FLUID DENSITY
 DFV .                 34:   DRILLING FLUID VISCOSITY
 DFPH.                  9:   DRILLING FLUID PH
 DFL .               16.4:   DRILLING FLUID LOSS
 MSS .           FLOWLINE:   MUD SAMPLE SOURCE
 RMS .OHMM            .75:   RESISTIVITY MUD SAMPLE
 MST .F                52:   MUD SAMPLE TEMPERATURE
 RMF .OHMM            .65:   RESISTIVITY MUD FILTRATE SAMPLE
 MFST.F                60:   MUD FILTRATE SAMPLE TEMPERATURE
 RMC .OHMM            1.2:   RESISTIVITY MUD CAKE
 MCST.F                62:   MUD CAKE SAMPLE TEMPERATURE
 MFSS.               MEAS:   MUD FILTRATE SAMPLE SOURCE
 RMB .OHMM            .54:   RESISTIVITY MUD AT BHT
 BHT .F                72:   BOTTOM HOLE TEMPERATURE
 TCS .HRS               1:   TIME CURCULATED STOPPED
 MRT .F                72:   MAXIMUM RECORDED TEMPERATURE
 LUN .               2958:   LOGGING UNIT NUMBER
 LUL .               CASP:   LOGGING UNIT LOCATION
 ENGI.             MILLER:   RECORDING ENGINEER
 WITN.           MCGINLEY:   WITNESSED BY
 CLNT.            A2DTECH:   CLIENT CODE
 ORIG.           5" PRINT:   ORIGIN OF DATA
 UWI .       490251061900:   UNIQUE WELL ID
 DICO. A2D Technologies, Inc.:   DIGITIZING COMPANY
~OTHER INFORMATION
~A   DEPT      SPR        ILD         SN         CALD      GRD       RHOB       DPHI       CORR   
# ...
  119.0000   -39.6288     3.6219     3.2436     9.1160    66.4141     2.3121     0.2289     0.0471
  119.5000   -39.7502     3.7007     3.2436     9.0903    66.1286     2.3103     0.2296     0.0553
  120.0000   -39.3540     3.8285     3.3318     9.0188    65.4447     2.3132     0.2206     0.0577
  120.5000   -38.8454     3.9722     3.4536     8.9172    64.2828     2.3376     0.2065     0.0413
  121.0000   -38.4035     4.0014     3.5800     8.8168    63.4728     2.3558     0.2005     0.0309
  121.5000   -38.0642     4.2435     3.7725     8.7988    61.8707     2.3643     0.2004     0.0304
  122.0000   -37.7514     4.7146     4.3458     8.8173    58.5728     2.3636     0.2029     0.0304
  122.5000   -37.8344     5.0205     4.7800     9.0181    52.3391     2.3600     0.2057     0.0304
  123.0000   -37.9616     5.2364     4.8237     9.2594    48.8702     2.3566     0.2055     0.0304
  123.5000   -38.0893     5.2848     4.7902     9.2753    48.4210     2.3572     0.2039     0.0304
  124.0000   -38.2167     5.2749     4.7659     9.2551    48.9123     2.3622     0.2016     0.0304
  124.5000   -38.3440     5.2670     4.7417     9.2339    52.3308     2.3673     0.1956     0.0304
  125.0000   -38.4705     5.2590     4.7177     9.2131    58.0346     2.3724     0.1897     0.0304
  125.5000   -38.5464     5.2510     4.6938     9.1909    61.6054     2.3775     0.1889     0.0304
  126.0000   -38.5443     5.2431     4.6701     9.1035    63.3152     2.3794     0.1915     0.0312
  126.5000   -38.5462     5.2027     4.6455     8.7557    64.9585     2.3784     0.1992     0.0350
  127.0000   -38.6483     4.9932     4.5230     8.5813    66.2391     2.3652     0.2050     0.0461
  127.5000   -39.0929     4.6682     4.2198     8.6312    66.7752     2.3553     0.2076     0.0606
  128.0000   -39.5232     4.2850     3.9127     8.8335    66.2944     2.3517     0.2088     0.0761
  128.5000   -39.5408     3.9320     3.6279     9.3709    64.6924     2.3496     0.2175     0.0781
  129.0000   -39.5060     3.6546     3.3639     9.4978    63.1228     2.3234     0.2517     0.0574
  129.5000   -39.4734     3.6563     3.1552     9.4846    61.5607     2.2893     0.2481     0.0364
  130.0000   -39.4416     3.6556     3.0411     9.6973    59.9917     2.2545     0.2411     0.0388
  130.5000   -39.4100     3.6562     3.2702    10.1181    58.8756     2.2447     0.2409     0.0447
  131.0000   -39.3815     3.6562     3.3965    10.1566    58.1063     2.2671     0.2363     0.0377
  131.5000   -39.3778     3.7390     3.3965     9.8466    56.7094     2.3122     0.2188     0.0293
  132.0000   -38.2310     3.9837     3.5052     9.5174    51.9916     2.3406     0.1985     0.0264
  132.5000   -37.3478     4.2445     3.8144     9.1889    48.9803     2.3652     0.1955     0.0275
  133.0000   -37.3855     4.5233     4.0564     8.8564    48.9075     2.3710     0.1958     0.0285
  133.5000   -37.4074     4.6886     4.1741     8.6970    49.2084     2.3746     0.1890     0.0261
  134.0000   -37.4331     4.7851     4.2951     8.6979    51.2434     2.3846     0.1817     0.0234
  134.5000   -37.4579     4.8794     4.4197     9.1390    53.3940     2.3949     0.1825     0.0208
  135.0000   -37.4828     4.9094     4.5607     9.5036    57.0652     2.3928     0.1848     0.0181
  135.5000   -37.5075     4.8945     4.5607     9.7244    60.6085     2.3883     0.1861     0.0164
  136.0000   -37.5314     4.8830     4.5308     9.8096    63.6204     2.3853     0.1856     0.0176
  136.5000   -37.5507     4.8715     4.5043     9.8212    65.4017     2.3877     0.1845     0.0208
  137.0000   -37.6804     4.8649     4.4780     9.5733    66.4065     2.3870     0.1881     0.0295
  137.5000   -38.0483     4.8158     4.4524     9.3702    66.9584     2.3837     0.1868     0.0398
  138.0000   -38.5993     4.7545     4.3836     9.3451    67.4080     2.3838     0.1830     0.0556
  138.5000   -38.9635     4.6856     4.2590     9.2318    66.7120     2.3931     0.1810     0.0598
  139.0000   -39.0002     4.6128     4.1376     9.1724    65.4638     2.3951     0.1862     0.0524
  139.5000   -39.0416     4.4002     3.9928     9.1599    64.2250     2.3747     0.1973     0.0446
  140.0000   -39.0820     4.1615     3.8489     9.0870    62.9863     2.3512     0.2088     0.0363
  140.5000   -39.1239     4.0015     3.7103     8.7881    61.7471     2.3493     0.2176     0.0315
  141.0000   -39.2026     3.7919     3.5765     8.6572    60.5012     2.3388     0.2209     0.0286
  141.5000   -39.3232     3.7942     3.4475     8.6938    59.2797     2.3275     0.2256     0.0308
  142.0000   -39.4426     3.7937     3.3235     8.9483    58.8021     2.3168     0.2276     0.0329
  142.5000   -39.5221     3.7402     3.2423     9.2960    58.2730     2.3181     0.2121     0.0341
  143.0000   -39.3726     3.6477     3.1898     9.2535    57.7386     2.3326     0.2123     0.0240
  143.5000   -39.2274     3.5574     3.1381     9.1817    57.4277     2.3433     0.2128     0.0146
  144.0000   -39.1599     3.4916     3.0872     9.1098    57.4110     2.3330     0.2218     0.0144
  144.5000   -39.2478     3.4916     3.0411     9.0564    57.3191     2.3201     0.2351     0.0144
  145.0000   -39.3326     3.4650     2.9014     9.0681    57.2327     2.3037     0.2423     0.0145
  145.5000   -39.4175     3.3600     2.7775     9.1144    57.1422     2.2872     0.2510     0.0144
  146.0000   -39.5024     3.1525     2.6590     9.4466    57.0554     2.2795     0.2605     0.0084
  146.5000   -39.5877     2.9578     2.5455     9.5339    55.7369     2.2716     0.2700     0.0018
  147.0000   -39.6724     2.7735     2.4369     9.5281    53.5096     2.2559     0.2795     0.0004
  147.5000   -39.7227     2.7735     2.3935     9.5213    53.3648     2.2392     0.2819     0.0007
  148.0000   -39.5995     2.9753     2.3935     9.5809    54.4458     2.2189     0.2761     0.0088
  148.5000   -39.4801     3.0780     2.4067     9.7747    55.6816     2.2160     0.2704     0.0171
  149.0000   -39.3679     3.1629     2.5752     9.7455    56.9268     2.2337     0.2457     0.0255
  149.5000   -39.0308     3.2666     2.7782     9.4706    58.1627     2.3034     0.2125     0.0210
  150.0000   -38.6674     3.3668     3.0143     8.9527    59.5320     2.3540     0.1809     0.0189
  150.5000   -38.3074     3.6495     3.3308     8.4814    60.8635     2.3983     0.1785     0.0250
  151.0000   -38.0630     4.0758     3.6884     8.4819    62.2302     2.3993     0.1817     0.0264
  151.5000   -37.8112     4.2909     3.7586     8.8351    63.7889     2.3908     0.1889     0.0278
  152.0000   -37.2616     4.3957     3.7490     9.4477    66.2494     2.3832     0.1887     0.0291
  152.5000   -36.7441     4.3170     3.6988     9.6152    66.3953     2.3845     0.1891     0.0301
  153.0000   -36.8858     4.2394     3.6493     9.4055    66.2687     2.3852     0.1985     0.0226
  153.5000   -37.0215     4.1426     3.6004     9.1416    65.6128     2.3749     0.2074     0.0163
  154.0000   -37.1659     4.0241     3.5566     8.9958    65.0396     2.3416     0.2161     0.0176
  154.5000   -37.5523     3.8997     3.3676     9.2514    64.6183     2.3255     0.2248     0.0182
  155.0000   -37.7449     3.6493     3.2030    10.1104    64.7260     2.3177     0.2328     0.0173
  155.5000   -37.7265     3.3646     3.0411    10.3733    64.3336     2.3095     0.2464     0.0164
  156.0000   -37.7091     3.1022     2.8759    10.0182    63.9672     2.2882     0.2590     0.0154
  156.5000   -37.6913     2.8602     2.7142     9.7067    63.6242     2.2675     0.2714     0.0145
  157.0000   -37.6738     2.6935     2.5616     9.7095    63.4804     2.2470     0.2834     0.0136
  157.5000   -37.6563     2.5765     2.4176     9.7545    63.6972     2.2264     0.2934     0.0127
  158.0000   -37.6388     2.5765     2.3715    10.2265    63.9083     2.1968     0.2808     0.0139
  158.5000   -37.6212     2.7462     2.4674    10.7807    64.1150     2.1763     0.2644     0.0142
  159.0000   -37.6037     2.9129     2.5535    11.0048    64.3855     2.1760     0.2481     0.0287
