~VERSION INFORMATION
 VERS.                2.0:   CWLS LOG ASCII STANDARD - VERSION 2.0
 WRAP.                 NO:   ONE LINE PER DEPTH STEP
~WELL INFORMATION
#MNEM.UNIT      DATA TYPE    INFORMATION
#----------   ------------   ------------------------------
 STRT.F           82.0000:   START DEPTH
 STOP.F         1194.0000:   STOP DEPTH
 STEP.F            0.5000:   STEP LENGTH
 NULL.          -999.2500:   NO VALUE
 COMP.       INTEX OIL CO:   COMPANY
 WELL.   76S-11 NPR #3-11:   WELL
 FLD .             TEAPOT:   FIELD
 LOC .      S11 T38N R78W:   LOCATION
 CNTY.            NATRONA:   COUNTY
 STAT.            WYOMING:   STATE
 CTRY. UNITED STATES OF AMERICA:   COUNTRY
 SRVC.       Schlumberger:   SERVICE COMPANY
 DATE.        30-AUG-1966:   LOGDATE
 API .       490250972800:   API NUMBER
~CURVE INFORMATION
#MNEM.UNIT       API CODE    CURVE DESCRIPTION
#----------   ------------   ------------------------------
 DEPT.F                  :   
 SPR .MV     05 010 01 00:   SPONTANEOUS POTENTIAL FROM RES.
 CILD.MMHO   05 110 46 00:   CONDUCTIVITY INDUCTION LOG DEEP
 ILD .OHMM   05 120 46 00:   INDUCTION LOG DEEP
 ASN .OHMM   05 041 16 00:   AMPLIFIED SHORT NORMAL 16"
 CALD.IN     45 280 60 00:   CALIPER FROM DENSITY LOG
 CORR.G/C3   45 356 01 00:   DENSITY CORRECTION
 RHOB.G/C3   45 350 01 00:   BULK DENSITY
 DPHI.DEC    45 890 12 00:   DENSITY POROSITY SANDSTONE
 GRD .GAPI   45 310 01 00:   GAMMA RAY FROM DENSITY LOG
~PARAMETER INFORMATION
#MNEM.UNIT          VALUE    DESCRIPTION
#----------   ------------   ------------------------------
 PD  .                 GL:   PERMANENT DATUM
 EPD .F              5261:   ELEVATION PERMANENT DATUM
 LMF .                 KB:   LOG MEASURED FROM
 DAPD.F                 5:   FEET ABOVE PERMANENT DATUM
 DMF .                 KB:   DRILLING MEASURED FROM
 EKB .F              5266:   KELLING BUSHING
 EGL .F              5261:   GROUND LEVEL
 DATE.            8-30-66:   RUN DATE
 RUN .                  1:   RUN NUMBER
 DD  .F              1191:   DEPTH DRILLER
 DL  .F              1191:   DEPTH LOGGER
 BLI .F              1190:   BOTTOM LOG INTERVAL
 TLI .F                87:   TOP LOG INTERVAL
 CS  .IN            8.625:   CASING SIZE
 CBD .F                10:   CASING BOTTOM DRILLER
 BS  .IN             6.75:   BIT SIZE
 BSD .F              1191:   BIT SIZE AT DEPTH
 DFT .           CHEM-GEL:   DRILLING FLUID TYPE
 DFD .                9.8:   DRILLING FLUID DENSITY
 DFV .                 60:   DRILLING FLUID VISCOSITY
 MSS .         CIRCULATED:   MUD SAMPLE SOURCE
 RMS .OHMM            .76:   RESISTIVITY MUD SAMPLE
 MST .F                85:   MUD SAMPLE TEMPERATURE
 RMF .OHMM            .46:   RESISTIVITY MUD FILTRATE SAMPLE
 MFST.F                88:   MUD FILTRATE SAMPLE TEMPERATURE
 MFSS.                  M:   MUD FILTRATE SAMPLE SOURCE
 RMB .OHMM           .695:   RESISTIVITY MUD AT BHT
 BHT .F                93:   BOTTOM HOLE TEMPERATURE
 TCS .HRS               1:   TIME CURCULATED STOPPED
 MRT .F                93:   MAXIMUM RECORDED TEMPERATURE
 LUN .               3527:   LOGGING UNIT NUMBER
 LUL .               CSPR:   LOGGING UNIT LOCATION
 ENGI.               HAUG:   RECORDING ENGINEER
 WITN.                MAY:   WITNESSED BY
 CLNT.            A2DTECH:   CLIENT CODE
 ORIG. 2", 2.5", 5" PRINT:   ORIGIN OF DATA
 UWI .       490250972800:   UNIQUE WELL ID
 DICO. A2D Technologies, Inc.:   DIGITIZING COMPANY
~OTHER INFORMATION
~A   DEPT      SPR        CILD       ILD          ASN     CALD       CORR       RHOB       DPHI        GRD   
# ...
 1104.0000   -41.2578   109.0371     8.7734    11.6794     7.0437     0.0809     2.4758     0.1060    90.2546
 1104.5000   -41.5642   105.0977     9.0693    11.8439     7.0436     0.0717     2.4749     0.1063    88.0940
 1105.0000   -42.3366   101.1583     9.3669    12.0185     7.0438     0.0822     2.4830     0.1008    86.0713
 1105.5000   -43.5787    97.2189     9.6246    12.2169     7.0436     0.0960     2.4764     0.1047    83.6964
 1106.0000   -44.4598    93.2796     9.9894    12.4617     7.0431     0.1097     2.4660     0.1108    84.2697
 1106.5000   -45.0682    89.3417    10.4413    12.7209     7.0334     0.1266     2.4512     0.1169    85.1102
 1107.0000   -45.4119    85.3976    10.8244    12.9759     7.0235     0.1041     2.4195     0.1396    84.5106
 1107.5000   -45.6534    83.5292    11.2500    13.2325     7.0132     0.0830     2.3845     0.1710    83.6078
 1108.0000   -45.8816    82.0229    11.5251    13.4890     7.0032     0.0872     2.3720     0.1642    84.6053
 1108.5000   -46.1549    81.0020    11.5498    13.7442     6.9931     0.1079     2.4024     0.1448    85.3053
 1109.0000   -46.2623    80.4061    11.5663    14.0031     6.9829     0.1191     2.4145     0.1402    84.6583
 1109.5000   -46.1263    79.8130    11.5825    14.2295     6.9729     0.0991     2.3922     0.1537    84.1606
 1110.0000   -46.0076    79.2344    11.5967    14.4122     6.9626     0.0892     2.3853     0.1702    83.7761
 1110.5000   -45.9219    78.6392    11.6172    14.5766     6.9528     0.1029     2.4052     0.1583    83.3718
 1111.0000   -46.1250    78.0439    11.6209    14.7440     6.9425     0.1042     2.4185     0.1426    81.8278
 1111.5000   -46.4487    77.4487    11.6861    14.9116     6.9315     0.0937     2.4117     0.1467    80.4952
 1112.0000   -46.1428    76.8534    11.8106    15.0738     6.9341     0.0868     2.3913     0.1561    81.6153
 1112.5000   -45.4566    76.3473    11.9305    15.2475     6.9730     0.0803     2.3802     0.1647    82.7840
 1113.0000   -44.9876    77.2550    12.0093    15.4076     7.0009     0.0861     2.3910     0.1589    82.5471
 1113.5000   -44.6126    78.0444    11.8313    15.5882     6.9799     0.0934     2.4101     0.1489    81.9340
 1114.0000   -44.1996    78.8295    11.6174    15.6491     6.9667     0.0931     2.4358     0.1361    81.2852
 1114.5000   -43.4085    80.1572    11.4099    15.3697     6.9820     0.0991     2.4702     0.1229    80.8751
 1115.0000   -42.5799    82.4581    11.1980    15.0173     6.9963     0.1069     2.4841     0.1097    80.7712
 1115.5000   -42.7899    84.7588    10.9915    14.7570     7.0121     0.1132     2.5363     0.0897    80.6068
 1116.0000   -43.3083    87.0569    10.7764    14.4932     7.0262     0.1045     2.4975     0.0928    80.4875
 1116.5000   -43.7838    89.3483    10.5761    14.2765     7.0433     0.1139     2.4870     0.0989    80.3616
 1117.0000   -43.5299    91.6365    10.3443    14.0472     7.0350     0.1328     2.4811     0.1047    81.3674
 1117.5000   -42.9044    93.9243    10.2171    13.8360     7.0152     0.1477     2.4795     0.1032    82.5701
 1118.0000   -43.0476    96.2779    10.2342    13.7579     6.9956     0.1379     2.4740     0.1024    83.8323
 1118.5000   -43.5645    94.9031    10.2255    13.6641     6.9748     0.1111     2.4551     0.1168    84.5222
 1119.0000   -44.0768    93.1301    10.2320    13.5796     6.9650     0.0959     2.4355     0.1260    83.1778
 1119.5000   -44.4332    91.3625    10.2267    13.4895     6.9711     0.1317     2.4660     0.1174    84.0079
 1120.0000   -44.0586    90.7565    10.2348    13.4017     6.9754     0.1505     2.4570     0.1214    86.5025
 1120.5000   -43.8875    92.0469    10.1849    13.3134     6.9799     0.1289     2.4396     0.1363    88.6578
 1121.0000   -44.0276    93.3378    10.0588    13.2250     6.9847     0.1043     2.4326     0.1341    90.8987
 1121.5000   -43.9963    94.6416     9.9383    13.1368     6.9892     0.1094     2.4420     0.1274    90.2617
 1122.0000   -43.3605    95.9207     9.8138    13.0482     6.9942     0.1200     2.4516     0.1208    89.3111
 1122.5000   -42.8473    97.1998     9.6915    12.9620     6.9982     0.1346     2.4615     0.1161    89.8461
 1123.0000   -42.6189    98.4789     9.5679    12.8848     7.0038     0.1320     2.4700     0.1150    90.4393
 1123.5000   -42.3262    99.7579     9.4450    12.8146     7.0054     0.1410     2.4720     0.1194    90.8503
 1124.0000   -42.5644   101.2974     9.3215    12.7455     7.0302     0.0469     2.4524     0.1347    87.4591
 1124.5000   -43.0101   102.6247     9.1989    12.6774     7.0534     0.0686     2.4623     0.1267    84.3644
 1125.0000   -42.4588   104.2914     9.0749    12.6073     7.0782     0.1050     2.4845     0.1076    84.1785
 1125.5000   -41.7379   105.9581     8.9536    12.5265     7.0836     0.1132     2.4897     0.0961    85.5447
 1126.0000   -41.9369   107.2854     8.8266    12.3051     7.0834     0.1033     2.4682     0.1051    87.4776
 1126.5000   -42.2202   107.2280     8.7345    12.0374     7.0833     0.1152     2.4653     0.1100    88.1420
 1127.0000   -42.0717   107.1565     8.7386    11.9280     7.0834     0.1129     2.4707     0.1087    88.6478
 1127.5000   -41.7463   107.0851     8.7562    11.8328     7.0834     0.1032     2.4477     0.1172    89.1437
 1128.0000   -41.8390   107.0137     8.7736    11.7362     7.0834     0.1065     2.4538     0.1149    89.7085
 1128.5000   -42.2339   106.9423     8.7911    11.6402     7.0834     0.1092     2.4639     0.1096    89.8352
 1129.0000   -42.1455   106.8708     8.8083    11.5373     7.0833     0.1094     2.4744     0.1048    89.7750
 1129.5000   -41.9794   106.7994     8.8258    11.5014     7.0833     0.1152     2.4848     0.1001    88.7262
 1130.0000   -41.8224   106.7280     8.8339    11.4752     7.0833     0.1207     2.4916     0.0976    87.6333
 1130.5000   -41.6822   106.6565     8.8284    11.4458     7.0833     0.1205     2.4801     0.1033    87.9225
 1131.0000   -41.8087   106.5851     8.7974    11.4179     7.0833     0.1236     2.4695     0.1087    89.2138
 1131.5000   -41.7718   106.5137     8.7684    11.3890     7.0833     0.1320     2.4677     0.1063    90.5250
 1132.0000   -41.4548   106.4423     8.7395    11.3607     7.0833     0.1225     2.4488     0.1142    90.5714
 1132.5000   -41.3099   106.3708     8.7106    11.3321     7.0833     0.1103     2.4429     0.1189    88.9514
 1133.0000   -41.5759   106.2874     8.6817    11.3035     7.0833     0.1203     2.4522     0.1172    87.3999
 1133.5000   -41.8223   107.0112     8.6526    11.2749     7.0833     0.1070     2.4506     0.1142    87.3222
 1134.0000   -41.6119   107.8808     8.6240    11.2463     7.0833     0.0980     2.4423     0.1209    87.2882
 1134.5000   -41.3059   108.7503     8.5945    11.2177     7.0833     0.0850     2.4348     0.1331    87.5635
 1135.0000   -41.0792   109.6199     8.5667    11.1889     7.0833     0.0900     2.4441     0.1304    87.7350
 1135.5000   -41.0700   110.2794     8.5344    11.1602     7.0833     0.1134     2.4569     0.1207    88.6541
 1136.0000   -40.9133   110.0096     8.5483    11.1324     7.0833     0.1092     2.4581     0.1185    90.2246
 1136.5000   -40.4429   109.7922     8.5816    11.1614     7.0833     0.0986     2.4522     0.1229    91.6269
 1137.0000   -40.3376   109.5748     8.6090    11.2060     7.0833     0.1045     2.4525     0.1191    90.8290
 1137.5000   -40.5938   109.3574     8.6392    11.2473     7.0833     0.1103     2.4612     0.1130    90.0438
 1138.0000   -40.8045   109.1400     8.6678    11.2901     7.0833     0.0958     2.4674     0.1069    89.1621
 1138.5000   -41.0285   108.9226     8.6973    11.3321     7.0833     0.1080     2.4772     0.1016    88.2647
 1139.0000   -40.8433   108.7052     8.7263    11.3746     7.0833     0.1257     2.4879     0.0992    88.1330
 1139.5000   -40.5494   108.4878     8.7555    11.4169     7.0833     0.1128     2.4993     0.0966    88.6451
 1140.0000   -40.4580   108.2704     8.7847    11.4592     7.0833     0.0969     2.4886     0.0946    89.0923
