~VERSION INFORMATION
 VERS.                2.0:   CWLS LOG ASCII STANDARD - VERSION 2.0
 WRAP.                 NO:   ONE LINE PER DEPTH STEP
~WELL INFORMATION
#MNEM.UNIT      DATA TYPE    INFORMATION
#----------   ------------   ------------------------------
 STRT.F           36.0000:   START DEPTH
 STOP.F         3160.0000:   STOP DEPTH
 STEP.F            0.5000:   STEP LENGTH
 NULL.          -999.2500:   NO VALUE
 COMP.    FENIX & SCISSON:   COMPANY
 WELL.        NPR-3 #28-3:   WELL
 FLD .             TEAPOT:   FIELD
 LOC .       S3 T38N R78W:   LOCATION
 CNTY.            NATRONA:   COUNTY
 STAT.            WYOMING:   STATE
 CTRY. UNITED STATES OF AMERICA:   COUNTRY
 SRVC.            Unknown:   SERVICE COMPANY
 DATE.        01-JUL-1978:   LOGDATE
 API .       490251066500:   API NUMBER
~CURVE INFORMATION
#MNEM.UNIT       API CODE    CURVE DESCRIPTION
#----------   ------------   ------------------------------
 DEPT.F                  :   
 ILD .OHMM   05 120 46 00:   INDUCTION LOG DEEP
 SN  .OHMM   05 040 16 00:   SHORT NORMAL 16"
 SPR .MV     05 010 01 00:   SPONTANEOUS POTENTIAL FROM RES.
 CALD.IN     45 280 60 00:   CALIPER FROM DENSITY LOG
 CORR.G/C3   45 356 01 00:   DENSITY CORRECTION
 DPHI.DEC    45 890 12 00:   DENSITY POROSITY SANDSTONE
 GRD .GAPI   45 310 01 00:   GAMMA RAY FROM DENSITY LOG
 RHOB.G/C3   45 350 01 00:   BULK DENSITY
 GR  .GAPI   30 310 01 00:   GAMMA RAY
~PARAMETER INFORMATION
#MNEM.UNIT          VALUE    DESCRIPTION
#----------   ------------   ------------------------------
 PD  .                 GL:   PERMANENT DATUM
 EPD .F              5264:   ELEVATION PERMANENT DATUM
 LMF .                 KB:   LOG MEASURED FROM
 DAPD.F                 4:   FEET ABOVE PERMANENT DATUM
 DMF .                 KB:   DRILLING MEASURED FROM
 EKB .F              5268:   KELLING BUSHING
 EGL .F              5264:   GROUND LEVEL
 DATE.        01-JUL-1978:   RUN DATE
 RUN .                  1:   RUN NUMBER
 DD  .F               630:   DEPTH DRILLER
 DL  .F               636:   DEPTH LOGGER
 BLI .F               630:   BOTTOM LOG INTERVAL
 TLI .F                50:   TOP LOG INTERVAL
 CS  .IN            8.625:   CASING SIZE
 CBD .F                40:   CASING BOTTOM DRILLER
 BS  .IN            7.875:   BIT SIZE
 BSD .F               630:   BIT SIZE AT DEPTH
 DFT .                KCL:   DRILLING FLUID TYPE
 DFD .                8.6:   DRILLING FLUID DENSITY
 DFV .                 32:   DRILLING FLUID VISCOSITY
 DFPH.                9.5:   DRILLING FLUID PH
 MSS .           FLOWLINE:   MUD SAMPLE SOURCE
 BHT .F                74:   BOTTOM HOLE TEMPERATURE
 TCS .HRS               1:   TIME CURCULATED STOPPED
 MRT .F                74:   MAXIMUM RECORDED TEMPERATURE
 LUN .               2958:   LOGGING UNIT NUMBER
 LUL .               CASP:   LOGGING UNIT LOCATION
 ENGI.             MILLER:   RECORDING ENGINEER
 WITN.           MCGINLEY:   WITNESSED BY
 CLNT.            A2DTECH:   CLIENT CODE
 ORIG.        2" 5" PRINT:   ORIGIN OF DATA
 UWI .       490251066500:   UNIQUE WELL ID
 DICO. A2D Technologies, Inc.:   DIGITIZING COMPANY
~OTHER INFORMATION
~A   DEPT      ILD         SN        SPR       CALD       CORR       DPHI         GRD      RHOB         GR   
# ...
  510.5000    13.5592    11.1672   -31.8394     7.5276     0.0024     0.1465    67.1021     2.4323  -999.2500
  511.0000    13.4626    11.1642   -31.8483     7.5294     0.0010     0.1434    66.8331     2.4360  -999.2500
  511.5000    13.4587    11.1606   -31.8553     7.5155    -0.0004     0.1405    67.1518     2.4408  -999.2500
  512.0000    13.4556    11.1577   -31.8624     7.5173    -0.0033     0.1468    70.3066     2.4451  -999.2500
  512.5000    13.4524    11.1548   -31.7192     7.5187    -0.0047     0.1513    73.4614     2.4421  -999.2500
  513.0000    13.4492    11.1518   -31.7282     7.5202    -0.0045     0.1575    73.9256     2.4310  -999.2500
  513.5000    13.4460    11.1483   -31.5834     7.5366    -0.0029     0.1566    72.3552     2.4243  -999.2500
  514.0000    13.5361    11.1454   -31.5923     7.5384    -0.0028     0.1620    65.8894     2.4183  -999.2500
  514.5000    13.6260    11.1425   -31.5993     7.5398    -0.0012     0.1593    64.7094     2.4154  -999.2500
  515.0000    13.6228    11.1395   -31.6066     7.5413     0.0011     0.1530    63.9778     2.4185  -999.2500
  515.5000    13.6196    11.1359   -31.6153     7.5427     0.0035     0.1515    63.2462     2.4267  -999.2500
  516.0000    13.6163    11.2102   -31.6224     7.5441     0.0066     0.1568    64.6073     2.4290  -999.2500
  516.5000    13.6124    11.2073   -31.6295     7.5456     0.0082     0.1620    67.4634     2.4216  -999.2500
  517.0000    13.5155    11.2044   -31.6366     7.5474     0.0083     0.1601    66.8850     2.4163  -999.2500
  517.5000    12.9636    11.2008   -31.6454     7.5488     0.0054     0.1568    66.7474     2.4202  -999.2500
  518.0000    12.6072    11.1978   -31.6525     7.5502     0.0040     0.1630    66.9166     2.4210  -999.2500
  518.5000    12.5174    11.1949   -31.6596     7.5517    -0.0003     0.1609    66.9324     2.4158  -999.2500
  519.0000    12.5138    11.1920   -31.6667     7.5531    -0.0017     0.1561    66.7982     2.4166  -999.2500
  519.5000    12.5109    11.1884   -31.6755     7.5695    -0.0031     0.1526    66.5102     2.4242  -999.2500
  520.0000    12.5079    11.1084   -31.6826     7.5710    -0.0030     0.1522    66.2324     2.4316  -999.2500
  520.5000    12.5050    11.1055   -31.3894     7.5429    -0.0029     0.1528    66.8500     2.4301  -999.2500
  521.0000    12.5887    11.1026   -30.9461     7.5290    -0.0028     0.1534    67.7627     2.4287  -999.2500
  521.5000    12.6723    11.0990   -30.6528     7.5155     0.0019     0.1546    68.5259     2.4272  -999.2500
  522.0000    12.7571    11.0962   -30.5098     7.5322     0.0109     0.1576    69.7375     2.4228  -999.2500
  522.5000    12.9316    11.1702   -30.2183     7.5486     0.0140     0.1550    70.9542     2.4199  -999.2500
  523.0000    13.2909    11.1673   -30.0751     7.5501     0.0141     0.1510    71.7162     2.4274  -999.2500
  523.5000    14.0625    11.2418   -29.6136     7.5519     0.0142     0.1527    71.1341     2.4341  -999.2500
  524.0000    15.1474    11.3952   -29.0402     7.5380     0.0143     0.1590    70.9965     2.4297  -999.2500
  524.5000    15.7849    11.7115   -28.7452     7.4949     0.0147     0.1676    71.0163     2.4178  -999.2500
  525.0000    16.2234    12.0358   -28.3018     7.4216     0.0205     0.1790    70.7331     2.3984  -999.2500
  525.5000    16.5594    12.3699   -27.6892     7.3185     0.0401     0.1960    70.0015     2.3806  -999.2500
  526.0000    17.0271    12.7124   -26.6679     7.1704     0.0536     0.2055    69.2227     2.3403  -999.2500
  526.5000    17.7345    12.9752   -25.9242     7.0485     0.0567     0.2106    67.3465     2.3374  -999.2500
  527.0000    18.3536    12.9719   -25.6310     6.9790     0.0583     0.2117    66.0170     2.3367  -999.2500
  527.5000    18.8635    13.0584   -25.4880     7.1153     0.0659     0.2162    64.5380     2.3352  -999.2500
  528.0000    18.7292    13.1455   -25.3449     7.2961     0.0764     0.2228    60.0695     2.3228  -999.2500
  528.5000    18.3238    13.1412   -25.3538     7.4171     0.0795     0.2272    57.2452     2.3002  -999.2500
  529.0000    17.7127    13.1378   -25.5110     7.4784     0.0796     0.2209    55.6832     2.3137  -999.2500
  529.5000    17.5866    13.1336   -25.5181     7.4948     0.0797     0.2194    52.9459     2.3160  -999.2500
  530.0000    17.5824    13.1301   -25.5269     7.4966     0.0784     0.2179    51.1680     2.3138  -999.2500
  530.5000    17.4573    13.1267   -25.5340     7.4980     0.0770     0.2167    52.3796     2.3243  -999.2500
  531.0000    17.4531    13.1233   -25.5411     7.4994     0.0711     0.2155    57.4776     2.3221  -999.2500
  531.5000    17.4480    13.1190   -25.5482     7.5158     0.0593     0.2134    59.2872     2.3244  -999.2500
  532.0000    17.3238    13.2074   -25.4051     7.5322     0.0430     0.2104    56.2601     2.3304  -999.2500
  532.5000    17.3197    13.2031   -25.4140     7.5336     0.0356     0.2056    55.4324     2.3364  -999.2500
  533.0000    17.4357    13.1997   -25.4211     7.5501     0.0283     0.1993    57.5448     2.3447  -999.2500
  533.5000    17.4316    13.1954   -25.4282     7.5668     0.0160     0.1992    61.2975     2.3516  -999.2500
  534.0000    17.4265    13.1919   -25.4354     7.5832     0.0106     0.2226    64.7513     2.3306  -999.2500
  534.5000    17.5443    13.1885   -25.4441     7.5996     0.0092     0.2196    67.6071     2.3157  -999.2500
  535.0000    17.5391    13.1851   -25.2993     7.5857     0.0093     0.2264    68.3707     2.3172  -999.2500
  535.5000    17.6566    13.1808   -25.3082     7.5725     0.0109     0.2249    66.7458     2.3113  -999.2500
  536.0000    17.7748    13.1774   -25.1651     7.5590     0.0155     0.2210    64.8184     2.3054  -999.2500
  536.5000    18.1418    13.1739   -25.1740     7.5608     0.0186     0.2165    64.3858     2.3069  -999.2500
  537.0000    18.3899    13.1705   -25.1810     7.5623     0.0157     0.2127    63.9531     2.3152  -999.2500
  537.5000    18.5141    13.1662   -25.1881     7.5637     0.0129     0.2051    61.5773     2.3272  -999.2500
  538.0000    18.7664    13.0722   -25.1952     7.5801     0.0100     0.2078    61.6654     2.3421  -999.2500
  538.5000    18.8919    13.0688   -25.2041     7.5666     0.0086     0.2162    63.5561     2.3377  -999.2500
  539.0000    19.0173    13.0654   -25.3613     7.5381     0.0117     0.2150    63.5718     2.3271  -999.2500
  539.5000    19.0128    13.0611   -25.3684     7.4482     0.0178     0.2165    63.4342     2.3199  -999.2500
  540.0000    19.0084    13.0577   -25.2252     7.4214     0.0209     0.2113    63.6034     2.3229  -999.2500
  540.5000    19.0039    13.0543   -25.5345     7.4232     0.0285     0.2086    63.3203     2.3326  -999.2500
  541.0000    18.9993    13.0509   -25.6917     7.4094     0.0375     0.2218    62.5621     2.3342  -999.2500
  541.5000    18.8631    13.0474   -25.8490     7.4112     0.0406     0.2173    60.6652     2.3215  -999.2500
  542.0000    18.8586    13.0438   -25.8561     7.4126     0.0184     0.2122    60.2287     2.3305  -999.2500
  542.5000    18.2140    13.0399   -25.8634     7.4146     0.0110     0.2125    62.3411     2.3343  -999.2500
  543.0000    17.4702    13.0365   -25.8720     7.4304     0.0052     0.2110    64.1506     2.3284  -999.2500
  543.5000    16.8729    13.0330   -26.0293     7.4169    -0.0007     0.2127    64.9138     2.3314  -999.2500
  544.0000    16.6365    13.0288   -26.1865     7.4187    -0.0021     0.2178    64.4633     2.3300  -999.2500
  544.5000    16.6326    13.0254   -26.4940     7.4202     0.0025     0.2157    61.9598     2.3232  -999.2500
  545.0000    16.5152    13.0221   -26.6529     7.4216     0.0041     0.2160    59.7334     2.3203  -999.2500
  545.5000    16.6249    13.0186   -26.6600     7.4380     0.0005     0.2125    59.4463     2.3256  -999.2500
  546.0000    16.6208    13.0144   -26.8172     7.4395    -0.0121     0.2064    61.2598     2.3436  -999.2500
  546.5000    16.6160    13.0110   -26.8243     7.4562    -0.0105     0.2055    63.9662     2.3406  -999.2500
