~VERSION INFORMATION
 VERS.                2.0:   CWLS LOG ASCII STANDARD - VERSION 2.0
 WRAP.                 NO:   ONE LINE PER DEPTH STEP
~WELL INFORMATION
#MNEM.UNIT      DATA TYPE    INFORMATION
#----------   ------------   ------------------------------
 STRT.F            8.0000:   START DEPTH
 STOP.F          513.0000:   STOP DEPTH
 STEP.F            0.5000:   STEP LENGTH
 NULL.          -999.2500:   NO VALUE
 COMP. LAWRENCE-ALLISON &AS:   COMPANY
 WELL. NPR 3 #51-63SX10UP3:   WELL
 FLD .             TEAPOT:   FIELD
 LOC .      S10 T38N R78W:   LOCATION
 CNTY.            NATRONA:   COUNTY
 STAT.            WYOMING:   STATE
 CTRY. UNITED STATES OF AMERICA:   COUNTRY
 SRVC.      Dresser Atlas:   SERVICE COMPANY
 DATE.        09-DEC-1984:   LOGDATE
 API .       490251099400:   API NUMBER
~CURVE INFORMATION
#MNEM.UNIT       API CODE    CURVE DESCRIPTION
#----------   ------------   ------------------------------
 DEPT.F                  :   
 RFOC.OHMM   07 220 01 00:   RESISTIVITY FOCUSED LOG
 RILD.OHMM   07 120 46 00:   INDUCTION LOG DEEP RESISTIVITY
 RILM.OHMM   07 120 44 00:   RESITIVITY LONG MEDIUM
 SPR .MV     07 010 01 00:   SPONTANEOUS POTENTIAL
 CALD.IN     45 280 60 00:   CALIPER FROM DENSITY LOG
 CORR.none               :   
 DEN .G/C3   45 350 01 00:   COMPENSATED BULK DENSTIY
 GRD .GAPI   45 310 01 00:   GAMMA RAY FROM DENSITY LOG
 PORD.DEC    45 890 12 00:   POROSITY DENSITY SANDSTONE
 CNC .DEC    42 890 03 00:   NEUTRON POROSITY SANDSTONE
~PARAMETER INFORMATION
#MNEM.UNIT          VALUE    DESCRIPTION
#----------   ------------   ------------------------------
 PD  .                 GL:   PERMANENT DATUM
 EPD .F              5162:   ELEVATION PERMANENT DATUM
 LMF .                 GL:   LOG MEASURED FROM
 DMF .                 GL:   DRILLING MEASURED FROM
 EGL .F              5162:   GROUND LEVEL
 DATE.        09-DEC-1984:   RUN DATE
 RUN .                  1:   RUN NUMBER
 DD  .F               510:   DEPTH DRILLER
 DL  .F               515:   DEPTH LOGGER
 BLI .F               513:   BOTTOM LOG INTERVAL
 TLI .F                20:   TOP LOG INTERVAL
 CS  .IN            8.625:   CASING SIZE
 CBD .F                20:   CASING BOTTOM DRILLER
 CBL .F                20:   CASING BOTTOM LOGGER
 BS  .IN            7.875:   BIT SIZE
 BSD .F               510:   BIT SIZE AT DEPTH
 DFT .          KCL-WATER:   DRILLING FLUID TYPE
 MSS .            MUDTANK:   MUD SAMPLE SOURCE
 RMS .OHMM           0.41:   RESISTIVITY MUD SAMPLE
 MST .F                45:   MUD SAMPLE TEMPERATURE
 RMF .OHMM           0.31:   RESISTIVITY MUD FILTRATE SAMPLE
 MFST.F                45:   MUD FILTRATE SAMPLE TEMPERATURE
 RMC .OHMM           0.51:   RESISTIVITY MUD CAKE
 MCST.F                45:   MUD CAKE SAMPLE TEMPERATURE
 MFSS.               CALC:   MUD FILTRATE SAMPLE SOURCE
 MCSS.               CALC:   MUD CAKE SAMPLE SOURCE
 RMB .OHMM           0.22:   RESISTIVITY MUD AT BHT
 BHT .F                85:   BOTTOM HOLE TEMPERATURE
 TCS .HRS               2:   TIME CURCULATED STOPPED
 MRT .F               100:   MAXIMUM RECORDED TEMPERATURE
 LUN .               6270:   LOGGING UNIT NUMBER
 LUL .                 FM:   LOGGING UNIT LOCATION
 ENGI.          E. GOVETT:   RECORDING ENGINEER
 WITN.              LUERS:   WITNESSED BY
 CLNT.            A2DTECH:   CLIENT CODE
 ORIG.           5" PRINT:   ORIGIN OF DATA
 UWI .       490251099400:   UNIQUE WELL ID
 DICO. A2D Technologies, Inc.:   DIGITIZING COMPANY
~OTHER INFORMATION
~A    DEPT    RFOC       RILD       RILM        SPR       CALD       CORR        DEN        GRD       PORD          CNC 
# ...
  276.0000    23.8263    20.2347    13.6944   -30.9545     8.1367     0.0047     2.3492    73.8150     0.1978     0.2423
  276.5000    23.6758    20.2502    13.3413   -31.2353     8.1057     0.0122     2.3529    73.3550     0.1951     0.2448
  277.0000    23.5262    20.1222    13.1625   -31.2222     8.0897     0.0197     2.3544    73.4965     0.1931     0.2433
  277.5000    23.5409    20.1346    13.0784   -31.2091     8.0738     0.0212     2.3513    74.5403     0.1964     0.2414
  278.0000    23.5556    20.1470    13.2706   -31.1961     8.0578     0.0226     2.3460    76.0352     0.1994     0.2469
  278.5000    23.5731    20.0165    13.2778   -31.1830     8.0549     0.0240     2.3444    77.8308     0.2001     0.2501
  279.0000    23.5876    20.0319    13.3777   -31.1699     8.0410     0.0285     2.3444    78.2753     0.2004     0.2539
  279.5000    23.6021    20.0442    13.5724   -31.3086     8.0552     0.0345     2.3435    77.2116     0.2004     0.2621
  280.0000    23.7813    20.0566    13.7700   -31.4413     8.0541     0.0283     2.3351    78.1050     0.2034     0.2682
  280.5000    23.9619    20.2090    14.0678   -31.5765     8.0532     0.0191     2.3268    80.5021     0.2086     0.2634
  281.0000    24.1438    20.3626    14.4723   -31.5631     8.0676     0.0099     2.3214    80.9444     0.2132     0.2564
  281.5000    23.9913    20.5173    14.8885   -31.2526     8.0692     0.0053     2.3191    79.1077     0.2153     0.2537
  282.0000    24.0060    20.1023    15.2134   -30.9395     8.0807     0.0037     2.3236    77.5960     0.2150     0.2519
  282.5000    24.3570    19.6894    15.4321   -30.4806     8.0948     0.0005     2.3319    76.5547     0.2080     0.2489
  283.0000    24.0355    19.4197    15.5484   -30.1704     8.1090    -0.0011     2.3364    77.5984     0.2047     0.2467
  283.5000    23.5496    19.0527    15.6672   -30.0087     8.1382     0.0140     2.3379    79.2437     0.2041     0.2525
  284.0000    23.0653    18.6735    15.7851   -29.8470     8.1524     0.0307     2.3409    79.8385     0.2025     0.2559
  284.5000    22.6229    18.5555    16.0148   -29.6865     8.1666     0.0383     2.3461    78.0229     0.1998     0.2544
  285.0000    22.3208    18.5669    16.2479   -29.5236     8.1807     0.0319     2.3499    76.9614     0.1959     0.2489
  285.5000    22.1798    18.5783    16.7151   -29.3620     8.1949     0.0273     2.3482    76.6518     0.1975     0.2507
  286.0000    22.0397    18.5897    17.1958   -29.3492     8.1639     0.0257     2.3468    76.4926     0.1990     0.2562
  286.5000    21.9004    18.4694    17.6903   -29.2620     8.1564     0.0271     2.3528    76.4837     0.1954     0.2608
  287.0000    21.9158    18.2254    18.3260   -29.1738     8.1468     0.0286     2.3626    76.6256     0.1893     0.2505
  287.5000    21.9307    17.8627    18.7224   -29.1605     8.1459     0.0315     2.3755    77.0675     0.1823     0.2427
  288.0000    21.7888    17.6267    19.2608   -29.1447     8.1452     0.0375     2.3838    77.9609     0.1784     0.2384
  288.5000    21.5044    17.5153    19.6774   -29.1316     8.1442     0.0450     2.3792    78.8627     0.1799     0.2359
  289.0000    21.2203    17.3983    20.3922   -29.2671     8.1432     0.0495     2.3723    78.9958     0.1836     0.2323
  289.5000    21.0865    17.1747    20.9895   -29.4058     8.1425     0.0382     2.3669    78.5336     0.1866     0.2296
  290.0000    20.9535    17.0661    21.7271   -29.8352     8.1416     0.0276     2.3661    78.8254     0.1881     0.2408
  290.5000    20.9661    17.0792    22.3519   -30.2679     8.1406     0.0188     2.3691    79.2699     0.1848     0.2478
  291.0000    20.9822    16.9687    22.9947   -30.5553     8.1396     0.0142     2.3714    79.1085     0.1841     0.2497
  291.5000    21.2890    16.7471    23.4921   -31.1333     8.1389     0.0050     2.3675    79.5507     0.1860     0.2497
  292.0000    21.4507    16.6114    23.6688   -31.4174     8.1461    -0.0042     2.3651    80.7449     0.1873     0.2497
  292.5000    21.4638    16.3050    23.3516   -31.5577     8.1521    -0.0119     2.3627    81.6405     0.1888     0.2518
  293.0000    21.3249    15.9806    22.8853   -31.6884     8.1511    -0.0014     2.3613    78.7722     0.1897     0.2616
  293.5000    21.1902    15.7670    22.5786   -31.6720     8.1503     0.0152     2.3620    76.8085     0.1882     0.2716
  294.0000    20.9105    15.5587    22.2821   -31.8108     8.1342     0.0352     2.3696    76.6236     0.1843     0.2768
  294.5000    20.6376    15.4624    22.2943   -32.0916     8.1333     0.0485     2.3809    77.5426     0.1791     0.2740
  295.0000    20.5068    15.6890    22.4620   -32.0785     8.1175     0.0256     2.3900    78.8871     0.1746     0.2639
  295.5000    20.2363    16.7154    25.8351   -32.0654     8.1166     0.0225     2.3937    79.9419     0.1715     0.2532
  296.0000    19.9694    18.4756    36.4142   -32.0523     8.1005     0.0391     2.3982    80.2228     0.1694     0.2435
  296.5000    20.2768    20.5406    49.6949   -32.1878     8.0995     0.0499     2.4050    78.0020     0.1667     0.2307
  297.0000    21.5859    23.0619    33.2287   -32.1747     8.0837     0.0601     2.4149    75.0901     0.1609     0.2252
  297.5000    23.4781    24.7385    27.3667   -32.3106     8.0677     0.0555     2.4300    72.2241     0.1485     0.2225
  298.0000    23.8178    23.7418    13.5692   -32.7429     8.0582     0.0417     2.4498    69.2077     0.1364     0.2186
  298.5000    21.7765    22.3146    12.5772   -33.0270     8.0358     0.0295     2.4428    70.2514     0.1403     0.2149
  299.0000    20.3267    20.6835    12.1542   -33.0139     8.0198     0.0357     2.4112    74.1523     0.1558     0.2183
  299.5000    19.2390    19.0387    11.9082   -33.1494     8.0039     0.0430     2.3789    76.6999     0.1734     0.2326
  300.0000    18.7200    18.0164    12.1679   -33.3261     7.9880     0.0368     2.3733    77.9913     0.1822     0.2441
  300.5000    19.1260    16.5831    12.6042   -33.8639     7.9937     0.0244     2.3705    79.2667     0.1835     0.2569
  301.0000    18.2300    14.9461    13.2390   -33.8508     7.9994     0.0122     2.3705    80.3378     0.1835     0.2593
  301.5000    17.7398    13.6593    13.9057   -33.8377     7.9865     0.0062     2.3712    81.1886     0.1835     0.2551
  302.0000    17.3832    13.0155    14.7079   -33.8245     7.9560     0.0137     2.3757    81.0338     0.1820     0.2505
  302.5000    17.1525    12.8396    15.3416   -33.9600     8.0158     0.0273     2.3825    80.4279     0.1771     0.2569
  303.0000    17.1619    12.8461    15.8918   -34.0954     8.0605     0.0364     2.3878    79.9723     0.1735     0.2618
  303.5000    17.0521    12.9411    16.2344   -33.9331     8.0752     0.0469     2.3915    79.5168     0.1714     0.2612
  304.0000    17.0616    13.1278    16.4695   -34.2145     8.1049     0.0590     2.3953    79.2116     0.1693     0.2527
  304.5000    17.0710    13.3172    16.1215   -34.3532     8.1194     0.0468     2.3999    79.0568     0.1669     0.2421
  305.0000    17.0805    13.5094    15.9221   -34.3368     8.1190     0.0345     2.4037    79.0524     0.1636     0.2409
  305.5000    17.0918    13.6105    15.8193   -34.4756     8.1336     0.0299     2.4066    79.6495     0.1617     0.2480
  306.0000    16.9826    13.7111    15.7172   -34.4591     8.1481     0.0374     2.4073    80.0511     0.1636     0.2561
  306.5000    16.9919    13.8125    15.7265   -34.5979     8.1628     0.0389     2.4042    78.5880     0.1648     0.2595
  307.0000    16.7664    13.8182    15.7340   -34.7333     8.1773     0.0342     2.4027    77.5088     0.1651     0.2580
  307.5000    16.4294    13.8238    15.7415   -34.8688     8.1826     0.0342     2.4034    76.6241     0.1639     0.2595
  308.0000    16.2092    13.8295    15.6380   -35.1495     8.1916     0.0403     2.4049    78.4232     0.1627     0.2659
  308.5000    15.9941    13.7392    15.4313   -35.2853     8.1911     0.0416     2.4063    80.6744     0.1636     0.2692
  309.0000    15.8937    13.6496    15.3316   -35.4205     8.2057     0.0263     2.4055    79.6174     0.1640     0.2653
