~VERSION INFORMATION
 VERS.                2.0:   CWLS LOG ASCII STANDARD - VERSION 2.0
 WRAP.                 NO:   ONE LINE PER DEPTH STEP
~WELL INFORMATION
#MNEM.UNIT      DATA TYPE    INFORMATION
#----------   ------------   ------------------------------
 STRT.F           14.0000:   START DEPTH
 STOP.F          623.5000:   STOP DEPTH
 STEP.F            0.5000:   STEP LENGTH
 NULL.          -999.2500:   NO VALUE
 COMP. LAWRENCE/ALLISON INC:   COMPANY
 WELL.   23-61 STX #10-10:   WELL
 FLD .             TEAPOT:   FIELD
 LOC .      S10 T38N R78W:   LOCATION
 CNTY.            NATRONA:   COUNTY
 STAT.            WYOMING:   STATE
 CTRY. UNITED STATES OF AMERICA:   COUNTRY
 SRVC.           Gearhart:   SERVICE COMPANY
 DATE.        02-JUL-1986:   LOGDATE
 API .       490251107700:   API NUMBER
~CURVE INFORMATION
#MNEM.UNIT       API CODE    CURVE DESCRIPTION
#----------   ------------   ------------------------------
 DEPT.F                  :   
 GRR .GAPI   07 310 01 00:   GAMMA RAY FROM RES. LOG
 RILD.OHMM   07 120 46 00:   INDUCTION LOG DEEP RESISTIVITY
 RILM.OHMM   07 120 44 00:   INDUCTION LOG MEDIUM
~PARAMETER INFORMATION
#MNEM.UNIT          VALUE    DESCRIPTION
#----------   ------------   ------------------------------
 PD  .                 GL:   PERMANENT DATUM
 EPD .F              5251:   ELEVATION PERMANENT DATUM
 LMF .                 KB:   LOG MEASURED FROM
 DAPD.F                 5:   FEET ABOVE PERMANENT DATUM
 DMF .                 KB:   DRILLING MEASURED FROM
 EKB .F              5256:   KELLING BUSHING
 EGL .F              5251:   GROUND LEVEL
 DATE.             7-2-86:   RUN DATE
 RUN .                  1:   RUN NUMBER
 DD  .F               648:   DEPTH DRILLER
 DL  .F               633:   DEPTH LOGGER
 BLI .F               623:   BOTTOM LOG INTERVAL
 TLI .F                15:   TOP LOG INTERVAL
 CS  .IN            8.625:   CASING SIZE
 CBD .F                47:   CASING BOTTOM DRILLER
 CBL .F                47:   CASING BOTTOM LOGGER
 BS  .IN            7.875:   BIT SIZE
 BSD .F               648:   BIT SIZE AT DEPTH
 DFT .               FOAM:   DRILLING FLUID TYPE
 BHT .F                82:   BOTTOM HOLE TEMPERATURE
 TCS .HRS            0930:   TIME CURCULATED STOPPED
 TLAB.HRS            1240:   TIME LOGGER AT BOTTOM
 MRT .F                82:   MAXIMUM RECORDED TEMPERATURE
 LUN .               7609:   LOGGING UNIT NUMBER
 LUL .           GILLETTE:   LOGGING UNIT LOCATION
 ENGI.              BAUER:   RECORDING ENGINEER
 WITN.           JENNINGS:   WITNESSED BY
 CLNT.            A2DTECH:   CLIENT CODE
 ORIG.       2", 5" PRINT:   ORIGIN OF DATA
 UWI .       490251107700:   UNIQUE WELL ID
 DICO. A2D Technologies, Inc.:   DIGITIZING COMPANY
~OTHER INFORMATION
~A   DEPT       GRR      RILD       RILM   
# ...
  469.0000    80.6801    16.6677    16.1885
  469.5000    83.1768    16.5145    16.0581
  470.0000    85.7401    16.6291    16.0911
  470.5000    85.7688    16.6695    16.1199
  471.0000    84.5544    16.6166    16.1487
  471.5000    83.8725    16.5769    16.1777
  472.0000    83.6960    16.5373    16.2092
  472.5000    83.4912    16.4979    16.1485
  473.0000    82.6796    16.4585    16.0651
  473.5000    81.1137    16.4192    15.9823
  474.0000    78.6506    16.3803    15.8999
  474.5000    77.7581    16.3060    15.8174
  475.0000    80.3831    16.1980    15.7237
  475.5000    83.1502    16.0907    15.5972
  476.0000    85.1499    15.9842    15.4727
  476.5000    84.3088    15.8783    15.3491
  477.0000    85.0882    15.7731    15.2265
  477.5000    85.9570    15.6687    15.1048
  478.0000    84.8643    15.5451    14.9750
  478.5000    84.2465    15.4012    14.8363
  479.0000    85.5240    15.2585    14.6989
  479.5000    86.2296    15.1172    14.5627
  480.0000    81.4843    14.9772    14.4279
  480.5000    76.2723    14.8751    14.3299
  481.0000    75.1181    14.8176    14.2745
  481.5000    76.9354    14.7640    14.2219
  482.0000    78.2532    14.7635    14.2219
  482.5000    77.8950    14.7634    14.2218
  483.0000    77.6141    14.7638    14.2225
  483.5000    78.6419    14.7347    14.1944
  484.0000    83.4607    14.7003    14.1613
  484.5000    86.7992    14.6662    14.1285
  485.0000    85.6713    14.6322    14.0962
  485.5000    85.1969    14.4874    14.0243
  486.0000    86.4157    14.3245    13.9450
  486.5000    88.9442    14.1804    13.8661
  487.0000    91.5117    14.0377    13.7877
  487.5000    90.7730    13.8964    13.7097
  488.0000    88.9211    13.7566    13.6321
  488.5000    87.0966    13.6948    13.5550
  489.0000    85.2494    13.6665    13.4783
  489.5000    84.4631    13.6383    13.4352
  490.0000    86.2529    13.6102    13.4055
  490.5000    87.9934    13.5820    13.3758
  491.0000    89.3128    13.5540    13.3462
  491.5000    87.1173    13.5260    13.3210
  492.0000    84.8026    13.4981    13.2789
  492.5000    83.0545    13.4702    13.2351
  493.0000    84.5946    13.4467    13.1978
  493.5000    86.2261    13.6288    13.2869
  494.0000    87.9317    13.7882    13.3644
  494.5000    87.2996    13.9586    13.4467
  495.0000    85.5007    13.9767    13.4861
  495.5000    83.6370    13.9958    13.5280
  496.0000    82.4532    14.0150    13.5700
  496.5000    85.4193    14.0342    13.6123
  497.0000    88.1765    14.0534    13.6550
  497.5000    89.9096    14.0726    13.7003
  498.0000    91.6430    14.0897    13.6134
  498.5000    93.3752    13.8533    13.4472
  499.0000    95.1157    13.6981    13.2831
  499.5000    96.9519    13.5483    13.1209
  500.0000    97.1297    13.4005    12.9608
  500.5000    92.7871    13.2541    12.8026
  501.0000    89.0808    13.1093    12.6463
  501.5000    85.3500    12.9536    12.4785
  502.0000    84.8675    12.9791    12.4464
  502.5000    87.3788    13.0149    12.4016
  503.0000    89.7530    13.0509    12.3625
  503.5000    90.2091    13.2979    12.5080
  504.0000    91.3130    14.0073    12.7924
  504.5000    92.9794    14.7549    13.4066
  505.0000    93.7412    15.5424    14.1418
  505.5000    86.0944    16.3714    15.1078
  506.0000    77.7744    17.2446    16.1398
  506.5000    69.2353    18.1643    17.2422
  507.0000    66.0023    19.1767    18.4920
  507.5000    66.2500    20.2179    19.2168
  508.0000    67.4184    21.0657    19.5349
  508.5000    67.4617    20.7337    19.7211
  509.0000    67.2953    19.8912    18.7712
  509.5000    68.5441    19.0767    18.1014
  510.0000    69.9127    18.2979    17.4569
  510.5000    71.2794    17.5508    16.8259
  511.0000    71.3592    16.8259    16.5093
  511.5000    71.9356    16.5878    16.1935
  512.0000    73.7183    16.3501    15.7609
  512.5000    75.4641    16.2089    15.8996
  513.0000    76.6220    16.5482    16.1343
  513.5000    76.4543    16.7969    16.3724
  514.0000    76.3252    17.0489    16.5735
  514.5000    76.8573    17.3043    16.8556
  515.0000    78.6911    17.5635    17.1427
  515.5000    79.9013    17.8266    17.4348
  516.0000    79.0888    18.0936    17.7312
  516.5000    77.7086    18.3015    17.9629
  517.0000    76.3164    18.3228    17.9629
  517.5000    74.9288    18.3481    17.9629
  518.0000    73.7427    18.3733    17.9629
  518.5000    74.1037    18.3987    17.9629
  519.0000    73.9168    18.4239    17.9629
  519.5000    73.4621    18.4496    17.9629
  520.0000    73.7832    18.4726    17.9657
  520.5000    76.2860    18.3414    17.9105
  521.0000    78.7443    18.2163    17.7971
  521.5000    80.3156    18.0926    17.6840
  522.0000    78.8182    17.9699    17.5718
  522.5000    76.1130    17.8480    17.4604
  523.0000    73.3916    17.7269    17.3498
  523.5000    70.6669    17.6067    17.2398
  524.0000    68.1797    17.4872    17.1305
  524.5000    68.1697    17.3686    17.0220
  525.0000    73.3636    17.2508    16.9141
  525.5000    78.4532    17.1337    16.8071
  526.0000    82.6577    17.0175    16.6683
  526.5000    85.4692    16.9839    16.6702
  527.0000    85.0707    16.9839    16.6695
  527.5000    82.7945    16.9839    16.6695
  528.0000    80.5219    16.9839    16.6695
  528.5000    78.2140    16.9832    16.6695
  529.0000    78.5278    17.1149    16.6696
  529.5000    78.3516    17.1924    16.6694
  530.0000    77.9728    17.2597    16.6699
  530.5000    78.7345    17.3041    16.6048
  531.0000    80.1310    17.1235    16.4847
  531.5000    81.5017    16.9839    16.3616
  532.0000    82.4015    16.9440    16.3226
  532.5000    83.2740    16.9022    16.2823
  533.0000    84.1457    16.8605    16.2422
  533.5000    85.0442    16.6695    16.0581
  534.0000    84.0518    16.6233    16.0137
  534.5000    82.3436    16.5635    15.9560
  535.0000    80.7053    16.4812    15.8768
  535.5000    82.1099    16.2968    15.6991
  536.0000    84.3035    16.1144    15.5234
  536.5000    86.3913    15.9341    15.3497
  537.0000    84.5446    15.7557    15.1779
  537.5000    82.3490    15.6034    15.0379
  538.0000    80.3428    15.5483    15.0189
  538.5000    82.7369    15.4933    14.9999
  539.0000    85.8521    15.4386    14.9809
  539.5000    88.9900    15.3841    14.9619
  540.0000    90.4026    15.3297    14.9428
  540.5000    89.0748    15.2755    14.9240
  541.0000    87.7504    15.2216    14.9051
  541.5000    86.1905    15.1678    14.7937
  542.0000    83.5991    15.1142    14.6642
  542.5000    81.0710    15.0608    14.5358
  543.0000    78.5429    14.9892    14.4395
  543.5000    76.2521    14.9077    14.3610
  544.0000    75.8931    14.8266    14.2829
  544.5000    77.9494    14.7460    14.2052
  545.0000    79.5563    14.6658    14.1280
  545.5000    81.0292    14.5861    14.0511
  546.0000    82.7781    14.5068    13.9747
  546.5000    84.6077    14.4279    13.8988
  547.0000    86.4459    14.3553    13.8286
  547.5000    88.2614    14.3152    13.7902
  548.0000    87.6918    14.2780    13.7543
  548.5000    84.5352    14.2409    13.7186
  549.0000    81.4245    14.2038    13.6829
  549.5000    81.7617    14.1669    13.6473
  550.0000    82.7020    14.1303    13.6118
  550.5000    83.6942    14.0889    13.5718
  551.0000    83.6356    14.0899    13.5803
  551.5000    83.0289    14.0897    13.5909
  552.0000    82.4214    14.0897    13.6015
  552.5000    81.8098    14.0897    13.6121
  553.0000    81.6461    14.0897    13.6227
  553.5000    81.9972    14.0897    13.6333
  554.0000    83.3697    14.0897    13.6439
  554.5000    84.2224    14.0897    13.6545
  555.0000    83.6132    14.0912    13.6651
  555.5000    81.7101    14.0570    13.6758
  556.0000    79.7768    13.9951    13.6863
  556.5000    82.5618    13.9320    13.7015
  557.0000    86.3206    13.8694    13.6506
  557.5000    90.2900    13.8071    13.5782
  558.0000    90.7571    13.7451    13.5066
  558.5000    88.6563    13.6833    13.4356
  559.0000    87.0961    13.6219    13.3649
  559.5000    89.7723    13.5607    13.2946
