~VERSION INFORMATION
 VERS.                2.0:   CWLS LOG ASCII STANDARD - VERSION 2.0
 WRAP.                 NO:   ONE LINE PER DEPTH STEP
~WELL INFORMATION
#MNEM.UNIT      DATA TYPE    INFORMATION
#----------   ------------   ------------------------------
 STRT.F           24.0000:   START DEPTH
 STOP.F          609.0000:   STOP DEPTH
 STEP.F            0.5000:   STEP LENGTH
 NULL.          -999.2500:   NO VALUE
 COMP. FENIX & SCISSON INC:   COMPANY
 WELL.        S 34 #48-34:   WELL
 FLD .            NPR - 3:   FIELD
 LOC .      S34 T39N R78W:   LOCATION
 CNTY.            NATRONA:   COUNTY
 STAT.            WYOMING:   STATE
 CTRY. UNITED STATES OF AMERICA:   COUNTRY
 SRVC.              Welex:   SERVICE COMPANY
 DATE.        03-MAY-1977:   LOGDATE
 API .       490251035700:   API NUMBER
~CURVE INFORMATION
#MNEM.UNIT       API CODE    CURVE DESCRIPTION
#----------   ------------   ------------------------------
 DEPT.F                  :   
 CALD.IN     45 280 60 00:   CALIPER FROM DENSITY LOG
 CORR.G/C3   45 356 01 00:   DENSITY CORRECTION
 DPHI.DEC    45 890 12 00:   DENSITY POROSITY SANDSTONE
 GRD .GAPI   45 310 01 00:   GAMMA RAY FROM DENSITY LOG
 RHOB.G/C3   45 350 01 00:   BULK DENSITY
 GURD.OHMM   07 220 05 00:   SHALLOW GUARD RESISTIVITY
 ILD .OHMM   07 120 46 00:   INDUCTION LOG DEEP
 ILM .OHMM   07 120 44 00:   INDUCTION LOG MEDIUM
 SPR .MV     07 010 01 00:   SPONTANEOUS POTENTIAL FROM RES.
~PARAMETER INFORMATION
#MNEM.UNIT          VALUE    DESCRIPTION
#----------   ------------   ------------------------------
 PD  .                 GL:   PERMANENT DATUM
 EPD .F              5160:   ELEVATION PERMANENT DATUM
 LMF .                 GL:   LOG MEASURED FROM
 DMF .                 GL:   DRILLING MEASURED FROM
 EGL .F              5160:   GROUND LEVEL
 DATE.        03-MAY-1977:   RUN DATE
 RUN .                  1:   RUN NUMBER
 DD  .F               610:   DEPTH DRILLER
 DL  .F               611:   DEPTH LOGGER
 BLI .F               609:   BOTTOM LOG INTERVAL
 TLI .F                30:   TOP LOG INTERVAL
 CS  .IN            8.625:   CASING SIZE
 CBD .F                40:   CASING BOTTOM DRILLER
 CBL .F                32:   CASING BOTTOM LOGGER
 BS  .IN            7.875:   BIT SIZE
 BSD .F               610:   BIT SIZE AT DEPTH
 DFT .            KCL GEL:   DRILLING FLUID TYPE
 DFD .                8.9:   DRILLING FLUID DENSITY
 DFV .                 33:   DRILLING FLUID VISCOSITY
 DFPH.                8.0:   DRILLING FLUID PH
 DFL .                7.2:   DRILLING FLUID LOSS
 MSS .            MUD PIT:   MUD SAMPLE SOURCE
 RMS .OHMM           0.19:   RESISTIVITY MUD SAMPLE
 MST .F                65:   MUD SAMPLE TEMPERATURE
 RMF .OHMM           0.16:   RESISTIVITY MUD FILTRATE SAMPLE
 MFST.F                65:   MUD FILTRATE SAMPLE TEMPERATURE
 RMC .OHMM           0.24:   RESISTIVITY MUD CAKE
 MCST.F                65:   MUD CAKE SAMPLE TEMPERATURE
 MFSS.               MEAS:   MUD FILTRATE SAMPLE SOURCE
 MCSS.               MEAS:   MUD CAKE SAMPLE SOURCE
 RMB .OHMM           0.17:   RESISTIVITY MUD AT BHT
 BHT .F                72:   BOTTOM HOLE TEMPERATURE
 TCS .HRS               2:   TIME CURCULATED STOPPED
 MRT .F                72:   MAXIMUM RECORDED TEMPERATURE
 LUN .               8766:   LOGGING UNIT NUMBER
 LUL .             CASPER:   LOGGING UNIT LOCATION
 ENGI.          T. JOYNER:   RECORDING ENGINEER
 WITN.           ROB LYON:   WITNESSED BY
 CLNT.            A2DTECH:   CLIENT CODE
 ORIG.           5" PRINT:   ORIGIN OF DATA
 UWI .       490251035700:   UNIQUE WELL ID
 DICO. A2D Technologies, Inc.:   DIGITIZING COMPANY
~OTHER INFORMATION
~A   DEPT       CALD      CORR        DPHI      GRD         RHOB     GURD        ILD        ILM        SPR   
   24.0000     7.9966    -0.3622     0.2973  -999.2500     2.1866  -999.2500  -999.2500  -999.2500  -999.2500
   24.5000     7.9976    -0.3501     0.2838    89.1914     2.1997  -999.2500  -999.2500  -999.2500  -999.2500
   25.0000     7.9835    -0.3275     0.2712    90.5786     2.2172  -999.2500  -999.2500  -999.2500  -999.2500
   25.5000     7.9402    -0.2974     0.2615    92.4473     2.2385  -999.2500  -999.2500  -999.2500  -999.2500
   26.0000     7.9412    -0.2643     0.2453    93.9425     2.2611  -999.2500  -999.2500  -999.2500  -999.2500
   26.5000     7.9423    -0.2266     0.2324    95.1411     2.2799  -999.2500  -999.2500  -999.2500  -999.2500
   27.0000     7.9433    -0.1815     0.2221    95.7462     2.2995  -999.2500  -999.2500  -999.2500  -999.2500
   27.5000     7.9443    -0.1094     0.1992    99.1702     2.3220  -999.2500  -999.2500  -999.2500  -999.2500
   28.0000     7.9453    -0.0429     0.1851   105.8584     2.3521  -999.2500  -999.2500  -999.2500  -999.2500
   28.5000     7.9166    -0.0116     0.1729   109.7276     2.3799  -999.2500  -999.2500  -999.2500  -999.2500
   29.0000     7.8879     0.0350     0.1637   112.8549     2.3965  -999.2500  -999.2500  -999.2500  -999.2500
   29.5000     7.8892     0.0471     0.1553   115.3888     2.4086  -999.2500  -999.2500  -999.2500  -999.2500
   30.0000     7.8902     0.0517     0.1355   117.3788     2.4236  -999.2500  -999.2500  -999.2500  -999.2500
   30.5000     7.8912     0.0533     0.1277   120.3462     2.4607  -999.2500  -999.2500  -999.2500  -999.2500
   31.0000     7.8922     0.0535     0.1246   125.2188     2.4705  -999.2500  -999.2500  -999.2500  -999.2500
   31.5000     7.8932     0.0536     0.1243   127.3076     2.4756  -999.2500  -999.2500  -999.2500  -999.2500
   32.0000     7.8943     0.0537     0.1246   126.4290     2.4757     0.7053  1701.3240  1537.0043   -24.4518
   32.5000     7.9250     0.0538     0.1252   123.1765     2.4743     4.6725     3.8625    24.9032   -24.8806
   33.0000     7.9409     0.0539     0.1258   118.8854     2.4721     7.7306     1.3314     3.5727   -25.0118
   33.5000     7.9568     0.0540     0.1266   110.5884     2.4699     8.1135     0.6180     3.7779   -25.1453
   34.0000     7.9578     0.0542     0.1275   106.5941     2.4685     8.5209     0.3757     6.5740   -25.4229
   34.5000     7.9590     0.0543     0.1284   110.7600     2.4670     9.4616     0.2992     7.0629   -25.4048
   35.0000     7.9749     0.0514     0.1290   113.1455     2.4671    11.4940     0.2717     7.1575   -25.5364
   35.5000     7.9759     0.0485     0.1295   113.7507     2.4687    11.7434     0.3393     7.3118   -25.6676
   36.0000     7.9618     0.0469     0.1298   114.9496     2.4688    11.6683     0.5473     7.6262   -25.7988
   36.5000     7.9631     0.0428     0.1298   117.1892     2.4665    11.6783     0.6556     7.7906   -25.9300
   37.0000     7.9196     0.0369     0.1289   116.9040     2.4643    11.7675     0.9145     7.6876   -25.9079
   37.5000     7.9055     0.0370     0.1282   116.0254     2.4645    11.6922     3.2916     7.6388   -25.7415
   38.0000     7.8919     0.0311     0.1279   115.7374     2.4676    11.3825     5.2422     7.6961   -25.7238
   38.5000     7.8780     0.0298     0.1283   117.2356     2.4677    11.3903     5.6192     7.7003   -25.5574
   39.0000     7.8642     0.0253     0.1297   119.4727     2.4662    11.7997     5.9172     7.8120   -25.5398
   39.5000     7.8503     0.0255     0.1305   122.7484     2.4641    11.8995     6.5928     7.9253   -25.5221
   40.0000     7.8813     0.0241     0.1320   122.1666     2.4619    11.7341     7.0207     8.0962   -25.3557
   40.5000     7.8972     0.0242     0.1332   120.3978     2.4597    11.8239     7.3737     8.2136   -25.1892
   41.0000     7.9131     0.0243     0.1344   117.7112     2.4583    12.1678     7.3783     8.2181   -25.1716
   41.5000     7.9141     0.0245     0.1320   119.5044     2.4576    12.6099     7.1812     8.1096   -25.1540
   42.0000     7.9151     0.0261     0.1229   121.6224     2.4682    13.1723     7.0858     8.1140   -25.1363
   42.5000     7.9310     0.0292     0.1193   121.0406     2.4781    14.0024     7.6521     8.2889   -25.2679
   43.0000     7.9469     0.0308     0.1175   120.1620     2.4836    13.8192     7.8174     8.5264   -25.3988
   43.5000     7.9776     0.0309     0.1187   118.9866     2.4856    13.6361     7.7671     8.7102   -25.5298
   44.0000     7.9786     0.0266     0.1205   115.7341     2.4805    14.1286     7.1537     8.8979   -25.5119
   44.5000     7.9796     0.0207     0.1231   111.5914     2.4761    14.4351     6.1899     9.0897   -25.4940
   45.0000     7.9807     0.0208     0.1258   110.4161     2.4731    14.6464     6.0246     9.2216   -25.6257
   45.5000     7.9668     0.0209     0.1282   105.8066     2.4702    14.7583     6.1548     9.3553   -25.6037
   46.0000     7.9235     0.0241     0.1258   107.9171     2.4710    14.9743     6.3754     9.4242   -25.5861
   46.5000     7.9245     0.0257     0.1245   110.1761     2.4741    15.1935     6.5584     9.1098   -25.8704
   47.0000     7.9255     0.0213     0.1236   112.6152     2.4743    15.3096     6.7007     8.9892   -26.1504
   47.5000     7.9117     0.0214     0.1233   112.8509     2.4728    15.3201     6.8956     9.1198   -26.5748
   48.0000     7.8976     0.0200     0.1230   111.0821     2.4721    14.7066     7.0414     9.9155   -26.7104
   48.5000     7.8989     0.0201     0.1227   109.9068     2.4752    15.1300     7.0457    10.0593   -26.9904
   49.0000     7.8999     0.0203     0.1223   111.9956     2.4767    15.2456     7.0510     9.9263   -27.2704
   49.5000     7.9009     0.0204     0.1214   113.9359     2.4753    14.8392     7.0553     9.5939   -27.3971
   50.0000     7.8871     0.0220     0.1202   115.2829     2.4784    14.0490     7.0099     9.4018   -27.6771
   50.5000     7.8881     0.0281     0.1196   115.2945     2.4822    13.6746     6.8238     9.0225   -27.8127
   51.0000     7.8742     0.0282     0.1189   115.8996     2.4838    13.6842     6.7331     8.7760   -27.9439
   51.5000     7.8755     0.0284     0.1216   117.2465     2.4726    13.7888     6.6456     8.4882   -27.7730
   52.0000     7.8765     0.0285     0.1285   120.0771     2.4629    13.9927     6.5121     8.4342   -27.9042
   52.5000     7.8776     0.0226     0.1303   112.8215     2.4622    13.7143     6.4265     8.4469   -27.8865
   53.0000     7.8934     0.0167     0.1314   108.2338     2.4608    13.0743     6.3421     8.7003   -27.8689
   53.5000     7.9093     0.0124     0.1332   108.2454     2.4579    13.2657     6.3470     8.9412   -27.8512
   54.0000     7.8952     0.0109     0.1347   112.4113     2.4550    13.8380     6.4394     9.0602   -27.9824
   54.5000     7.8814     0.0111     0.1356   114.2033     2.4535    13.7519     6.3546     9.1269   -27.9643
   55.0000     7.8826     0.0112     0.1352   115.1051     2.4521    13.3830     6.1001     9.1332   -28.0960
   55.5000     7.8837     0.0158     0.1328   116.6004     2.4552    13.0285     5.9784     9.1382   -28.2271
   56.0000     7.8847     0.0174     0.1310   117.7990     2.4605    13.0374     5.9821     9.1433   -28.2051
   56.5000     7.8857     0.0206     0.1298   117.0687     2.4651    13.0463     6.0285     9.0839   -28.3407
   57.0000     7.8870     0.0237     0.1270   115.4483     2.4704    13.2373     6.2004     9.0902   -28.4719
   57.5000     7.8880     0.0283     0.1222   113.2353     2.4780    13.4311     6.2966     9.0952   -28.6030
   58.0000     7.8890     0.0299     0.1195   110.5763     2.4841    13.5337     6.4350     9.0361   -28.7342
   58.5000     7.8900     0.0332     0.1183   108.9555     2.4872    13.5430     6.5211     8.9799   -28.7122
   59.0000     7.8910     0.0362     0.1168   107.7805     2.4887    13.6464     6.5251     8.9216   -28.9965
   59.5000     7.8920     0.0378     0.1156   107.7922     2.4903    13.7507     6.4841     8.8038   -29.1277
   60.0000     7.8931     0.0424     0.1137   107.6554     2.4934    13.2797     6.4881     8.8098   -29.1057
