~VERSION INFORMATION
 VERS.                2.0:   CWLS LOG ASCII STANDARD - VERSION 2.0
 WRAP.                 NO:   ONE LINE PER DEPTH STEP
~WELL INFORMATION
#MNEM.UNIT      DATA TYPE    INFORMATION
#----------   ------------   ------------------------------
 STRT.F           26.0000:   START DEPTH
 STOP.F          655.0000:   STOP DEPTH
 STEP.F            0.5000:   STEP LENGTH
 NULL.          -999.2500:   NO VALUE
 COMP. FENIX & SCISSON, INCORPORATED:   COMPANY
 WELL. RES 3 TEAPOT DOM #22S-11:   WELL
 FLD .             TEAPOT:   FIELD
 LOC .      S11 T38N R78W:   LOCATION
 CNTY.            NATRONA:   COUNTY
 STAT.            WYOMING:   STATE
 CTRY. UNITED STATES OF AMERICA:   COUNTRY
 SRVC.            Unknown:   SERVICE COMPANY
 DATE.        03-FEB-1978:   LOGDATE
 API .       490251057200:   API NUMBER
~CURVE INFORMATION
#MNEM.UNIT       API CODE    CURVE DESCRIPTION
#----------   ------------   ------------------------------
 DEPT.F                  :   
 ILD .OHMM   05 120 46 00:   INDUCTION LOG DEEP
 SN  .OHMM   05 040 16 00:   SHORT NORMAL 16"
 SPR .MV     05 010 01 00:   SPONTANEOUS POTENTIAL.
 CALD.IN     45 280 60 00:   CALIPER FROM DENSITY LOG
 CORR.G/C3   45 356 01 00:   DENSITY CORRECTION
 DPHI.DEC    45 890 12 00:   DENSITY POROSITY SANDSTONE
 GRD .GAPI   45 310 01 00:   GAMMA RAY FROM DENSITY LOG
 RHOB.G/C3   45 350 01 00:   BULK DENSITY
~PARAMETER INFORMATION
#MNEM.UNIT          VALUE    DESCRIPTION
#----------   ------------   ------------------------------
 PD  .                 GL:   PERMANENT DATUM
 EPD .F              5168:   ELEVATION PERMANENT DATUM
 LMF .                 KB:   LOG MEASURED FROM
 DMF .                 KB:   DRILLING MEASURED FROM
 EKB .F              5171:   KELLING BUSHING
 EGL .F              5168:   GROUND LEVEL
 DATE.        03-FEB-1978:   RUN DATE
 RUN .                  1:   RUN NUMBER
 DD  .F               650:   DEPTH DRILLER
 DL  .F               655:   DEPTH LOGGER
 BLI .F               655:   BOTTOM LOG INTERVAL
 TLI .F                40:   TOP LOG INTERVAL
 CS  .IN            8.625:   CASING SIZE
 CBD .F                39:   CASING BOTTOM DRILLER
 CBL .F                40:   CASING BOTTOM LOGGER
 BS  .IN            7.875:   BIT SIZE
 BSD .F               650:   BIT SIZE AT DEPTH
 DFT .                KCL:   DRILLING FLUID TYPE
 DFD .                8.6:   DRILLING FLUID DENSITY
 DFV .                 31:   DRILLING FLUID VISCOSITY
 DFPH.                9.5:   DRILLING FLUID PH
 DFL .               12.8:   DRILLING FLUID LOSS
 MSS .           FLOWLINE:   MUD SAMPLE SOURCE
 RMS .OHMM           0.38:   RESISTIVITY MUD SAMPLE
 MST .F                62:   MUD SAMPLE TEMPERATURE
 RMF .OHMM            4.4:   RESISTIVITY MUD FILTRATE SAMPLE
 MFST.F                62:   MUD FILTRATE SAMPLE TEMPERATURE
 RMC .OHMM            0.8:   RESISTIVITY MUD CAKE
 MCST.F                62:   MUD CAKE SAMPLE TEMPERATURE
 MFSS.               MEAS:   MUD FILTRATE SAMPLE SOURCE
 RMB .OHMM           0.35:   RESISTIVITY MUD AT BHT
 BHT .F                68:   BOTTOM HOLE TEMPERATURE
 TCS .HRS               1:   TIME CURCULATED STOPPED
 MRT .F                68:   MAXIMUM RECORDED TEMPERATURE
 LUN .               2958:   LOGGING UNIT NUMBER
 LUL .             CASPER:   LOGGING UNIT LOCATION
 ENGI.           REYNOLDS:   RECORDING ENGINEER
 WITN.         HARRINGTON:   WITNESSED BY
 CLNT.            A2DTECH:   CLIENT CODE
 ORIG.           5" PRINT:   ORIGIN OF DATA
 UWI .       490251057200:   UNIQUE WELL ID
 DICO. A2D Technologies, Inc.:   DIGITIZING COMPANY
~OTHER INFORMATION
~A   DEPT      ILD         SN        SPR       CALD       CORR       DPHI         GRD      RHOB   
# ...
  431.0000     5.3402     6.3423   -68.4112     7.9089     0.0538     0.1335   109.7306     2.4369
  431.5000     5.2283     6.2083   -68.5790     7.9080     0.0596     0.1369   112.4365     2.4488
  432.0000     5.2266     5.9107   -68.5951     7.9070     0.0700     0.1411   117.4562     2.4278
  432.5000     5.2248     5.5114   -68.4594     7.9061     0.0848     0.1438   118.1503     2.3983
  433.0000     5.1826     5.2467   -68.4796     7.9053     0.0891     0.1456   116.1701     2.3811
  433.5000     5.0778     5.0654   -68.1922     7.9044     0.0856     0.1418   111.3231     2.4223
  434.0000     5.0414     5.3512   -68.2083     7.9034     0.0799     0.1274   110.4069     2.4463
  434.5000     5.2904     5.7327   -67.9168     7.9026     0.0768     0.1098   112.0520     2.4755
  435.0000     5.5137     6.1842   -67.7845     7.9017     0.0782     0.1037   111.8878     2.4897
  435.5000     5.8674     6.5793   -67.6495     7.9006     0.0766     0.1031   110.8172     2.4980
  436.0000     6.3347     6.8080   -67.5139     7.9151     0.0720     0.1049   107.1663     2.4993
  436.5000     6.6901     6.8518   -67.3782     7.9140     0.0674     0.1089   104.2954     2.4820
  437.0000     6.7815     6.8472   -67.2466     7.9132     0.0628     0.1131   111.2275     2.4647
  437.5000     6.6857     6.8435   -67.2627     7.9122     0.0612     0.1149   111.3687     2.4609
  438.0000     6.5003     6.8398   -67.4305     7.9265     0.0611     0.1143   109.6906     2.4653
  438.5000     6.2329     6.8847   -67.2944     7.9256     0.0580     0.1143   105.2968     2.4675
  439.0000     5.8127     6.7383   -67.1592     7.9247     0.0564     0.1157   106.7931     2.4690
  439.5000     5.5732     6.3710   -67.1793     7.9237     0.0547     0.1192   113.8796     2.4604
  440.0000     5.5328     6.0180   -67.0396     7.9227     0.0565     0.1222   120.0598     2.4426
  440.5000     5.4927     5.6160   -66.7562     7.9371     0.0754     0.1262   121.7307     2.4298
  441.0000     5.5291     5.4973   -66.4688     7.9512     0.0618     0.1295   119.2137     2.4237
  441.5000     5.5658     5.4563   -66.3292     7.9503     0.0289     0.1283   109.1408     2.4147
  442.0000     5.6806     5.6069   -66.0458     7.9495     0.0482     0.1232   106.2575     2.4281
  442.5000     5.8794     5.9239   -66.0622     7.9486     0.0616     0.1160   106.0933     2.4581
  443.0000     6.1276     6.3463   -66.0789     7.9477     0.0688     0.1085   107.1375     2.4640
  443.5000     6.4307     6.8595   -66.0956     7.9466     0.0717     0.1050   110.4476     2.4664
  444.0000     6.8432     7.2825   -66.1142     7.9155     0.0731     0.1041   112.2504     2.4864
  444.5000     7.2319     7.5357   -66.1303     7.9146     0.0745     0.1057   111.9318     2.4954
  445.0000     7.5440     7.7976   -66.1463     7.8834     0.0759     0.1086   110.0453     2.4908
  445.5000     7.7468     7.9023   -66.1624     7.8826     0.0772     0.1108   105.5578     2.4787
  446.0000     7.8526     7.9542   -66.1791     7.8514     0.0785     0.1117   102.6745     2.4764
  446.5000     7.9047     8.0043   -66.1986     7.8340     0.0784     0.1117   107.0420     2.4771
  447.0000     7.9571     8.0557   -66.2147     7.8192     0.0783     0.1123   107.3342     2.4726
  447.5000     7.9538     7.9946   -66.2308     7.8032     0.0782     0.1124   107.4721     2.4665
  448.0000     7.8961     7.9903   -66.3986     7.7873     0.0781     0.1106   108.5130     2.4804
  448.5000     7.8382     7.9860   -66.4147     7.7863     0.0765     0.1078   108.1977     2.4994
  449.0000     7.8355     7.8717   -66.2791     7.7855     0.0701     0.1058   106.0686     2.5016
  449.5000     7.7787     7.8675   -66.2992     7.7845     0.0538     0.1072   101.0706     2.4985
  450.0000     7.7222     7.8633   -66.3149     7.7837     0.0493     0.1087    97.8852     2.4880
  450.5000     7.7191     7.7862   -66.3602     7.8280     0.0508     0.1096    99.1520     2.4752
  451.0000     7.7160     7.7852   -66.4054     7.7813     0.0505     0.1090   101.9373     2.4856
  451.5000     7.7129     7.8383   -66.4507     7.7652     0.0474     0.1060   105.3999     2.4976
  452.0000     7.8255     7.8430   -66.4959     7.7642     0.0383     0.1058   108.5604     2.4990
  452.5000     8.0338     7.8907   -66.5250     7.7631     0.0292     0.1151   109.6090     2.4825
  453.0000     8.2568     7.9996   -66.5372     7.7621     0.0232     0.1217   108.5369     2.4621
  453.5000     8.4281     8.1105   -66.3967     7.7764     0.0215     0.1199   103.6913     2.4388
  454.0000     8.4834     8.2224   -66.4114     7.8054     0.0229     0.1181   102.3200     2.4530
  454.5000     8.5391     8.2213   -66.4231     7.8346     0.0197     0.1169   100.6239     2.4672
  455.0000     8.4170     8.2775   -66.4349     7.8654     0.0062     0.1160    98.3681     2.4732
  455.5000     8.2401     8.2761   -66.7501     7.8780     0.0047     0.1287    95.6373     2.4445
  456.0000     7.7687     8.1610   -66.7618     7.9069     0.0120     0.1311    99.2911     2.4338
  456.5000     6.6840     8.0475   -66.9256     7.9059     0.0119     0.1330   104.0701     2.4167
  457.0000     6.1045     7.6651   -66.9400     7.9203     0.0118     0.1440   111.6112     2.4144
  457.5000     5.8937     6.9068   -66.9517     7.9141     0.0161     0.1662   116.7354     2.4076
  458.0000     5.8100     5.9699   -66.8117     7.9028     0.0279     0.1711   120.6541     2.3708
  458.5000     5.8077     5.8462   -66.6717     7.9018     0.0427     0.1639   116.2588     2.3655
  459.0000     5.8458     5.9270   -66.3800     7.9008     0.0053     0.1414   108.5431     2.3737
  459.5000     5.9665     6.1430   -66.0882     7.8997     0.0007     0.1282   101.1296     2.4194
  460.0000     6.2729     6.6667   -65.6447     7.8833     0.0006     0.1216   100.8157     2.4531
  460.5000     7.4448     7.5521   -65.2042     7.8671     0.0005     0.1162   105.5921     2.4771
  461.0000     8.3166     8.5551   -64.7577     7.8510     0.0003     0.1170   107.7379     2.4770
  461.5000     9.1622     9.1683   -64.3172     7.8348    -0.0028     0.1237   104.8561     2.4698
  462.0000     9.6818     9.4905   -64.0225     7.8339    -0.0059     0.1240   101.2190     2.4559
  462.5000     9.8143     9.6218   -63.5790     7.8328    -0.0075     0.1249    99.0954     2.4453
  463.0000     9.8093     9.7549   -63.2898     7.8469    -0.0091     0.1303   103.9145     2.4468
  463.5000     9.6701     9.8214   -62.9949     7.8610    -0.0122     0.1331   107.5282     2.4512
  464.0000     9.7117     9.8201   -62.4886     7.8750    -0.0090     0.1334   103.2868     2.4452
  464.5000     9.7973     9.8868   -62.1144     7.8891     0.0025     0.1337   100.3897     2.4309
  465.0000     9.9987    10.0933   -61.8197     7.9181     0.0054     0.1246    99.6123     2.4285
  465.5000    10.2051    10.4480   -61.5279     7.9322    -0.0007     0.1196    98.7169     2.4383
  466.0000    10.6351    10.8905   -61.2362     7.9462    -0.0038     0.1187    96.2883     2.4554
  466.5000    11.0832    11.5103   -60.9469     7.9502    -0.0010     0.1316    92.6512     2.4599
  467.0000    11.6307    12.3352   -60.6555     7.9660     0.0034     0.1370    82.9717     2.4628
  467.5000    12.5491    13.1279   -60.1947     7.9735     0.0048     0.1386    73.2923     2.4598
  468.0000    14.9228    14.0688   -59.4680     7.9725     0.0047     0.1401    64.5192     2.4312
  468.5000    17.5665    15.4092   -58.8699     7.9866     0.0090     0.1449    57.2567     2.4259
  469.0000    19.9596    16.1572   -58.2229     8.0007     0.0253     0.1560    55.4320     2.4190
  469.5000    21.6858    16.6095   -57.6823     7.9996     0.0520     0.1707    62.2152     2.4081
  470.0000    22.7570    16.7229   -57.0871     8.0288     0.0728     0.1870    68.6989     2.3852
  470.5000    23.0684    16.8375   -56.4918     8.0277     0.0921     0.1894    69.5936     2.3446
  471.0000    22.5812    17.0704   -55.8857     8.0265     0.1054     0.1888    70.7903     2.3288
