~VERSION INFORMATION
 VERS.                2.0:   CWLS LOG ASCII STANDARD - VERSION 2.0
 WRAP.                 NO:   ONE LINE PER DEPTH STEP
~WELL INFORMATION
#MNEM.UNIT      DATA TYPE    INFORMATION
#----------   ------------   ------------------------------
 STRT.F           88.0000:   START DEPTH
 STOP.F          893.0000:   STOP DEPTH
 STEP.F            0.5000:   STEP LENGTH
 NULL.          -999.2500:   NO VALUE
 COMP.          U.S. NAVY:   COMPANY
 WELL. RES 3 TEAPOT DOM #24S-35:   WELL
 FLD .        TEAPOT DOME:   FIELD
 LOC .      S35 T39N R78W:   LOCATION
 CNTY.            NATRONA:   COUNTY
 STAT.            WYOMING:   STATE
 CTRY. UNITED STATES OF AMERICA:   COUNTRY
 SRVC.       Schlumberger:   SERVICE COMPANY
 DATE.        26-JUL-1963:   LOGDATE
 API .       490250654800:   API NUMBER
~CURVE INFORMATION
#MNEM.UNIT       API CODE    CURVE DESCRIPTION
#----------   ------------   ------------------------------
 DEPT.F                  :   
 CALS.IN     60 280 50 00:   CALIPER FROM SONIC LOG
 DT  .US/F   60 520 00 00:   INTERVAL TRANSIT TIME
 GR  .GAPI   30 310 01 00:   GAMMA RAY
 ASN .OHMM   05 041 16 00:   AMPLIFIED SHORT NORMAL 16"
 CILD.MMHO   05 110 46 00:   CONDUCTIVITY INDUCTION LOG DEEP
 ILD .OHMM   05 120 46 00:   INDUCTION LOG DEEP
 SPR .MV     05 010 01 00:   SPONTANEOUS POTENTIAL FROM RES.
~PARAMETER INFORMATION
#MNEM.UNIT          VALUE    DESCRIPTION
#----------   ------------   ------------------------------
 PD  .                 GL:   PERMANENT DATUM
 EPD .F              5116:   ELEVATION PERMANENT DATUM
 LMF .                 KB:   LOG MEASURED FROM
 DAPD.F                 5:   FEET ABOVE PERMANENT DATUM
 DMF .                 KB:   DRILLING MEASURED FROM
 EKB .F              5121:   KELLING BUSHING
 EGL .F              5116:   GROUND LEVEL
 DATE.        26-JUL-1963:   RUN DATE
 RUN .                  1:   RUN NUMBER
 DD  .F               900:   DEPTH DRILLER
 DL  .F               894:   DEPTH LOGGER
 BLI .F               893:   BOTTOM LOG INTERVAL
 TLI .F                88:   TOP LOG INTERVAL
 CBD .F                10:   CASING BOTTOM DRILLER
 BS  .IN             6.75:   BIT SIZE
 BSD .F               900:   BIT SIZE AT DEPTH
 DFT .            GEL-OIL:   DRILLING FLUID TYPE
 DFD .                9.5:   DRILLING FLUID DENSITY
 DFV .                 92:   DRILLING FLUID VISCOSITY
 DFPH.                9.5:   DRILLING FLUID PH
 DFL .                5.8:   DRILLING FLUID LOSS
 MSS .           FLOWLINE:   MUD SAMPLE SOURCE
 RMS .OHMM           4.05:   RESISTIVITY MUD SAMPLE
 MST .F                75:   MUD SAMPLE TEMPERATURE
 RMF .OHMM           3.91:   RESISTIVITY MUD FILTRATE SAMPLE
 MFST.F                75:   MUD FILTRATE SAMPLE TEMPERATURE
 RMC .OHMM           3.54:   RESISTIVITY MUD CAKE
 MCST.F                75:   MUD CAKE SAMPLE TEMPERATURE
 MFSS.               MEAS:   MUD FILTRATE SAMPLE SOURCE
 MCSS.               MEAS:   MUD CAKE SAMPLE SOURCE
 TCS .HRS             0.5:   TIME CURCULATED STOPPED
 LUN .               4507:   LOGGING UNIT NUMBER
 LUL .               CSPR:   LOGGING UNIT LOCATION
 ENGI.             KNOBEL:   RECORDING ENGINEER
 WITN.          JORGENSON:   WITNESSED BY
 CLNT.            A2DTECH:   CLIENT CODE
 ORIG.           5" PRINT:   ORIGIN OF DATA
 UWI .       490250654800:   UNIQUE WELL ID
 DICO. A2D Technologies, Inc.:   DIGITIZING COMPANY
~OTHER INFORMATION
~A   DEPT     CALS         DT         GR          ASN      CILD         ILD      SPR   
# ...
  315.5000  -999.2500  -999.2500  -999.2500     6.4458   184.0819     5.6189   -19.9918
  316.0000  -999.2500  -999.2500  -999.2500     6.3999   183.3361     5.5438   -20.0008
  316.5000  -999.2500  -999.2500  -999.2500     6.3995   182.5918     5.5397   -19.8554
  317.0000  -999.2500  -999.2500  -999.2500     6.4444   181.0925     5.5361   -19.7134
  317.5000  -999.2500  -999.2500  -999.2500     6.5045   180.3483     5.5325   -19.5700
  318.0000  -999.2500  -999.2500  -999.2500     6.5965   178.8490     5.5287   -19.7298
  318.5000  -999.2500  -999.2500  -999.2500     6.6851   178.1011     5.5249   -19.7370
  319.0000  -999.2500  -999.2500  -999.2500     6.7149   181.1541     5.5207   -19.8951
  319.5000  -999.2500  -999.2500  -999.2500     6.6842   183.4448     5.3382   -20.0531
  320.0000  -999.2500  -999.2500  -999.2500     6.5628   187.4555     5.2115   -20.0603
  320.5000  -999.2500  -999.2500  -999.2500     6.3051   192.5821     5.1275   -20.0693
  321.0000  -999.2500  -999.2500  -999.2500     6.0625   198.6664     5.0410   -20.0766
  321.5000  -999.2500  -999.2500  -999.2500     5.8352   203.9920     4.8976   -19.9311
  322.0000  -999.2500  -999.2500  -999.2500     5.7440   210.0763     4.8681   -19.9401
  322.5000  -999.2500  -999.2500  -999.2500     5.7284   214.7446     4.7927   -19.7964
  323.0000  -999.2500  -999.2500  -999.2500     5.6826   217.6962     4.7356   -19.7888
  323.5000  -999.2500  -999.2500  -999.2500     5.6821   217.7107     4.6557   -19.5111
  324.0000  -999.2500  -999.2500  -999.2500     5.6816   216.7273     4.6521   -19.5183
  324.5000  -999.2500  -999.2500  -999.2500     5.7116   216.2186     4.6482   -19.5255
  325.0000  -999.2500  -999.2500  -999.2500     5.7110   215.4780     4.6450   -19.5327
  325.5000  -999.2500  -999.2500  -999.2500     5.7106   214.7338     4.6413   -19.5400
  326.0000  -999.2500  -999.2500  -999.2500     5.7259   213.9895     4.7548   -19.5475
  326.5000  -999.2500  -999.2500  -999.2500     5.7702   213.2473     4.8606   -19.5562
  327.0000  -999.2500  -999.2500  -999.2500     5.7999   211.7424     5.0081   -19.5634
  327.5000  -999.2500  -999.2500  -999.2500     5.8299   210.2428     5.1555   -19.7214
  328.0000  -999.2500  -999.2500  -999.2500     5.8446   207.0408     5.3021   -19.7285
  328.5000  -999.2500  -999.2500  -999.2500     5.8289   201.1710     5.4486   -19.5850
  329.0000  -999.2500  -999.2500  -999.2500     5.8508   195.8744     5.6145   -19.5940
  329.5000  -999.2500  -999.2500  -999.2500     6.0851   192.0952     5.8191   -19.6012
  330.0000  -999.2500  -999.2500  -999.2500     6.2511   186.7987     5.8910   -19.6084
  330.5000  -999.2500  -999.2500  -999.2500     6.4019   182.9387     5.9629   -19.6157
  331.0000  -999.2500  -999.2500  -999.2500     6.5982   177.7266     6.0348   -19.6229
  331.5000  -999.2500  -999.2500  -999.2500     6.7958   175.4613     6.0303   -19.6319
  332.0000  -999.2500  -999.2500  -999.2500     6.8545   173.2032     6.1032   -19.4865
  332.5000  -999.2500  -999.2500  -999.2500     6.8237   170.9416     6.0231   -19.9480
  333.0000  -999.2500  -999.2500  -999.2500     6.7779   170.9573     6.0195   -19.9552
  333.5000  -999.2500  -999.2500  -999.2500     6.7169   172.4892     5.9356   -19.9624
  334.0000  -999.2500  -999.2500  -999.2500     6.6556   174.0212     5.8515   -19.9698
  334.5000  -999.2500  -999.2500  -999.2500     6.6101   174.0393     5.7057   -19.9786
  335.0000  -999.2500  -999.2500  -999.2500     6.6096   174.8125     5.5510   -19.8350
  335.5000  -999.2500  -999.2500  -999.2500     6.5789   175.5857     5.4261   -19.6914
  336.0000  -999.2500  -999.2500  -999.2500     6.5482   177.1177     5.3545   -19.6986
  336.5000  -999.2500  -999.2500  -999.2500     6.4268   181.6845     5.1617   -19.7059
  337.0000  -999.2500  -999.2500  -999.2500     6.2706   196.6718     5.0825   -19.7148
  337.5000  -999.2500  -999.2500  -999.2500     6.0476   211.3074     4.9279   -19.7220
  338.0000  -999.2500  -999.2500  -999.2500     5.8959   217.3917     4.7732   -19.7292
  338.5000  -999.2500  -999.2500  -999.2500     5.7290   223.4760     4.6941   -19.5856
  339.0000  -999.2500  -999.2500  -999.2500     5.5622   233.3540     4.5393   -19.5928
  339.5000  -999.2500  -999.2500  -999.2500     5.4080   247.1475     4.3838   -19.6003
  340.0000  -999.2500  -999.2500  -999.2500     5.2132   254.6309     4.3047   -19.6090
  340.5000  -999.2500  -999.2500  -999.2500     5.0615   259.1977     4.3011   -19.4636
  341.0000  -999.2500  -999.2500  -999.2500     4.9098   265.2820     4.2975   -19.4726
  341.5000  -999.2500  -999.2500  -999.2500     4.8035   268.3314     4.2938   -19.3290
  342.0000  -999.2500  -999.2500  -999.2500     4.7274   266.0595     4.2894   -19.3362
  342.5000  -999.2500  -999.2500  -999.2500     4.7571   260.7768     4.3991   -19.1926
  343.0000  -999.2500  -999.2500  -999.2500     4.7719   256.2390     4.4341   -19.2016
  343.5000  -999.2500  -999.2500  -999.2500     4.7260   248.6662     4.5052   -19.0562
  344.0000  -999.2500  -999.2500  -999.2500     4.5743   238.0585     4.5771   -18.9126
  344.5000  -999.2500  -999.2500  -999.2500     4.6797   226.6922     4.7427   -18.6199
  345.0000  -999.2500  -999.2500  -999.2500     5.5638   216.5401     4.9635   -18.3273
  345.5000  -999.2500  -999.2500  -999.2500     6.2067   203.2043     5.2451   -18.3345
  346.0000  -999.2500  -999.2500  -999.2500     6.4181   190.3204     5.3935   -18.0383
  346.5000  -999.2500  -999.2500  -999.2500     6.5084   181.9890     5.6158   -18.0473
  347.0000  -999.2500  -999.2500  -999.2500     6.5988   177.4511     5.7630   -18.0545
  347.5000  -999.2500  -999.2500  -999.2500     6.6911   173.6216     5.9105   -18.5143
  348.0000  -999.2500  -999.2500  -999.2500     6.8247   169.8965     5.9824   -18.6740
  348.5000  -999.2500  -999.2500  -999.2500     6.9151   166.8761     6.0543   -18.9829
  349.0000  -999.2500  -999.2500  -999.2500     6.8390   162.3382     6.2009   -19.1409
  349.5000  -999.2500  -999.2500  -999.2500     6.8234   157.8004     6.2728   -19.4498
  350.0000  -999.2500  -999.2500  -999.2500     7.1558   154.7800     6.4955   -19.6078
  350.5000  -999.2500  -999.2500  -999.2500     7.2765   148.7255     6.6437   -19.3203
  351.0000  -999.2500  -999.2500  -999.2500     7.3519   147.9810     6.7164   -19.3315
  351.5000  -999.2500  -999.2500  -999.2500     7.3970   148.7574     6.7885   -19.3428
  352.0000  -999.2500  -999.2500  -999.2500     7.3815   151.0477     6.6338   -19.2032
  352.5000  -999.2500  -999.2500  -999.2500     7.2905   153.4015     6.5555   -19.0636
  353.0000  -999.2500  -999.2500  -999.2500     7.1952   159.4256     6.4772   -18.9241
  353.5000  -999.2500  -999.2500  -999.2500     6.9570   165.5096     6.3233   -18.7868
  354.0000  -999.2500  -999.2500  -999.2500     6.7752   169.3174     6.1687   -18.4969
  354.5000  -999.2500  -999.2500  -999.2500     6.6085   174.6462     6.0148   -18.3602
  355.0000  -999.2500  -999.2500  -999.2500     6.3812   179.2127     5.7099   -18.2202
  355.5000  -999.2500  -999.2500  -999.2500     6.0935   185.2967     5.4043   -18.2347
  356.0000     6.5995  -999.2500  -999.2500     5.9570   189.2059     5.2504   -18.0923
  356.5000     6.6046  -999.2500  -999.2500     5.8054   200.5031     4.9455   -18.1063
  357.0000     6.5599  -999.2500  -999.2500     5.5630   221.7616     4.5604   -17.9668
  357.5000     6.4848  -999.2500  -999.2500     5.3510   243.0200     4.1083   -17.6764
  358.0000     6.4857  -999.2500  -999.2500     5.1671   270.3519     3.8789   -17.6905
  358.5000     6.5335  -999.2500  -999.2500     4.8511   287.0580     3.7250   -17.5505
  359.0000     6.5686  -999.2500  -999.2500     4.5936   288.5896     3.7215   -17.5650
  359.5000     6.6102  -999.2500  -999.2500     4.2303   287.8451     3.7187   -17.5762
  360.0000     6.6263  -999.2500  -999.2500     4.3812   287.1005     3.7159   -17.4338
  360.5000     6.6272  -999.2500  -999.2500     4.6230   287.1182     3.7198   -17.4480
