~VERSION INFORMATION
 VERS.                2.0:   CWLS LOG ASCII STANDARD - VERSION 2.0
 WRAP.                 NO:   ONE LINE PER DEPTH STEP
~WELL INFORMATION
#MNEM.UNIT      DATA TYPE    INFORMATION
#----------   ------------   ------------------------------
 STRT.F           30.0000:   START DEPTH
 STOP.F          482.0000:   STOP DEPTH
 STEP.F            0.5000:   STEP LENGTH
 NULL.          -999.2500:   NO VALUE
 COMP. FENIX & SCISSON INC:   COMPANY
 WELL.        S 10 #72-10:   WELL
 FLD .             TEAPOT:   FIELD
 LOC .      S10 T38N R78W:   LOCATION
 CNTY.            NATRONA:   COUNTY
 STAT.            WYOMING:   STATE
 CTRY. UNITED STATES OF AMERICA:   COUNTRY
 SRVC.            Unknown:   SERVICE COMPANY
 DATE.        07-FEB-1978:   LOGDATE
 API .       490251056900:   API NUMBER
~CURVE INFORMATION
#MNEM.UNIT       API CODE    CURVE DESCRIPTION
#----------   ------------   ------------------------------
 DEPT.F                  :   
 CALD.IN     45 280 60 00:   CALIPER FROM DENSITY LOG
 CORR.G/C3   45 356 01 00:   DENSITY CORRECTION
 DPHI.DEC    45 890 12 00:   DENSITY POROSITY SANDSTONE
 GRD .GAPI   45 310 01 00:   GAMMA RAY FROM DENSITY LOG
 RHOB.G/C3   45 350 01 00:   BULK DENSITY
 SN  .OHMM   05 040 16 00:   SHORT NORMAL 16"
 SPR .MV     05 010 01 00:   SPONTANEOUS POTENTIAL FROM RES.
 ILD .OHMM   05 120 46 00:   INDUCTION LOG DEEP
~PARAMETER INFORMATION
#MNEM.UNIT          VALUE    DESCRIPTION
#----------   ------------   ------------------------------
 PD  .                 GL:   PERMANENT DATUM
 EPD .F              5174:   ELEVATION PERMANENT DATUM
 LMF .                 KB:   LOG MEASURED FROM
 DMF .                 KB:   DRILLING MEASURED FROM
 EKB .F              5177:   KELLING BUSHING
 EGL .F              5174:   GROUND LEVEL
 DATE.        07-FEB-1978:   RUN DATE
 RUN .                  1:   RUN NUMBER
 DD  .F               469:   DEPTH DRILLER
 DL  .F               482:   DEPTH LOGGER
 BLI .F               474:   BOTTOM LOG INTERVAL
 TLI .F                44:   TOP LOG INTERVAL
 CS  .IN            8.625:   CASING SIZE
 CBD .F                39:   CASING BOTTOM DRILLER
 CBL .F                42:   CASING BOTTOM LOGGER
 BS  .IN            7.875:   BIT SIZE
 BSD .F               469:   BIT SIZE AT DEPTH
 DFT .    LIGNO/SULF FULL:   DRILLING FLUID TYPE
 DFD .                8.7:   DRILLING FLUID DENSITY
 DFV .                 31:   DRILLING FLUID VISCOSITY
 DFPH.                  9:   DRILLING FLUID PH
 DFL .                4.8:   DRILLING FLUID LOSS
 MSS .           FLOWLINE:   MUD SAMPLE SOURCE
 RMS .OHMM             .9:   RESISTIVITY MUD SAMPLE
 MST .F                50:   MUD SAMPLE TEMPERATURE
 RMF .OHMM            .65:   RESISTIVITY MUD FILTRATE SAMPLE
 MFST.F                58:   MUD FILTRATE SAMPLE TEMPERATURE
 RMC .OHMM            1.2:   RESISTIVITY MUD CAKE
 MCST.F                58:   MUD CAKE SAMPLE TEMPERATURE
 MFSS.               MEAS:   MUD FILTRATE SAMPLE SOURCE
 RMB .OHMM            .55:   RESISTIVITY MUD AT BHT
 BHT .F                82:   BOTTOM HOLE TEMPERATURE
 TCS .HRS               3:   TIME CURCULATED STOPPED
 MRT .F                82:   MAXIMUM RECORDED TEMPERATURE
 LUN .               2958:   LOGGING UNIT NUMBER
 LUL .               CASP:   LOGGING UNIT LOCATION
 ENGI.            POINTER:   RECORDING ENGINEER
 WITN.         HARRINGTON:   WITNESSED BY
 CLNT.            A2DTECH:   CLIENT CODE
 ORIG.           5" PRINT:   ORIGIN OF DATA
 UWI .       490251056900:   UNIQUE WELL ID
 DICO. A2D Technologies, Inc.:   DIGITIZING COMPANY
~OTHER INFORMATION
~A   DEPT     CALD       CORR       DPHI         GRD      RHOB         SN        SPR        ILD   
# ...
  151.5000     8.2161     0.2233     0.1180    86.9494     2.4548     8.2978   -32.8123     8.3555
  152.0000     8.2167     0.2596     0.1177    87.9818     2.4539     8.2426   -32.8049     8.2999
  152.5000     8.1875     0.3004     0.1183    86.0583     2.4509     8.1884   -32.6482     8.2461
  153.0000     8.1583     0.3577     0.1180    87.1088     2.4562     8.1919   -32.6407     8.2490
  153.5000     8.1292     0.4061     0.1131    86.9689     2.4796     8.1948   -32.7844     8.2518
  154.0000     8.1000     0.4393     0.0878    85.6384     2.5052     8.1408   -32.7751     8.1410
  154.5000     8.0708     0.4530     0.0646    85.3496     2.5391     8.0874   -32.7677     8.1438
  155.0000     8.0248     0.4502     0.0619    85.3585     2.5504     8.0343   -32.7603     8.0343
  155.5000     7.9652     0.4252     0.0658    84.7721     2.5505     7.9815   -33.0513     7.8172
  156.0000     7.8942     0.3592     0.0853    82.9952     2.5467     7.7658   -33.0439     7.3979
  156.5000     7.8352     0.2578     0.0949    82.7042     2.5302     7.4519   -33.1857     7.0988
  157.0000     7.7763     0.1842     0.1172    85.3938     2.4543     7.1506   -33.6261     6.9069
  157.5000     7.7174     0.1587     0.1193    84.2122     2.4520     6.9085   -33.9190     6.8141
  158.0000     7.6733     0.1483     0.1202    83.1772     2.4506     6.6761   -34.2101     6.7226
  158.5000     7.6144     0.1394     0.1230    84.0811     2.4461     6.6322   -34.3519     6.6784
  159.0000     7.5703     0.1334     0.1238    89.0006     2.4421     6.6386   -34.3426     6.7272
  159.5000     7.5559     0.1336     0.1165    90.7930     2.4590     6.7816   -33.8874     6.7786
  160.0000     7.5416     0.1307     0.1129    86.6374     2.4703     7.0245   -33.1337     6.8291
  160.5000     7.5721     0.0977     0.1168    86.1998     2.4530     7.2840   -32.6785     6.9321
  161.0000     7.6024     0.0557     0.1210    86.0595     2.4515     7.5891   -32.8203     7.0770
  161.5000     7.6328     0.0408     0.1264    86.2174     2.4473     7.8503   -33.1114     7.3302
  162.0000     7.6929     0.0379     0.1246    85.4822     2.4388     7.9076   -32.6562     7.5478
  162.5000     7.7530     0.0380     0.1224    81.3244     2.4456     7.9104   -32.3503     7.7470
  163.0000     7.8280     0.0400     0.1212    82.5238     2.4487     7.9131   -32.0443     7.8579
  163.5000     7.8732     0.0488     0.1233    80.1516     2.4457     7.8604   -32.0369     7.8612
  164.0000     7.9333     0.0264     0.1290    82.5357     2.4315     7.8088   -32.0295     7.8639
  164.5000     7.9640     0.0265     0.1266    85.5744     2.4307     7.8122   -32.3206     7.8666
  165.0000     8.0238     0.0357     0.1208    87.1744     2.4406     7.7608   -32.4627     7.8149
  165.5000     8.0559     0.0464     0.1223    86.7368     2.4496     7.7092   -32.6045     7.7629
  166.0000     8.0869     0.0510     0.1297    88.6802     2.4301     7.7125   -32.8955     7.7119
  166.5000     8.1150     0.0858     0.1241    87.7961     2.4347     7.6612   -32.8878     7.6613
  167.0000     8.1453     0.1311     0.1172    85.5728     2.4580     7.6109   -32.8804     7.6116
  167.5000     8.1459     0.1689     0.1144    85.1330     2.4641     7.5086   -33.0224     7.5093
  168.0000     8.1614     0.1781     0.1126    86.9298     2.4671     7.4084   -33.0148     7.4085
  168.5000     8.1769     0.1692     0.1164    87.3380     2.4694     7.3088   -33.1567     7.2082
  169.0000     8.2072     0.1814     0.1246    86.4091     2.4552     7.2106   -33.1492     6.9650
  169.5000     8.1632     0.2116     0.1222    83.8321     2.4498     7.0158   -33.1418     6.6834
  170.0000     8.0297     0.2148     0.1285    81.0135     2.4387     6.6856   -33.2836     6.4132
  170.5000     8.2983     0.2274     0.1348    79.0878     2.4206     6.4153   -33.1269     6.1539
  171.0000     8.3582     0.2516     0.1510    77.9062     2.4145     6.1560   -33.1194     5.9462
  171.5000     8.2846     0.2649     0.1559    76.1293     2.3918     6.0308   -33.4179     5.8258
  172.0000     8.2256     0.3057     0.1558    76.7334     2.3862     5.9497   -34.0100     5.8278
  172.5000     8.1814     0.4263     0.1474    77.3375     2.3952     5.9937   -33.9801     5.8298
  173.0000     8.1524     0.4927     0.1031    78.2392     2.5209     6.2941   -33.5224     5.8318
  173.5000     8.1232     0.4778     0.0847    80.9266     2.5360     6.7954   -33.0647     5.9153
  174.0000     8.0940     0.4538     0.0549    86.4414     2.5661     7.2356   -32.4776     6.0838
  174.5000     8.0500     0.4118     0.0597    87.6385     2.5684     7.6510   -32.4701     6.3445
  175.0000     7.9762     0.3155     0.0696    87.0543     2.5474     7.8689   -32.5124     6.7088
  175.5000     7.9173     0.2419     0.0804    86.0215     2.5271     8.0371   -33.0526     6.9963
  176.0000     7.8881     0.1848     0.0909    86.9232     2.5129     8.0959   -33.1944     7.2456
  176.5000     7.8738     0.1503     0.0993    86.4856     2.4873     8.0987   -32.4388     7.4005
  177.0000     7.8744     0.1444     0.0990    85.6016     2.4821     8.1015   -32.1329     7.5587
  177.5000     7.8602     0.1415     0.0963    84.1223     2.4897     8.1606   -32.5732     7.7203
  178.0000     7.8608     0.1338     0.0978    85.1728     2.4950     8.2203   -32.7169     7.7767
  178.5000     7.8614     0.1108     0.1038    85.7769     2.4890     8.3380   -32.7076     7.8881
  179.0000     7.8769     0.0696     0.1050    88.3155     2.4815     8.4001   -32.7002     7.9457
  179.5000     7.8923     0.0457     0.1074    84.5685     2.4748     8.5785   -32.9931     8.0038
  180.0000     7.9078     0.0382     0.1086    82.6784     2.4673     8.6412   -33.2842     8.0623
  180.5000     7.9233     0.0339     0.1072    83.2986     2.4734     8.7043   -33.2749     8.1777
  181.0000     7.9536     0.0370     0.1043    83.4405     2.4765     8.7749   -33.2675     8.1805
  181.5000     7.9840     0.0417     0.1001    83.7748     2.4864     8.8320   -33.2600     8.2976
  182.0000     7.9995     0.0403     0.1049    85.6922     2.4870     8.8351   -32.6556     8.4164
  182.5000     8.0149     0.0329     0.1036    84.9570     2.4810     8.8381   -32.3497     8.4193
  183.0000     8.0155     0.0225     0.1099    84.5172     2.4780     8.7800   -32.0437     8.4223
  183.5000     8.0161     0.0287     0.1145    85.1235     2.4630     8.7224   -32.1855     8.4252
  184.0000     8.0316     0.0559     0.1106    82.9002     2.4668     8.7260   -32.3292     8.4867
  184.5000     8.0470     0.0470     0.1054    81.1211     2.4864     8.7290   -32.6203     8.4924
  185.0000     8.0327     0.0502     0.1011    81.8762     2.4707     8.7321   -32.6110     8.5517
  185.5000     8.0185     0.0595     0.1032    82.7779     2.4745     8.7351   -32.3051     8.5547
  186.0000     8.0190     0.0642     0.0996    84.1260     2.4805     8.7381   -31.7006     8.5577
  186.5000     8.0048     0.0672     0.0972    89.4920     2.4881     8.7411   -32.2921     8.5014
  187.0000     8.0054     0.0688     0.0966    92.6236     2.4896     8.7441   -32.8798     8.5044
  187.5000     8.0208     0.0478     0.0992    90.7001     2.4934     8.6859   -33.1727     8.4484
  188.0000     8.0215     0.0359     0.1104    90.1115     2.4769     8.6289   -33.1634     8.4406
  188.5000     8.0519     0.0330     0.1058    89.6740     2.4702     8.5129   -33.0067     8.3378
  189.0000     8.0525     0.0573     0.1043    90.4290     2.4732     8.3986   -32.8501     8.2258
  189.5000     8.0680     0.0589     0.1067    91.4796     2.4793     8.3441   -32.8426     8.1153
  190.0000     8.0834     0.0515     0.1145    91.3396     2.4673     8.2320   -32.8352     8.0627
  190.5000     8.1138     0.0637     0.1287    90.1439     2.4384     8.1214   -32.8278     8.0090
  191.0000     8.1292     0.1015     0.1274    89.7204     2.4320     7.9569   -32.8203     7.8475
  191.5000     8.1596     0.1528     0.1241    89.7292     2.4394     7.7419   -32.8129     7.7953
