~VERSION INFORMATION
 VERS.                2.0:   CWLS LOG ASCII STANDARD - VERSION 2.0
 WRAP.                 NO:   ONE LINE PER DEPTH STEP
~WELL INFORMATION
#MNEM.UNIT      DATA TYPE    INFORMATION
#----------   ------------   ------------------------------
 STRT.F           42.0000:   START DEPTH
 STOP.F          612.0000:   STOP DEPTH
 STEP.F            0.5000:   STEP LENGTH
 NULL.          -999.2500:   NO VALUE
 COMP. FENIX AND SCISSON INCORPORATED:   COMPANY
 WELL. RES 3 TEAPOT DOM #25SX11-11:   WELL
 FLD .             TEAPOT:   FIELD
 LOC .      S11 T38N R78W:   LOCATION
 CNTY.            NATRONA:   COUNTY
 STAT.            WYOMING:   STATE
 CTRY. UNITED STATES OF AMERICA:   COUNTRY
 SRVC.            Unknown:   SERVICE COMPANY
 DATE.        16-FEB-1978:   LOGDATE
 API .       490251058000:   API NUMBER
~CURVE INFORMATION
#MNEM.UNIT       API CODE    CURVE DESCRIPTION
#----------   ------------   ------------------------------
 DEPT.F                  :   
 ILD .OHMM   05 120 46 00:   INDUCTION LOG DEEP
 SN  .OHMM   05 040 16 00:   SHORT NORMAL 16"
 SPR .MV     05 010 01 00:   SPONTANEOUS POTENTIAL FROM RES.
 CALD.IN     45 280 60 00:   CALIPER FROM DENSITY LOG
 CORR.G/C3   45 356 01 00:   DENSITY CORRECTION
 DPHI.DEC    45 890 12 00:   DENSITY POROSITY SANDSTONE
 GRD .GAPI   45 310 01 00:   GAMMA RAY FROM DENSITY LOG
 RHOB.G/C3   45 350 01 00:   BULK DENSITY
~PARAMETER INFORMATION
#MNEM.UNIT          VALUE    DESCRIPTION
#----------   ------------   ------------------------------
 PD  .                 GL:   PERMANENT DATUM
 EPD .F              5167:   ELEVATION PERMANENT DATUM
 LMF .                 KB:   LOG MEASURED FROM
 DAPD.F                 3:   FEET ABOVE PERMANENT DATUM
 DMF .                 KB:   DRILLING MEASURED FROM
 EKB .F              5170:   KELLING BUSHING
 EGL .F              5167:   GROUND LEVEL
 DATE.        16-FEB-1978:   RUN DATE
 RUN .                  1:   RUN NUMBER
 DD  .F               610:   DEPTH DRILLER
 DL  .F               615:   DEPTH LOGGER
 BLI .F               610:   BOTTOM LOG INTERVAL
 TLI .F                40:   TOP LOG INTERVAL
 CS  .IN            8.625:   CASING SIZE
 CBD .F                40:   CASING BOTTOM DRILLER
 CBL .F                40:   CASING BOTTOM LOGGER
 BS  .IN            7.875:   BIT SIZE
 BSD .F               610:   BIT SIZE AT DEPTH
 DFT .        LIGNO/ SULF:   DRILLING FLUID TYPE
 DFD .                8.7:   DRILLING FLUID DENSITY
 DFV .                 30:   DRILLING FLUID VISCOSITY
 DFPH.                 10:   DRILLING FLUID PH
 DFL .                4.6:   DRILLING FLUID LOSS
 MSS .           FLOWLINE:   MUD SAMPLE SOURCE
 RMS .OHMM            1.7:   RESISTIVITY MUD SAMPLE
 MST .F                69:   MUD SAMPLE TEMPERATURE
 RMF .OHMM            1.5:   RESISTIVITY MUD FILTRATE SAMPLE
 MFST.F                70:   MUD FILTRATE SAMPLE TEMPERATURE
 RMC .OHMM            2.5:   RESISTIVITY MUD CAKE
 MCST.F                70:   MUD CAKE SAMPLE TEMPERATURE
 MFSS.               MEAS:   MUD FILTRATE SAMPLE SOURCE
 RMB .OHMM            1.6:   RESISTIVITY MUD AT BHT
 BHT .F                70:   BOTTOM HOLE TEMPERATURE
 TCS .HRS               3:   TIME CURCULATED STOPPED
 MRT .F                70:   MAXIMUM RECORDED TEMPERATURE
 LUN .               2958:   LOGGING UNIT NUMBER
 LUL .             CASPER:   LOGGING UNIT LOCATION
 ENGI.            POINTER:   RECORDING ENGINEER
 WITN.           MCGINLEY:   WITNESSED BY
 CLNT.            A2DTECH:   CLIENT CODE
 ORIG.           5" PRINT:   ORIGIN OF DATA
 UWI .       490251058000:   UNIQUE WELL ID
 DICO. A2D Technologies, Inc.:   DIGITIZING COMPANY
~OTHER INFORMATION
~A   DEPT      ILD         SN         SPR      CALD       CORR       DPHI        GRD       RHOB   
# ...
  325.5000     5.1952     5.4922    -9.7061     7.9037     0.0388     0.1068    96.2349     2.4643
  326.0000     5.1931     5.4900   -10.4744     7.9033     0.0357     0.1047    97.0237     2.4732
  326.5000     5.3744     5.4878   -10.9356     7.9029     0.0326     0.1053    97.8818     2.4799
  327.0000     5.6792     5.5680    -9.5808     7.8874     0.0310     0.1114    98.1780     2.4814
  327.5000     6.0013     6.1273    -9.1372     7.8871     0.0323     0.1190    98.0217     2.4814
  328.0000     6.2108     6.7504    -8.9923     7.8867     0.0367     0.1198    98.3179     2.4678
  328.5000     6.4725     7.1332    -9.0034     7.8863     0.0411     0.1184    99.3682     2.4550
  329.0000     6.6568     7.3823    -9.3152     7.8557     0.0454     0.1148    99.8153     2.4617
  329.5000     6.8838     7.5348    -9.4879     7.5683     0.0483     0.1100    99.2051     2.4684
  330.0000     6.9773     7.6903    -9.6381     7.4622     0.0452     0.1052    98.7472     2.4932
  330.5000     7.0727     7.7948    -9.6470     7.4316     0.0391     0.1028    98.5909     2.4940
  331.0000     7.2180     7.8459    -9.6558     7.4615     0.0345     0.1004    98.5855     2.4856
  331.5000     7.2654     7.8420    -9.6646     7.5699     0.0329     0.0990    98.5800     2.4786
  332.0000     7.2624     7.9485    -9.6727     7.7628     0.0312     0.0984    98.5746     2.4817
  332.5000     7.3101     8.1691    -9.6818     7.8379     0.0311     0.0987    98.4182     2.4854
  333.0000     7.3581     8.2809    -9.6909     7.8829     0.0325     0.0999    98.2607     2.4861
  333.5000     7.3627     8.3926    -9.7000     7.8977     0.0339     0.1024    98.2552     2.4793
  334.0000     7.6119     8.5112    -9.7091     7.9275     0.0338     0.1060    97.9481     2.4860
  334.5000     7.6619     8.6813    -9.7182     7.9120     0.0337     0.1066    97.4901     2.4883
  335.0000     7.7122     8.7992    -9.7273     7.9116     0.0335     0.1033    94.1664     2.4897
  335.5000     7.6557     8.9187    -9.7364     7.8961     0.0334     0.1001    93.4044     2.4934
  336.0000     7.7588     9.0398    -9.7455     7.8957     0.0333     0.0986    96.4077     2.4986
  336.5000     7.8099     9.1000    -9.7545     7.8802     0.0332     0.0977    98.9766     2.5023
  337.0000     7.8610     9.1589    -9.7636     7.8345     0.0345     0.0974    97.3107     2.5023
  337.5000     7.8578     9.1498    -9.7727     7.8040     0.0344     0.0985    96.7019     2.5014
  338.0000     7.8538     9.0872    -9.7818     7.7885     0.0342     0.1191    96.3948     2.4939
  338.5000     7.8507     9.0836    -9.7909     7.7881     0.0327     0.1179    95.1827     2.4668
  339.0000     7.8475     9.0171    -9.8000     7.8029     0.0326     0.1122    93.3471     2.4638
  339.5000     7.8443     8.9511    -9.9606     7.7873     0.0294     0.1093    90.3439     2.4713
  340.0000     7.8411     8.9475   -10.1228     7.6963     0.0263     0.1084    89.5857     2.4690
  340.5000     7.7837     8.9439   -10.1317     7.7262     0.0262     0.1097    93.9529     2.4652
  341.0000     7.6201     8.8783   -10.4435     7.8013     0.0261     0.1208   100.5840     2.4689
  341.5000     7.4599     8.4528    -9.8463     7.8463     0.0260     0.1259   102.2376     2.4696
  342.0000     7.4637     8.1610    -9.5521     7.8912     0.0259     0.1289   100.7239     2.4575
  342.5000     7.5574     8.2154    -9.2579     7.9211     0.0272     0.1313    98.1291     2.4477
  343.0000     7.3986     8.2112    -8.9637     7.9509     0.0286     0.1332    97.3934     2.4432
  343.5000     7.3444     8.2079    -8.9727     7.9656     0.0285     0.1350    98.7454     2.4400
  344.0000     7.1402     8.2046    -9.1350     7.9803     0.0284     0.1366    99.1938     2.4370
  344.5000     6.8937     8.2013    -9.2954     8.0009     0.0298     0.1375    98.8853     2.4348
  345.0000     6.7959     8.1405    -9.4557     8.0249     0.0296     0.1375    99.1815     2.4332
  345.5000     6.6994     7.9694    -9.6161     8.0487     0.0295     0.1375   106.4159     2.4324
  346.0000     6.6012     7.7479    -9.7764     8.0544     0.0294     0.1378   107.0138     2.4316
  346.5000     6.3756     7.4286    -9.7852     8.0701     0.0293     0.1388   106.1020     2.4323
  347.0000     6.1129     7.1225    -9.7941     8.0687     0.0277     0.1426   104.2866     2.4330
  347.5000     5.8610     6.7349    -9.8131     8.0532     0.0275     0.1580    99.4546     2.4203
  348.0000     5.7378     6.1857    -9.9654     8.0528     0.0259     0.1794    97.0358     2.3909
  348.5000     5.6564     5.6956    -9.8227     8.0374     0.0258     0.2023    95.8238     2.3578
  349.0000     5.2382     5.3483    -9.3770     8.0370     0.0242     0.2200    95.2099     2.3307
  349.5000     4.8847     5.0221    -8.6283     8.0366     0.0226     0.2471    92.7949     2.2946
  350.0000     4.2492     4.5865    -8.0310     8.0363     0.0195     0.2733    91.4320     2.2544
  350.5000     3.8526     4.1885    -8.4934     8.0661     0.0301     0.2838    91.6018     2.2133
  351.0000     3.4448     3.9328    -8.3473     8.1262     0.0372     0.2975    91.8766     2.1719
  351.5000     2.8844     3.7185    -8.2031     8.1861     0.0401     0.2784    92.0220     2.1711
  352.0000     2.5334     3.1242    -8.3638     8.4275     0.0355     0.1964    92.0177     2.2019
  352.5000     2.4622     2.9335    -8.2196     8.1780     0.0234     0.1510    92.3150     2.2574
  353.0000     2.4264     2.9118    -8.5317     7.9277     0.0218     0.1270    95.9305     2.3551
  353.5000     2.4416     2.9975    -8.8421     7.8518     0.0322     0.1210   100.6319     2.4489
  354.0000     2.4911     3.1401    -9.4554     7.8513     0.0246     0.1135   101.5025     2.4639
  354.5000     2.6133     3.1382   -10.3718     7.8509     0.0230     0.1126   102.5528     2.4676
  355.0000     2.9002     3.1589   -10.8319     7.8504     0.0244     0.1238   106.1684     2.4510
  355.5000     3.3667     3.4315   -10.0833     7.8500     0.0288     0.1190   107.5226     2.4532
  356.0000     3.9825     4.2836    -9.6362     7.8192     0.0302     0.1160   106.7630     2.4584
  356.5000     4.7015     5.2735   -10.0999     7.7584     0.0331     0.1142   106.1553     2.4621
  357.0000     5.3237     5.6502   -10.1072     7.6975     0.0314     0.1130   106.0000     2.4651
  357.5000     5.6238     5.8878   -10.1145     7.6820     0.0313     0.1121   106.1455     2.4689
  358.0000     5.6984     6.0947   -10.1218     7.7722     0.0312     0.1109   107.1969     2.4717
  358.5000     5.6940     6.3054   -10.1291     7.8171     0.0326     0.1107   107.4953     2.4709
  359.0000     5.7295     6.3463    -9.9849     7.8015     0.0340     0.1113   105.2274     2.4686
  359.5000     5.6846     6.3875    -9.9924     7.8010     0.0399     0.1128   102.3122     2.4656
  360.0000     5.6410     6.3837   -10.0013     7.8158     0.0443     0.1423   107.7828     2.4287
  360.5000     5.4824     6.3365   -10.0086     7.8152     0.0457     0.1405   108.0801     2.4219
  361.0000     5.3282     6.3335    -9.8644     7.8450     0.0411     0.1442   107.7730     2.4256
  361.5000     5.1070     6.2867    -9.7202     7.8748     0.0305     0.1462   105.2045     2.4233
  362.0000     4.9290     5.8621    -9.5758     7.8977     0.0289     0.1418   103.0886     2.4135
  362.5000     4.7876     5.5426    -9.5833     7.9201     0.0333     0.1361   102.6317     2.4149
  363.0000     4.7200     5.4635    -9.5909     7.9339     0.0392     0.1286   103.0798     2.4224
  363.5000     4.6514     5.1652    -9.5998     7.9334     0.0421     0.1124   103.8371     2.4582
  364.0000     4.6158     5.0219    -9.6071     7.9480     0.0420     0.1088   104.2777     2.4733
  364.5000     4.6769     5.4552    -9.4629     7.9570     0.0419     0.1044   104.5740     2.4883
  365.0000     4.7397     5.6453    -9.3168     7.9622     0.0373     0.0992   105.3237     2.4973
  365.5000     4.8350     5.8420    -9.4775     7.9467     0.0312     0.1016   106.5260     2.4905
