~VERSION INFORMATION
 VERS.                2.0:   CWLS LOG ASCII STANDARD - VERSION 2.0
 WRAP.                 NO:   ONE LINE PER DEPTH STEP
~WELL INFORMATION
#MNEM.UNIT      DATA TYPE    INFORMATION
#----------   ------------   ------------------------------
 STRT.F           46.0000:   START DEPTH
 STOP.F         2100.0000:   STOP DEPTH
 STEP.F            0.5000:   STEP LENGTH
 NULL.          -999.2500:   NO VALUE
 COMP. LAWRENCE/ALLISON INC:   COMPANY
 WELL.    58-21 SX #10-10:   WELL
 FLD .             TEAPOT:   FIELD
 LOC .      S10 T38N R78W:   LOCATION
 CNTY.            NATRONA:   COUNTY
 STAT.            WYOMING:   STATE
 CTRY. UNITED STATES OF AMERICA:   COUNTRY
 SRVC.           Gearhart:   SERVICE COMPANY
 DATE.        06-JUL-1987:   LOGDATE
 API .       490251114400:   API NUMBER
~CURVE INFORMATION
#MNEM.UNIT       API CODE    CURVE DESCRIPTION
#----------   ------------   ------------------------------
 DEPT.F                  :   
 GR  .GAPI   81 310 01 00:   GAMMA RAY
 TGAS.UNITS  91 830 01 00:   TOTAL GAS FROM HOTWIRE
 ROP .MIN/FT 91 810 01 00:   RAT OF DRILLING PENETRATION
~PARAMETER INFORMATION
#MNEM.UNIT          VALUE    DESCRIPTION
#----------   ------------   ------------------------------
 PD  .                 GL:   PERMANENT DATUM
 EPD .F              5219:   ELEVATION PERMANENT DATUM
 LMF .                 KB:   LOG MEASURED FROM
 DAPD.F                 8:   FEET ABOVE PERMANENT DATUM
 DMF .                 KB:   DRILLING MEASURED FROM
 EKB .F              5227:   KELLING BUSHING
 EDF .F              5225:   DRILLING FLOOR
 EGL .F              5219:   GROUND LEVEL
 DATE.             7-6-87:   RUN DATE
 RUN .                  1:   RUN NUMBER
 DD  .F               610:   DEPTH DRILLER
 DL  .F             531.5:   DEPTH LOGGER
 BLI .F               526:   BOTTOM LOG INTERVAL
 TLI .F                50:   TOP LOG INTERVAL
 BS  .IN            7.875:   BIT SIZE
 BSD .F               610:   BIT SIZE AT DEPTH
 DFT .              WATER:   DRILLING FLUID TYPE
 LUN .               6084:   LOGGING UNIT NUMBER
 LUL .           GILLETTE:   LOGGING UNIT LOCATION
 ENGI.                COX:   RECORDING ENGINEER
 WITN.               LOWE:   WITNESSED BY
 CLNT.            A2DTECH:   CLIENT CODE
 ORIG.           5" PRINT:   ORIGIN OF DATA
 UWI .       490251114400:   UNIQUE WELL ID
 DICO. A2D Technologies, Inc.:   DIGITIZING COMPANY
~OTHER INFORMATION
~A   DEPT        GR      TGAS        ROP   
# ...
 1047.0000  -999.2500    11.4866     0.4496
 1047.5000  -999.2500    11.0780     0.4497
 1048.0000  -999.2500    10.6583     0.4498
 1048.5000  -999.2500    10.2393     0.4500
 1049.0000  -999.2500     9.8204     0.4501
 1049.5000  -999.2500     9.4031     0.4502
 1050.0000  -999.2500     8.9824     0.4503
 1050.5000  -999.2500     8.7770     0.4505
 1051.0000  -999.2500     8.8134     0.4506
 1051.5000  -999.2500     9.1842     0.4507
 1052.0000  -999.2500     9.2747     0.4509
 1052.5000  -999.2500     9.2764     0.4510
 1053.0000  -999.2500     9.2295     0.4511
 1053.5000  -999.2500     9.1779     0.4513
 1054.0000  -999.2500     9.1266     0.4514
 1054.5000  -999.2500     9.0753     0.4515
 1055.0000  -999.2500     9.0240     0.4517
 1055.5000  -999.2500     8.9728     0.4518
 1056.0000  -999.2500     8.9215     0.4519
 1056.5000  -999.2500     8.8695     0.4521
 1057.0000  -999.2500     8.8278     0.4522
 1057.5000  -999.2500     8.8060     0.4523
 1058.0000  -999.2500     8.2992     0.4525
 1058.5000  -999.2500     8.3728     0.4526
 1059.0000  -999.2500     8.4526     0.4527
 1059.5000  -999.2500     8.5382     0.4529
 1060.0000  -999.2500     8.6228     0.4530
 1060.5000  -999.2500     8.7075     0.4531
 1061.0000  -999.2500     8.7922     0.4532
 1061.5000  -999.2500     8.8769     0.4534
 1062.0000  -999.2500     8.9615     0.4535
 1062.5000  -999.2500     9.0462     0.4536
 1063.0000  -999.2500     9.1309     0.4538
 1063.5000  -999.2500     9.2155     0.4539
 1064.0000  -999.2500     9.3002     0.4540
 1064.5000  -999.2500     9.3849     0.4542
 1065.0000  -999.2500     9.4696     0.4543
 1065.5000  -999.2500     9.5543     0.4544
 1066.0000  -999.2500     9.6392     0.4545
 1066.5000  -999.2500     9.7241     0.4547
 1067.0000  -999.2500     9.7733     0.4548
 1067.5000  -999.2500     9.5697     0.4549
 1068.0000  -999.2500     9.3538     0.4551
 1068.5000  -999.2500     9.1381     0.4552
 1069.0000  -999.2500     8.9228     0.4553
 1069.5000  -999.2500     8.7075     0.4555
 1070.0000  -999.2500     8.4922     0.4556
 1070.5000  -999.2500     8.2768     0.4557
 1071.0000  -999.2500     8.0615     0.4559
 1071.5000  -999.2500     7.8462     0.4560
 1072.0000  -999.2500     7.6309     0.4561
 1072.5000  -999.2500     7.4156     0.4562
 1073.0000  -999.2500     7.2000     0.4558
 1073.5000  -999.2500     6.9836     0.4554
 1074.0000  -999.2500     6.7755     0.4550
 1074.5000  -999.2500     6.7673     0.4546
 1075.0000  -999.2500     6.7693     0.4542
 1075.5000  -999.2500     6.6995     0.4538
 1076.0000  -999.2500     6.5861     0.4534
 1076.5000  -999.2500     6.4717     0.4529
 1077.0000  -999.2500     6.3580     0.4525
 1077.5000  -999.2500     6.2669     0.4521
 1078.0000  -999.2500     6.2583     0.4517
 1078.5000  -999.2500     5.9968     0.4513
 1079.0000  -999.2500     5.7262     0.4509
 1079.5000  -999.2500     5.4566     0.4505
 1080.0000  -999.2500     5.1875     0.4501
 1080.5000  -999.2500     4.9195     0.4496
 1081.0000  -999.2500     4.7616     0.4492
 1081.5000  -999.2500     4.7654     0.4488
 1082.0000  -999.2500     4.8809     0.4484
 1082.5000  -999.2500     5.1620     0.4480
 1083.0000  -999.2500     5.4405     0.4476
 1083.5000  -999.2500     5.7198     0.4472
 1084.0000  -999.2500     5.9989     0.4468
 1084.5000  -999.2500     6.2780     0.4464
 1085.0000  -999.2500     6.5573     0.4459
 1085.5000  -999.2500     6.8363     0.4455
 1086.0000  -999.2500     7.1141     0.4451
 1086.5000  -999.2500     7.2504     0.4447
 1087.0000  -999.2500     7.2014     0.4443
 1087.5000  -999.2500     7.1545     0.4439
 1088.0000  -999.2500     7.1070     0.4437
 1088.5000  -999.2500     7.0596     0.4435
 1089.0000  -999.2500     7.0122     0.4433
 1089.5000  -999.2500     6.9648     0.4432
 1090.0000  -999.2500     6.9174     0.4430
 1090.5000  -999.2500     6.8700     0.4428
 1091.0000  -999.2500     6.8227     0.4427
 1091.5000  -999.2500     6.7753     0.4425
 1092.0000  -999.2500     6.7279     0.4423
 1092.5000  -999.2500     6.6805     0.4422
 1093.0000  -999.2500     6.6331     0.4420
 1093.5000  -999.2500     6.5857     0.4418
 1094.0000  -999.2500     6.5384     0.4417
 1094.5000  -999.2500     6.4910     0.4415
 1095.0000  -999.2500     6.4436     0.4413
 1095.5000  -999.2500     6.3962     0.4412
 1096.0000  -999.2500     6.3488     0.4410
 1096.5000  -999.2500     6.3014     0.4408
 1097.0000  -999.2500     6.2541     0.4407
 1097.5000  -999.2500     6.2067     0.4405
 1098.0000  -999.2500     6.1593     0.4403
 1098.5000  -999.2500     6.1119     0.4402
 1099.0000  -999.2500     6.0645     0.4400
 1099.5000  -999.2500     6.0171     0.4398
 1100.0000  -999.2500     5.9698     0.4397
 1100.5000  -999.2500     5.9224     0.4395
 1101.0000  -999.2500     5.8752     0.4393
 1101.5000  -999.2500     5.8291     0.4392
 1102.0000  -999.2500     5.7482     0.4390
 1102.5000  -999.2500     6.5514     0.4388
 1103.0000  -999.2500     6.7609     0.4387
 1103.5000  -999.2500     6.7728     0.4385
 1104.0000  -999.2500     6.6699     0.4383
 1104.5000  -999.2500     6.5318     0.4382
 1105.0000  -999.2500     6.3924     0.4380
 1105.5000  -999.2500     6.2636     0.4378
 1106.0000  -999.2500     6.2668     0.4377
 1106.5000  -999.2500     6.2685     0.4375
 1107.0000  -999.2500     6.3271     0.4373
 1107.5000  -999.2500     6.4469     0.4372
 1108.0000  -999.2500     6.5661     0.4370
 1108.5000  -999.2500     6.6828     0.4368
 1109.0000  -999.2500     6.7773     0.4367
 1109.5000  -999.2500     6.4112     0.4365
 1110.0000  -999.2500     5.9174     0.4363
 1110.5000  -999.2500     5.4150     0.4362
 1111.0000  -999.2500     4.8913     0.4360
 1111.5000  -999.2500     4.7626     0.4358
 1112.0000  -999.2500     4.8734     0.4357
 1112.5000  -999.2500     5.0291     0.4355
 1113.0000  -999.2500     5.1862     0.4353
 1113.5000  -999.2500     5.3430     0.4352
 1114.0000  -999.2500     5.4997     0.4350
 1114.5000  -999.2500     5.6563     0.4348
 1115.0000  -999.2500     5.8130     0.4347
 1115.5000  -999.2500     5.9702     0.4345
 1116.0000  -999.2500     6.1268     0.4343
 1116.5000  -999.2500     6.2722     0.4342
 1117.0000  -999.2500     6.2787     0.4340
 1117.5000  -999.2500     6.2879     0.4338
 1118.0000  -999.2500     6.2976     0.4337
 1118.5000  -999.2500     6.3074     0.4335
 1119.0000  -999.2500     6.3172     0.4333
 1119.5000  -999.2500     6.3269     0.4332
 1120.0000  -999.2500     6.3367     0.4330
 1120.5000  -999.2500     6.3464     0.4328
 1121.0000  -999.2500     6.3562     0.4327
 1121.5000  -999.2500     6.3659     0.4325
 1122.0000  -999.2500     6.3757     0.4323
 1122.5000  -999.2500     6.3854     0.4322
 1123.0000  -999.2500     6.3952     0.4320
 1123.5000  -999.2500     6.4050     0.4318
 1124.0000  -999.2500     6.4147     0.4317
 1124.5000  -999.2500     6.4245     0.4315
 1125.0000  -999.2500     6.4342     0.4313
 1125.5000  -999.2500     6.4440     0.4313
 1126.0000  -999.2500     6.4537     0.4313
 1126.5000  -999.2500     6.4635     0.4313
 1127.0000  -999.2500     6.4732     0.4313
 1127.5000  -999.2500     6.4830     0.4313
 1128.0000  -999.2500     6.4927     0.4313
 1128.5000  -999.2500     6.5025     0.4313
 1129.0000  -999.2500     6.5122     0.4313
 1129.5000  -999.2500     6.5220     0.4313
 1130.0000  -999.2500     6.5318     0.4313
 1130.5000  -999.2500     6.5415     0.4313
 1131.0000  -999.2500     6.5513     0.4313
 1131.5000  -999.2500     6.5610     0.4313
 1132.0000  -999.2500     6.5708     0.4313
 1132.5000  -999.2500     6.5805     0.4313
 1133.0000  -999.2500     6.5903     0.4313
 1133.5000  -999.2500     6.6000     0.4313
 1134.0000  -999.2500     6.6098     0.4313
 1134.5000  -999.2500     6.6196     0.4313
 1135.0000  -999.2500     6.6293     0.4313
 1135.5000  -999.2500     6.6391     0.4313
 1136.0000  -999.2500     6.6488     0.4313
 1136.5000  -999.2500     6.6586     0.4313
 1137.0000  -999.2500     6.6683     0.4313
 1137.5000  -999.2500     6.6781     0.4313
