~VERSION INFORMATION
 VERS.                2.0:   CWLS LOG ASCII STANDARD - VERSION 2.0
 WRAP.                 NO:   ONE LINE PER DEPTH STEP
~WELL INFORMATION
#MNEM.UNIT      DATA TYPE    INFORMATION
#----------   ------------   ------------------------------
 STRT.F           89.0000:   START DEPTH
 STOP.F         1360.0000:   STOP DEPTH
 STEP.F            0.5000:   STEP LENGTH
 NULL.          -999.2500:   NO VALUE
 COMP.           U S NAVY:   COMPANY
 WELL.     NPR 3 #85 S-11:   WELL
 FLD .             TEAPOT:   FIELD
 LOC .      S11 T38N R78W:   LOCATION
 CNTY.            NATRONA:   COUNTY
 STAT.            WYOMING:   STATE
 CTRY. UNITED STATES OF AMERICA:   COUNTRY
 SRVC.       Schlumberger:   SERVICE COMPANY
 DATE.        15-AUG-1966:   LOGDATE
 API .       490250959000:   API NUMBER
~CURVE INFORMATION
#MNEM.UNIT       API CODE    CURVE DESCRIPTION
#----------   ------------   ------------------------------
 DEPT.F                  :   
 SPR .MV     05 010 01 00:   SPONTANEOUS POTENTIAL FROM RES.
 CILD.MMHO   05 110 46 00:   CONDUCTIVITY INDUCTION LOG DEEP
 ASN .OHMM   05 041 16 00:   AMPLIFIED SHORT NORMAL 16"
 ILD .OHMM   05 120 46 00:   INDUCTION LOG DEEP
 GR  .GAPI   30 310 01 00:   GAMMA RAY
~PARAMETER INFORMATION
#MNEM.UNIT          VALUE    DESCRIPTION
#----------   ------------   ------------------------------
 PD  .                 GL:   PERMANENT DATUM
 EPD .F              5288:   ELEVATION PERMANENT DATUM
 LMF .                 KB:   LOG MEASURED FROM
 DAPD.F                 5:   FEET ABOVE PERMANENT DATUM
 DMF .                 KB:   DRILLING MEASURED FROM
 EKB .F            5286.9:   KELLING BUSHING
 EGL .F            5281.9:   GROUND LEVEL
 DATE.        15-AUG-1966:   RUN DATE
 RUN .                  1:   RUN NUMBER
 DD  .F              1360:   DEPTH DRILLER
 DL  .F              1361:   DEPTH LOGGER
 BLI .F              1360:   BOTTOM LOG INTERVAL
 TLI .F                88:   TOP LOG INTERVAL
 CS  .IN            8.625:   CASING SIZE
 CBD .F                12:   CASING BOTTOM DRILLER
 BS  .IN            7.875:   BIT SIZE
 BSD .F              1360:   BIT SIZE AT DEPTH
 DFT .          CHEM- GEL:   DRILLING FLUID TYPE
 DFD .                9.6:   DRILLING FLUID DENSITY
 DFV .                 60:   DRILLING FLUID VISCOSITY
 DFPH.                7.2:   DRILLING FLUID PH
 DFL .                6.4:   DRILLING FLUID LOSS
 MSS .         CIRCULATED:   MUD SAMPLE SOURCE
 RMS .OHMM           1.41:   RESISTIVITY MUD SAMPLE
 MST .F                72:   MUD SAMPLE TEMPERATURE
 RMF .OHMM           0.75:   RESISTIVITY MUD FILTRATE SAMPLE
 MFST.F                73:   MUD FILTRATE SAMPLE TEMPERATURE
 MFSS.               MEAS:   MUD FILTRATE SAMPLE SOURCE
 TCS .HRS             2.5:   TIME CURCULATED STOPPED
 LUN .               3527:   LOGGING UNIT NUMBER
 LUL .              CSPR.:   LOGGING UNIT LOCATION
 ENGI.               HAUG:   RECORDING ENGINEER
 WITN.             TUTTLE:   WITNESSED BY
 CLNT.            A2DTECH:   CLIENT CODE
 ORIG.       2", 5" PRINT:   ORIGIN OF DATA
 UWI .       490250959000:   UNIQUE WELL ID
 DICO. A2D Technologies, Inc.:   DIGITIZING COMPANY
~OTHER INFORMATION
~A   DEPT      SPR       CILD          ASN        ILD       GR   
# ...
  577.0000   -46.8303   206.3378     6.4666     4.9910    73.1536
  577.5000   -46.8333   206.0165     6.5715     4.9887    73.8151
  578.0000   -47.3001   204.8720     6.7470     4.6792    79.1942
  578.5000   -47.0079   204.4210     6.8223     4.6766    80.8371
  579.0000   -46.8647   202.9468     6.8825     4.7494    76.2108
  579.5000   -46.8788   202.2189     6.9578     4.6713    70.1195
  580.0000   -46.8902   202.2419     6.7620     4.7440    72.9399
  580.5000   -46.7469   202.2602     6.7780     4.7413    79.2240
  581.0000   -46.9128   203.0248     6.8240     4.7386    84.0922
  581.5000   -46.7696   203.7894     6.8675     4.7354    85.6585
  582.0000   -46.6292   206.0466     6.7018     4.6575    80.7694
  582.5000   -46.4888   208.3038     6.6265     4.6548    71.1648
  583.0000   -46.3512   209.0684     6.6265     4.5769    73.0435
  583.5000   -46.3625   206.1017     6.6416     4.4990    72.2475
  584.0000   -46.2193   203.1343     6.6566     4.4963    75.3826
  584.5000   -46.2334   203.1533     6.6867     4.4937    76.9490
  585.0000   -46.3965   203.9179     6.7319     4.4910    81.3427
  585.5000   -46.4079   207.7672     6.7620     4.4884    78.3440
  586.0000   -46.4192   210.6716     6.7922     4.4858    79.1237
  586.5000   -46.5823   209.9477     6.7771     4.5584    76.9068
  587.0000   -46.5936   207.7272     6.7620     4.6311    77.0775
  587.5000   -46.7567   204.7605     6.7319     4.7038    76.6284
  588.0000   -46.7680   200.3013     6.7018     4.7764    78.7818
  588.5000   -46.7794   195.0957     6.7470     4.9244    79.0757
  589.0000   -46.7907   190.6365     6.8246     5.0723    82.5499
  589.5000   -46.8020   185.4309     7.0864     5.2203    83.9334
  590.0000   -46.6616   180.9717     7.5778     5.3676    79.6128
  590.5000   -46.6730   175.7662     8.0572     5.3650    80.3611
  591.0000   -46.6844   169.8143     8.2078     5.5129    84.0627
  591.5000   -46.6958   166.1014     8.2831     5.5103    77.7576
  592.0000   -46.7071   164.6269     8.2982     5.6584    75.2308
  592.5000   -46.7185   164.6455     8.1325     5.6556    73.1784
  593.0000   -46.7299   166.9526     7.9669     5.5777    76.4708
  593.5000   -46.5892   171.6972     7.8614     5.4153    80.8669
  594.0000   -46.6009   180.3768     7.7711     4.7434    85.1057
  594.5000   -46.4601   186.3653     7.6506     4.7408    83.5230
  595.0000   -46.4466   190.8613     7.5301     4.7382    86.9751
  595.5000   -46.3310   192.3722     7.4548     4.7355    89.9552
  596.0000   -46.4970   191.6396     7.3946     4.8089    84.4390
  596.5000   -46.5083   189.4238     7.3494     4.9562    79.8669
  597.0000   -46.5196   186.4571     7.3042     5.0295    84.1057
  597.5000   -46.5310   182.7441     7.3670     5.1022    83.7816
  598.0000   -46.5423   179.0311     7.5828     5.3248    83.4576
  598.5000   -46.3990   173.8255     7.8361     5.4727    83.2910
  599.0000   -46.4132   169.3663     8.0271     5.6207    83.2682
  599.5000   -46.5763   164.1608     8.1777     5.7687    85.1603
  600.0000   -46.7394   158.9552     8.3584     5.9166    81.0602
  600.5000   -46.9024   155.9722     8.4846     6.1399    83.2478
  601.0000   -46.9138   153.6469     8.5831     6.2125    80.2443
  601.5000   -46.7705   147.0861     8.8987     6.2093    76.6116
  602.0000   -46.6301   148.6006     9.0789     6.3572    81.0030
  602.5000   -46.6443   150.1151     9.2273     6.2793    86.0238
  603.0000   -46.5010   152.3758     9.2600     6.2013    89.6516
  603.5000   -46.6670   155.3828     9.2195     5.9728    83.3210
  604.0000   -46.8300   159.1360     8.9710     5.8196    77.1721
  604.5000   -46.6868   165.1281     8.6692     5.5157    83.2907
  605.0000   -46.5492   172.6127     8.3824     5.2872    79.6579
  605.5000   -46.5606   176.3659     8.1258     4.9833    78.5461
  606.0000   -46.7305   183.1045     7.8843     4.9054    80.7313
  606.5000   -46.8469   180.7935     7.5674     4.9781    82.9235
  607.0000   -46.7011   180.1630     7.4313     4.9748    80.0739
  607.5000   -46.7104   182.4292     7.4608     5.0474    81.7906
  608.0000   -46.5647   183.1974     7.5807     5.1207    84.1367
  608.5000   -46.4227   180.9805     7.7608     5.1934    80.3466
  609.0000   -46.5814   179.5099     7.8355     5.2654    79.7032
  609.5000   -46.5888   177.2930     7.6533     5.1875    80.3185
  610.0000   -46.5962   175.0706     7.6727     5.1095    84.3953
  610.5000   -46.6036   175.8443     7.7434     4.9563    84.7086
  611.0000   -46.4597   180.3438     7.5921     4.8784    83.1086
  611.5000   -46.4675   186.3359     7.4409     4.7251    84.9826
  612.0000   -46.3233   191.8800     7.3349     4.7203    89.7072
  612.5000   -46.3326   201.3060     7.2590     4.6444    84.1413
  613.0000   -46.1868   201.3324     7.2132     4.6412    86.0239
  613.5000   -46.1961   199.8618     7.0771     4.6386    93.1104
  614.0000   -46.0504   199.1320     6.8957     4.6360    88.3705
  614.5000   -45.7552   202.1445     6.9403     4.6333    85.0524
  615.0000   -45.6114   205.1514     7.0000     4.6307    82.5210
  615.5000   -45.9232   205.9196     7.0446     4.5528    80.9336
  616.0000   -45.9306   206.6878     7.1042     4.5501    81.7063
  616.5000   -45.9380   207.4560     7.0860     4.5475    83.2657
  617.0000   -45.9454   207.4779     6.9451     4.4695    86.2411
  617.5000   -45.6503   207.5000     6.7710     4.4669    87.0172
  618.0000   -45.9621   207.5224     6.6650     4.3890    89.5171
  618.5000   -46.2721   207.5491     6.6192     4.3863    88.8738
  619.0000   -46.1282   206.8193     6.6186     4.3836    88.3913
  619.5000   -45.8331   206.0949     6.6481     4.4564    90.8911
  620.0000   -45.6874   205.3706     6.7078     4.4531    83.6396
  620.5000   -45.8479   204.6462     6.7674     4.4504    88.6604
  621.0000   -46.0066   204.6736     6.8122     4.5237    86.9157
  621.5000   -46.1653   205.4418     6.8415     4.2945    81.8669
  622.0000   -46.3240   209.1951     6.8259     4.1413    79.8075
  622.5000   -46.3314   213.6946     6.7952     4.0634    81.2097
  623.0000   -46.3389   216.7016     6.7789     4.0607    81.8249
  623.5000   -46.1950   222.7487     6.6366     3.9828    86.9037
  624.0000   -45.8998   227.4330     6.3264     3.9801    92.0238
  624.5000   -45.7560   232.4444     6.0848     3.9022    89.8471
  625.0000   -45.4608   236.9439     5.8885     3.8942    87.7470
  625.5000   -45.1656   242.1897     5.7975     3.8215    87.1008
  626.0000   -45.1749   246.6893     5.7517     3.7430    83.7827
  626.5000   -45.1823   251.1888     5.7361     3.7404    85.8141
  627.0000   -45.1898   251.2107     5.7355     3.7378    85.4854
  627.5000   -45.1972   248.9938     5.7198     3.7351    84.9994
  628.0000   -45.2046   246.7761     5.7192     3.8084    83.7301
  628.5000   -45.2120   243.8138     5.7036     3.8052    84.6602
  629.0000   -45.2194   241.5773     5.7331     3.8785    81.0239
  629.5000   -45.2269   239.3800     5.7928     3.8752    77.7058
  630.0000   -45.2345   237.9094     5.8685     3.8725    76.9051
  630.5000   -45.2435   236.4442     5.9292     3.9452    74.8457
  631.0000   -45.2509   234.9681     6.0017     3.9426    72.0031
  631.5000   -45.2583   233.5030     6.0162     3.9398    78.9085
  632.0000   -45.2658   232.7749     6.0005     3.9372    76.3771
  632.5000   -45.4245   232.0488     5.9999     3.9340    78.5658
  633.0000   -45.4319   230.5836     5.9843     4.0073    75.8770
  633.5000   -45.7419   229.8538     5.9989     4.0040    76.1777
  634.0000   -45.9006   228.3887     6.0433     4.0773    80.7265
  634.5000   -45.7567   226.1718     6.1030     4.0740    81.6565
  635.0000   -45.7641   225.4474     6.1626     4.0714    85.9425
  635.5000   -45.6202   224.7230     6.2223     4.1447    92.7146
  636.0000   -45.4625   223.9987     6.2066     4.2174    88.7388
  636.5000   -45.3325   223.2743     6.1907     4.2141    83.7004
  637.0000   -45.3418   221.8037     6.1603     4.2868    85.5164
  637.5000   -45.1961   219.5923     6.1446     4.4374    86.7646
