~VERSION INFORMATION
 VERS.                2.0:   CWLS LOG ASCII STANDARD - VERSION 2.0
 WRAP.                 NO:   ONE LINE PER DEPTH STEP
~WELL INFORMATION
#MNEM.UNIT      DATA TYPE    INFORMATION
#----------   ------------   ------------------------------
 STRT.F           34.0000:   START DEPTH
 STOP.F         1014.5000:   STOP DEPTH
 STEP.F            0.5000:   STEP LENGTH
 NULL.          -999.2500:   NO VALUE
 COMP. FENIX & SCISSON INC:   COMPANY
 WELL.       NPR-3 #54-14:   WELL
 FLD .             TEAPOT:   FIELD
 LOC .      S14 T38N R78W:   LOCATION
 CNTY.            NATRONA:   COUNTY
 STAT.            WYOMING:   STATE
 CTRY. UNITED STATES OF AMERICA:   COUNTRY
 SRVC.            Unknown:   SERVICE COMPANY
 DATE.        20-APR-1978:   LOGDATE
 API .       490251062100:   API NUMBER
~CURVE INFORMATION
#MNEM.UNIT       API CODE    CURVE DESCRIPTION
#----------   ------------   ------------------------------
 DEPT.F                  :   
 SPR .MV     05 010 01 00:   SPONTANEOUS POTENTIAL FROM RES.
 SN  .OHMM   05 040 16 00:   SHORT NORMAL 16"
 ILD .OHMM   05 120 46 00:   INDUCTION LOG DEEP
 CALD.IN     45 280 60 00:   CALIPER
 GRD .GAPI   45 310 01 00:   GAMMA RAY FROM DENSITY LOG
 RHOB.G/C3   45 350 01 00:   BULK DENSITY
 DPOR.DEC    45 890 12 00:   DENSITY POROSITY SANDSTONE
 CORR.G/C3   45 356 01 00:   DENSITY CORRECTION
~PARAMETER INFORMATION
#MNEM.UNIT          VALUE    DESCRIPTION
#----------   ------------   ------------------------------
 PD  .                 GL:   PERMANENT DATUM
 EPD .F              5268:   ELEVATION PERMANENT DATUM
 LMF .                 KB:   LOG MEASURED FROM
 DAPD.F                 4:   FEET ABOVE PERMANENT DATUM
 DMF .                 KB:   DRILLING MEASURED FROM
 EKB .F              5272:   KELLING BUSHING
 EGL .F              5268:   GROUND LEVEL
 DATE.          4-20-1978:   RUN DATE
 RUN .                  1:   RUN NUMBER
 DD  .F              1030:   DEPTH DRILLER
 DL  .F              1021:   DEPTH LOGGER
 BLI .F              1014:   BOTTOM LOG INTERVAL
 TLI .F                50:   TOP LOG INTERVAL
 CS  .IN            8.625:   CASING SIZE
 CBD .F                40:   CASING BOTTOM DRILLER
 BS  .IN            7.875:   BIT SIZE
 BSD .F              1030:   BIT SIZE AT DEPTH
 DFT .                KCL:   DRILLING FLUID TYPE
 DFD .                8.6:   DRILLING FLUID DENSITY
 DFV .                 33:   DRILLING FLUID VISCOSITY
 DFPH.                 10:   DRILLING FLUID PH
 DFL .                  8:   DRILLING FLUID LOSS
 MSS .          FLOW LINE:   MUD SAMPLE SOURCE
 RMS .OHMM            .34:   RESISTIVITY MUD SAMPLE
 MST .F                64:   MUD SAMPLE TEMPERATURE
 RMF .OHMM            .36:   RESISTIVITY MUD FILTRATE SAMPLE
 MFST.F                60:   MUD FILTRATE SAMPLE TEMPERATURE
 RMC .OHMM            .48:   RESISTIVITY MUD CAKE
 MCST.F                68:   MUD CAKE SAMPLE TEMPERATURE
 MFSS.               MEAS:   MUD FILTRATE SAMPLE SOURCE
 MCSS.               MEAS:   MUD CAKE SAMPLE SOURCE
 RMB .OHMM            .29:   RESISTIVITY MUD AT BHT
 BHT .F                74:   BOTTOM HOLE TEMPERATURE
 TCS .HRS               6:   TIME CURCULATED STOPPED
 MRT .F                74:   MAXIMUM RECORDED TEMPERATURE
 LUN .               2958:   LOGGING UNIT NUMBER
 LUL .               CASP:   LOGGING UNIT LOCATION
 ENGI.             MILLER:   RECORDING ENGINEER
 WITN.           MCGINELY:   WITNESSED BY
 CLNT.            A2DTECH:   CLIENT CODE
 ORIG.       2", 5" PRINT:   ORIGIN OF DATA
 UWI .       490251062100:   UNIQUE WELL ID
 DICO. A2D Technologies, Inc.:   DIGITIZING COMPANY
~OTHER INFORMATION
~A   DEPT      SPR         SN        ILD       CALD         GRD      RHOB       DPOR       CORR   
# ...
  520.0000   -30.1096     7.9122     6.9436     7.8866    93.3911     2.4838     0.1179     0.0055
  520.5000   -29.9946     7.9019     6.9594     7.8805    97.8289     2.4760     0.1208     0.0061
  521.0000   -30.1251     7.8916     6.9753     7.8743   102.0844     2.4722     0.1196     0.0069
  521.5000   -30.2524     7.8813     6.9914     7.8681   101.9935     2.4786     0.1177     0.0078
  522.0000   -30.3790     7.8711     7.0136     7.8620    96.9906     2.4823     0.1159     0.0086
  522.5000   -30.5055     7.8608     6.9785     7.8595    94.2064     2.4828     0.1140     0.0094
  523.0000   -30.6320     7.8506     6.9214     7.8680    93.6576     2.4900     0.1121     0.0102
  523.5000   -30.7585     7.8404     6.8647     7.8762    92.5389     2.4952     0.1131     0.0110
  524.0000   -30.8850     7.8302     6.8084     7.8843    93.2306     2.4818     0.1155     0.0119
  524.5000   -31.0114     7.8200     6.7527     7.8923    95.3250     2.4886     0.1140     0.0127
  525.0000   -31.1380     7.8098     6.6974     7.8900    94.9312     2.4881     0.1150     0.0135
  525.5000   -31.2645     7.7996     6.6425     7.8706    92.1560     2.4820     0.1160     0.0129
  526.0000   -31.3908     7.7895     6.5881     7.8514    89.4436     2.4813     0.1160     0.0122
  526.5000   -31.5180     7.7793     6.5341     7.8322    88.9454     2.4870     0.1153     0.0116
  527.0000   -31.5741     7.7694     6.4806     7.8130    91.9587     2.4830     0.1145     0.0110
  527.5000   -31.5221     7.7634     6.4275     7.7936    94.4517     2.4887     0.1140     0.0103
  528.0000   -31.4547     7.7886     6.3954     7.7745    96.8046     2.4857     0.1155     0.0097
  528.5000   -31.3870     7.8073     6.4547     7.7649    96.6248     2.4822     0.1161     0.0091
  529.0000   -31.3195     7.8261     6.4553     7.8170    94.6512     2.4850     0.1156     0.0084
  529.5000   -31.2521     7.8450     6.4549     7.8105    91.8703     2.4870     0.1152     0.0078
  530.0000   -31.1846     7.8638     6.6358     7.7647    91.2877     2.4870     0.1158     0.0072
  530.5000   -31.1171     7.8828     6.6301     7.8004    95.2588     2.4861     0.1163     0.0065
  531.0000   -31.0497     7.9017     6.6207     7.8347    96.7179     2.4814     0.1160     0.0059
  531.5000   -30.9822     7.9208     6.6115     7.7635    96.6446     2.4835     0.1157     0.0053
  532.0000   -30.9147     7.9398     6.6024     7.8603    97.7724     2.4849     0.1183     0.0047
  532.5000   -30.8473     7.9589     6.5933     7.9582    98.8629     2.4773     0.1224     0.0040
  533.0000   -30.7798     7.9781     6.5842     7.9569    99.2195     2.4710     0.1226     0.0034
  533.5000   -30.7124     7.9973     6.5749     7.9414    96.7369     2.4723     0.1229     0.0027
  534.0000   -30.6449     8.0165     6.6135     7.8976    94.9654     2.4733     0.1235     0.0021
  534.5000   -30.5774     8.0358     6.6535     7.8530    95.5577     2.4718     0.1251     0.0016
  535.0000   -30.5098     8.0548     6.6937     7.8894    96.2080     2.4662     0.1268     0.0049
  535.5000   -30.4421     8.1008     6.7342     7.9706    95.8314     2.4626     0.1284     0.0084
  536.0000   -30.3795     8.1570     6.7749     7.9963    93.2891     2.4679     0.1233     0.0113
  536.5000   -30.3781     8.2136     6.8159     7.9969    90.4225     2.4761     0.1196     0.0075
  537.0000   -30.3784     8.2706     6.8571     7.9925    92.3445     2.4766     0.1198     0.0037
  537.5000   -30.3785     8.3280     6.8985     7.9842    96.1363     2.4703     0.1213    -0.0001
  538.0000   -30.3785     8.3858     6.9402     7.9760    97.8801     2.4735     0.1206    -0.0025
  538.5000   -30.3785     8.4440     6.9822     7.9677    98.1005     2.4791     0.1181    -0.0005
  539.0000   -30.3785     8.5026     7.0244     7.9595    98.2967     2.4789     0.1156     0.0015
  539.5000   -30.3785     8.5616     7.0669     7.9513    99.9993     2.4844     0.1132    -0.0010
  540.0000   -30.3785     8.6210     7.1096     7.9430   101.9800     2.4913     0.1125    -0.0042
  540.5000   -30.3785     8.6809     7.1645     7.9358   103.9678     2.4934     0.1117    -0.0005
  541.0000   -30.3786     8.7411     7.2702     7.9308   106.0378     2.4903     0.1088     0.0042
  541.5000   -30.3789     8.7895     7.3775     7.9260   106.1587     2.5008     0.1052     0.0089
  542.0000   -30.3763     8.8354     7.4816     7.9211   105.7112     2.5102     0.1042     0.0136
  542.5000   -30.3203     8.8816     7.5312     7.9162   107.4059     2.5022     0.1092     0.0174
  543.0000   -30.2637     8.9279     7.5791     7.9113   110.3900     2.5025     0.1072     0.0194
  543.5000   -30.2074     8.9746     7.6272     7.9064   113.3858     2.5062     0.1085     0.0195
  544.0000   -30.1512     9.0214     7.6757     7.9015   116.7984     2.5013     0.1102     0.0195
  544.5000   -30.0949     9.0686     7.7245     7.8966   115.0376     2.4964     0.1085     0.0193
  545.0000   -30.0384     9.1159     7.7736     7.8917   112.2712     2.5035     0.1028     0.0152
  545.5000   -29.9820     9.1656     7.8230     7.8868   109.9557     2.5128     0.1066     0.0111
  546.0000   -29.9659     9.2628     7.8671     7.8819   109.9008     2.5097     0.1102     0.0070
  546.5000   -29.9517     9.3655     7.9098     7.8770   110.9433     2.5013     0.1121     0.0037
  547.0000   -29.9373     9.4694     7.9527     7.8721   112.0856     2.4928     0.1140     0.0064
  547.5000   -29.9228     9.5699     7.9958     7.8672   113.2210     2.4861     0.1148     0.0090
  548.0000   -29.9084     9.6686     8.0392     7.8623   113.9298     2.4903     0.1136     0.0115
  548.5000   -29.8939     9.7683     8.1704     7.8577   111.9143     2.5043     0.1047     0.0140
  549.0000   -29.8794     9.8690     8.3539     7.8576   109.8912     2.5159     0.0987     0.0137
  549.5000   -29.8650     9.9707     8.5414     7.8576   109.1897     2.5223     0.0942     0.0098
  550.0000   -29.8505    10.0735     8.7332     7.8576   105.5291     2.5315     0.0898     0.0059
  550.5000   -29.8360    10.1448     8.8333     7.8576   100.6950     2.5405     0.0840     0.0077
  551.0000   -29.8216    10.0572     8.9239     7.8576    98.4628     2.5442     0.0898     0.0103
  551.5000   -29.8073     9.9910     9.0155     7.8576   101.8933     2.5341     0.0932     0.0077
  552.0000   -29.7928     9.9253     9.1080     7.8576   103.2951     2.5355     0.0884     0.0006
  552.5000   -29.7663     9.8599     9.1656     7.8577   103.5621     2.5245     0.1012    -0.0023
  553.0000   -29.6808     9.7950     9.0545     7.8582   103.5743     2.5064     0.1123     0.0016
  553.5000   -29.5961     9.7305     8.9620     7.8379   104.1897     2.4837     0.1214     0.0058
  554.0000   -29.5116     9.6665     8.8703     7.8073   106.9838     2.4800     0.1226     0.0067
  554.5000   -29.4271     9.6028     8.7797     7.7524   107.4626     2.4762     0.1238     0.0056
  555.0000   -29.3426     9.5396     8.6899     7.6974   109.2150     2.4725     0.1249     0.0044
  555.5000   -29.2581     9.4768     8.6011     7.6900   111.8318     2.4688     0.1250     0.0053
  556.0000   -29.1736     9.4144     8.5750     7.7063   114.0466     2.4688     0.1238     0.0137
  556.5000   -29.0889     9.3524     8.5558     7.7232   109.5812     2.4797     0.1225     0.0220
  557.0000   -29.0002     9.3239     8.5367     7.7402   110.3807     2.4747     0.1213     0.0302
  557.5000   -29.0607     9.3070     8.5176     7.7574   111.3620     2.4773     0.1200     0.0379
  558.0000   -29.1616     9.2902     8.4986     7.7557   109.9718     2.4870     0.1190     0.0396
  558.5000   -29.2635     9.2735     8.4796     7.7526   110.2701     2.4839     0.1178     0.0415
  559.0000   -29.3649     9.2567     8.4607     7.7495   113.2631     2.4855     0.1166     0.0434
  559.5000   -29.4663     9.2400     8.4418     7.7465   116.2508     2.4928     0.1156     0.0453
  560.0000   -29.5677     9.2233     8.4229     7.7435   118.5627     2.4896     0.1156     0.0472
