~VERSION INFORMATION
 VERS.                2.0:   CWLS LOG ASCII STANDARD - VERSION 2.0
 WRAP.                 NO:   ONE LINE PER DEPTH STEP
~WELL INFORMATION
#MNEM.UNIT      DATA TYPE    INFORMATION
#----------   ------------   ------------------------------
 STRT.F           95.0000:   START DEPTH
 STOP.F          914.0000:   STOP DEPTH
 STEP.F            0.5000:   STEP LENGTH
 NULL.          -999.2500:   NO VALUE
 COMP. LAWRENCE/ALLISON INC:   COMPANY
 WELL. NPR ##3 31-61 SX 2:   WELL
 FLD .             TEAPOT:   FIELD
 LOC .       S2 T38N R78W:   LOCATION
 CNTY.            NATRONA:   COUNTY
 STAT.            WYOMING:   STATE
 CTRY. UNITED STATES OF AMERICA:   COUNTRY
 SRVC.      Dresser Atlas:   SERVICE COMPANY
 DATE.        30-JAN-1986:   LOGDATE
 API .       490251106800:   API NUMBER
~CURVE INFORMATION
#MNEM.UNIT       API CODE    CURVE DESCRIPTION
#----------   ------------   ------------------------------
 DEPT.F                  :   
 RILD.OHMM   07 120 46 00:   INDUCTION LOG DEEP RESISTIVITY
 RILM.OHMM   07 120 44 00:   INDUCTION LOG MEDIUM RESISTIVITY
 CALD.IN     45 280 60 00:   CALIPER FROM DENSITY
 GRD .GAPI   45 310 01 00:   GAMMA RAY FROM DENSITY LOG
 CORR.G/C3   45 356 01 00:   DENSITY CORRECTION
 PORD.DEC    45 890 10 00:   POROSITY DENSITY LIMESTONE
 DEN .G/C3   45 350 01 00:   COMPENSATED BULK DENSITY
~PARAMETER INFORMATION
#MNEM.UNIT          VALUE    DESCRIPTION
#----------   ------------   ------------------------------
 PD  .                 GL:   PERMANENT DATUM
 EPD .F              5126:   ELEVATION PERMANENT DATUM
 LMF .                 GL:   LOG MEASURED FROM
 DMF .                 GL:   DRILLING MEASURED FROM
 EGL .F              5126:   GROUND LEVEL
 DATE.        30-JAN-1986:   RUN DATE
 RUN .                  1:   RUN NUMBER
 DD  .F               925:   DEPTH DRILLER
 DL  .F               918:   DEPTH LOGGER
 BLI .F               910:   BOTTOM LOG INTERVAL
 CS  .IN            8.625:   CASING SIZE
 CBD .F               127:   CASING BOTTOM DRILLER
 CBL .F               127:   CASING BOTTOM LOGGER
 BS  .IN             6.25:   BIT SIZE
 BSD .F               925:   BIT SIZE AT DEPTH
 DFT .                AIR:   DRILLING FLUID TYPE
 LUN .            HL-6264:   LOGGING UNIT NUMBER
 LUL .           GILLETTE:   LOGGING UNIT LOCATION
 ENGI.     P. M. FAHLSING:   RECORDING ENGINEER
 WITN.        LINOA FIVAS:   WITNESSED BY
 CLNT.            A2DTECH:   CLIENT CODE
 ORIG.           5" PRINT:   ORIGIN OF DATA
 UWI .       490251106800:   UNIQUE WELL ID
 DICO. A2D Technologies, Inc.:   DIGITIZING COMPANY
~OTHER INFORMATION
~A   DEPT     RILD       RILM       CALD         GRD      CORR       PORD        DEN   
# ...
  686.5000     5.6778     5.4292     6.6391   157.8437     0.1246     0.1297     2.4582
  687.0000     5.6374     5.4707     6.6391   159.3603     0.1140     0.1415     2.4417
  687.5000     5.5973     5.5395     6.6391   156.9494     0.1004     0.1472     2.4370
  688.0000     5.5962     5.5761     6.6391   151.5173     0.0883     0.1388     2.4522
  688.5000     5.5564     5.5737     6.6391   148.8043     0.0852     0.1325     2.4627
  689.0000     5.4407     5.3449     6.6391   146.3934     0.0926     0.1268     2.4664
  689.5000     5.2156     5.0900     6.6391   145.1895     0.1046     0.1256     2.4709
  690.0000     4.8994     4.6822     6.6391   146.1033     0.1240     0.1220     2.4785
  690.5000     4.7966     4.2774     6.6391   148.8284     0.1375     0.1190     2.4807
  691.0000     4.7657     4.1590     6.6391   150.0428     0.1284     0.1293     2.4671
  691.5000     4.8018     4.2744     6.6391   149.7467     0.1193     0.1429     2.4370
  692.0000     4.8302     4.5165     6.6391   147.9400     0.1177     0.1668     2.3978
  692.5000     4.8292     4.7394     6.6391   144.9249     0.1252     0.1771     2.3835
  693.0000     4.8956     4.9048     6.6391   142.8161     0.1176     0.1686     2.3970
  693.5000     5.0671     5.1469     6.6391   141.6137     0.1100     0.1569     2.4294
  694.0000     5.3921     5.4762     6.6541   141.6197     0.1054     0.1264     2.4633
  694.5000     5.7781     5.8672     6.6541   141.9278     0.0963     0.1198     2.4768
  695.0000     6.1088     6.1995     6.6541   143.7480     0.0917     0.1207     2.4768
  695.5000     6.3695     6.3716     6.6541   144.3568     0.0931     0.1220     2.4775
  696.0000     6.5415     6.5032     6.6541   141.3431     0.0976     0.1172     2.4820
  696.5000     6.4894     6.4560     6.6541   138.3280     0.1065     0.1127     2.4881
  697.0000     6.2592     6.1057     6.6391   137.4262     0.1185     0.1115     2.4926
  697.5000     5.8770     5.6166     6.6391   137.7358     0.1244     0.1112     2.4963
  698.0000     5.4960     5.2025     6.6391   142.5756     0.1228     0.1094     2.4978
  698.5000     5.2347     4.8863     6.6391   146.8113     0.1168     0.1082     2.4955
  699.0000     5.1259     4.7510     6.6391   151.0469     0.1046     0.1146     2.4880
  699.5000     5.0895     4.7170     6.6241   154.6783     0.0986     0.1321     2.4616
  700.0000     5.1241     4.9554     6.6245   155.5891     0.1111     0.1391     2.4495
  700.5000     5.1936     5.1949     6.6304   153.1722     0.1300     0.1364     2.4570
  701.0000     5.4498     5.4955     6.6363   148.9426     0.1240     0.1222     2.4773
  701.5000     5.7585     5.8879     6.6391   143.5045     0.1194     0.1090     2.4984
  702.0000     6.2558     6.2675     6.6391   137.7643     0.1209     0.0984     2.5134
  702.5000     6.6101     6.5798     6.6541   137.4622     0.1298     0.0900     2.5254
  703.0000     6.8884     6.9359     6.6692   137.1601     0.1478     0.0851     2.5352
  703.5000     7.1784     7.2279     6.6692   137.1601     0.1689     0.0885     2.5314
  704.0000     7.3776     7.3773     6.6692   133.8369     0.1691     0.0948     2.5208
  704.5000     7.4781     7.4266     6.6541   133.2326     0.1477     0.0964     2.5133
  705.0000     7.5275     7.4757     6.6391   133.5347     0.1251     0.0922     2.5223
  705.5000     7.5248     7.5245     6.6391   135.0453     0.1145     0.0867     2.5298
  706.0000     7.5746     7.5742     6.6391   136.8580     0.1160     0.0849     2.5380
  706.5000     7.6776     7.5716     6.6241   137.4622     0.1175     0.0889     2.5282
  707.0000     7.7821     7.5167     6.6391   136.5559     0.1174     0.0913     2.5229
  707.5000     7.8880     7.4107     6.6241   135.3474     0.1204     0.0916     2.5244
  708.0000     7.7230     7.2557     6.6241   134.1390     0.1324     0.0880     2.5311
  708.5000     7.5615     7.2032     6.6090   134.1390     0.1519     0.0838     2.5424
  709.0000     7.5067     7.3012     6.6090   134.1390     0.1684     0.0799     2.5499
  709.5000     7.5563     7.4012     6.6090   134.1390     0.1682     0.0775     2.5567
  710.0000     7.6132     7.5534     6.6090   135.9517     0.1531     0.0808     2.5476
  710.5000     7.7180     7.6040     6.6090   138.6274     0.1455     0.0818     2.5483
  711.0000     7.8690     7.7604     6.6090   141.3897     0.1394     0.0769     2.5514
  711.5000     8.0309     7.8124     6.6241   141.6918     0.1320     0.0760     2.5513
  712.0000     8.0846     7.9730     6.6241   136.8580     0.1305     0.0809     2.5512
  712.5000     8.0811     8.0259     6.6241   135.3474     0.1320     0.0782     2.5513
  713.0000     7.8575     7.9676     6.6241   134.1390     0.1367     0.0818     2.5451
  713.5000     7.2783     7.2786     6.6241   132.3263     0.1439     0.0870     2.5383
  714.0000     6.5574     6.4675     6.6241   130.2115     0.1484     0.0891     2.5323
  714.5000     5.9490     5.5896     6.6241   129.3051     0.1483     0.0882     2.5292
  715.0000     5.6653     4.9324     6.6241   131.1178     0.1407     0.0903     2.5247
  715.5000     5.5469     4.7298     6.6246   139.5770     0.1211     0.0976     2.4991
  716.0000     5.5067     4.9018     6.6391   149.8489     0.1091     0.1194     2.4614
  716.5000     5.6595     5.3696     6.6391   152.5680     0.1211     0.1634     2.4132
  717.0000     6.0635     5.8277     6.6391   147.1299     0.1361     0.1725     2.3913
  717.5000     6.6329     6.2108     6.6391   135.3474     0.1330     0.1644     2.4304
  718.0000     7.2557     6.8642     6.6391   127.4924     0.1239     0.1143     2.4839
  718.5000     7.7200     7.5088     6.6241   126.8882     0.1134     0.0911     2.5124
  719.0000     8.1573     8.1008     6.6090   127.1903     0.1103     0.0886     2.5260
  719.5000     8.6194     8.6192     6.6090   126.8882     0.1163     0.0917     2.5268
  720.0000     8.9823     9.0445     6.5940   125.9819     0.1283     0.0935     2.5206
  720.5000     9.2316     9.2955     6.6090   124.4713     0.1312     0.0887     2.5259
  721.0000     9.3580     9.3578     6.6090   124.1692     0.1267     0.0878     2.5319
  721.5000     9.2252     9.2250     6.6090   124.7734     0.1311     0.0887     2.5296
  722.0000     9.0951     9.1581     6.6090   126.5861     0.1386     0.0896     2.5295
  722.5000     9.2196     9.2187     6.6241   127.1903     0.1371     0.0872     2.5310
  723.0000     9.4093     9.4091     6.6241   126.8882     0.1325     0.0870     2.5333
  723.5000     9.7377     9.8734     6.6391   126.8882     0.1355     0.0870     2.5332
  724.0000    10.2893    10.4327     6.6391   128.7009     0.1444     0.0846     2.5347
  724.5000    11.0238    11.1003     6.6241   126.8882     0.1594     0.0822     2.5399
  725.0000    11.6483    11.8928     6.6241   122.0544     0.1549     0.0828     2.5444
  725.5000    12.7420    13.1911     6.6241   107.5529     0.1473     0.0867     2.5391
  726.0000    14.3303    14.2311     6.6241    96.6767     0.1383     0.0898     2.5278
  726.5000    15.7849    15.5675     6.6241    92.7492     0.1141     0.0946     2.5134
  727.0000    17.1479    17.1477     6.6391    90.6344     0.1141     0.1167     2.4937
  727.5000    18.4998    18.4997     6.6391    89.1239     0.1261     0.1417     2.4574
  728.0000    19.2787    19.5476     6.6241    80.3625     0.1471     0.1728     2.4180
  728.5000    19.8137    20.0903     6.6391    76.4350     0.1519     0.1834     2.3806
  729.0000    20.3665    20.5051     6.6391    76.1329     0.1440     0.1831     2.3740
  729.5000    20.9351    21.0743     6.6241    76.4350     0.1530     0.1829     2.3722
  730.0000    21.6794    21.8098     6.6241    77.0393     0.1680     0.1983     2.3426
  730.5000    22.5993    22.7386     6.6241    77.6435     0.1739     0.2243     2.3056
  731.0000    23.5584    23.8605     6.6241    78.2477     0.1513     0.2333     2.2887
  731.5000    24.3652    24.5284     6.6391    77.3414     0.1257     0.2287     2.2929
