~VERSION INFORMATION
 VERS.                2.0:   CWLS LOG ASCII STANDARD - VERSION 2.0
 WRAP.                 NO:   ONE LINE PER DEPTH STEP
~WELL INFORMATION
#MNEM.UNIT      DATA TYPE    INFORMATION
#----------   ------------   ------------------------------
 STRT.F            7.5000:   START DEPTH
 STOP.F         2886.0000:   STOP DEPTH
 STEP.F            0.5000:   STEP LENGTH
 NULL.          -999.2500:   NO VALUE
 COMP. LAWRENCE/ALLISON INC:   COMPANY
 WELL.     16-1 AX #21-21:   WELL
 FLD .             TEAPOT:   FIELD
 LOC .      S21 T39N R78W:   LOCATION
 CNTY.            NATRONA:   COUNTY
 STAT.            WYOMING:   STATE
 CTRY. UNITED STATES OF AMERICA:   COUNTRY
 SRVC.      Dresser Atlas:   SERVICE COMPANY
 DATE.        05-DEC-1986:   LOGDATE
 API .       490251111900:   API NUMBER
~CURVE INFORMATION
#MNEM.UNIT       API CODE    CURVE DESCRIPTION
#----------   ------------   ------------------------------
 DEPT.F                  :   
 GRR .GAPI   07 310 01 00:   GAMMA RAY FROM RES. LOG.
 SPR .MV     07 010 01 00:   SPONTANEOUS POTENTIAL
 RFOC.OHMM   07 220 04 00:   RESISTIVITY FOCUSED LOG
 RILM.OHMM   07 120 44 00:   INDUCTION LOG MEDIUM RESISTIVITY
 RILD.OHMM   07 120 46 00:   INDUCTION LOG DEEP RESISTIVITY
 CALD.IN     45 280 60 00:   CALIPER
 DEN .G/C3   45 350 01 00:   BULK DENSITY
 CORR.G/C3   45 356 01 00:   DENSITY CORRECTION
 CNC .DEC    42 890 03 00:   NEUTRON POROSITY SANDSTONE
 PORD.DEC    45 890 12 00:   DENSITY POROSITY SANDSTONE
~PARAMETER INFORMATION
#MNEM.UNIT          VALUE    DESCRIPTION
#----------   ------------   ------------------------------
 PD  .                 GL:   PERMANENT DATUM
 EPD .F              4992:   ELEVATION PERMANENT DATUM
 LMF .                 KB:   LOG MEASURED FROM
 DAPD.F                12:   FEET ABOVE PERMANENT DATUM
 DMF .                 KB:   DRILLING MEASURED FROM
 EKB .F              5004:   KELLING BUSHING
 EGL .F              4992:   GROUND LEVEL
 DATE.            12-5-86:   RUN DATE
 RUN .                  1:   RUN NUMBER
 DD  .F              2905:   DEPTH DRILLER
 DL  .F              2890:   DEPTH LOGGER
 BLI .F              2884:   BOTTOM LOG INTERVAL
 TLI .F              2200:   TOP LOG INTERVAL
 CS  .IN            8.625:   CASING SIZE
 CBD .F               300:   CASING BOTTOM DRILLER
 CBL .F               300:   CASING BOTTOM LOGGER
 BS  .IN            7.875:   BIT SIZE
 BSD .F              2905:   BIT SIZE AT DEPTH
 DFT .        KCL POLYMER:   DRILLING FLUID TYPE
 DFD .                  9:   DRILLING FLUID DENSITY
 DFV .                 36:   DRILLING FLUID VISCOSITY
 DFPH.                9.5:   DRILLING FLUID PH
 DFL .               11.8:   DRILLING FLUID LOSS
 MSS .            MUDTANK:   MUD SAMPLE SOURCE
 RMS .OHMM            .43:   RESISTIVITY MUD SAMPLE
 MST .F                63:   MUD SAMPLE TEMPERATURE
 RMF .OHMM           .348:   RESISTIVITY MUD FILTRATE SAMPLE
 MFST.F                63:   MUD FILTRATE SAMPLE TEMPERATURE
 RMC .OHMM           .538:   RESISTIVITY MUD CAKE
 MCST.F                63:   MUD CAKE SAMPLE TEMPERATURE
 MFSS.               MEAS:   MUD FILTRATE SAMPLE SOURCE
 MCSS.               CALC:   MUD CAKE SAMPLE SOURCE
 RMB .OHMM           .233:   RESISTIVITY MUD AT BHT
 BHT .F               116:   BOTTOM HOLE TEMPERATURE
 TCS .HRS             3.5:   TIME CURCULATED STOPPED
 MRT .F               116:   MAXIMUM RECORDED TEMPERATURE
 LUN .            HL-6274:   LOGGING UNIT NUMBER
 LUL .           GILLETTE:   LOGGING UNIT LOCATION
 ENGI.             RAUTIO:   RECORDING ENGINEER
 WITN.             STRONG:   WITNESSED BY
 CLNT.            A2DTECH:   CLIENT CODE
 ORIG.       2", 5" PRINT:   ORIGIN OF DATA
 UWI .       490251111900:   UNIQUE WELL ID
 DICO. A2D Technologies, Inc.:   DIGITIZING COMPANY
~OTHER INFORMATION
~A    DEPT     GRR        SPR       RFOC       RILM       RILD       CALD        DEN       CORR        CNC       PORD   
# ...
 2185.0000    99.8000   -53.4594     7.2620     6.8620     6.6115  -999.2500  -999.2500  -999.2500  -999.2500  -999.2500
 2185.5000   101.2461   -53.3723     7.6424     6.9972     6.7419  -999.2500  -999.2500  -999.2500  -999.2500  -999.2500
 2186.0000   101.1924   -53.7194     7.8958     6.9013     6.6429  -999.2500  -999.2500  -999.2500  -999.2500  -999.2500
 2186.5000    99.8540   -53.9457     7.4959     6.7762     6.5140  -999.2500  -999.2500  -999.2500  -999.2500  -999.2500
 2187.0000   100.3781   -54.0119     7.1710     6.6534     6.4357  -999.2500  -999.2500  -999.2500  -999.2500  -999.2500
 2187.5000   101.7380   -54.0808     6.7427     6.5565     6.4519  -999.2500  -999.2500  -999.2500  -999.2500  -999.2500
 2188.0000   103.0990   -54.1825     6.7735     6.6121     6.4635  -999.2500  -999.2500  -999.2500  -999.2500  -999.2500
 2188.5000   100.9286   -54.3271     6.8323     6.6587     6.4752  -999.2500  -999.2500  -999.2500  -999.2500  -999.2500
 2189.0000    98.5822   -54.4775     6.8892     6.7063     6.4870  -999.2500  -999.2500  -999.2500  -999.2500  -999.2500
 2189.5000    94.9254   -54.3164     7.0349     6.7657     6.5314  -999.2500  -999.2500  -999.2500  -999.2500  -999.2500
 2190.0000    91.2059   -54.0289     7.4688     6.8679     6.6785  -999.2500  -999.2500  -999.2500  -999.2500  -999.2500
 2190.5000    90.0061   -53.7294     7.8958     6.9707     6.8289  -999.2500  -999.2500  -999.2500  -999.2500  -999.2500
 2191.0000    93.7461   -53.6583     7.8597     7.0781     6.9828  -999.2500  -999.2500  -999.2500  -999.2500  -999.2500
 2191.5000    98.2064   -53.6006     7.8262     7.1263     7.2606  -999.2500  -999.2500  -999.2500  -999.2500  -999.2500
 2192.0000   102.8512   -53.5410     7.3289     6.6460     7.6748  -999.2500  -999.2500  -999.2500  -999.2500  -999.2500
 2192.5000   102.4497   -53.5145     6.8152     6.3948     7.9680  -999.2500  -999.2500  -999.2500  -999.2500  -999.2500
 2193.0000   100.5796   -53.5140     6.6247     6.2673     7.6787  -999.2500  -999.2500  -999.2500  -999.2500  -999.2500
 2193.5000   100.8045   -53.5140     6.5565     6.1422     7.6937  -999.2500  -999.2500  -999.2500  -999.2500  -999.2500
 2194.0000   102.6910   -53.5141     6.8543     6.0196     7.7215  -999.2500  -999.2500  -999.2500  -999.2500  -999.2500
 2194.5000   104.8780   -53.5141     6.9972     5.9193     7.7504  -999.2500  -999.2500  -999.2500  -999.2500  -999.2500
 2195.0000   106.6729   -53.5141     6.5027     5.9464     7.7504  -999.2500  -999.2500  -999.2500  -999.2500  -999.2500
 2195.5000   105.7613   -53.5141     6.0304     5.9698     7.0626  -999.2500  -999.2500  -999.2500  -999.2500  -999.2500
 2196.0000   101.7419   -53.5141     6.2195     6.0419     6.6292  -999.2500  -999.2500  -999.2500  -999.2500  -999.2500
 2196.5000    98.3875   -53.5139     6.5497     6.1435     6.2191  -999.2500  -999.2500  -999.2500  -999.2500  -999.2500
 2197.0000    97.7404   -53.5140     6.7918     6.0304     5.8869  -999.2500  -999.2500  -999.2500  -999.2500  -999.2500
 2197.5000    96.4772   -53.5151     6.9325     5.9149     5.7510  -999.2500  -999.2500  -999.2500  -999.2500  -999.2500
 2198.0000    94.6265   -53.5739     6.8684     5.8047     5.6175  -999.2500  -999.2500  -999.2500  -999.2500  -999.2500
 2198.5000    95.0894   -53.7068     6.5370     5.7033     5.4952  -999.2500  -999.2500  -999.2500  -999.2500  -999.2500
 2199.0000    94.7973   -53.8389     6.2367     5.5751     5.4113  -999.2500  -999.2500  -999.2500  -999.2500  -999.2500
 2199.5000    93.5711   -53.9726     5.9502     5.4443     5.3335  -999.2500  -999.2500  -999.2500  -999.2500  -999.2500
 2200.0000    93.3133   -54.1128     5.7565     5.5885     5.2946  -999.2500  -999.2500  -999.2500  -999.2500  -999.2500
 2200.5000    96.5577   -53.9487     6.3400     5.7033     5.5920  -999.2500  -999.2500  -999.2500  -999.2500  -999.2500
 2201.0000    99.8677   -53.7096     6.9325     5.4368     5.6975  -999.2500  -999.2500  -999.2500  -999.2500  -999.2500
 2201.5000   101.2542   -53.4722     6.6687     5.3293     5.7681  -999.2500  -999.2500  -999.2500  -999.2500  -999.2500
 2202.0000   100.9804   -53.2895     6.1019     5.3015     5.8102  -999.2500  -999.2500  -999.2500  -999.2500  -999.2500
 2202.5000    98.9333   -53.2277     5.8093     5.0513     5.2737  -999.2500  -999.2500  -999.2500  -999.2500  -999.2500
 2203.0000    96.7314   -53.1640     5.7108     4.7444     4.9068  -999.2500  -999.2500  -999.2500  -999.2500  -999.2500
 2203.5000    95.4095   -53.1376     5.4915     4.4557     4.6445  -999.2500  -999.2500  -999.2500  -999.2500  -999.2500
 2204.0000    98.3512   -53.3013     5.0890     4.1849     4.5211     9.1616     2.5050     0.0035     0.3027     0.0869
 2204.5000   106.0437   -53.4620     4.7097     3.9325     4.4008     9.1884     2.5060    -0.0012     0.3299     0.0874
 2205.0000   110.2197   -53.6241     4.3587     3.8344     4.2068     9.1978     2.5053    -0.0086     0.3433     0.0895
 2205.5000   111.2526   -53.8643     4.0437     3.7392     3.9726     9.2055     2.5020    -0.0104     0.3409     0.0954
 2206.0000   110.1769   -54.2726     4.1779     3.6495     3.7521     9.2146     2.4843     0.0085     0.3297     0.1002
 2206.5000   105.9931   -54.2279     4.3979     3.7988     3.7192     9.2229     2.4843     0.0289     0.3184     0.0927
 2207.0000   105.0657   -54.0131     4.6294     3.9320     4.1308     9.2253     2.5105     0.0210     0.3072     0.0800
 2207.5000   105.3985   -53.8022     4.8731     3.8244     4.4407     9.2278     2.5205     0.0120     0.2978     0.0780
 2208.0000   105.1700   -53.5921     5.0542     3.9506     4.5288     9.2304     2.5202     0.0051     0.2982     0.0801
 2208.5000   102.4567   -53.3820     4.7359     4.0714     4.5859     9.2330     2.5178     0.0154     0.3176     0.0812
 2209.0000   101.1788   -53.1699     5.6505     4.1958     4.6487     9.2355     2.5175     0.0265     0.3138     0.0800
 2209.5000   103.2681   -52.7732     5.4100     4.3240     4.8118     9.2382     2.5203     0.0349     0.3095     0.0781
 2210.0000   105.3445   -52.3054     5.1971     4.4458     5.0075     9.2408     2.5231     0.0276     0.3051     0.0762
 2210.5000   105.7126   -51.8968     5.4952     4.5057     5.0075     9.2389     2.5244     0.0202     0.3007     0.0762
 2211.0000   104.8013   -51.9049     5.3530     4.5670     5.0075     9.2095     2.5247     0.0241     0.2857     0.0767
 2211.5000   104.8793   -51.8155     5.1466     4.6358     4.9363     9.1803     2.5250     0.0343     0.2978     0.0737
 2212.0000   105.6952   -51.5598     5.1323     4.7184     4.3965     9.1563     2.5299     0.0417     0.3098     0.0700
 2212.5000   106.6540   -51.3025     5.1182     4.8024     4.4094     9.1408     2.5356     0.0457     0.3072     0.0683
 2213.0000   106.2450   -50.9502     5.1014     4.8856     4.4313     9.0930     2.5375     0.0496     0.3046     0.0697
 2213.5000   105.6158   -50.5944     5.2336     4.9611     4.4533     8.9271     2.5331     0.0445     0.3019     0.0713
 2214.0000   105.0582   -50.2408     5.3998     5.0667     4.4754     8.8773     2.5293     0.0387     0.2993     0.0733
 2214.5000   105.7128   -49.8816     5.5719     5.1721     4.6060     8.8805     2.5267     0.0329     0.2921     0.0756
 2215.0000   106.3973   -49.2909     5.7494     5.2796     4.7621     8.8842     2.5238     0.0276     0.2784     0.0796
 2215.5000   107.0732   -48.8874     5.9193     5.5005     4.9239     8.8872     2.5185     0.0198     0.2651     0.0833
 2216.0000   107.7541   -48.5751     6.1601     5.7494     5.0911     8.8901     2.5100     0.0021     0.2596     0.0885
 2216.5000   108.5773   -48.2987     6.3938     6.0096     5.2639     8.8930     2.5039    -0.0143     0.2595     0.0877
 2217.0000   110.1524   -48.1618     6.6364     6.1851     5.4425     8.8959     2.5098    -0.0301     0.2704     0.0816
 2217.5000   111.7793   -48.0178     6.8906     6.2688     5.6125     8.8980     2.5190    -0.0245     0.2834     0.0765
 2218.0000   112.5783   -47.8773     7.0626     6.3542     5.7817     8.9351     2.5239    -0.0107     0.2962     0.0751
