~VERSION INFORMATION
 VERS.                2.0:   CWLS LOG ASCII STANDARD - VERSION 2.0
 WRAP.                 NO:   ONE LINE PER DEPTH STEP
~WELL INFORMATION
#MNEM.UNIT      DATA TYPE    INFORMATION
#----------   ------------   ------------------------------
 STRT.F           71.5000:   START DEPTH
 STOP.F          820.0000:   STOP DEPTH
 STEP.F            0.5000:   STEP LENGTH
 NULL.          -999.2500:   NO VALUE
 COMP. U S NAVY/INTEX OIL CO:   COMPANY
 WELL. RES 3 TEAPOT DOME #72-S-34:   WELL
 FLD .             TEAPOT:   FIELD
 LOC .      S34 T39N R78W:   LOCATION
 CNTY.            NATRONA:   COUNTY
 STAT.            WYOMING:   STATE
 CTRY. UNITED STATES OF AMERICA:   COUNTRY
 SRVC.       Schlumberger:   SERVICE COMPANY
 DATE.        20-FEB-1961:   LOGDATE
 API .       490250655700:   API NUMBER
~CURVE INFORMATION
#MNEM.UNIT       API CODE    CURVE DESCRIPTION
#----------   ------------   ------------------------------
 DEPT.F                  :   
 GR  .GAPI   30 310 01 00:   GAMMA RAY
 SPR .MV     05 010 01 00:   SPONTANEOUS POTENTIAL FROM RES.
 ILD .OHMM   05 120 46 00:   INDUCTION LOG DEEP
 ASN .OHMM   05 041 16 00:   AMPLIFIED SHORT NORMAL 16"
 CILD.MMHO   05 110 46 00:   CONDUCTIVITY INDUCTION LOG DEEP
~PARAMETER INFORMATION
#MNEM.UNIT          VALUE    DESCRIPTION
#----------   ------------   ------------------------------
 LMF .                 KB:   LOG MEASURED FROM
 DMF .                 KB:   DRILLING MEASURED FROM
 EKB .F              5071:   KELLING BUSHING
 EGL .F              5057:   GROUND LEVEL
 DATE.          2-20-1961:   RUN DATE
 RUN .                  1:   RUN NUMBER
 DD  .F               820:   DEPTH DRILLER
 DL  .F               820:   DEPTH LOGGER
 BLI .F               819:   BOTTOM LOG INTERVAL
 TLI .F                80:   TOP LOG INTERVAL
 CBD .F                12:   CASING BOTTOM DRILLER
 BS  .IN            7.875:   BIT SIZE
 BSD .F               820:   BIT SIZE AT DEPTH
 DFT .       GEL-OIL EMUL:   DRILLING FLUID TYPE
 DFD .                9.3:   DRILLING FLUID DENSITY
 DFV .                 48:   DRILLING FLUID VISCOSITY
 DFPH.                8.5:   DRILLING FLUID PH
 DFL .                 16:   DRILLING FLUID LOSS
 MSS .           FLOWLINE:   MUD SAMPLE SOURCE
 RMS .OHMM            .82:   RESISTIVITY MUD SAMPLE
 MST .F                70:   MUD SAMPLE TEMPERATURE
 RMF .OHMM            .45:   RESISTIVITY MUD FILTRATE SAMPLE
 MFST.F                72:   MUD FILTRATE SAMPLE TEMPERATURE
 RMC .OHMM            1.4:   RESISTIVITY MUD CAKE
 MCST.F                78:   MUD CAKE SAMPLE TEMPERATURE
 RMB .OHMM            .73:   RESISTIVITY MUD AT BHT
 BHT .F                78:   BOTTOM HOLE TEMPERATURE
 TCS .HRS               1:   TIME CURCULATED STOPPED
 MRT .F                78:   MAXIMUM RECORDED TEMPERATURE
 LUN .               2523:   LOGGING UNIT NUMBER
 LUL .              CSPR.:   LOGGING UNIT LOCATION
 ENGI.             KNOBEL:   RECORDING ENGINEER
 WITN.          JORGENSEN:   WITNESSED BY
 CLNT.            A2DTECH:   CLIENT CODE
 ORIG.      2" & 5" PRINT:   ORIGIN OF DATA
 UWI .       490250655700:   UNIQUE WELL ID
 DICO. A2D Technologies, Inc.:   DIGITIZING COMPANY
~OTHER INFORMATION
~A   DEPT       GR        SPR          ILD      ASN       CILD   
# ...
  193.5000  -999.2500   -19.8053     3.2364     4.2575   284.4599
  194.0000  -999.2500   -19.8316     3.3732     4.3397   259.5030
  194.5000  -999.2500   -19.8574     3.5282     4.3303   251.9881
  195.0000  -999.2500   -19.8837     3.4876     4.3017   256.4944
  195.5000  -999.2500   -19.9096     3.3710     4.2403   263.5735
  196.0000  -999.2500   -19.9358     3.2550     4.1783   274.1526
  196.5000  -999.2500   -19.9617     3.1386     4.1057   284.7316
  197.0000  -999.2500   -19.9880     3.0225     3.9766   295.3106
  197.5000  -999.2500   -20.0194     2.9063     3.8193   311.3320
  198.0000  -999.2500   -20.0049     2.7900     3.6618   338.2039
  198.5000  -999.2500   -19.9861     2.6741     3.5230   361.0521
  199.0000  -999.2500   -19.9676     2.5575     3.4311   383.9003
  199.5000  -999.2500   -19.9488     2.4417     3.3391   406.7486
  200.0000  -999.2500   -19.9303     2.3250     3.2472   429.5968
  200.5000  -999.2500   -19.9115     2.2380     3.1552   446.8191
  201.0000  -999.2500   -19.8929     2.4287     3.0636   446.8191
  201.5000  -999.2500   -19.8742     2.6864     2.9930   434.6620
  202.0000  -999.2500   -19.8556     2.9429     3.1334   420.9742
  202.5000  -999.2500   -19.8369     3.2006     3.3242   384.6173
  203.0000  -999.2500   -19.8183     3.4570     3.5159   355.0866
  203.5000  -999.2500   -19.7996     3.7146     3.9575   325.5538
  204.0000  -999.2500   -19.7810     3.9710     4.4987   296.0055
  204.5000  -999.2500   -19.7623     4.2285     5.0384   266.4993
  205.0000  -999.2500   -19.7436     4.4849     5.2773   236.9544
  205.5000  -999.2500   -19.7249     4.7425     5.3871   213.2320
  206.0000  -999.2500   -19.7063     4.8794     5.4776   202.6737
  206.5000  -999.2500   -19.6876     4.9647     5.6180   200.3800
  207.0000  -999.2500   -19.6689     5.0487     5.7375   198.0633
  207.5000  -999.2500   -19.6502     5.1192     5.8552   192.5392
  208.0000  -999.2500   -19.6315     5.3354     6.0724   185.4695
  208.5000  -999.2500   -19.6391     5.5207     6.3352   178.4122
  209.0000  -999.2500   -19.6597     5.7045     6.5997   172.4786
  209.5000  -999.2500   -19.6804     5.8899     6.8625   167.2343
  210.0000  -999.2500   -19.7010     6.0738     7.0872   162.7085
  210.5000  -999.2500   -19.7217     6.2590     7.4807   158.1879
  211.0000  -999.2500   -19.7422     6.4430     7.6038   157.1163
  211.5000  -999.2500   -19.7630     6.5038     7.6032   157.9537
  212.0000  -999.2500   -19.7835     6.4930     7.6040   158.8015
  212.5000  -999.2500   -19.8043     6.4833     7.5052   159.6492
  213.0000  -999.2500   -19.8223     6.4725     7.4188   160.4970
  213.5000  -999.2500   -19.7887     6.4627     7.3853   161.3448
  214.0000  -999.2500   -19.7583     6.4519     7.4177   162.1926
  214.5000  -999.2500   -19.7285     6.4422     7.4463   162.8949
  215.0000  -999.2500   -19.6980     6.4312     7.4753   163.5036
  215.5000  -999.2500   -19.6682     6.4216     7.5039   164.1122
  216.0000  -999.2500   -19.6376     6.4115     7.5330   164.7209
  216.5000  -999.2500   -19.6079     6.4124     7.5446   165.3296
  217.0000  -999.2500   -19.5773     6.4115     7.5450   165.9382
  217.5000  -999.2500   -19.5476     6.4126     7.5446   166.5010
  218.0000  -999.2500   -19.5169     6.4114     7.5452   165.6916
  218.5000  -999.2500   -19.4872     6.4126     7.5446   164.2786
  219.0000  -999.2500   -19.4566     6.5690     7.5675   162.8657
  219.5000  -999.2500   -19.4286     6.7103     7.6062   161.5308
  220.0000  -999.2500   -19.5152     6.9588     7.6444   156.3121
  220.5000  -999.2500   -19.5983     7.1975     7.8748   151.3668
  221.0000  -999.2500   -19.6804     7.4327     8.0957   146.6203
  221.5000  -999.2500   -19.7634     7.6716     8.3149   142.4988
  222.0000  -999.2500   -19.8456     7.8997     8.4627   134.8335
  222.5000  -999.2500   -19.9285     8.0761     8.5447   127.1682
  223.0000  -999.2500   -20.0108     8.2435     8.6282   119.5030
  223.5000  -999.2500   -20.0936     8.4148     8.7107   115.8052
  224.0000  -999.2500   -20.1760     8.5950     8.7942   114.8111
  224.5000  -999.2500   -20.2118     8.5966     8.8347   114.8111
  225.0000  -999.2500   -20.2019     8.4960     8.7489   114.8111
  225.5000  -999.2500   -20.1922     8.3979     8.5774   118.3539
  226.0000  -999.2500   -20.1823     8.1984     8.3086   125.4752
  226.5000  -999.2500   -20.1725     7.4163     8.0386   132.7038
  227.0000  -999.2500   -20.1627     6.6257     7.7632   144.3936
  227.5000  -999.2500   -20.1529     5.8354     7.3605   181.7594
  228.0000  -999.2500   -20.1431     5.0457     6.9491   249.0060
  228.5000  -999.2500   -20.1334     4.2542     6.3720   302.9368
  229.0000  -999.2500   -20.1236     3.4332     5.6047   358.5443
  229.5000  -999.2500   -20.1138     3.0795     4.8380   414.1518
  230.0000  -999.2500   -20.1041     2.7141     4.0704   469.7592
  230.5000  -999.2500   -20.0943     2.3451     3.3037   556.8807
  231.0000  -999.2500   -20.0846     2.0431     2.8549   576.2664
  231.5000  -999.2500   -20.0749     2.0410     2.8560   596.9185
  232.0000  -999.2500   -20.0651     2.0431     2.9358   501.4911
  232.5000  -999.2500   -20.0554     2.1951     3.0244   499.6521
  233.0000  -999.2500   -20.0456     2.5594     3.1843   497.5149
  233.5000  -999.2500   -20.0358     2.9195     3.4513   435.0596
  234.0000  -999.2500   -20.0261     3.4807     4.2441   360.8946
  234.5000  -999.2500   -20.0431     4.3186     5.7871   277.8131
  235.0000  -999.2500   -20.0991     5.8957     7.4851   209.0457
  235.5000  -999.2500   -20.1552     7.7947     8.2858   161.5706
  236.0000  -999.2500   -20.2113     8.5307     9.2744   108.8469
  236.5000  -999.2500   -20.2673     9.2632    10.5865   100.4016
  237.0000  -999.2500   -20.3234    10.0877    11.6799    90.9066
  237.5000  -999.2500   -20.3794    10.1442    12.0775    84.9901
  238.0000  -999.2500   -20.4714    10.1872    12.0775    87.5646
  238.5000  -999.2500   -20.6238    10.2851    11.1829    94.4881
  239.0000  -999.2500   -20.7765    10.2865    10.8467   101.4115
  239.5000  -999.2500   -20.9289     9.9873    10.4576   112.9225
  240.0000  -999.2500   -21.0816     8.8401    10.0099   132.7038
  240.5000  -999.2500   -21.2339     7.4950     8.3002   152.4851
  241.0000  -999.2500   -21.3867     6.4421     7.8794   166.8589
  241.5000  -999.2500   -21.5389     6.0144     7.3809   170.8151
  242.0000  -999.2500   -21.6918     6.0148     7.0040   175.4473
  242.5000  -999.2500   -21.8092     6.0150     6.8489   175.4501
  243.0000  -999.2500   -21.8558     6.2063     7.1776   175.4373
  243.5000  -999.2500   -21.9015     6.7999     8.1996   164.6925
  244.0000  -999.2500   -21.9481     7.3929     9.2217   151.5549
  244.5000  -999.2500   -21.9937     7.9867    10.0092   138.4378
  245.0000  -999.2500   -22.0404     8.6988    10.1889   125.3035
  245.5000  -999.2500   -22.0860     9.3311    10.3637   112.1832
  246.0000  -999.2500   -22.1327     9.9697    10.6180   102.3028
  246.5000  -999.2500   -22.1884    10.2397    10.8723   100.3275
  247.0000  -999.2500   -22.1350    10.5091    11.1267    98.2257
  247.5000  -999.2500   -22.0660    10.7788    11.3810    95.8084
  248.0000  -999.2500   -21.9978    11.0479    11.6353    93.3942
  248.5000  -999.2500   -21.9288    11.3810    11.8897    90.9751
  249.0000  -999.2500   -21.8605    11.4564    12.0995    87.9783
  249.5000  -999.2500   -21.7916    11.5548    12.1834    85.4735
  250.0000  -999.2500   -21.7232    11.6540    12.2673    83.0020
  250.5000  -999.2500   -21.6543    11.7525    12.3512    83.0020
  251.0000  -999.2500   -21.5858    11.8519    12.4352    83.0020
  251.5000  -999.2500   -21.5171    11.9505    12.5191    83.0020
  252.0000  -999.2500   -21.4485    12.0501    12.6030    83.0020
  252.5000  -999.2500   -21.3798    12.1487    12.6869    83.0020
  253.0000  -999.2500   -21.3112    12.2482    12.7708    83.0020
  253.5000  -999.2500   -21.2425    12.3469    12.8547    82.5839
  254.0000  -999.2500   -21.1739    12.4334    12.9387    82.0021
