~VERSION INFORMATION
 VERS.                2.0:   CWLS LOG ASCII STANDARD - VERSION 2.0
 WRAP.                 NO:   ONE LINE PER DEPTH STEP
~WELL INFORMATION
#MNEM.UNIT      DATA TYPE    INFORMATION
#----------   ------------   ------------------------------
 STRT.F           24.5000:   START DEPTH
 STOP.F          750.0000:   STOP DEPTH
 STEP.F            0.5000:   STEP LENGTH
 NULL.          -999.2500:   NO VALUE
 COMP. FENIX & SCISSON INC:   COMPANY
 WELL.    NPR 3 SX #35-11:   WELL
 FLD .          N.P.R. #3:   FIELD
 LOC .      S11 T38N R78W:   LOCATION
 CNTY.            NATRONA:   COUNTY
 STAT.            WYOMING:   STATE
 CTRY. UNITED STATES OF AMERICA:   COUNTRY
 SRVC.            Unknown:   SERVICE COMPANY
 DATE.        23-FEB-1978:   LOGDATE
 API .       490251027200:   API NUMBER
~CURVE INFORMATION
#MNEM.UNIT       API CODE    CURVE DESCRIPTION
#----------   ------------   ------------------------------
 DEPT.F                  :   
 ILM .OHMM   07 120 44 00:   INDUCTION LOG MEDIUM
 ILD .OHMM   07 120 46 00:   INDUCTION LOG DEEP
 LL8 .OHMM   07 220 08 00:   LATEROLOG-8 RES.
 SPR .MV     07 010 01 00:   SPONTANEOUS POTENTIAL
 CALD.IN     45 280 60 00:   CALIPER FROM DENSITY LOG
 CORR.G/C3   45 356 01 00:   DENSITY CORRECTION
 DPHI.DEC    45 890 12 00:   DENSITY POROSITY SANDSTONE
 GRD .GAPI   45 310 01 00:   GAMMA RAY FROM DENSITY LOG
 RHOB.G/C3   45 350 01 00:   BULK DENSITY
 IL  .OHMM   05 120 40 00:   INDUCTION RESISTIVITY
 SN  .OHMM   05 040 16 00:   SHORT NORMAL 16"
 SPR1.MV     05 010 01 00:   SPONTANEOUS POTENTIAL INDUCTION ELECTRICAL LOG
~PARAMETER INFORMATION
#MNEM.UNIT          VALUE    DESCRIPTION
#----------   ------------   ------------------------------
 PD  .                 GL:   PERMANENT DATUM
 EPD .F              5204:   ELEVATION PERMANENT DATUM
 LMF .                 KB:   LOG MEASURED FROM
 DAPD.F                 4:   FEET ABOVE PERMANENT DATUM
 DMF .                 KB:   DRILLING MEASURED FROM
 EKB .F              5208:   KELLING BUSHING
 EGL .F              5204:   GROUND LEVEL
 DATE.        23-FEB-1978:   RUN DATE
 RUN .                  1:   RUN NUMBER
 DD  .F               755:   DEPTH DRILLER
 DL  .F               751:   DEPTH LOGGER
 BLI .F               745:   BOTTOM LOG INTERVAL
 TLI .F                45:   TOP LOG INTERVAL
 CS  .IN            8.625:   CASING SIZE
 CBD .F                40:   CASING BOTTOM DRILLER
 CBL .F                40:   CASING BOTTOM LOGGER
 BS  .IN            7.875:   BIT SIZE
 BSD .F               755:   BIT SIZE AT DEPTH
 DFT .         LIGNO SULF:   DRILLING FLUID TYPE
 DFD .                8.7:   DRILLING FLUID DENSITY
 DFV .                 33:   DRILLING FLUID VISCOSITY
 DFPH.                 10:   DRILLING FLUID PH
 DFL .                  4:   DRILLING FLUID LOSS
 MSS .           FLOWLINE:   MUD SAMPLE SOURCE
 RMS .OHMM            2.0:   RESISTIVITY MUD SAMPLE
 MST .F                60:   MUD SAMPLE TEMPERATURE
 RMF .OHMM            1.9:   RESISTIVITY MUD FILTRATE SAMPLE
 MFST.F                62:   MUD FILTRATE SAMPLE TEMPERATURE
 RMC .OHMM            3.5:   RESISTIVITY MUD CAKE
 MCST.F                60:   MUD CAKE SAMPLE TEMPERATURE
 MFSS.               MEAS:   MUD FILTRATE SAMPLE SOURCE
 RMB .OHMM           1.69:   RESISTIVITY MUD AT BHT
 BHT .F                71:   BOTTOM HOLE TEMPERATURE
 TCS .HRS               3:   TIME CURCULATED STOPPED
 MRT .F                71:   MAXIMUM RECORDED TEMPERATURE
 CLNT.            A2DTECH:   CLIENT CODE
 ORIG.           5" PRINT:   ORIGIN OF DATA
 UWI .       490251027200:   UNIQUE WELL ID
 DICO. A2D Technologies, Inc.:   DIGITIZING COMPANY
~OTHER INFORMATION
~A   DEPT      ILM        ILD        LL8        SPR       CALD       CORR       DPHI         GRD      RHOB         IL         SN       SPR1   
# ...
  220.5000     7.1542     7.1050     7.6455   -27.6152     8.2851     0.0256     0.1365   111.3901     2.4259     6.6126     7.2654   -32.9461
  221.0000     7.1634     7.0149     7.7058   -27.5929     8.2870     0.0189     0.1383   108.1460     2.4237     6.6153     7.3193   -32.9282
  221.5000     7.0707     7.0239     7.6584   -27.5706     8.2591     0.0159     0.1397   107.1281     2.4201     6.6177     7.3218   -32.9102
  222.0000     7.0293     7.0311     7.6676   -27.6978     8.2610     0.0175     0.1406   106.5507     2.4165     6.5741     7.3349   -32.9561
  222.5000     7.0384     7.0384     7.5177   -28.1215     8.2481     0.0192     0.1357   109.4078     2.4173     6.5765     7.3781   -33.0907
  223.0000     7.0456     7.0456     7.3201   -28.3965     8.2501     0.0261     0.1261   112.7054     2.4393     6.5787     7.4322   -33.2949
  223.5000     7.0529     7.0529     7.2249   -28.6715     8.1877     0.0247     0.1227   112.4316     2.4398     6.5810     7.4347   -33.5096
  224.0000     7.0601     7.2078     7.1328   -28.7980     8.0578     0.0202     0.1272   112.3006     2.4335     6.6753     7.4893   -33.6442
  224.5000     7.2152     7.3662     7.2406   -28.9244     8.1142     0.0249     0.1314   113.5209     2.4291     6.7709     7.5969   -33.8570
  225.0000     7.3737     7.4248     7.3483   -28.5996     8.2280     0.0288     0.1346   114.1339     2.4283     6.9158     7.6526   -33.9821
  225.5000     7.5879     7.5357     7.8809   -28.5774     8.2598     0.0350     0.1277   112.2291     2.4339     7.0155     7.7275   -33.9641
  226.0000     7.7546     7.8083     8.7488   -28.5553     8.2617     0.0411     0.1246   110.6160     2.4408     7.0927     7.8195   -33.9461
  226.5000     7.9250     8.0351     8.8789   -27.9388     8.2636     0.0602     0.1191   110.0386     2.4507     7.1674     7.8222   -33.6591
  227.0000     8.0991     8.0991     8.6455   -27.6195     8.2655     0.0716     0.1164   112.5981     2.4585     7.2198     7.8248   -32.9982
  227.5000     8.1636     8.1636     8.1327   -27.4488     8.2201     0.0535     0.1197   114.5564     2.4524     7.3238     7.8450   -32.4082
  228.0000     8.1720     8.1720     8.0826   -27.4266     8.1623     0.0582     0.1154   115.0207     2.4631     7.3263     7.8850   -32.4242
  228.5000     8.1241     8.1804     8.1483   -27.2559     8.1344     0.0523     0.1202   111.0326     2.4519     7.2775     7.8877   -32.7114
  229.0000     8.1325     8.0745     8.2695   -27.2337     8.1065     0.0562     0.1316   109.8659     2.4377     7.2297     7.8904   -32.5823
  229.5000     8.1409     7.9192     8.5092   -27.2140     8.0814     0.0820     0.1237   109.2945     2.4342     7.2552     7.8932   -32.1523
  230.0000     8.0911     7.8709     8.5174   -27.1895     8.0685     0.0609     0.1177   107.9790     2.4560     7.2857     7.8959   -32.0060
  230.5000     7.9905     7.8268     8.1798   -27.4645     8.1752     0.0504     0.1218   105.7706     2.4486     7.2882     7.8987   -32.1007
  231.0000     7.8348     7.7275     7.8555   -27.8881     8.2367     0.0596     0.1188   104.1575     2.4570     7.2402     7.9018   -32.3508
  231.5000     7.7354     7.6802     7.6472   -28.3118     8.2685     0.0514     0.1100   103.8777     2.4850     7.1926     7.9042   -32.4012
  232.0000     7.6898     7.6369     7.4479   -28.2896     8.2853     0.0363     0.1157   108.0741     2.4678     7.1447     7.9074   -32.5296
  232.5000     7.5922     7.5400     7.4021   -28.2675     8.2873     0.0319     0.1192   110.0324     2.4551     7.0487     7.9097   -32.5120
  233.0000     7.6003     7.4959     7.4623   -28.2453     8.2892     0.0290     0.1255   108.8657     2.4364     7.0023     7.9124   -32.6440
  233.5000     7.6082     7.4521     7.6785   -28.2232     8.2911     0.0321     0.1219   106.5086     2.4441     6.9569     7.9152   -32.6264
  234.0000     7.6160     7.4600     7.7927   -28.7964     8.2931     0.0292     0.1197   104.8955     2.4525     6.9593     7.9183   -32.6088
  234.5000     7.6238     7.5193     7.5879   -29.3676     8.2950     0.0270     0.1251   104.3181     2.4405     6.9615     7.9211   -32.5912
  235.0000     7.6317     7.5271     7.4908   -29.3455     8.2969     0.0249     0.1229   109.2585     2.4414     6.9640     7.9792   -32.5735
  235.5000     7.6396     7.6396     7.4983   -29.6205     8.2989     0.0242     0.1217   114.3418     2.4454     7.0150     7.9819   -32.5559
  236.0000     7.8081     7.8615     7.7690   -29.7470     8.3004     0.0364     0.1250   117.3418     2.4386     7.0662     8.0404   -32.5383
  236.5000     8.0940     8.0899     8.1052   -29.8737     8.3028     0.0297     0.1234   118.1037     2.4410     7.1675     8.0994   -32.6703
  237.0000     8.3860     8.3284     8.3401   -29.8513     8.2898     0.0268     0.1201   113.2227     2.4494     7.2702     8.1588   -32.6527
  237.5000     8.5717     8.5128     8.5227   -29.8291     8.2917     0.0216     0.1242   109.0799     2.4428     7.3743     8.2186   -32.7875
  238.0000     8.8157     8.7012     8.6495   -29.8068     8.2937     0.0164     0.1260   107.9132     2.4339     7.4800     8.2789   -32.9169
  238.5000     8.8248     8.8248     8.9001   -29.7845     8.2956     0.0142     0.1217   110.1691     2.4423     7.5389     8.3396   -32.8982
  239.0000     8.8339     8.7728     9.0823   -29.7623     8.2975     0.0204     0.1214   112.5738     2.4499     7.5898     8.3423   -32.8802
  239.5000     8.8431     8.7113     9.3601   -29.7400     8.2991     0.0213     0.1241   113.9369     2.4455     7.5924     8.3454   -32.8640
  240.0000     8.7327     8.6108     8.9891   -29.4007     8.3014     0.0229     0.1165   112.6214     2.4440     7.5424     8.2903   -32.9961
  240.5000     8.6196     8.4452     8.6926   -29.0535     8.3033     0.0586     0.1062   110.1155     2.4842     7.4928     8.1784   -32.9760
  241.0000     8.3958     8.1672     8.4641   -28.4844     8.3053     0.0610     0.0993   108.8000     2.5197     7.4436     8.1016   -32.9608
  241.5000     8.1194     7.9510     8.0172   -28.0120     8.3072     0.0482     0.1043   108.3714     2.5092     7.2933     7.9594   -33.1159
  242.0000     7.8521     7.6912     7.8604   -27.8413     8.3091     0.0475     0.1037   110.0380     2.5070     7.1952     7.8828   -33.2250
  242.5000     7.5413     7.4895     7.7049   -27.5219     8.2957     0.0514     0.1060   108.5737     2.4997     7.0979     7.7985   -33.2329
  243.0000     7.4456     7.3417     7.4526   -27.2026     8.2981     0.0349     0.1153   107.2582     2.4659     7.0512     7.7460   -33.3379
  243.5000     7.4001     7.3511     7.4067   -26.8833     8.2851     0.0365     0.1186   106.6808     2.4525     7.0048     7.6978   -33.1677
  244.0000     7.3568     7.3587     7.4156   -26.5640     8.2871     0.0381     0.1141   107.3058     2.4610     6.9588     7.7005   -33.1902
  244.5000     7.4687     7.3663     7.4227   -26.5419     8.2890     0.0337     0.1212   108.9665     2.4475     6.9136     7.7037   -33.2814
  245.0000     7.5281     7.3739     7.5331   -26.5197     8.2909     0.0330     0.1206   111.0736     2.4453     6.9642     7.7063   -33.2635
  245.5000     7.5881     7.4840     7.6452   -26.4976     8.3078     0.0339     0.1181   113.9248     2.4560     6.9666     7.7624   -33.2946
  246.0000     7.7548     7.5959     7.8667   -26.4754     8.3097     0.0363     0.1172   115.7343     2.4524     7.0175     7.8198   -33.4811
  246.5000     7.8706     7.7094     8.0947   -26.6074     8.2968     0.0371     0.1211   117.0974     2.4487     7.1180     7.8771   -33.7682
  247.0000     7.9333     7.7707     8.3292   -27.3227     8.2987     0.0297     0.1204   114.7402     2.4481     7.1701     7.9903   -34.1130
  247.5000     8.0518     7.8868     8.5116   -28.4892     8.3006     0.0260     0.1240   110.2997     2.4377     7.2728     8.0489   -34.4923
  248.0000     8.1721     8.0601     8.5788   -28.7698     8.3026     0.0246     0.1270   106.1568     2.4295     7.3259     8.1079   -34.5260
