~VERSION INFORMATION
 VERS.                2.0:   CWLS LOG ASCII STANDARD - VERSION 2.0
 WRAP.                 NO:   ONE LINE PER DEPTH STEP
~WELL INFORMATION
#MNEM.UNIT      DATA TYPE    INFORMATION
#----------   ------------   ------------------------------
 STRT.F           30.0000:   START DEPTH
 STOP.F          677.0000:   STOP DEPTH
 STEP.F            0.5000:   STEP LENGTH
 NULL.          -999.2500:   NO VALUE
 COMP. FENIX & SCISSON INC:   COMPANY
 WELL. TEAPOT DOME #27 SX -2:   WELL
 FLD .             TEAPOT:   FIELD
 LOC .       S2 T38N R78W:   LOCATION
 CNTY.            NATRONA:   COUNTY
 STAT.            WYOMING:   STATE
 CTRY. UNITED STATES OF AMERICA:   COUNTRY
 SRVC.            Unknown:   SERVICE COMPANY
 DATE.        28-JAN-1978:   LOGDATE
 API .       490251056500:   API NUMBER
~CURVE INFORMATION
#MNEM.UNIT       API CODE    CURVE DESCRIPTION
#----------   ------------   ------------------------------
 DEPT.F                  :   
 ILD .OHMM   05 120 46 00:   INDUCTION LOG DEEP
 SN  .OHMM   05 040 16 00:   SHORT NORMAL 16"
 SPR .MV     05 010 01 00:   SPONTANEOUS POTENSIAL
 CALD.IN     45 280 60 00:   CALIPER FROM DENSITY LOG
 CORR.G/C3   45 356 01 00:   DENSITY CORRECTION
 DPHI.DEC    45 890 12 00:   DENSITY POROSITY SANDSTONE
 GRD .GAPI   45 310 01 00:   GAMMA RAY FROM DENSITY LOG
 RHOB.G/C3   45 350 01 00:   BULK DENSITY
~PARAMETER INFORMATION
#MNEM.UNIT          VALUE    DESCRIPTION
#----------   ------------   ------------------------------
 PD  .                 GL:   PERMANENT DATUM
 EPD .F              5147:   ELEVATION PERMANENT DATUM
 LMF .                 KB:   LOG MEASURED FROM
 DAPD.F                 4:   FEET ABOVE PERMANENT DATUM
 DMF .                 KB:   DRILLING MEASURED FROM
 EKB .F              5151:   KELLING BUSHING
 EGL .F              5147:   GROUND LEVEL
 DATE.        28-JAN-1978:   RUN DATE
 RUN .                  1:   RUN NUMBER
 DD  .F               675:   DEPTH DRILLER
 DL  .F               678:   DEPTH LOGGER
 BLI .F               677:   BOTTOM LOG INTERVAL
 TLI .F                40:   TOP LOG INTERVAL
 CS  .IN            8.625:   CASING SIZE
 CBD .F                40:   CASING BOTTOM DRILLER
 CBL .F                40:   CASING BOTTOM LOGGER
 BS  .IN            7.875:   BIT SIZE
 BSD .F               675:   BIT SIZE AT DEPTH
 DFT .                KCL:   DRILLING FLUID TYPE
 DFD .                8.6:   DRILLING FLUID DENSITY
 DFV .                .34:   DRILLING FLUID VISCOSITY
 DFPH.                9.5:   DRILLING FLUID PH
 MSS .           FLOWLINE:   MUD SAMPLE SOURCE
 RMS .OHMM           0.38:   RESISTIVITY MUD SAMPLE
 MST .F                60:   MUD SAMPLE TEMPERATURE
 RMF .OHMM           0.36:   RESISTIVITY MUD FILTRATE SAMPLE
 MFST.F                62:   MUD FILTRATE SAMPLE TEMPERATURE
 RMC .OHMM            0.7:   RESISTIVITY MUD CAKE
 MCST.F                63:   MUD CAKE SAMPLE TEMPERATURE
 MFSS.               MEAS:   MUD FILTRATE SAMPLE SOURCE
 MCSS.               MEAS:   MUD CAKE SAMPLE SOURCE
 RMB .OHMM           0.31:   RESISTIVITY MUD AT BHT
 BHT .F                76:   BOTTOM HOLE TEMPERATURE
 TCS .HRS               3:   TIME CURCULATED STOPPED
 MRT .F                76:   MAXIMUM RECORDED TEMPERATURE
 LUN .               2958:   LOGGING UNIT NUMBER
 LUL .             CASPER:   LOGGING UNIT LOCATION
 ENGI.           REYNOLDS:   RECORDING ENGINEER
 WITN.     MR. HARRINGTON:   WITNESSED BY
 CLNT.            A2DTECH:   CLIENT CODE
 ORIG.           5" PRINT:   ORIGIN OF DATA
 UWI .       490251056500:   UNIQUE WELL ID
 DICO. A2D Technologies, Inc.:   DIGITIZING COMPANY
~OTHER INFORMATION
~A   DEPT      ILD         SN        SPR       CALD       CORR       DPHI        GRD       RHOB   
# ...
  273.0000     8.6700     8.3305   -68.2306     8.6349     0.0568     0.1070   107.4509     2.4947
  273.5000     8.6841     8.3374   -68.0640     8.6377     0.0552     0.1064   106.8818     2.4859
  274.0000     8.7534     8.3443   -68.0469     8.6397     0.0497     0.1076   104.8335     2.4836
  274.5000     8.8136     8.2936   -68.0298     8.6423     0.0513     0.1087   105.4535     2.4822
  275.0000     8.8223     8.2438   -68.0084     8.6445     0.0530     0.1087   105.7721     2.4809
  275.5000     8.8298     8.1378   -67.9913     8.6468     0.0502     0.1083   105.9427     2.4810
  276.0000     8.8374     8.1462   -68.1279     8.6343     0.0444     0.1077   106.1133     2.4819
  276.5000     8.8451     8.1530   -68.1065     8.6371     0.0656     0.1070   104.2086     2.4820
  277.0000     8.7920     8.1597   -68.2392     8.6394     0.0702     0.1109   103.6495     2.4769
  277.5000     8.8014     8.2229   -68.2212     8.6268     0.0704     0.1144   103.2283     2.4657
  278.0000     8.8081     8.2297   -68.0508     8.6291     0.0690     0.1066   104.1386     2.4853
  278.5000     8.8774     8.2934   -68.0337     8.6314     0.0678     0.1048   105.3447     2.4899
  279.0000     8.8851     8.1868   -68.0166     8.6342     0.0679     0.1018   105.3674     2.4952
  279.5000     8.8318     8.1952   -67.9995     8.6365     0.0712     0.1030   105.8476     2.4944
  280.0000     8.7788     8.1441   -67.9821     8.6373     0.0818     0.1073   106.7497     2.4887
  280.5000     8.6663     8.0962   -67.9609     8.6383     0.0850     0.1079   107.0626     2.4798
  281.0000     8.5552     7.9925   -67.9438     8.6392     0.0792     0.1076   106.0554     2.4837
  281.5000     8.4456     7.9442   -68.0762     8.6402     0.0733     0.1051   104.7467     2.4905
  282.0000     8.3374     7.8963   -68.0590     8.6411     0.0659     0.1063   104.4734     2.4838
  282.5000     8.2323     7.9034   -68.0419     8.6421     0.0617     0.1102   104.8151     2.4728
  283.0000     8.1829     7.9110   -68.0205     8.6431     0.0634     0.1116   105.1162     2.4714
  283.5000     8.0798     7.9175   -68.0034     8.6440     0.0606     0.1121   105.4348     2.4715
  284.0000     8.0868     7.8697   -67.9863     8.6450     0.0592     0.1121   105.6054     2.4716
  284.5000     8.0937     7.8763   -68.1229     8.6459     0.0549     0.1118   105.6280     2.4717
  285.0000     8.1007     7.8287   -68.1015     8.6477     0.0504     0.1108   105.9566     2.4726
  285.5000     8.1636     7.8909   -68.0837     8.6499     0.0448     0.1108   107.3006     2.4719
  286.0000     8.1708     7.9607   -67.9135     8.6522     0.0434     0.1146   105.1100     2.4645
  286.5000     8.2345     8.0135   -67.8964     8.6545     0.0482     0.1185   104.5353     2.4602
  287.0000     8.2999     8.0756   -67.7298     8.6573     0.0543     0.1205   104.5636     2.4550
  287.5000     8.3643     8.1381   -67.5632     8.6596     0.0560     0.1178   105.3259     2.4612
  288.0000     8.4875     8.2013   -67.5456     8.6619     0.0562     0.1156   106.0882     2.4665
  288.5000     8.6125     8.2096   -67.3752     8.6788     0.0548     0.1135   104.3357     2.4703
  289.0000     8.7403     8.2731   -67.5118     8.6812     0.0535     0.1126   107.9144     2.4674
  289.5000     8.9311     8.2215   -67.4904     8.6687     0.0507     0.1137   109.4163     2.4615
  290.0000     9.0005     8.2300   -67.7722     8.6715     0.0449     0.1143   109.7349     2.4736
  290.5000     9.0704     8.2368   -67.7549     8.6738     0.0330     0.1098   107.6865     2.4797
  291.0000     9.0782     8.2438   -67.5842     8.6761     0.0363     0.1067   105.4685     2.4828
  291.5000     9.0218     8.2521   -67.4176     8.6630     0.0560     0.1058   104.4831     2.4627
  292.0000     8.9695     8.2006   -67.4005     8.6658     0.0666     0.1163   103.6182     2.4755
  292.5000     8.9776     8.1511   -67.5371     8.6533     0.0668     0.1096   103.9367     2.4831
  293.0000     8.9870     8.1595   -67.3662     8.6407     0.0685     0.1066   104.1073     2.4871
  293.5000     8.9311     8.1663   -67.3448     8.6436     0.0687     0.1047   104.5794     2.4900
  294.0000     8.9407     8.1732   -67.3277     8.6458     0.0689     0.1062   106.5252     2.4872
  294.5000     8.9484     8.1815   -67.3106     8.6481     0.0690     0.1064   106.6958     2.4865
  295.0000     8.9561     8.1883   -67.4472     8.6504     0.0692     0.1052   106.5648     2.5008
  295.5000     9.0259     8.1950   -67.5755     8.6527     0.0724     0.0998   106.7411     2.5047
  296.0000     9.0354     8.2018   -67.5356     8.6555     0.0831     0.1042   107.5034     2.4913
  296.5000     9.0432     8.2086   -67.3873     8.6578     0.0894     0.1078   107.8225     2.4795
  297.0000     9.0510     8.2155   -67.2207     8.6601     0.0925     0.1086   107.6967     2.4803
  297.5000     9.0588     8.2239   -66.9046     8.6623     0.0836     0.1020   106.5416     2.4972
  298.0000     9.0666     8.2307   -66.8875     8.6646     0.0718     0.0975   105.0793     2.5082
  298.5000     9.0760     8.2375   -66.7060     8.6670     0.0629     0.1028   105.4035     2.4844
  299.0000     9.2100     8.2443   -66.5500     8.6697     0.0631     0.1078   105.7220     2.4815
  299.5000     9.2815     8.3082   -66.5329     8.6720     0.0601     0.1072   106.2125     2.4816
  300.0000     9.4832     8.4303   -66.6652     8.6743     0.0590     0.1066   108.4357     2.4877
  300.5000     9.6892     8.5640   -66.6481     8.6616     0.0607     0.1048   108.1625     2.4908
  301.0000     9.7645     8.7418   -66.7805     8.6492     0.0609     0.1056   107.0018     2.4856
  301.5000     9.9083     8.7490   -66.7591     8.6366     0.0595     0.1086   105.8804     2.4820
  302.0000     9.9867     8.8776   -66.5853     8.6588     0.0582     0.1036   105.1254     2.4963
  302.5000    10.1337     9.1330   -66.7077     8.6699     0.0539     0.0971   104.7041     2.4964
  303.0000    10.3539     9.2673   -66.9850     8.6810     0.0541     0.0989   102.9572     2.4981
  303.5000    10.5064     9.4116   -67.1076     8.6921     0.0527     0.1036   101.2046     2.4915
  304.0000    10.5956     9.5438   -67.0852     8.7032     0.0500     0.1000   100.0437     2.4916
  304.5000    10.8204     9.6841   -67.0586     8.7091     0.0486     0.0988    98.8828     2.4932
  305.0000    10.9797     9.8264   -66.8875     8.7112     0.0503     0.1038    95.9467     2.4933
  305.5000    11.1414    10.0398   -66.5668     8.7133     0.0548     0.1118    96.7146     2.4762
  306.0000    11.3835    10.1175   -66.5451     8.7160     0.0580     0.1109    96.7371     2.4763
  306.5000    11.6308    10.1260   -66.5235     8.7033     0.0627     0.1106    96.9076     2.4764
  307.0000    11.8878    10.1363   -66.5018     8.7054     0.0703     0.1096    96.7766     2.4765
  307.5000    12.2282    10.2148   -66.4798     8.7075     0.0765     0.1093    96.6568     2.4774
  308.0000    12.4939    10.2939   -66.6079     8.7096     0.0782     0.1092    96.6850     2.4767
  308.5000    12.5910    10.3736   -66.7303     8.7087     0.0828     0.1098    95.8199     2.4754
  309.0000    12.5154    10.4539   -66.5591     8.7068     0.0980     0.1107    93.7715     2.4680
  309.5000    12.5262    10.4626   -66.5374     8.7050     0.1116     0.1133    92.3147     2.4658
  310.0000    12.5370    10.4733   -66.5157     8.7031     0.1195     0.1130    91.7456     2.4697
  310.5000    12.5482    10.4820   -66.4753     8.7012     0.1225     0.1120    91.4723     2.4721
  311.0000    12.5612    10.3451   -66.4714     8.6993     0.1181     0.1111    92.0921     2.4737
  311.5000    12.4003    10.2142   -66.3005     8.6975     0.1153     0.1102    92.7064     2.4745
  312.0000    12.3259    10.1522   -66.2741     8.6956     0.1125     0.1092    92.8769     2.4761
  312.5000    12.1679    10.0220   -66.5514     8.6937     0.1110     0.1125    92.8994     2.4740
  313.0000    12.0948     9.9615   -66.5297     8.6918     0.1068     0.1127    92.4838     2.4719
