~VERSION INFORMATION
 VERS.                2.0:   CWLS LOG ASCII STANDARD - VERSION 2.0
 WRAP.                 NO:   ONE LINE PER DEPTH STEP
~WELL INFORMATION
#MNEM.UNIT      DATA TYPE    INFORMATION
#----------   ------------   ------------------------------
 STRT.F            0.0000:   START DEPTH
 STOP.F          547.0000:   STOP DEPTH
 STEP.F            0.1000:   STEP LENGTH
 NULL.          -999.2500:   NO VALUE
 COMP.       F D SERV INC:   COMPANY
 WELL.    87-5 SX 3 #87-3:   WELL
 FLD .             TEAPOT:   FIELD
 LOC .       S3 T38N R78W:   LOCATION
 CNTY.            NATRONA:   COUNTY
 STAT.            WYOMING:   STATE
 CTRY. UNITED STATES OF AMERICA:   COUNTRY
 SRVC.     Atlas Wireline:   SERVICE COMPANY
 DATE.        31-OCT-1992:   LOGDATE
 API .       490252254800:   API NUMBER
~CURVE INFORMATION
#MNEM.UNIT       API CODE    CURVE DESCRIPTION
#----------   ------------   ------------------------------
 DEPT.F                  :   
 GRR .GAPI   07 310 01 00:   GAMMA RAY
 RILD.OHMM   07 120 46 00:   INDUCTION LOG DEEP RESISTIVITY
 RILM.OHMM   07 120 44 00:   INDUCTION LOG MEDIUM RESISTIVITY
~PARAMETER INFORMATION
#MNEM.UNIT          VALUE    DESCRIPTION
#----------   ------------   ------------------------------
 PD  .                 GL:   PERMANENT DATUM
 EPD .F              5119:   ELEVATION PERMANENT DATUM
 LMF .                 KB:   LOG MEASURED FROM
 DAPD.F                10:   FEET ABOVE PERMANENT DATUM
 DMF .                 KB:   DRILLING MEASURED FROM
 EKB .F              5129:   KELLING BUSHING
 EDF .F              5128:   DRILLING FLOOR
 EGL .F              5119:   GROUND LEVEL
 DATE.        31-OCT-1992:   RUN DATE
 RUN .                  1:   RUN NUMBER
 DD  .F               568:   DEPTH DRILLER
 DL  .F               555:   DEPTH LOGGER
 BLI .F               547:   BOTTOM LOG INTERVAL
 TLI .F                71:   TOP LOG INTERVAL
 CS  .IN            8.625:   CASING SIZE
 CBD .F                70:   CASING BOTTOM DRILLER
 CBL .F                71:   CASING BOTTOM LOGGER
 BS  .IN            7.875:   BIT SIZE
 BSD .F               568:   BIT SIZE AT DEPTH
 DFT .           AIR FOAM:   DRILLING FLUID TYPE
 TCS .HRS               2:   TIME CURCULATED STOPPED
 MRT .F                64:   MAXIMUM RECORDED TEMPERATURE
 LUN .            HL-6274:   LOGGING UNIT NUMBER
 LUL .             CASPER:   LOGGING UNIT LOCATION
 ENGI.        P.RASHUSSEN:   RECORDING ENGINEER
 WITN.     BRUCE ANDERSON:   WITNESSED BY
 CLNT.            A2DTECH:   CLIENT CODE
 ORIG.           5" PRINT:   ORIGIN OF DATA
 UWI .       490252254800:   UNIQUE WELL ID
 DICO. A2D Technologies, Inc.:   DIGITIZING COMPANY
~OTHER INFORMATION
~A    DEPT      GRR      RILD       RILM   
# ...
  345.8000   136.5204    12.5246    12.2389
  345.9000   134.9510    12.7576    12.3825
  346.0000   133.1794    13.0672    12.4833
  346.1000   131.4077    13.2904    12.4833
  346.2000   129.6360    13.5858    12.4833
  346.3000   126.9035    13.9058    12.6840
  346.4000   124.2715    14.2645    13.0169
  346.5000   121.2868    14.7001    13.4434
  346.6000   118.0999    15.2352    14.0294
  346.7000   114.6586    15.5851    14.8572
  346.8000   112.6337    15.8803    15.7183
  346.9000   111.1152    16.1600    16.6863
  347.0000   109.3942    16.4811    17.2649
  347.1000   107.4708    16.8686    17.8404
  347.2000   105.2440    17.2740    18.6203
  347.3000   102.7137    17.6726    19.4432
  347.4000   100.1833    18.0894    19.9303
  347.5000    98.6649    18.4524    20.2608
  347.6000    97.3485    18.7352    20.6187
  347.7000    96.0827    18.9747    20.9827
  347.8000    94.2100    19.3143    21.3969
  347.9000    91.6290    19.7622    21.8818
  348.0000    89.8574    20.2282    22.2862
  348.1000    87.4280    20.6336    22.6614
  348.2000    85.6063    21.0448    22.9598
  348.3000    83.6325    21.4922    23.3057
  348.4000    81.5575    21.7467    23.6163
  348.5000    78.9259    22.2535    23.7773
  348.6000    75.8895    22.6732    24.0654
  348.7000    73.6122    23.0726    24.3386
  348.8000    71.3347    23.3714    24.4039
  348.9000    69.5125    23.5341    24.5679
  349.0000    68.3986    23.8115    24.8014
  349.1000    67.9930    24.0884    24.9465
  349.2000    68.2950    24.2580    25.0951
  349.3000    68.2938    24.3996    25.2392
  349.4000    68.4949    24.5419    25.3869
  349.5000    68.5948    24.6569    25.5354
  349.6000    68.6948    24.6569    25.6264
  349.7000    69.0477    24.8004    25.6264
  349.8000    69.8053    25.1789    25.6264
  349.9000    70.5626    25.4434    25.6264
  350.0000    71.7247    25.5919    25.5075
  350.1000    73.2915    25.7412    25.3591
  350.2000    75.8689    25.8911    25.2117
  350.3000    79.0519    25.8911    25.0951
  350.4000    79.8083    26.0125    25.0951
  350.5000    80.8172    26.1643    25.0951
  350.6000    81.6242    26.3170    25.0951
  350.7000    82.3805    26.5024    25.0951
  350.8000    83.0357    26.8114    25.0951
  350.9000    83.6402    26.9981    25.1276
  351.0000    84.6495    26.9981    25.2781
  351.1000    85.5570    27.0940    25.6264
  351.2000    86.3645    27.2521    25.7504
  351.3000    87.2218    27.4450    25.8060
  351.4000    88.0792    27.7622    25.9371
  351.5000    89.0884    27.7622    26.2049
  351.6000    90.0977    27.8939    26.3581
  351.7000    91.6127    28.0567    26.5369
  351.8000    92.1161    28.2205    26.7992
  351.9000    91.9114    28.3851    27.1138
  352.0000    91.3019    28.5480    27.5043
  352.1000    90.5914    28.5480    27.9070
  352.2000    90.0832    28.6842    28.0789
  352.3000    89.3221    28.8516    28.4562
  352.4000    88.5609    29.0200    28.7421
  352.5000    87.3445    29.1519    29.3058
  352.6000    85.8245    29.1554    29.7538
  352.7000    84.3046    29.3560    29.9744
  352.8000    82.7846    29.3560    30.3138
  352.9000    80.6575    29.3560    30.5142
  353.0000    79.2393    29.3560    30.8261
  353.1000    77.7700    29.3560    31.0652
  353.2000    76.5030    29.3560    31.2469
  353.3000    75.1854    29.3560    31.4812
  353.4000    73.6655    29.3560    31.8198
  353.5000    71.8417    29.4635    31.8198
  353.6000    71.0303    29.5615    31.8198
  353.7000    70.1680    29.5615    31.8198
  353.8000    69.4069    29.5668    31.7292
  353.9000    68.5953    29.7685    31.5446
  354.0000    67.5812    29.7685    31.3437
  354.1000    66.3643    29.8784    30.9434
  354.2000    65.7553    29.9770    30.6213
  354.3000    65.1459    29.9770    30.2663
  354.4000    64.6376    29.9831    29.9152
  354.5000    64.2307    30.1869    29.5681
  354.6000    64.2282    30.1869    29.2249
  354.7000    64.2258    30.1869    28.8564
  354.8000    64.2234    30.1869    28.4001
  354.9000    64.5245    30.1869    28.1406
  355.0000    64.9267    30.1869    27.9769
  355.1000    65.3796    30.1869    27.8142
  355.2000    66.6423    30.0396    27.6523
  355.3000    71.1910    29.9770    27.4798
  355.4000    73.8202    29.9000    27.4798
  355.5000    77.4088    29.7685    27.4798
  355.6000    80.7949    29.7685    27.5655
  355.7000    83.2203    29.7685    27.6723
  355.8000    84.2296    29.7685    27.6949
  355.9000    85.4405    29.7685    27.8662
  356.0000    86.4502    29.7685    27.8662
  356.1000    87.4088    29.8117    27.9877
  356.2000    88.1651    29.9770    28.0615
  356.3000    88.8708    29.9770    28.1191
  356.4000    89.3742    29.9770    28.2582
  356.5000    89.6246    29.9770    28.2582
  356.6000    89.6728    29.9770    28.4163
  356.7000    89.6704    29.9329    28.4562
  356.8000    89.4657    29.7685    28.4562
  356.9000    88.9069    29.7685    28.3958
  357.0000    88.1457    29.7685    28.2306
  357.1000    87.2323    29.6552    28.0615
  357.2000    86.6235    29.4832    27.9032
  357.3000    85.7107    29.3560    27.7410
  357.4000    84.8988    29.3459    27.4876
  357.5000    84.2894    29.1519    27.2886
  357.6000    83.2753    29.0064    27.2886
  357.7000    83.0199    28.8382    27.2886
  357.8000    82.5623    28.7479    27.2886
  357.9000    82.2058    28.7479    27.2886
  358.0000    82.0516    28.7479    27.2886
  358.1000    82.0492    28.7479    27.3514
  358.2000    82.0467    28.7479    27.5114
  358.3000    82.0443    28.8597    27.6723
  358.4000    82.0419    29.0281    28.0615
  358.5000    82.0395    29.1975    28.0615
  358.6000    82.1382    29.3560    28.0615
  358.7000    82.4393    29.3560    28.1285
  358.8000    82.9426    29.5051    28.2930
  358.9000    83.1931    29.7940    28.4585
  359.0000    83.4436    30.0595    28.6556
  359.1000    83.8458    30.2349    28.7925
  359.2000    84.2480    30.4376    28.8564
  359.3000    84.4480    31.0412    28.9995
  359.4000    84.4455    31.1998    29.3395
  359.5000    85.0496    31.5060    29.6883
  359.6000    85.4523    31.8748    30.3019
  359.7000    86.1073    32.2478    30.4492
  359.8000    86.7625    32.6100    30.7414
  359.9000    89.0363    32.8232    31.6032
  360.0000    89.2868    32.9918    32.4026
  360.1000    89.8909    32.9227    32.7487
  360.2000    89.8889    32.9155    33.1287
  360.3000    89.7347    33.0531    33.5129
  360.4000    89.3782    33.0853    33.9014
  360.5000    88.6678    33.5176    34.2481
  360.6000    87.1478    33.6906    34.2441
  360.7000    85.8809    33.7523    34.6079
  360.8000    84.2092    33.8481    34.8638
  360.9000    82.5881    34.1029    35.0637
  361.0000    80.8658    34.4839    35.2647
  361.1000    79.0931    34.7076    35.4899
  361.2000    78.3319    34.7076    35.9384
  361.3000    77.5709    34.8474    36.1260
  361.4000    77.0121    35.0507    36.4840
  361.5000    76.6555    35.3156    36.9072
  361.6000    76.2990    35.7092    37.2678
  361.7000    75.8920    35.9398    37.5047
  361.8000    75.8895    36.3162    37.9808
  361.9000    75.8866    36.5927    38.1781
  362.0000    75.6823    36.9132    38.7147
  362.1000    75.7305    37.3451    39.1603
  362.2000    75.9810    37.7603    39.4546
  362.3000    76.2315    38.0030    39.9118
  362.4000    76.4820    38.4032    40.4206
  362.5000    77.0860    39.0125    40.4170
  362.6000    77.0841    39.6995    40.7442
  362.7000    77.0816    40.3983    41.2168
  362.8000    77.2817    41.0347    41.5497
  362.9000    77.7344    41.0347    41.5927
  363.0000    77.9848    41.2511    42.1253
  363.1000    77.9824    41.4919    42.1216
  363.2000    78.1822    41.6114    42.2883
  363.3000    78.2810    41.6114    42.4085
  363.4000    78.2786    41.6114    42.3324
  363.5000    78.2762    41.6114    42.0827
  363.6000    78.2737    41.6114    41.8077
  363.7000    78.2713    41.6114    41.5882
  363.8000    78.2689    41.4883    41.3431
  363.9000    78.8732    41.3220    40.8683
