~VERSION INFORMATION
 VERS.                2.0:   CWLS LOG ASCII STANDARD - VERSION 2.0
 WRAP.                 NO:   ONE LINE PER DEPTH STEP
~WELL INFORMATION
#MNEM.UNIT      DATA TYPE    INFORMATION
#----------   ------------   ------------------------------
 STRT.F            7.0000:   START DEPTH
 STOP.F          690.0000:   STOP DEPTH
 STEP.F            0.5000:   STEP LENGTH
 NULL.          -999.2500:   NO VALUE
 COMP. FENIX & SCISSON INC:   COMPANY
 WELL.  NPR#3 #26-46 SX11:   WELL
 FLD .             TEAPOT:   FIELD
 LOC .      S11 T38N R78W:   LOCATION
 CNTY.            NATRONA:   COUNTY
 STAT.            WYOMING:   STATE
 CTRY. UNITED STATES OF AMERICA:   COUNTRY
 SRVC.      Dresser Atlas:   SERVICE COMPANY
 DATE.        13-AUG-1985:   LOGDATE
 API .       490251083600:   API NUMBER
~CURVE INFORMATION
#MNEM.UNIT       API CODE    CURVE DESCRIPTION
#----------   ------------   ------------------------------
 DEPT.F                  :   
 DPHI.DEC    45 890 12 00:   DENSITY POROSITY SANDSTONE
 NPHI.DEC    42 890 03 00:   NEUTRON POROSITY SANDSTONE
 RHOB.G/C3   45 350 01 00:   BULK DENSITY
 CORR.G/C3   45 356 01 00:   DENSITY CORRECTION
 CALD.IN     45 280 60 00:   CALIPER
 SPR .MV     07 010 01 00:   SPONTANEOUS POTENTIAL
 ILD .OHMM   07 120 46 00:   INDUCTION LOG DEEP
 ILM .OHMM   07 120 44 00:   INDUCTION LOG MEDIUM
 SFL .OHMM   07 220 01 00:   SHALLOW FOCUSED LOG RESISTIVITY
 GRR .GAPI   07 310 01 00:   GAMMA RAY FROM RES. LOG.
~PARAMETER INFORMATION
#MNEM.UNIT          VALUE    DESCRIPTION
#----------   ------------   ------------------------------
 PD  .                 GL:   PERMANENT DATUM
 EPD .F              5193:   ELEVATION PERMANENT DATUM
 LMF .                 KB:   LOG MEASURED FROM
 DAPD.F                 5:   FEET ABOVE PERMANENT DATUM
 DMF .                 KB:   DRILLING MEASURED FROM
 EKB .F              5198:   KELLING BUSHING
 EGL .F              5193:   GROUND LEVEL
 DATE.          8-13-1985:   RUN DATE
 RUN .                  8:   RUN NUMBER
 DD  .F               664:   DEPTH DRILLER
 BLI .F               635:   BOTTOM LOG INTERVAL
 TLI .F               340:   TOP LOG INTERVAL
 CBL .F               340:   CASING BOTTOM LOGGER
 BS  .IN             8.75:   BIT SIZE
 BSD .F               664:   BIT SIZE AT DEPTH
 DFT .          KPC WATER:   DRILLING FLUID TYPE
 LUN .           HL- 6274:   LOGGING UNIT NUMBER
 LUL .           GILLETTE:   LOGGING UNIT LOCATION
 ENGI.             RAUTIO:   RECORDING ENGINEER
 WITN.            SCHULTE:   WITNESSED BY
 CLNT.            A2DTECH:   CLIENT CODE
 ORIG.        2" 5" PRINT:   ORIGIN OF DATA
 UWI .       490251083600:   UNIQUE WELL ID
 DICO. A2D Technologies, Inc.:   DIGITIZING COMPANY
~OTHER INFORMATION
~A    DEPT    DPHI       NPHI       RHOB       CORR       CALD         SPR       ILD        ILM        SFL        GRR   
# ...
   74.0000  -999.2500  -999.2500  -999.2500  -999.2500  -999.2500   -40.3603     2.9789     3.1419     4.9604    59.5605
   74.5000  -999.2500  -999.2500  -999.2500  -999.2500  -999.2500   -40.1727     3.3451     3.5616     5.8345    62.5628
   75.0000  -999.2500  -999.2500  -999.2500  -999.2500  -999.2500   -40.1591     3.7646     4.0373     6.7531    64.1709
   75.5000  -999.2500  -999.2500  -999.2500  -999.2500  -999.2500   -40.1430     4.2344     4.5767     6.4409    63.7655
   76.0000  -999.2500  -999.2500  -999.2500  -999.2500  -999.2500   -40.1268     4.8045     5.1880     6.1694    63.1614
   76.5000  -999.2500  -999.2500  -999.2500  -999.2500  -999.2500   -40.1105     5.1401     5.9369     5.9917    62.4875
   77.0000  -999.2500  -999.2500  -999.2500  -999.2500  -999.2500   -40.0942     5.5330     6.0223     6.1791    61.8030
   77.5000  -999.2500  -999.2500  -999.2500  -999.2500  -999.2500   -40.0779     5.9559     6.1161     6.4491    60.3193
   78.0000  -999.2500  -999.2500  -999.2500  -999.2500  -999.2500   -40.0616     6.2869     6.2164     6.7308    57.0205
   78.5000  -999.2500  -999.2500  -999.2500  -999.2500  -999.2500   -40.0453     6.5283     6.3767     7.0242    57.1835
   79.0000  -999.2500  -999.2500  -999.2500  -999.2500  -999.2500   -40.0290     6.7790     6.5503     7.3303    58.2703
   79.5000  -999.2500  -999.2500  -999.2500  -999.2500  -999.2500   -40.0129     6.9971     6.7281     7.4365    59.3279
   80.0000  -999.2500  -999.2500  -999.2500  -999.2500  -999.2500   -39.9970     7.1485     6.8942     7.4942    60.3436
   80.5000  -999.2500  -999.2500  -999.2500  -999.2500  -999.2500   -39.9777     7.3041     6.9757     7.5414    61.1999
   81.0000  -999.2500  -999.2500  -999.2500  -999.2500  -999.2500   -39.8755     7.3758     7.0596     7.5969    60.4672
   81.5000  -999.2500  -999.2500  -999.2500  -999.2500  -999.2500   -39.7687     7.4270     7.1442     7.6535    59.7079
   82.0000  -999.2500  -999.2500  -999.2500  -999.2500  -999.2500   -39.6623     7.4781     7.2299     7.7105    59.5483
   82.5000  -999.2500  -999.2500  -999.2500  -999.2500  -999.2500   -39.5560     7.5296     7.3166     7.7679    59.2167
   83.0000  -999.2500  -999.2500  -999.2500  -999.2500  -999.2500   -39.4496     7.5815     7.4044     7.7525    58.3811
   83.5000  -999.2500  -999.2500  -999.2500  -999.2500  -999.2500   -39.3433     7.6879     7.5154     7.8791    57.5582
   84.0000  -999.2500  -999.2500  -999.2500  -999.2500  -999.2500   -39.2370     7.8682     7.7022     8.0344    56.6955
   84.5000  -999.2500  -999.2500  -999.2500  -999.2500  -999.2500   -39.1307     8.0528     7.8937     8.1928    54.8924
   85.0000  -999.2500  -999.2500  -999.2500  -999.2500  -999.2500   -39.0244     8.2404     8.0899     8.3447    53.1080
   85.5000  -999.2500  -999.2500  -999.2500  -999.2500  -999.2500   -38.9180     8.4511     8.3073     8.6142    52.5064
   86.0000  -999.2500  -999.2500  -999.2500  -999.2500  -999.2500   -38.8117     8.6668     8.5334     8.8766    54.1761
   86.5000  -999.2500  -999.2500  -999.2500  -999.2500  -999.2500   -38.7054     8.8888     8.7656     9.1470    55.7835
   87.0000  -999.2500  -999.2500  -999.2500  -999.2500  -999.2500   -38.5991     9.1165     8.9821     9.5931    55.3615
   87.5000  -999.2500  -999.2500  -999.2500  -999.2500  -999.2500   -38.4923     9.2335     9.0277     9.7576    54.9436
   88.0000  -999.2500  -999.2500  -999.2500  -999.2500  -999.2500   -38.3816     9.2339     9.0696     9.4919    56.8745
   88.5000  -999.2500  -999.2500  -999.2500  -999.2500  -999.2500   -38.2796     9.2336     9.1118     9.5103    60.8312
   89.0000  -999.2500  -999.2500  -999.2500  -999.2500  -999.2500   -38.1733     9.2334     9.1541     9.5363    62.2861
   89.5000  -999.2500  -999.2500  -999.2500  -999.2500  -999.2500   -38.0671     9.2334     9.1967     9.5624    63.0365
   90.0000  -999.2500  -999.2500  -999.2500  -999.2500  -999.2500   -37.9851     9.2335     9.2640     9.6259    65.1383
   90.5000  -999.2500  -999.2500  -999.2500  -999.2500  -999.2500   -38.0753     9.3565     9.4870     9.7642    66.8755
   91.0000  -999.2500  -999.2500  -999.2500  -999.2500  -999.2500   -38.1639     9.5249     9.7153     9.9045    64.5418
   91.5000  -999.2500  -999.2500  -999.2500  -999.2500  -999.2500   -38.2513     9.6699     9.9491    10.0469    62.2634
   92.0000  -999.2500  -999.2500  -999.2500  -999.2500  -999.2500   -38.3412     9.8514    10.1886    10.1912    60.2615
   92.5000  -999.2500  -999.2500  -999.2500  -999.2500  -999.2500   -38.2356    10.0466    10.4338    10.3377    60.0770
   93.0000  -999.2500  -999.2500  -999.2500  -999.2500  -999.2500   -37.9951    10.2443    10.6849    10.4863    59.9673
   93.5000  -999.2500  -999.2500  -999.2500  -999.2500  -999.2500   -37.7526    10.4067    10.9420    10.6370    59.8516
   94.0000  -999.2500  -999.2500  -999.2500  -999.2500  -999.2500   -37.5101    10.1234    11.1408    10.6980    59.8303
   94.5000  -999.2500  -999.2500  -999.2500  -999.2500  -999.2500   -37.2663    10.5106    11.3494    10.1234    61.8996
   95.0000  -999.2500  -999.2500  -999.2500  -999.2500  -999.2500   -37.1275    11.1811    11.6216    10.7078    63.4073
   95.5000  -999.2500  -999.2500  -999.2500  -999.2500  -999.2500   -37.0498    11.4013    11.9584    11.3044    63.2669
   96.0000  -999.2500  -999.2500  -999.2500  -999.2500  -999.2500   -36.9673    11.5194    12.2812    12.7678    60.5447
   96.5000  -999.2500  -999.2500  -999.2500  -999.2500  -999.2500   -36.7547    11.6387    12.2812    13.5893    59.0962
   97.0000  -999.2500  -999.2500  -999.2500  -999.2500  -999.2500   -36.5407    11.7593    12.2812    13.7149    59.4462
   97.5000  -999.2500  -999.2500  -999.2500  -999.2500  -999.2500   -36.3288    11.8811    12.2812    11.3765    59.7544
   98.0000  -999.2500  -999.2500  -999.2500  -999.2500  -999.2500   -36.1750    11.9469    12.2812    10.5079    59.7967
   98.5000  -999.2500  -999.2500  -999.2500  -999.2500  -999.2500   -36.2056    10.7969    12.5032    11.0869    59.8292
   99.0000  -999.2500  -999.2500  -999.2500  -999.2500  -999.2500   -36.2324    11.6216    12.7411    11.7290    59.8626
   99.5000  -999.2500  -999.2500  -999.2500  -999.2500  -999.2500   -36.2591    11.4150    12.6447    11.6718    59.8955
  100.0000  -999.2500  -999.2500  -999.2500  -999.2500  -999.2500   -36.2856    11.2276    12.5550    11.5888    59.9244
  100.5000  -999.2500  -999.2500  -999.2500  -999.2500  -999.2500   -36.3121    11.0990    12.4070    11.5152    59.9669
  101.0000  -999.2500  -999.2500  -999.2500  -999.2500  -999.2500   -36.3384    11.1470    12.2059    11.5152    60.8810
  101.5000  -999.2500  -999.2500  -999.2500  -999.2500  -999.2500   -36.3610    11.2016    12.0082    11.5152    62.6957
  102.0000  -999.2500  -999.2500  -999.2500  -999.2500  -999.2500   -36.6298    11.1209    11.8093    11.3873    65.2509
  102.5000  -999.2500  -999.2500  -999.2500  -999.2500  -999.2500   -36.9845    10.9676    11.5838    11.2492    66.2351
  103.0000  -999.2500  -999.2500  -999.2500  -999.2500  -999.2500   -37.3367    10.8164    11.3625    11.1135    62.7969
  103.5000  -999.2500  -999.2500  -999.2500  -999.2500  -999.2500   -37.5790    10.6000    11.2289    10.9960    60.6158
  104.0000  -999.2500  -999.2500  -999.2500  -999.2500  -999.2500   -37.5746    10.6349    11.0980    10.9963    60.5467
  104.5000  -999.2500  -999.2500  -999.2500  -999.2500  -999.2500   -37.5753    10.6993    11.1521    10.9973    61.3086
  105.0000  -999.2500  -999.2500  -999.2500  -999.2500  -999.2500   -37.5751    10.7641    11.2492    10.9973    62.5323
  105.5000  -999.2500  -999.2500  -999.2500  -999.2500  -999.2500   -37.5751    10.8293    11.3475    10.9961    63.7528
  106.0000  -999.2500  -999.2500  -999.2500  -999.2500  -999.2500   -37.5751    10.8967    11.4097    11.0223    63.4849
  106.5000  -999.2500  -999.2500  -999.2500  -999.2500  -999.2500   -37.5748    10.5625    11.3646    11.0907    61.9192
  107.0000  -999.2500  -999.2500  -999.2500  -999.2500  -999.2500   -37.5765    10.2294    11.3317    11.1594    60.3741
