~VERSION INFORMATION
 VERS.                2.0:   CWLS LOG ASCII STANDARD - VERSION 2.0
 WRAP.                 NO:   ONE LINE PER DEPTH STEP
~WELL INFORMATION
#MNEM.UNIT      DATA TYPE    INFORMATION
#----------   ------------   ------------------------------
 STRT.F            0.0000:   START DEPTH
 STOP.F          612.5000:   STOP DEPTH
 STEP.F            0.5000:   STEP LENGTH
 NULL.          -999.2500:   NO VALUE
 COMP.   FLUOR DANIEL INC:   COMPANY
 WELL. NAVAL PETROLEUM RESERVE 3 SX-3 82 #2-3:   WELL
 FLD .             TEAPOT:   FIELD
 LOC .       S3 T38N R78W:   LOCATION
 CNTY.            NATRONA:   COUNTY
 STAT.            WYOMING:   STATE
 CTRY. UNITED STATES OF AMERICA:   COUNTRY
 SRVC.      Western Atlas:   SERVICE COMPANY
 DATE.        28-JUL-1995:   LOGDATE
 API .       490252274000:   API NUMBER
~CURVE INFORMATION
#MNEM.UNIT       API CODE    CURVE DESCRIPTION
#----------   ------------   ------------------------------
 DEPT.F                  :   
 GRR .GAPI   07 310 01 00:   GAMMA RAY FROM RES. LOG.
 RILD.OHMM   07 120 46 00:   INDUCTION LOG DEEP RESISTIVITY
 RILM.OHMM   07 120 44 00:   INDUCTION LOG MEDIUM RESISTIVITY
~PARAMETER INFORMATION
#MNEM.UNIT          VALUE    DESCRIPTION
#----------   ------------   ------------------------------
 PD  .                 GL:   PERMANENT DATUM
 EPD .F              5123:   ELEVATION PERMANENT DATUM
 LMF .                 KB:   LOG MEASURED FROM
 DAPD.F                10:   FEET ABOVE PERMANENT DATUM
 DMF .                 KB:   DRILLING MEASURED FROM
 EKB .F              5133:   KELLING BUSHING
 EDF .F              5132:   DRILLING FLOOR
 EGL .F              5123:   GROUND LEVEL
 DATE.            7-28-95:   RUN DATE
 RUN .                  1:   RUN NUMBER
 DD  .F               620:   DEPTH DRILLER
 DL  .F               620:   DEPTH LOGGER
 BLI .F               612:   BOTTOM LOG INTERVAL
 TLI .F                54:   TOP LOG INTERVAL
 CS  .IN            9.625:   CASING SIZE
 CBD .F                53:   CASING BOTTOM DRILLER
 CBL .F                54:   CASING BOTTOM LOGGER
 BS  .IN             8.75:   BIT SIZE
 BSD .F               620:   BIT SIZE AT DEPTH
 DFT .                AIR:   DRILLING FLUID TYPE
 BHT .F                91:   BOTTOM HOLE TEMPERATURE
 MRT .F                91:   MAXIMUM RECORDED TEMPERATURE
 LUN .            HL 6530:   LOGGING UNIT NUMBER
 LUL .             CASPER:   LOGGING UNIT LOCATION
 ENGI.          RASMUSSEN:   RECORDING ENGINEER
 WITN.              HARDY:   WITNESSED BY
 CLNT.            A2DTECH:   CLIENT CODE
 ORIG.       2", 5" PRINT:   ORIGIN OF DATA
 UWI .       490252274000:   UNIQUE WELL ID
 DICO. A2D Technologies, Inc.:   DIGITIZING COMPANY
~OTHER INFORMATION
~A    DEPT      GRR      RILD       RILM   
    0.0000    12.6506  -999.2500  -999.2500
    0.5000    11.3998  -999.2500  -999.2500
    1.0000    12.2005  -999.2500  -999.2500
    1.5000    15.5405  -999.2500  -999.2500
    2.0000    18.2023  -999.2500  -999.2500
    2.5000    18.4951  -999.2500  -999.2500
    3.0000    14.3625  -999.2500  -999.2500
    3.5000     9.9201  -999.2500  -999.2500
    4.0000     8.1306  -999.2500  -999.2500
    4.5000     8.3603  -999.2500  -999.2500
    5.0000     9.1244  -999.2500  -999.2500
    5.5000     9.8276  -999.2500  -999.2500
    6.0000     9.8595  -999.2500  -999.2500
    6.5000     9.1679  -999.2500  -999.2500
    7.0000     8.7901  -999.2500  -999.2500
    7.5000     9.1030  -999.2500  -999.2500
    8.0000     9.4132  -999.2500  -999.2500
    8.5000     9.7153  -999.2500  -999.2500
    9.0000    10.8370  -999.2500  -999.2500
    9.5000    13.6598  -999.2500  -999.2500
   10.0000    19.4928  -999.2500  -999.2500
   10.5000    26.8025  -999.2500  -999.2500
   11.0000    34.0961  -999.2500  -999.2500
   11.5000    41.1819  -999.2500  -999.2500
   12.0000    47.8880  -999.2500  -999.2500
   12.5000    53.7352  -999.2500  -999.2500
   13.0000    58.7641  -999.2500  -999.2500
   13.5000    61.3982  -999.2500  -999.2500
   14.0000    61.2048  -999.2500  -999.2500
   14.5000    59.9251  -999.2500  -999.2500
   15.0000    58.5977  -999.2500  -999.2500
   15.5000    58.8120  -999.2500  -999.2500
   16.0000    60.5698  -999.2500  -999.2500
   16.5000    63.2657  -999.2500  -999.2500
   17.0000    64.4389  -999.2500  -999.2500
   17.5000    62.3919  -999.2500  -999.2500
   18.0000    60.7140  -999.2500  -999.2500
   18.5000    61.1704  -999.2500  -999.2500
   19.0000    63.1790  -999.2500  -999.2500
   19.5000    64.8268  -999.2500  -999.2500
   20.0000    63.7465  -999.2500  -999.2500
   20.5000    61.1976  -999.2500  -999.2500
   21.0000    59.8395  -999.2500  -999.2500
   21.5000    59.7729  -999.2500  -999.2500
   22.0000    59.9465  -999.2500  -999.2500
   22.5000    61.2032  -999.2500  -999.2500
   23.0000    63.0921  -999.2500  -999.2500
   23.5000    64.9865  -999.2500  -999.2500
   24.0000    66.8450  -999.2500  -999.2500
   24.5000    65.1177  -999.2500  -999.2500
   25.0000    62.7240  -999.2500  -999.2500
   25.5000    61.2651  -999.2500  -999.2500
   26.0000    62.4088  -999.2500  -999.2500
   26.5000    63.5828  -999.2500  -999.2500
   27.0000    63.7509  -999.2500  -999.2500
   27.5000    62.0887  -999.2500  -999.2500
   28.0000    60.4962  -999.2500  -999.2500
   28.5000    60.8673  -999.2500  -999.2500
   29.0000    61.4875  -999.2500  -999.2500
   29.5000    62.8261  -999.2500  -999.2500
   30.0000    64.1971  -999.2500  -999.2500
   30.5000    64.0308  -999.2500  -999.2500
   31.0000    63.4925  -999.2500  -999.2500
   31.5000    63.7819  -999.2500  -999.2500
   32.0000    64.6930  -999.2500  -999.2500
   32.5000    64.2614  -999.2500  -999.2500
   33.0000    62.7405  -999.2500  -999.2500
   33.5000    61.0127  -999.2500  -999.2500
   34.0000    59.8803  -999.2500  -999.2500
   34.5000    59.6717  -999.2500  -999.2500
   35.0000    58.5451  -999.2500  -999.2500
   35.5000    56.7202  -999.2500  -999.2500
   36.0000    53.4232  -999.2500  -999.2500
   36.5000    51.3886  -999.2500  -999.2500
   37.0000    52.3721  -999.2500  -999.2500
   37.5000    55.4937  -999.2500  -999.2500
   38.0000    60.3284  -999.2500  -999.2500
   38.5000    63.9849  -999.2500  -999.2500
   39.0000    65.6246  -999.2500  -999.2500
   39.5000    65.4558  -999.2500  -999.2500
   40.0000    65.2036  -999.2500  -999.2500
   40.5000    64.9653  -999.2500  -999.2500
   41.0000    63.7952  -999.2500  -999.2500
   41.5000    60.7909  -999.2500  -999.2500
   42.0000    57.6905  -999.2500  -999.2500
   42.5000    55.3967  -999.2500  -999.2500
   43.0000    55.3423  -999.2500  -999.2500
   43.5000    57.3223  -999.2500  -999.2500
   44.0000    62.6478  -999.2500  -999.2500
   44.5000    67.6756  -999.2500  -999.2500
   45.0000    70.2460  -999.2500  -999.2500
   45.5000    71.2057  -999.2500  -999.2500
   46.0000    71.6670  -999.2500  -999.2500
   46.5000    70.6916  -999.2500  -999.2500
   47.0000    69.5406  -999.2500  -999.2500
   47.5000    69.9253  -999.2500  -999.2500
   48.0000    72.2281  -999.2500  -999.2500
   48.5000    75.6580  -999.2500  -999.2500
   49.0000    78.9966  -999.2500  -999.2500
   49.5000    81.8281  -999.2500  -999.2500
   50.0000    83.4725  -999.2500  -999.2500
   50.5000    84.9022  -999.2500  -999.2500
   51.0000    84.2687  -999.2500  -999.2500
   51.5000    83.6012  -999.2500  -999.2500
   52.0000    82.9162  -999.2500  -999.2500
   52.5000    84.9304  -999.2500  -999.2500
   53.0000    94.7078  -999.2500  -999.2500
   53.5000   112.6311  -999.2500  -999.2500
   54.0000   121.7068  7675.7466     9.0357
   54.5000   124.1803    12.7886     4.6646
   55.0000   123.9345     2.0527     2.9742
   55.5000   125.0927     2.2000     3.2413
   56.0000   127.9645     2.8337     4.1082
   56.5000   131.1127     4.0254     5.2282
   57.0000   131.4350     7.3478     6.6438
   57.5000   128.3241     9.4271     7.1491
   58.0000   126.1926     6.7571     8.9155
   58.5000   126.3650     5.8339     8.1777
   59.0000   128.7350     5.6263     7.5503
   59.5000   131.1161     5.3556     7.5506
   60.0000   131.7447     5.0331     8.0914
   60.5000   132.0183     5.2739     8.2845
   61.0000   132.3381     5.6266     7.2245
   61.5000   130.7508     6.4307     6.6635
   62.0000   128.1073     7.0816     6.4862
   62.5000   125.4492     6.7187     6.3392
   63.0000   123.2562     6.3560     6.3206
   63.5000   120.5304     5.9977     6.3012
   64.0000   120.8679     5.9977     6.2809
   64.5000   122.8315     6.1124     6.3789
   65.0000   127.4758     6.2025     6.4829
   65.5000   129.4790     6.3051     6.5887
   66.0000   127.5847     6.4094     6.7001
   66.5000   126.5128     6.5154     6.7791
   67.0000   127.1532     6.6232     6.8621
   67.5000   127.8208     6.7328     6.9486
   68.0000   126.6695     6.8249     7.0202
   68.5000   124.4076     6.9413     7.1392
   69.0000   123.1073     7.0352     7.2339
   69.5000   121.7431     7.1302     7.3304
   70.0000   122.9801     7.2266     7.4295
   70.5000   124.5389     7.3242     7.5299
   71.0000   125.3371     7.4232     7.6316
   71.5000   124.7078     7.5298     7.7407
   72.0000   122.8496     7.5631     7.7749
   72.5000   120.8474     7.5847     7.7974
   73.0000   119.6006     7.6064     7.8200
   73.5000   119.5049     7.6242     7.8382
   74.0000   121.9704     7.5247     7.7359
   74.5000   124.3611     7.4260     7.6344
   75.0000   123.9752     7.3285     7.5342
   75.5000   121.8097     7.2323     7.4354
   76.0000   119.4684     7.0816     7.2804
   76.5000   118.3214     7.0898     7.2860
   77.0000   119.5381     7.1104     7.3001
   77.5000   121.4789     7.1309     7.3142
   78.0000   122.4500     7.1516     7.3283
   78.5000   122.2292     7.1723     7.3424
   79.0000   121.9421     7.1931     7.3740
   79.5000   123.8474     7.2133     7.4158
   80.0000   126.1678     7.2135     7.4190
   80.5000   127.7363     7.2135     7.4334
   81.0000   127.2141     7.2135     7.4478
   81.5000   127.4441     7.2135     7.4621
   82.0000   126.9901     7.2135     7.4847
   82.5000   126.1861     7.2135     7.4760
   83.0000   126.0236     7.2135     7.4556
   83.5000   126.1860     7.2134     7.4353
   84.0000   125.2817     7.2125     7.4160
   84.5000   122.9318     7.2369     7.4397
   85.0000   121.2372     7.2647     7.4686
   85.5000   123.3894     7.3300     7.5230
   86.0000   127.2220     7.4439     7.6105
   86.5000   128.7041     7.4878     7.6989
   87.0000   127.9380     7.5001     7.7884
   87.5000   126.6751     7.5125     7.8790
   88.0000   125.3751     7.5250     7.9109
   88.5000   124.0388     7.5374     7.8089
   89.0000   122.7066     7.5498     7.7132
   89.5000   121.3563     7.5541     7.6242
   90.0000   121.8798     7.3377     7.4688
   90.5000   123.8175     7.1700     7.3248
