~VERSION INFORMATION
 VERS.                2.0:   CWLS LOG ASCII STANDARD - VERSION 2.0
 WRAP.                 NO:   ONE LINE PER DEPTH STEP
~WELL INFORMATION
#MNEM.UNIT      DATA TYPE    INFORMATION
#----------   ------------   ------------------------------
 STRT.F           30.0000:   START DEPTH
 STOP.F          750.0000:   STOP DEPTH
 STEP.F            0.5000:   STEP LENGTH
 NULL.          -999.2500:   NO VALUE
 COMP. FENIX & SCISSON INC:   COMPANY
 WELL. TEAPOT DOME SX #38-11:   WELL
 FLD .             TEAPOT:   FIELD
 LOC .      S11 T38N R78W:   LOCATION
 CNTY.            NATRONA:   COUNTY
 STAT.            WYOMING:   STATE
 CTRY. UNITED STATES OF AMERICA:   COUNTRY
 SRVC.            Unknown:   SERVICE COMPANY
 DATE.        23-FEB-1978:   LOGDATE
 API .       490251058200:   API NUMBER
~CURVE INFORMATION
#MNEM.UNIT       API CODE    CURVE DESCRIPTION
#----------   ------------   ------------------------------
 DEPT.F                  :   
 CALD.IN     45 280 60 00:   CALIPER FROM DENSITY LOG
 GRD .GAPI   45 310 01 00:   GAMMA RAY FROM DENSITY LOG
 RHOB.G/C3   45 350 01 00:   BULK DENSITY
 DPHI.DEC    45 890 12 00:   DENSITY POROSITY SANDSTONE
 CORR.G/C3   45 356 01 00:   DENSITY CORRECTION
 SPR .MV     07 010 01 00:   SPONTANEOUS POTENTIAL FROM RES. LOG
 SN  .OHMM   07 040 16 00:   SHORT NORMAL 16'
 ILD .OHMM   07 120 46 00:   INDUCTION LOG DEEP
~PARAMETER INFORMATION
#MNEM.UNIT          VALUE    DESCRIPTION
#----------   ------------   ------------------------------
 PD  .                 GL:   PERMANENT DATUM
 EPD .F              5204:   ELEVATION PERMANENT DATUM
 LMF .                 KB:   LOG MEASURED FROM
 DAPD.F                 4:   FEET ABOVE PERMANENT DATUM
 DMF .                 KB:   DRILLING MEASURED FROM
 EKB .F              5208:   KELLING BUSHING
 EGL .F              5204:   GROUND LEVEL
 DATE.            2-23-78:   RUN DATE
 RUN .                  1:   RUN NUMBER
 DD  .F               755:   DEPTH DRILLER
 DL  .F               751:   DEPTH LOGGER
 BLI .F               745:   BOTTOM LOG INTERVAL
 TLI .F                45:   TOP LOG INTERVAL
 CS  .IN            8.625:   CASING SIZE
 CBD .F                40:   CASING BOTTOM DRILLER
 CBL .F                40:   CASING BOTTOM LOGGER
 BS  .IN            7.875:   BIT SIZE
 BSD .F               755:   BIT SIZE AT DEPTH
 DFT .         LIGNO SULF:   DRILLING FLUID TYPE
 DFD .                8.7:   DRILLING FLUID DENSITY
 DFV .                 33:   DRILLING FLUID VISCOSITY
 DFPH.                 10:   DRILLING FLUID PH
 DFL .                  4:   DRILLING FLUID LOSS
 MSS .          FLOW LINE:   MUD SAMPLE SOURCE
 RMS .OHMM              2:   RESISTIVITY MUD SAMPLE
 MST .F                60:   MUD SAMPLE TEMPERATURE
 RMF .OHMM            1.9:   RESISTIVITY MUD FILTRATE SAMPLE
 MFST.F                62:   MUD FILTRATE SAMPLE TEMPERATURE
 RMC .OHMM            3.5:   RESISTIVITY MUD CAKE
 MCST.F                60:   MUD CAKE SAMPLE TEMPERATURE
 MFSS.               MEAS:   MUD FILTRATE SAMPLE SOURCE
 MCSS.               MEAS:   MUD CAKE SAMPLE SOURCE
 RMB .OHMM           1.69:   RESISTIVITY MUD AT BHT
 BHT .F                71:   BOTTOM HOLE TEMPERATURE
 TCS .HRS               3:   TIME CURCULATED STOPPED
 MRT .F                71:   MAXIMUM RECORDED TEMPERATURE
 LUN .               2958:   LOGGING UNIT NUMBER
 LUL .               CASP:   LOGGING UNIT LOCATION
 ENGI.            POINTER:   RECORDING ENGINEER
 WITN.           MCGINLEY:   WITNESSED BY
 CLNT.            A2DTECH:   CLIENT CODE
 ORIG.       2", 5" PRINT:   ORIGIN OF DATA
 UWI .       490251058200:   UNIQUE WELL ID
 DICO. A2D Technologies, Inc.:   DIGITIZING COMPANY
~OTHER INFORMATION
~A   DEPT     CALD         GRD      RHOB       DPHI       CORR        SPR         SN        ILD   
# ...
  475.5000     8.5095   109.2225     2.4708     0.0804     0.1273   -36.0060     3.9593     3.4927
  476.0000     8.5914   109.9866     2.5232     0.1141     0.0500   -36.8879     4.2236     3.9031
  476.5000     8.3415   109.9217     2.4829     0.1251     0.0085   -36.3427     4.9226     4.2470
  477.0000     8.3320   108.0708     2.4477     0.1282     0.0095   -35.8401     5.5699     4.8956
  477.5000     8.3342   105.7285     2.4435     0.1266     0.0100   -37.1224     5.7864     4.8956
  478.0000     8.3369   103.4395     2.4453     0.1245     0.0105   -37.8048     5.9977     4.9910
  478.5000     8.3388   103.2466     2.4481     0.1280     0.0110   -37.8091     5.9977     5.2070
  479.0000     8.3406   107.9490     2.4485     0.1353     0.0110   -37.3854     5.9977     5.3689
  479.5000     8.3425   111.2936     2.4445     0.1426     0.0110   -36.7809     5.9977     5.1852
  480.0000     8.3444   109.7891     2.4170     0.1499     0.0109   -36.1427     5.9977     5.0206
  480.5000     8.3462   108.2597     2.4112     0.1572     0.0111   -36.1461     5.9977     4.8961
  481.0000     8.3480   108.4157     2.3926     0.1592     0.0236   -36.4407     5.6791     4.8129
  481.5000     8.3505   108.5315     2.3831     0.1534     0.0372   -36.7829     5.3488     4.7242
  482.0000     8.3681   105.9788     2.4267     0.1433     0.0507   -35.3107     5.0747     4.6370
  482.5000     8.3856   102.0881     2.4242     0.1332     0.0626   -35.7857     5.0384     4.5472
  483.0000     8.4031   100.7085     2.4369     0.1231     0.0611   -35.4026     4.9854     4.5472
  483.5000     8.3978   101.2754     2.4398     0.1130     0.0635   -34.6757     5.0799     4.6440
  484.0000     8.3724   105.9383     2.4562     0.1038     0.0675   -34.9233     5.3394     4.7167
  484.5000     8.3489   110.6727     2.4754     0.1094     0.0582   -36.6136     5.6247     4.8150
  485.0000     8.4403   115.3439     2.4857     0.1058     0.0391   -35.7232     5.5914     4.9540
  485.5000     8.4055   119.1700     2.4639     0.1094     0.0400   -35.1624     5.5708     5.1013
  486.0000     8.3579   118.6702     2.4703     0.1076     0.0395   -35.7556     6.1476     5.3563
  486.5000     8.3301   112.6535     2.4813     0.1054     0.0340   -36.4568     6.6700     5.7588
  487.0000     8.3272   107.7628     2.4896     0.1053     0.0285   -37.0032     7.0085     5.9977
  487.5000     8.3109   109.0480     2.4892     0.1057     0.0248   -36.8571     7.3166     5.9977
  488.0000     8.2950   112.5219     2.4899     0.1069     0.0238   -36.7181     7.6242     6.1728
  488.5000     8.2792   115.9586     2.4839     0.1085     0.0227   -36.5976     7.6446     6.5626
  489.0000     8.2635   119.3863     2.4780     0.1102     0.0215   -36.4434     7.6684     6.7660
  489.5000     8.2501   121.4145     2.4739     0.1113     0.0203   -36.8068     7.6964     6.7198
  490.0000     8.2504   121.7315     2.4729     0.1130     0.0191   -37.3885     7.3447     6.6808
  490.5000     8.2503   115.2424     2.4648     0.1161     0.0180   -37.7964     7.5365     6.6385
  491.0000     8.2423   109.6238     2.4554     0.1191     0.0186   -36.4324     7.7668     6.5434
  491.5000     8.2374   104.1177     2.4529     0.1220     0.0227   -35.3675     7.4222     6.4366
  492.0000     8.2817   103.6596     2.4526     0.1261     0.0253   -35.4343     7.4102     6.3316
  492.5000     8.3096   104.1912     2.4420     0.1269     0.0276   -35.5277     7.6298     6.2232
  493.0000     8.3025   104.6866     2.4415     0.1269     0.0299   -35.8952     6.9520     6.1661
  493.5000     8.2959   104.4096     2.4413     0.1272     0.0309   -36.8175     6.9887     6.0413
  494.0000     8.2893   103.4830     2.4411     0.1277     0.0309   -36.8473     7.0165     5.9530
  494.5000     8.2827   104.7476     2.4409     0.1301     0.0308   -37.0964     6.6655     5.8660
  495.0000     8.2761   106.6215     2.4397     0.1334     0.0342   -37.8881     6.4216     5.7803
  495.5000     8.2705   106.5436     2.4246     0.1370     0.0368   -37.7878     6.2809     5.4938
  496.0000     8.2651   106.3242     2.4349     0.1408     0.0306   -37.0130     6.0565     5.2215
  496.5000     8.2579   107.2602     2.4277     0.1472     0.0248   -38.0340     5.7911     4.9621
  497.0000     8.2512   108.5540     2.4127     0.1564     0.0271   -38.1852     5.5373     4.7165
  497.5000     8.2785   109.8644     2.3979     0.1592     0.0424   -37.1539     5.2947     4.5999
  498.0000     8.3089   111.2341     2.3901     0.1477     0.0610   -36.7729     5.0626     4.5472
  498.5000     8.3305   112.7900     2.4053     0.1227     0.0796   -37.5898     4.9868     4.6724
  499.0000     8.3288   114.4332     2.4518     0.0973     0.0791   -36.7233     5.4689     4.7935
  499.5000     8.3272   116.0836     2.4825     0.1020     0.0360   -36.9934     5.4051     4.9178
  500.0000     8.3255   117.4672     2.4502     0.1085     0.0190   -37.6402     5.3689     5.0319
  500.5000     8.3238   118.5780     2.4546     0.1150     0.0194   -38.0571     6.1985     5.2863
  501.0000     8.3222   119.7680     2.4467     0.1161     0.0220   -36.5371     7.0165     5.5668
  501.5000     8.3205   120.4160     2.4527     0.1165     0.0239   -36.9501     7.2295     5.8557
  502.0000     8.3188   120.5695     2.4546     0.1135     0.0256   -38.3758     7.4670     6.1595
  502.5000     8.3172   121.1691     2.4528     0.1089     0.0270   -38.9109     7.6978     6.4791
  503.0000     8.3155   120.2264     2.4669     0.1046     0.0252   -38.3271     7.7168     6.8249
  503.5000     8.3139   121.6427     2.4753     0.1037     0.0226   -37.7344     7.7358     6.8882
  504.0000     8.3122   125.6720     2.4757     0.1030     0.0200   -37.7201     7.7557     6.8351
  504.5000     8.3103   127.7989     2.4807     0.1022     0.0174   -38.5269     7.6979     6.7969
  505.0000     8.3174   126.5236     2.4856     0.1057     0.0169   -38.7646     7.6888     6.7590
  505.5000     8.3266   124.8143     2.4815     0.1090     0.0169   -38.1442     7.6647     6.7212
  506.0000     8.3360   123.3786     2.4766     0.1124     0.0170   -37.8142     7.6480     6.6836
  506.5000     8.3453   122.4298     2.4725     0.1158     0.0194   -38.1545     7.6314     6.6463
  507.0000     8.3475   127.0006     2.4628     0.1179     0.0233   -38.5017     7.6149     6.6091
  507.5000     8.3429   134.4383     2.4598     0.1144     0.0272   -38.4923     7.5984     6.5722
  508.0000     8.3383   133.0576     2.4661     0.1109     0.0312   -38.4763     7.5819     6.5355
  508.5000     8.3337   130.1493     2.4724     0.1101     0.0329   -38.7659     7.5653     6.5171
  509.0000     8.3290   128.7287     2.4709     0.1094     0.0329   -39.0445     7.5542     6.5171
  509.5000     8.3244   126.7655     2.4691     0.1075     0.0329   -39.3259     7.5493     6.5171
  510.0000     8.3198   123.9974     2.4725     0.1029     0.0328   -39.6195     7.5400     6.5171
  510.5000     8.3152   121.2377     2.4793     0.0982     0.0332   -38.9672     7.5308     6.5171
  511.0000     8.3105   118.3767     2.4862     0.0993     0.0319   -38.0881     7.5215     6.5171
  511.5000     8.3059   118.4904     2.4886     0.1008     0.0267   -37.2226     7.5123     6.5171
  512.0000     8.3013   121.5008     2.4802     0.1023     0.0214   -37.4254     7.5028     6.5172
  512.5000     8.2967   124.6861     2.4767     0.1039     0.0194   -37.7297     7.4938     6.5172
  513.0000     8.2921   127.2709     2.4786     0.1070     0.0205   -38.0321     7.4847     6.5171
  513.5000     8.2874   128.8012     2.4794     0.1101     0.0207   -38.2235     7.3058     6.4797
  514.0000     8.2828   130.3554     2.4749     0.1130     0.0156   -37.5738     7.0919     6.3913
  514.5000     8.2782   130.7221     2.4678     0.1203     0.0104   -36.8170     7.0149     6.3042
  515.0000     8.2736   131.4526     2.4576     0.1271     0.0094   -36.6539     7.0936     6.2232
  515.5000     8.2689   134.9160     2.4474     0.1339     0.0127   -37.2410     7.1824     5.9764
