~VERSION INFORMATION
 VERS.                2.0:   CWLS LOG ASCII STANDARD - VERSION 2.0
 WRAP.                 NO:   ONE LINE PER DEPTH STEP
~WELL INFORMATION
#MNEM.UNIT      DATA TYPE    INFORMATION
#----------   ------------   ------------------------------
 STRT.F            0.0000:   START DEPTH
 STOP.F          752.0000:   STOP DEPTH
 STEP.F            0.1000:   STEP LENGTH
 NULL.          -999.2500:   NO VALUE
 COMP. BROWN JOHN E&C INC:   COMPANY
 WELL. N P R 3 STX-34 #53-1-34:   WELL
 FLD .             TEAPOT:   FIELD
 LOC .      S34 T39N R78W:   LOCATION
 CNTY.            NATRONA:   COUNTY
 STAT.            WYOMING:   STATE
 CTRY. UNITED STATES OF AMERICA:   COUNTRY
 SRVC.     Atlas Wireline:   SERVICE COMPANY
 DATE.        29-OCT-1991:   LOGDATE
 API .       490252248700:   API NUMBER
~CURVE INFORMATION
#MNEM.UNIT       API CODE    CURVE DESCRIPTION
#----------   ------------   ------------------------------
 DEPT.F                  :   
 GRR .GAPI   07 310 01 00:   GAMMA RAY
 RILD.OHMM   07 120 46 00:   INDUCTION LOG DEEP RESISTIVITY
 RILM.OHMM   07 120 44 00:   RESITIVITY LONG MEDIUM
~PARAMETER INFORMATION
#MNEM.UNIT          VALUE    DESCRIPTION
#----------   ------------   ------------------------------
 PD  .                 GL:   PERMANENT DATUM
 EPD .F              5067:   ELEVATION PERMANENT DATUM
 LMF .                 KB:   LOG MEASURED FROM
 DAPD.F                10:   FEET ABOVE PERMANENT DATUM
 DMF .                 KB:   DRILLING MEASURED FROM
 EKB .F              5077:   KELLING BUSHING
 EGL .F              5067:   GROUND LEVEL
 DATE.        29-OCT-1991:   RUN DATE
 RUN .                  1:   RUN NUMBER
 DD  .F               760:   DEPTH DRILLER
 DL  .F               760:   DEPTH LOGGER
 BLI .F               758:   BOTTOM LOG INTERVAL
 TLI .F                 0:   TOP LOG INTERVAL
 CS  .IN            9.625:   CASING SIZE
 CBD .F                52:   CASING BOTTOM DRILLER
 CBL .F                52:   CASING BOTTOM LOGGER
 BS  .IN             8.75:   BIT SIZE
 BSD .F               760:   BIT SIZE AT DEPTH
 DFT .        AIR DRILLED:   DRILLING FLUID TYPE
 MRT .F               154:   MAXIMUM RECORDED TEMPERATURE
 LUN .            HL 6307:   LOGGING UNIT NUMBER
 LUL .             CASPER:   LOGGING UNIT LOCATION
 ENGI.          RASMUSSEN:   RECORDING ENGINEER
 WITN.        GARY STRONG:   WITNESSED BY
 CLNT.            A2DTECH:   CLIENT CODE
 ORIG.           5" PRINT:   ORIGIN OF DATA
 UWI .       490252248700:   UNIQUE WELL ID
 DICO. A2D Technologies, Inc.:   DIGITIZING COMPANY
~OTHER INFORMATION
~A    DEPT      GRR      RILD       RILM   
# ...
  364.0000   125.9331     9.4704     9.4326
  364.1000   126.6893     9.4705     9.3781
  364.2000   127.4869     9.4674     9.3210
  364.3000   127.7244     9.4050     9.3210
  364.4000   127.9757     9.4051     9.2811
  364.5000   128.2270     9.4052     9.2275
  364.6000   128.3939     9.3809     9.1919
  364.7000   128.3927     9.3401     9.1850
  364.8000   128.3914     9.3378     9.1281
  364.9000   128.3903     9.2755     9.1281
  365.0000   128.3891     9.2756     9.1281
  365.1000   128.3878     9.2758     9.1008
  365.2000   128.3866     9.2525     9.0646
  365.3000   128.3854     9.2116     9.0646
  365.4000   128.3841     9.2101     9.0646
  365.5000   128.3830     9.1478     9.0646
  365.6000   128.2043     9.1479     9.0646
  365.7000   128.0766     9.1481     9.0385
  365.8000   127.9261     9.1259     9.0017
  365.9000   127.4200     9.0848     9.0017
  366.0000   126.8570     9.0849     9.0017
  366.1000   126.6318     9.0850     9.0017
  366.2000   126.3781     9.0851     9.0017
  366.3000   126.2456     9.0853     9.0017
  366.4000   126.2444     9.0854     9.0017
  366.5000   126.2432     9.0855     9.0017
  366.6000   126.2418     9.0857     9.0017
  366.7000   126.2407     9.0858     8.9566
  366.8000   126.4073     9.0859     8.9391
  366.9000   126.6586     9.0548     8.9391
  367.0000   126.8450     9.0230     8.9259
  367.1000   126.8438     9.0232     8.8770
  367.2000   126.8424     9.0233     8.8770
  367.3000   126.8413     9.0234     8.8770
  367.4000   127.0031     9.0235     8.8770
  367.5000   127.1429     9.0237     8.8770
  367.6000   127.1416     9.0238     8.8770
  367.7000   127.1149     9.0148     8.8770
  367.8000   126.2271     8.9613     8.8770
  367.9000   124.9691     8.9615     8.8770
  368.0000   123.7690     8.9616     8.8770
  368.1000   122.9710     8.9617     8.8770
  368.2000   122.4648     8.9618     8.8770
  368.3000   121.9586     8.9620     8.8770
  368.4000   121.3566     8.9621     8.8770
  368.5000   120.9462     8.9126     8.8770
  368.6000   120.5933     8.9001     8.8770
  368.7000   120.2379     8.9002     8.8770
  368.8000   119.7820     8.9003     8.8770
  368.9000   119.5270     8.8929     8.8770
  369.0000   119.0233     8.8387     8.8770
  369.1000   118.9167     8.8388     8.8365
  369.2000   118.9155     8.8011     8.8153
  369.3000   118.8174     8.7777     8.8153
  369.4000   118.6093     8.7778     8.8153
  369.5000   118.9118     8.7779     8.8153
  369.6000   118.9106     8.7781     8.7657
  369.7000   119.2993     8.7310     8.7541
  369.8000   119.8031     8.7173     8.7541
  369.9000   120.4908     8.7174     8.7541
  370.0000   121.4590     8.7175     8.7541
  370.1000   122.2480     8.7177     8.7541
  370.2000   122.9714     8.7178     8.7541
  370.3000   123.5375     8.7179     8.7541
  370.4000   124.1799     8.7180     8.7263
  370.5000   124.9362     8.7182     8.6933
  370.6000   125.7280     8.7183     8.6933
  370.7000   126.7999     8.7132     8.6933
  370.8000   127.2721     8.6580     8.6933
  370.9000   127.9611     8.6581     8.6933
  371.0000   128.7174     8.6582     8.6933
  371.1000   129.5558     8.6583     8.6933
  371.2000   130.5645     8.6584     8.6933
  371.3000   131.6558     8.6585     8.6933
  371.4000   132.1184     8.6587     8.6933
  371.5000   132.8024     8.6588     8.6933
  371.6000   133.3009     8.6589     8.6933
  371.7000   133.3974     8.6590     8.6779
  371.8000   133.0918     8.6453     8.6329
  371.9000   132.2564     8.5991     8.6329
  372.0000   131.1205     8.5992     8.6329
  372.1000   129.8568     8.5993     8.6329
  372.2000   128.7173     8.5995     8.6329
  372.3000   127.8513     8.5996     8.6329
  372.4000   127.3662     8.5997     8.6329
  372.5000   127.0819     8.5998     8.6329
  372.6000   126.8587     8.6000     8.6329
  372.7000   126.7757     8.6001     8.6329
  372.8000   126.7745     8.6002     8.6329
  372.9000   126.6378     8.6003     8.6329
  373.0000   126.1480     8.6004     8.6329
  373.1000   125.8588     8.6028     8.6329
  373.2000   125.6405     8.6609     8.6329
  373.3000   125.3868     8.6610     8.6329
  373.4000   125.1331     8.6611     8.6329
  373.5000   124.9423     8.6612     8.6329
  373.6000   124.9297     8.6613     8.6329
  373.7000   124.6357     8.6630     8.6329
  373.8000   124.4223     8.7222     8.6329
  373.9000   124.3295     8.7223     8.6329
  374.0000   124.4377     8.7224     8.6329
  374.1000   124.6890     8.7225     8.6329
  374.2000   124.9403     8.7227     8.6329
  374.3000   125.2363     8.7228     8.6329
  374.4000   125.8577     8.7229     8.6329
  374.5000   126.6140     8.7230     8.6329
  374.6000   127.3701     8.7231     8.6329
  374.7000   128.2324     8.7233     8.6434
  374.8000   129.4936     8.7234     8.6933
  374.9000   131.0040     8.7235     8.6933
  375.0000   133.0294     8.6984     8.7338
  375.1000   134.3436     8.6733     8.7541
  375.2000   134.8474     8.6334     8.7541
  375.3000   135.2549     8.5836     8.7638
  375.4000   135.2535     8.5435     8.8153
  375.5000   135.2523     8.5436     8.8153
  375.6000   134.8554     8.5438     8.7755
  375.7000   134.2030     8.5439     8.7248
  375.8000   133.0653     8.5440     8.6744
  375.9000   131.3400     8.5441     8.6329
  376.0000   129.7750     8.5355     8.6329
  376.1000   128.7963     8.4850     8.5367
  376.2000   127.7853     8.4851     8.5133
  376.3000   127.0570     8.4852     8.4585
  376.4000   126.5508     8.4575     8.3782
  376.5000   126.0060     8.4265     8.3298
  376.6000   125.2085     8.4266     8.2792
  376.7000   124.7283     8.4267     8.5133
  376.8000   124.0340     8.3802     8.3954
  376.9000   123.6851     8.3319     8.3498
  377.0000   123.5136     8.2838     8.2663
  377.1000   123.0748     8.2361     8.1711
  377.2000   123.0735     8.1817     8.0770
  377.3000   122.8377     8.0822     7.9839
  377.4000   122.5840     8.0382     7.8848
  377.5000   122.5937     7.9919     7.8428
  377.6000   122.7647     7.9211     7.7975
  377.7000   122.7923     7.8451     7.7525
  377.8000   123.0662     7.7938     7.6939
  377.9000   123.2948     7.6978     7.6053
  378.0000   123.9028     7.6566     7.5092
  378.1000   124.5322     7.5805     7.4701
  378.2000   125.1113     7.4933     7.4269
  378.3000   125.8675     7.4070     7.3630
  378.4000   126.7063     7.3266     7.2781
  378.5000   128.0547     7.2808     7.1943
  378.6000   129.3948     7.2424     7.1018
  378.7000   130.5340     7.2007     7.0656
  378.8000   131.4722     7.1803     7.0248
  378.9000   132.2476     7.1677     6.9651
  379.0000   133.3859     7.1306     6.8956
  379.1000   133.8249     7.1307     6.8585
  379.2000   134.3287     7.1308     6.8585
  379.3000   134.8325     7.1309     6.8585
  379.4000   135.2705     7.1106     6.8585
  379.5000   135.5218     7.0816     6.8585
  379.6000   135.8102     7.0817     6.8585
  379.7000   135.5939     7.0818     6.8585
  379.8000   135.0127     7.0456     6.8585
  379.9000   134.3663     7.0328     6.8585
  380.0000   133.8602     7.0329     6.8585
  380.1000   133.3540     7.0329     6.8585
  380.2000   132.7633     7.0300     6.8585
  380.3000   132.3417     6.9843     6.8585
  380.4000   131.9943     6.9844     6.8585
  380.5000   131.7406     7.0117     6.8585
  380.6000   131.3751     7.0334     6.8585
  380.7000   130.6209     7.0335     6.8585
  380.8000   130.0204     7.0336     6.8585
  380.9000   129.8139     7.0337     6.8590
  381.0000   129.4062     7.0689     6.9065
  381.1000   128.9000     7.0831     6.9065
  381.2000   128.3938     7.1019     6.9307
  381.3000   127.8869     7.1329     6.9548
  381.4000   127.6337     7.1330     6.9627
  381.5000   127.1794     7.1331     7.0035
  381.6000   126.5241     7.1682     7.0035
  381.7000   125.9607     7.1832     7.0356
  381.8000   125.6608     7.2016     7.0525
  381.9000   125.1440     7.2337     7.0681
  382.0000   124.8956     7.2351     7.1018
  382.1000   124.8377     7.2845     7.1018
