~VERSION INFORMATION
 VERS.                2.0:   CWLS LOG ASCII STANDARD - VERSION 2.0
 WRAP.                 NO:   ONE LINE PER DEPTH STEP
~WELL INFORMATION
#MNEM.UNIT      DATA TYPE    INFORMATION
#----------   ------------   ------------------------------
 STRT.F           10.0000:   START DEPTH
 STOP.F          570.0000:   STOP DEPTH
 STEP.F            0.5000:   STEP LENGTH
 NULL.          -999.2500:   NO VALUE
 COMP. BROWN JOHN E&C INC:   COMPANY
 WELL.   STX 10 #85-14-10:   WELL
 FLD .             TEAPOT:   FIELD
 LOC .      S10 T38N R78W:   LOCATION
 CNTY.            NATRONA:   COUNTY
 STAT.            WYOMING:   STATE
 CTRY. UNITED STATES OF AMERICA:   COUNTRY
 SRVC.           Gearhart:   SERVICE COMPANY
 DATE.        29-JUN-1986:   LOGDATE
 API .       490251108400:   API NUMBER
~CURVE INFORMATION
#MNEM.UNIT       API CODE    CURVE DESCRIPTION
#----------   ------------   ------------------------------
 DEPT.F                  :   
 LL  .OHMM   07 220 00 00:   LATEROLOG RES.
 RILD.OHMM   07 120 46 00:   INDUCTION LOG DEEP RESISTIVITY
 RILM.OHMM   07 120 44 00:   INDUCTION LOG MEDIUM RESISTIVITY
 SPR .MV     07 010 01 00:   SPONTANEOUS POTENTIAL
 GRR .GAPI   07 310 01 00:   GAMMA RAY FROM RES. LOG.
~PARAMETER INFORMATION
#MNEM.UNIT          VALUE    DESCRIPTION
#----------   ------------   ------------------------------
 PD  .                 GL:   PERMANENT DATUM
 EPD .F              5191:   ELEVATION PERMANENT DATUM
 LMF .                 KB:   LOG MEASURED FROM
 DAPD.F                 5:   FEET ABOVE PERMANENT DATUM
 DMF .                 KB:   DRILLING MEASURED FROM
 EKB .F              5196:   KELLING BUSHING
 EGL .F              5191:   GROUND LEVEL
 DATE.          6-29-1986:   RUN DATE
 RUN .                  1:   RUN NUMBER
 DD  .F               579:   DEPTH DRILLER
 DL  .F               572:   DEPTH LOGGER
 BLI .F               570:   BOTTOM LOG INTERVAL
 CS  .IN            8.625:   CASING SIZE
 CBD .F                47:   CASING BOTTOM DRILLER
 CBL .F                46:   CASING BOTTOM LOGGER
 BS  .IN            7.875:   BIT SIZE
 BSD .F               579:   BIT SIZE AT DEPTH
 DFT .                MUD:   DRILLING FLUID TYPE
 DFD .                8.9:   DRILLING FLUID DENSITY
 DFV .                 32:   DRILLING FLUID VISCOSITY
 DFPH.                  9:   DRILLING FLUID PH
 MSS .           FLOWLINE:   MUD SAMPLE SOURCE
 RMS .OHMM            1.3:   RESISTIVITY MUD SAMPLE
 MST .F                62:   MUD SAMPLE TEMPERATURE
 RMF .OHMM             .9:   RESISTIVITY MUD FILTRATE SAMPLE
 MFST.F                63:   MUD FILTRATE SAMPLE TEMPERATURE
 RMC .OHMM            1.5:   RESISTIVITY MUD CAKE
 MCST.F                63:   MUD CAKE SAMPLE TEMPERATURE
 MFSS.               MEAS:   MUD FILTRATE SAMPLE SOURCE
 MCSS.               MEAS:   MUD CAKE SAMPLE SOURCE
 RMB .OHMM            1.3:   RESISTIVITY MUD AT BHT
 BHT .F                64:   BOTTOM HOLE TEMPERATURE
 TCS .HRS            1300:   TIME CURCULATED STOPPED
 TLAB.HRS            1600:   TIME LOGGER AT BOTTOM
 MRT .F                64:   MAXIMUM RECORDED TEMPERATURE
 LUN .               7609:   LOGGING UNIT NUMBER
 LUL .           GILLETTE:   LOGGING UNIT LOCATION
 ENGI.             WAGNER:   RECORDING ENGINEER
 WITN.            JENNING:   WITNESSED BY
 CLNT.            A2DTECH:   CLIENT CODE
 ORIG.      2" & 5" PRINT:   ORIGIN OF DATA
 UWI .       490251108400:   UNIQUE WELL ID
 DICO. A2D Technologies, Inc.:   DIGITIZING COMPANY
~OTHER INFORMATION
~A   DEPT       LL       RILD       RILM        SPR         GRR  
# ...
  315.0000     9.4542     8.9386     8.7238    -5.2291    94.0458
  315.5000     9.7906     8.6832     8.3698    -3.4772    91.5529
  316.0000     9.8938     8.2301     7.8790    -2.0600    93.0546
  316.5000     8.7760     7.7542     7.4170    -3.2727    98.3107
  317.0000     7.8607     7.3059     6.9822    -2.4939   103.6379
  317.5000     7.0287     6.9102     6.5728    -0.5937   108.9638
  318.0000     6.8143     6.8143     6.1501    -0.4548   113.8184
  318.5000     7.4801     6.9749     6.0931    -1.1857   111.7326
  319.0000     8.3182     7.3917     6.6186    -1.8794   104.8138
  319.5000     9.1614     7.8717     7.1811    -1.3519    98.6712
  320.0000     9.9169     8.3830     7.7914    -3.6908    95.4477
  320.5000    10.2697     8.9274     8.5229    -6.4934    93.9930
  321.0000    10.3659     9.4899     8.9951    -7.8801    92.2168
  321.5000    10.1428    10.0800     9.4510    -6.3585    91.8111
  322.0000     9.9864    10.7067     9.7175    -6.1919    93.8612
  322.5000    10.2697    11.2330     9.9792    -7.5796    95.8794
  323.0000    10.5609    11.4506    10.2697    -8.9889    97.1836
  323.5000    10.3112    11.6725    10.4629    -9.4709    98.3610
  324.0000    10.0894    11.9216    10.5486    -9.5801    99.3348
  324.5000     9.8938    12.4323    10.6722   -10.1161    97.5363
  325.0000    10.1271    13.0255    10.9040   -11.3175    92.3271
  325.5000    11.7847    13.3327    11.3874   -12.0936    87.1003
  326.0000    14.2169    15.2760    12.5215   -12.8336    81.9595
  326.5000    19.1248    17.2875    13.6598   -13.6154    72.2428
  327.0000    22.0110    19.5638    14.7724   -12.6904    62.3456
  327.5000    25.0536    22.1399    16.9537   -12.6720    52.8277
  328.0000    28.3695    25.3670    19.2409   -13.8172    48.4064
  328.5000    30.5661    28.2256    21.8853   -16.3507    44.8618
  329.0000    31.1414    31.7812    23.8626   -17.9207    41.7707
  329.5000    30.2391    34.0129    25.7771   -17.3585    41.7620
  330.0000    29.5955    34.5042    26.8210   -18.1194    45.6130
  330.5000    28.9034    35.1671    27.0911   -16.3008    51.0343
  331.0000    27.5504    35.1718    27.0935   -13.8173    56.4854
  331.5000    26.8263    32.9561    25.7366   -13.2611    58.7196
  332.0000    27.0775    31.3690    24.6674   -15.2768    58.5293
  332.5000    26.2258    30.0015    23.5989   -15.7421    59.2191
  333.0000    25.5365    30.0015    23.1091   -17.3006    59.5059
  333.5000    24.8653    29.8311    22.8947   -18.9056    58.8943
  334.0000    24.6674    29.7232    22.8947   -19.5404    58.7440
  334.5000    24.9150    29.7610    23.2257   -17.0363    59.4418
  335.0000    25.8444    29.8875    23.7070   -18.2783    58.8079
  335.5000    27.0916    30.0142    24.1982   -18.9458    55.9593
  336.0000    29.1741    30.1417    24.6996   -19.4931    53.3985
  336.5000    28.5686    30.2697    25.3771   -19.9477    52.4691
  337.0000    27.7773    30.3982    25.2055   -19.7423    53.2010
  337.5000    26.7081    30.5273    24.9003   -19.2405    55.7676
  338.0000    25.6754    30.5671    24.5913   -18.7109    59.1065
  338.5000    24.1983    30.4904    24.2871   -20.8445    62.0645
  339.0000    25.1582    30.3424    23.9871   -21.9901    63.3308
  339.5000    27.1465    30.1935    23.6908   -21.1322    63.4133
  340.0000    28.6352    30.0457    23.5440   -19.5726    62.0723
  340.5000    27.3311    30.0015    23.2635   -19.9258    61.9108
  341.0000    28.1769    30.9639    22.9557   -20.5453    61.7170
  341.5000    28.6352    31.6221    22.6521   -22.5122    61.5255
  342.0000    26.8958    32.2954    22.2633   -23.8327    61.3182
  342.5000    25.8444    32.9823    22.7776   -24.3840    60.7539
  343.0000    27.2516    33.6840    23.5330   -23.5394    60.1827
  343.5000    27.8455    34.1841    23.7645   -22.0463    59.6043
  344.0000    27.8455    34.1841    23.8755   -21.3791    59.4260
  344.5000    27.3311    34.1841    23.9871   -22.6254    62.1413
  345.0000    26.0436    34.1841    23.9871   -24.1186    64.9040
  345.5000    24.9289    33.9525    23.7560   -25.5931    65.8117
  346.0000    23.5368    33.4940    23.4979   -25.3305    64.9116
  346.5000    23.5473    33.0418    23.3192   -23.1667    63.0657
  347.0000    22.8928    32.5956    23.6238   -24.3670    61.6282
  347.5000    22.4744    32.0132    23.9033   -24.7672    61.3925
  348.0000    22.0535    32.0387    24.1822   -24.3736    62.7225
  348.5000    22.2936    30.8346    24.4425   -24.0802    64.5583
  349.0000    22.6470    29.9539    24.4420   -28.0094    64.1496
  349.5000    23.0016    29.0959    24.4385   -29.8356    62.3349
  350.0000    23.1091    28.2624    23.5490   -31.4991    60.5829
  350.5000    21.9974    27.4529    22.6968   -31.5387    60.8476
  351.0000    21.0405    26.6666    21.8755   -28.9768    63.0219
  351.5000    20.1233    25.9033    21.0838   -29.0894    64.7007
  352.0000    19.1784    25.1607    20.3209   -29.3571    65.0097
  352.5000    19.0004    24.4476    19.5855   -25.4349    65.3849
  353.0000    19.3037    23.9455    18.8241   -25.0302    66.8859
  353.5000    19.5461    23.6117    18.9813   -24.8355    68.5549
  354.0000    19.7915    23.3255    19.1529   -24.9839    69.5723
  354.5000    19.9070    23.6408    19.3261   -25.2176    70.8373
  355.0000    19.4968    23.9836    19.5008   -24.7101    72.6630
  355.5000    19.1784    24.3315    19.6771   -25.0269    73.6068
  356.0000    19.2438    24.6844    19.8174   -26.9925    73.2909
  356.5000    19.3642    25.0424    19.9457   -28.3793    72.6387
  357.0000    19.4854    25.4056    20.0749   -29.8887    69.6598
  357.5000    19.6074    25.7740    20.2048   -31.4356    66.6910
  358.0000    19.7307    26.0864    20.3357   -30.5398    65.8123
  358.5000    19.8537    25.6918    20.4716   -27.7896    66.3825
  359.0000    19.9059    25.3573    20.4716   -27.0177    69.4381
  359.5000    19.9118    25.0272    20.2373   -27.8040    73.1391
  360.0000    18.9855    24.7014    19.9382   -28.8272    76.3213
  360.5000    18.3420    24.3799    19.6436   -29.1979    79.0329
  361.0000    17.7218    24.0625    19.3532   -29.0882    78.3088
  361.5000    17.3994    23.7493    19.1791   -29.2641    77.4220
  362.0000    17.2863    23.4401    19.1788   -31.3701    77.0866
  362.5000    17.1712    23.1350    19.1786   -33.3240    79.8837
  363.0000    17.0570    22.8594    19.1784   -34.3333    82.7192
  363.5000    16.9895    22.6919    19.1784   -35.3040    83.1460
  364.0000    17.0582    22.5247    18.9290   -34.3722    81.5418
  364.5000    17.1153    22.3591    18.5945   -32.8932    79.8822
  365.0000    17.1486    22.2633    18.2660   -34.4983    78.2541
  365.5000    17.3092    22.3412    17.9432   -31.0282    74.8142
  366.0000    17.3125    22.3967    17.6350   -32.0631    71.4918
  366.5000    17.3119    22.4505    17.5409   -29.4123    70.7178
  367.0000    16.9386    22.4757    17.4500   -26.3897    72.3350
  367.5000    16.7758    21.9857    17.3595   -28.3585    73.9133
  368.0000    16.5436    21.5998    17.2694   -31.1707    75.2005
  368.5000    16.3146    21.2207    17.1800   -30.8041    75.5246
  369.0000    16.0888    20.8482    17.0904   -29.0416    75.8614
  369.5000    15.8660    20.4823    17.0021   -30.3703    76.2042
  370.0000    15.6464    20.1228    16.7038   -32.0553    76.3144
  370.5000    15.4298    19.7719    16.3763   -32.3177    76.3006
  371.0000    15.2162    19.4200    16.0553   -31.0565    75.8720
  371.5000    15.0056    19.0792    15.7405   -29.6392    73.8490
  372.0000    14.7978    18.7428    15.4319   -30.8648    72.3663
  372.5000    14.7724    18.4124    15.1139   -30.0365    71.6561
  373.0000    14.4444    18.0879    14.9531   -30.7120    72.6117
  373.5000    14.1472    17.7691    14.7940   -30.2239    73.0755
  374.0000    13.8556    17.4559    14.6366   -29.3927    72.8527
  374.5000    13.5711    17.1480    14.4809   -27.2352    71.9124
  375.0000    13.2089    16.8439    14.3268   -25.8390    71.0061
  375.5000    13.2478    16.5209    14.1756   -30.7391    70.0565
