~VERSION INFORMATION
 VERS.                2.0:   CWLS LOG ASCII STANDARD - VERSION 2.0
 WRAP.                 NO:   ONE LINE PER DEPTH STEP
~WELL INFORMATION
#MNEM.UNIT      DATA TYPE    INFORMATION
#----------   ------------   ------------------------------
 STRT.F           14.0000:   START DEPTH
 STOP.F          549.0000:   STOP DEPTH
 STEP.F            0.5000:   STEP LENGTH
 NULL.          -999.2500:   NO VALUE
 COMP.   LAWRENCE-ALLISON:   COMPANY
 WELL.    NPR 3 #58-64SX3:   WELL
 FLD .           NPR NO 3:   FIELD
 LOC .       S3 T38N R78W:   LOCATION
 CNTY.            NATRONA:   COUNTY
 STAT.            WYOMING:   STATE
 CTRY. UNITED STATES OF AMERICA:   COUNTRY
 SRVC.      Dresser Atlas:   SERVICE COMPANY
 DATE.        05-DEC-1984:   LOGDATE
 API .       490251099700:   API NUMBER
~CURVE INFORMATION
#MNEM.UNIT       API CODE    CURVE DESCRIPTION
#----------   ------------   ------------------------------
 DEPT.F                  :   
 RFOC.OHMM   07 220 04 00:   RESISTIVITY FOCUSED LOG
 RILD.OHMM   07 120 46 00:   INDUCTION LOG DEEP RESISTIVITY
 RILM.OHMM   07 120 44 00:   INDUCTION LOG MEDIUM RESISTIVITY
 SPR .MV     07 010 01 00:   SPONTANEOUS POTENTIAL
 DT  .US/F   60 520 00 00:   INTERVAL TRANSIT TIME
 CALD.IN     45 280 60 00:   CALIPER FROM DENSITY LOG
 CORR.G/C3   45 356 01 00:   DENSITY CORRECTION
 CNC .DEC    42 890 03 00:   NEUTRON POROSITY SANDSTONE
 DEN .G/C3   45 350 01 00:   COMPENSATED BULK DENSTIY
 GRD .GAPI   45 310 01 00:   GAMMA RAY FROM DENSITY LOG
 PORD.DEC    45 890 12 00:   POROSITY DENSITY SANDSTONE
~PARAMETER INFORMATION
#MNEM.UNIT          VALUE    DESCRIPTION
#----------   ------------   ------------------------------
 PD  .                 GL:   PERMANENT DATUM
 EPD .F              5188:   ELEVATION PERMANENT DATUM
 LMF .                 KB:   LOG MEASURED FROM
 DMF .                 KB:   DRILLING MEASURED FROM
 EGL .F              5188:   GROUND LEVEL
 DATE.        05-DEC-1984:   RUN DATE
 RUN .                  1:   RUN NUMBER
 DD  .F               556:   DEPTH DRILLER
 DL  .F               551:   DEPTH LOGGER
 BLI .F               548:   BOTTOM LOG INTERVAL
 CS  .IN            8.625:   CASING SIZE
 CBD .F                20:   CASING BOTTOM DRILLER
 CBL .F                20:   CASING BOTTOM LOGGER
 BS  .IN            7.875:   BIT SIZE
 BSD .F               556:   BIT SIZE AT DEPTH
 DFT .          KCL WATER:   DRILLING FLUID TYPE
 MSS .           FLOWLINE:   MUD SAMPLE SOURCE
 RMS .OHMM            .36:   RESISTIVITY MUD SAMPLE
 MST .F                70:   MUD SAMPLE TEMPERATURE
 RMF .OHMM            .26:   RESISTIVITY MUD FILTRATE SAMPLE
 MFST.F                70:   MUD FILTRATE SAMPLE TEMPERATURE
 RMC .OHMM            .46:   RESISTIVITY MUD CAKE
 MCST.F                70:   MUD CAKE SAMPLE TEMPERATURE
 MFSS.               CALC:   MUD FILTRATE SAMPLE SOURCE
 MCSS.               CALC:   MUD CAKE SAMPLE SOURCE
 RMB .OHMM            .29:   RESISTIVITY MUD AT BHT
 BHT .F                85:   BOTTOM HOLE TEMPERATURE
 TCS .HRS               3:   TIME CURCULATED STOPPED
 MRT .F               100:   MAXIMUM RECORDED TEMPERATURE
 LUN .               6274:   LOGGING UNIT NUMBER
 LUL .               GLTE:   LOGGING UNIT LOCATION
 ENGI.             PAUTIO:   RECORDING ENGINEER
 WITN.       GROONS/LUERS:   WITNESSED BY
 CLNT.            A2DTECH:   CLIENT CODE
 ORIG.           5" PRINT:   ORIGIN OF DATA
 UWI .       490251099700:   UNIQUE WELL ID
 DICO. A2D Technologies, Inc.:   DIGITIZING COMPANY
~OTHER INFORMATION
~A   DEPT     RFOC       RILD       RILM        SPR         DT       CALD       CORR          CNC      DEN         GRD      PORD   
# ...
  105.5000    10.2694     9.8405     9.9151   -61.9316   102.6451     8.1243     0.0678     0.2604     2.4773    99.2463     0.1184
  106.0000    10.2605     9.7596     9.9051   -62.1067   102.6546     8.1082     0.0566     0.2608     2.4789    98.9255     0.1181
  106.5000    10.2517     9.7504     9.8951   -62.1280   102.5823     8.1074     0.0438     0.2633     2.4796    99.8392     0.1179
  107.0000    10.2428     9.6703     9.8851   -62.4570   102.4354     8.1066     0.0278     0.2653     2.4788   102.2961     0.1179
  107.5000    10.2340     9.6612     9.8751   -62.4783   102.2067     8.1058     0.0229     0.2666     2.4771   100.7407     0.1189
  108.0000    10.2251     9.6521     9.8652   -62.6534   101.7400     8.1050     0.0260     0.2676     2.4755    98.2510     0.1196
  108.5000    10.1420     9.6430     9.8552   -62.6746   101.9082     8.1197     0.0339     0.2670     2.4755    97.9383     0.1200
  109.0000    10.1333     9.6339     9.8452   -62.8498   102.2351     8.1190     0.0418     0.2661     2.4738    98.8868     0.1216
  109.5000    10.0677     9.6249     9.8353   -62.8710   102.4033     8.1182     0.0497     0.2637     2.4721   100.4311     0.1235
  110.0000     9.9445     9.5457     9.8254   -62.8923   102.7302     8.1020     0.0529     0.2543     2.4706   100.0593     0.1220
  110.5000     9.8213     9.5368     9.7440   -63.0677   102.9011     8.1012     0.0464     0.2532     2.4737    99.7384     0.1201
  111.0000     9.6981     9.5278     9.6634   -63.0892   103.0667     8.1159     0.0464     0.2548     2.4777    99.4176     0.1189
  111.5000     9.5864     9.5188     9.5834   -62.9561   103.0762     8.1151     0.0462     0.2599     2.4728    99.0967     0.1202
  112.0000     9.4393     9.5098     9.4348   -63.1366   103.5725     8.1144     0.0381     0.2727     2.4664    98.7759     0.1242
  112.5000     9.0932     9.5009     9.1539   -63.3117   104.0741     8.1136     0.0297     0.2791     2.4577    98.4550     0.1306
  113.0000     8.5601     9.5703     8.9465   -63.3294   104.6940     8.1370     0.0206     0.2852     2.4529    99.6774     0.1340
  113.5000     8.1297     9.6345     8.6780   -63.5081   105.5764     8.1430     0.0142     0.2844     2.4536   103.6775     0.1350
  114.0000     7.8767     9.8271     8.3562   -63.6832   106.2184     8.1575     0.0205     0.2808     2.4544   108.6066     0.1354
  114.5000     7.7160     9.9602     8.1707   -63.8900   105.7540     8.1722     0.0300     0.2789     2.4535   106.4308     0.1351
  115.0000     7.7093    10.0263     8.0440   -64.0334   104.9698     8.1714     0.0379     0.2777     2.4519   105.8013     0.1367
  115.5000     7.7026    10.0145     8.1524   -64.2085   104.1063     8.1707     0.0299     0.2758     2.4527   105.7891     0.1387
  116.0000     7.8680    10.0051     8.2640   -64.3837   104.4332     8.1699     0.0218     0.2721     2.4518   106.0886     0.1397
  116.5000     8.0924     9.8505     8.4386   -64.4049   104.9982     8.1691     0.0186     0.2718     2.4478   106.3820     0.1403
  117.0000     8.2043     9.7695     8.6800   -64.4262   105.0846     8.1684     0.0329     0.2766     2.4462   107.2957     0.1407
  117.5000     8.3786     9.6892     8.9283   -64.4475   104.6996     8.1676     0.0439     0.2813     2.4493   108.8267     0.1392
  118.0000     8.5567     9.5395     9.1837   -64.4705   104.3916     8.1668     0.0518     0.2878     2.4548   106.9626     0.1284
  118.5000     8.7386     9.5305     9.2440   -64.4900   104.0042     8.1661     0.0550     0.2834     2.4691   105.7159     0.1233
  119.0000     8.8613     9.5215     9.3706   -64.5113   103.7732     8.1654     0.0453     0.2784     2.4691   106.9382     0.1250
  119.5000     9.1140     9.4432     9.4965   -64.5326   104.3405     8.1645     0.0373     0.2724     2.4626   107.8591     0.1323
  120.0000     9.2400     9.4344     9.5564   -64.7077   104.4294     8.1638     0.0293     0.2622     2.4546   109.4033     0.1355
  120.5000     9.3680     9.4255     9.5468   -64.8831   104.2007     8.1476     0.0292     0.2531     2.4563   111.5988     0.1337
  121.0000     9.3596     9.4862     9.6095   -64.9046   103.9721     8.1468     0.0324     0.2502     2.4612   112.7536     0.1305
  121.5000     9.3516     9.6165     9.5275   -64.6838   103.5847     8.1460     0.0387     0.2516     2.4681   110.5778     0.1274
  122.0000     9.3434     9.6075     9.4486   -64.6400   103.1973     8.1453     0.0369     0.2532     2.4736   108.4051     0.1236
  122.5000     9.3353     9.7399     9.3704   -64.6655   102.5718     8.1445     0.0287     0.2545     2.4688   107.4669     0.1259
  123.0000     9.3271     9.8742     9.3609   -64.6868   102.0257     8.1437     0.0175     0.2583     2.4624   105.6029     0.1291
  123.5000     9.3189     9.8648     9.3515   -64.7081   101.9476     8.1430     0.0113     0.2673     2.4552   104.0505     0.1298
  124.0000     9.3092     9.8554     9.4105   -64.7293   102.2827     8.1422     0.0113     0.2766     2.4663   106.8130     0.1275
  124.5000     9.3012     9.8460     9.4008   -64.5968   102.7683     8.1414     0.0128     0.2779     2.4686   110.8132     0.1257
  125.0000     9.2931     9.8367     9.3912   -64.6180   103.4127     8.1406     0.0159     0.2793     2.4710   109.5664     0.1235
  125.5000     9.2851     9.8255     9.3797   -64.6369   104.0624     8.1397     0.0159     0.2844     2.4686   108.6282     0.1261
  126.0000     9.2771     9.8163     9.5081   -64.6585   104.5481     8.1390     0.0174     0.2971     2.4574   108.6160     0.1300
  126.5000     9.2691     9.8070     9.4985   -64.6819   104.8696     8.1382     0.0189     0.2963     2.4613   109.2241     0.1288
  127.0000     9.2611     9.7978     9.4889   -64.8570   104.6307     8.1374     0.0220     0.2863     2.4676   110.4465     0.1256
  127.5000     9.2531     9.7886     9.4794   -64.8783   104.3201     8.1212     0.0283     0.2775     2.4724   109.5053     0.1230
  128.0000     9.2451     9.7794     9.4698   -64.7404   103.8686     8.1204     0.0346     0.2667     2.4787   107.0240     0.1203
  128.5000     9.3068     9.8443     9.4602   -64.7670   103.2431     8.1198     0.0378     0.2655     2.4818   103.3080     0.1178
  129.0000     9.2967     9.9060     9.4507   -64.7882   103.2525     8.1189     0.0409     0.2712     2.4850    99.9008     0.1166
  129.5000     9.2887     9.9706     9.3724   -64.8095   103.5794     8.1182     0.0440     0.2792     2.4802    98.0367     0.1183
  130.0000     9.2132    10.0320     9.2948   -64.8308   103.9857     8.1174     0.0503     0.2788     2.4666   101.1109     0.1268
  130.5000     9.2052    10.0225     9.2855   -64.8600   104.3126     8.1166     0.0359     0.2774     2.4650   106.9629     0.1288
  131.0000     9.1973    10.0131     9.2508   -65.0277   104.5578     8.1159     0.0263     0.2749     2.4641   111.9506     0.1285
  131.5000     9.1893    10.0037     9.1993   -65.0492   104.0140     8.1306     0.0151     0.2708     2.4617   119.6317     0.1268
  132.0000     9.1812     9.9943     9.1903   -65.2289   103.6267     8.1452     0.0278     0.2664     2.4770   118.0041     0.1219
  132.5000     9.1732     9.9121     9.1809   -65.4040   103.3956     8.1445     0.0437     0.2699     2.4815   116.4815     0.1188
  133.0000     9.0985     9.8306     9.2388   -65.5791   103.3257     8.1437     0.0550     0.2732     2.4799   115.2321     0.1194
  133.5000     9.0890     9.8214     9.1622   -65.7542   103.4169     8.1429     0.0594     0.2719     2.4759   113.3680     0.1233
  134.0000     9.0812     9.8121     9.1528   -66.0832   103.5057     8.1267     0.0594     0.2720     2.4727   112.1213     0.1240
  134.5000     9.0733     9.8749     9.0769   -66.4122   103.4334     8.1260     0.0593     0.2742     2.4766   111.8035     0.1221
  135.0000     8.9996     9.8655     9.0676   -66.4334   103.4452     8.1252     0.0592     0.2755     2.4789   113.0228     0.1206
  135.5000     8.9918     9.8561     9.0566   -66.3009   103.5340     8.1399     0.0608     0.2750     2.4829   112.3933     0.1180
