~VERSION INFORMATION
 VERS.                2.0:   CWLS LOG ASCII STANDARD - VERSION 2.0
 WRAP.                 NO:   ONE LINE PER DEPTH STEP
~WELL INFORMATION
#MNEM.UNIT      DATA TYPE    INFORMATION
#----------   ------------   ------------------------------
 STRT.F            2.0000:   START DEPTH
 STOP.F          518.0000:   STOP DEPTH
 STEP.F            0.5000:   STEP LENGTH
 NULL.          -999.2500:   NO VALUE
 COMP. LAWRENCE/ALLISON INC:   COMPANY
 WELL.    54-51 SX #10-10:   WELL
 FLD .             TEAPOT:   FIELD
 LOC .      S10 T38N R78W:   LOCATION
 CNTY.            NATRONA:   COUNTY
 STAT.            WYOMING:   STATE
 CTRY. UNITED STATES OF AMERICA:   COUNTRY
 SRVC.            Unknown:   SERVICE COMPANY
 DATE.        14-AUG-1984:   LOGDATE
 API .       490251098800:   API NUMBER
~CURVE INFORMATION
#MNEM.UNIT       API CODE    CURVE DESCRIPTION
#----------   ------------   ------------------------------
 DEPT.F                  :   
 CALD.IN     45 280 60 00:   CALIPER
 DEN .G/C3   45 350 01 00:   COMPENSATED BULK DENSTIY
 CORR.G/C3   45 356 01 00:   DENSITY CORRECTION
 CNC .DEC    42 890 03 00:   NEUTRON POROSITY SANDSTONE
 PORD.DEC    45 890 12 00:   POROSITY DENSITY SANDSTONE
 GRR .GAPI   07 310 01 00:   GAMMA RAY FROM RES. LOG.
 RFOC.OHMM   07 220 04 00:   RESISTIVITY FOCUSED LOG
 RILD.OHMM   07 120 46 00:   INDUCTION LOG DEEP RESISTIVITY
 RILM.OHMM   07 120 44 00:   INDUCTION LOG MEDIUM RESISTIVITY
 AC  .US/F   60 520 00 00:   ACOUSTIC SONIC
 SPR .MV     07 010 01 00:   SPONTANEOUS POTENTIAL
~PARAMETER INFORMATION
#MNEM.UNIT          VALUE    DESCRIPTION
#----------   ------------   ------------------------------
 PD  .                 GL:   PERMANENT DATUM
 EPD .F              5197:   ELEVATION PERMANENT DATUM
 LMF .                 GL:   LOG MEASURED FROM
 DMF .                 GL:   DRILLING MEASURED FROM
 EGL .F              5197:   GROUND LEVEL
 DATE.        14-AUG-1984:   RUN DATE
 RUN .                  1:   RUN NUMBER
 DD  .F               530:   DEPTH DRILLER
 DL  .F               520:   DEPTH LOGGER
 BLI .F               518:   BOTTOM LOG INTERVAL
 CS  .IN            9.625:   CASING SIZE
 CBD .F                40:   CASING BOTTOM DRILLER
 CBL .F                42:   CASING BOTTOM LOGGER
 BS  .IN            7.875:   BIT SIZE
 BSD .F               530:   BIT SIZE AT DEPTH
 DFT .          KCL WATER:   DRILLING FLUID TYPE
 MSS .           FLOWLINE:   MUD SAMPLE SOURCE
 RMS .OHMM            .19:   RESISTIVITY MUD SAMPLE
 MST .F                80:   MUD SAMPLE TEMPERATURE
 RMB .OHMM            .17:   RESISTIVITY MUD AT BHT
 BHT .F                90:   BOTTOM HOLE TEMPERATURE
 TCS .HRS               4:   TIME CURCULATED STOPPED
 MRT .F                90:   MAXIMUM RECORDED TEMPERATURE
 LUN .               6274:   LOGGING UNIT NUMBER
 LUL .               GLTE:   LOGGING UNIT LOCATION
 ENGI.             RAUTIO:   RECORDING ENGINEER
 WITN.              FIVAS:   WITNESSED BY
 CLNT.            A2DTECH:   CLIENT CODE
 ORIG.       2", 5" PRINT:   ORIGIN OF DATA
 UWI .       490251098800:   UNIQUE WELL ID
 DICO. A2D Technologies, Inc.:   DIGITIZING COMPANY
~OTHER INFORMATION
~A    DEPT    CALD        DEN       CORR        CNC       PORD         GRR      RFOC       RILD       RILM         AC        SPR   
# ...
  490.0000     7.5453     2.4956     0.0261     0.2767     0.1083    96.9334     9.0266     8.4847     8.2071    98.5651    59.7808
  490.5000     7.5445     2.5016     0.0206     0.2813     0.1072    95.7974     9.0757     8.3126     8.0922    98.3730    59.6942
  491.0000     7.5437     2.5029     0.0251     0.2865     0.1062    94.3388     9.1251     8.2828     8.0578    98.1804    59.3542
  491.5000     7.5429     2.5022     0.0375     0.2877     0.1052    94.5864     9.1876     7.9678     7.7608    98.2162    59.0487
  492.0000     7.5421     2.5010     0.0368     0.2885     0.1061    94.9628     9.3209     7.6744     7.4082    98.6567    58.7667
  492.5000     7.5413     2.4962     0.0221     0.2897     0.1109    95.3475     8.8717     7.4017     7.0725   100.0895    58.4752
  493.0000     7.5405     2.4845     0.0089     0.2915     0.1180    96.5079     8.2409     7.1400     6.7531   101.5761    58.4256
  493.5000     7.5397     2.4702     0.0120     0.2879     0.1278    98.9412     7.6550     6.8884     6.5659   103.0627    58.4725
  494.0000     7.5389     2.4557     0.0246     0.2851     0.1389   101.3106     7.0857     6.7059     6.5236   104.1293    58.5217
  494.5000     7.5381     2.4498     0.0382     0.2908     0.1353   102.9744     7.2836     7.0050     6.6964   103.0348    58.5691
  495.0000     7.5373     2.4635     0.0441     0.2984     0.1275    99.9951     7.8352     7.2836     6.9698   101.6678    58.6090
  495.5000     7.5365     2.4791     0.0422     0.3002     0.1189    97.0938     8.4967     7.5826     7.2541   100.2194    58.9041
  496.0000     7.5357     2.4947     0.0403     0.3021     0.1103    98.0988     9.2318     7.8760     7.5504    99.0178    59.1896
  496.5000     7.5349     2.5015     0.0344     0.3040     0.1062    99.4968     9.4506     8.1807     7.8586    98.3099    59.4721
  497.0000     7.5340     2.4982     0.0210     0.2931     0.1076   100.9269     9.5178     8.6105     8.1794    97.6020    59.7544
  497.5000     7.5332     2.4948     0.0148     0.2829     0.1101   101.0013     9.5856     9.0794     8.5133    96.8941    60.0367
  498.0000     7.5324     2.4923     0.0162     0.2834     0.1093  -999.2500     9.8950     9.3716     8.8610    96.1862    60.3190
  498.5000     7.5316     2.4987     0.0225     0.2850     0.1080  -999.2500    10.2159     9.6506     9.2228    95.4783    60.6018
  499.0000     7.5308     2.4970     0.0265     0.2850     0.1077  -999.2500    10.5164     9.9379     9.5991    94.9214    60.8829
  499.5000     7.5300     2.4935     0.0207     0.2843     0.1094  -999.2500    10.6134    10.2337     9.9527    94.6760    61.1599
  500.0000     7.5292     2.4940     0.0150     0.2859     0.1089  -999.2500    10.6531    10.3318     9.9365    94.6433    61.4060
  500.5000     7.5284     2.4957     0.0088     0.2947     0.1082  -999.2500    10.6894    10.3454     9.9218    94.8631    61.5336
  501.0000     7.5276     2.4974     0.0106     0.3035     0.1083  -999.2500    10.7259    10.3589     9.9071    95.0828    61.5154
  501.5000     7.5268     2.4984     0.0245     0.3123     0.1088  -999.2500    10.7624    10.3726     9.8924    95.3026    61.4871
  502.0000     7.5260     2.4900     0.0259     0.3165     0.1110  -999.2500    10.7991    10.3862     9.8778    95.5224    61.4584
  502.5000     7.5252     2.4806     0.0102     0.3010     0.1166  -999.2500    10.8418    10.3997     9.8617    95.7421    61.4305
  503.0000     7.5244     2.4776     0.0106     0.2803     0.1208  -999.2500    10.8871    10.4203    10.0445    95.5137    61.4042
  503.5000     7.5236     2.4782     0.0169     0.2813     0.1204  -999.2500    10.9327    10.3785     9.9824    95.2170    61.3768
  504.0000     7.5228     2.4827     0.0233     0.2870     0.1175  -999.2500    10.9784    10.2955     9.9139    94.8570    61.5593
  504.5000     7.5220     2.4872     0.0298     0.2820     0.1146  -999.2500    11.0105    10.2130     9.8458    94.6792    61.8925
  505.0000     7.5212     2.4916     0.0322     0.2754     0.1117  -999.2500    11.1121    10.1313     9.7715    95.0956    61.9333
  505.5000     7.5203     2.4960     0.0336     0.2715     0.1088  -999.2500    11.0510    10.0502     9.7066    95.5108    61.8777
  506.0000     7.5195     2.4997     0.0350     0.2727     0.1080  -999.2500    10.9836     9.9698     9.6350    95.9281    61.8202
  506.5000     7.5187     2.4899     0.0268     0.2735     0.1154  -999.2500    10.9099     9.8900     9.5639    96.3445    61.7629
  507.0000     7.5179     2.4748     0.0024     0.2667     0.1219  -999.2500    10.8154     9.7737     9.4934    96.7616    61.7056
  507.5000     7.5178     2.4705    -0.0113     0.2591     0.1226  -999.2500    10.7113     9.9247     9.4233    97.1773    61.6485
  508.0000     7.5179     2.4751    -0.0021     0.2575     0.1191  -999.2500    10.6083    10.1350     9.3538    97.5936    61.5926
  508.5000     7.5179     2.4853     0.0083  -999.2500     0.1155  -999.2500    10.5063    10.0950     9.3176    97.9602    61.5876
  509.0000     7.5179     2.4857     0.0189  -999.2500     0.1158  -999.2500    10.4052    10.0613     9.2664    97.9602    61.6981
  509.5000     7.5179     2.4848     0.0293  -999.2500     0.1172  -999.2500    10.3051    10.0280     9.2155    97.9602    61.8059
  510.0000     7.5179     2.4852     0.0398  -999.2500     0.1165  -999.2500    10.2060     9.9952     9.1649    97.7612    61.9137
  510.5000     7.5179     2.4881     0.0384  -999.2500     0.1133  -999.2500    10.1371     9.9521     9.1145    97.7612    62.0217
  511.0000     7.5179     2.4918     0.0254  -999.2500     0.1120  -999.2500    10.3280    10.0158     9.0789    97.3632    62.1297
  511.5000     7.5179     2.4915     0.0121  -999.2500     0.1112  -999.2500    10.4773    10.1424     9.1613  -999.2500    62.2385
  512.0000     7.5179     2.4878     0.0048  -999.2500     0.1140  -999.2500    10.6134    10.2301     9.2439  -999.2500    62.3479
  512.5000     7.5179     2.4841     0.0009  -999.2500     0.1168  -999.2500    10.5012    10.0831     8.9800  -999.2500    62.3527
  513.0000     7.5179     2.4803     0.0017  -999.2500     0.1182  -999.2500    10.4002    10.0061     8.9142  -999.2500    62.3520
  513.5000     7.5179     2.4824     0.0065  -999.2500     0.1167  -999.2500    10.3001     9.9527     9.2392  -999.2500    62.3518
  514.0000     7.5179     2.4874     0.0113  -999.2500     0.1136  -999.2500    10.2306    10.0122     9.4191  -999.2500    62.3518
  514.5000     7.5179     2.4915     0.0163  -999.2500     0.1121  -999.2500    10.4203    10.0907     9.2647  -999.2500    62.3518
  515.0000     7.5180     2.4907     0.0113  -999.2500     0.1123  -999.2500    10.5285    10.3250     9.0961  -999.2500    62.3518
  515.5000     7.5181     2.4939     0.0040  -999.2500     0.1112  -999.2500    10.6134    10.2659     8.9142  -999.2500    62.3518
  516.0000     7.5099     2.4996    -0.0037  -999.2500     0.1088  -999.2500    10.4340    10.1488     8.9142  -999.2500    62.3520
  516.5000     7.4331     2.5009     0.0086  -999.2500     0.1099  -999.2500    10.2980    10.0330     9.0745  -999.2500    62.3349
  517.0000     7.3320     2.4863     0.0262  -999.2500     0.1173  -999.2500    10.1638     9.9185     9.2228  -999.2500    62.3080
  517.5000     7.1706     2.4713     0.0446  -999.2500     0.1248  -999.2500    10.0445     9.8053     9.4191  -999.2500    62.2810
  518.0000     7.0082     2.4565     0.0411  -999.2500     0.1322  -999.2500    10.0445     9.6933     9.2195  -999.2500    62.2540
