~VERSION INFORMATION
 VERS.                2.0:   CWLS LOG ASCII STANDARD - VERSION 2.0
 WRAP.                 NO:   ONE LINE PER DEPTH STEP
~WELL INFORMATION
#MNEM.UNIT      DATA TYPE    INFORMATION
#----------   ------------   ------------------------------
 STRT.F            2.0000:   START DEPTH
 STOP.F          832.0000:   STOP DEPTH
 STEP.F            0.5000:   STEP LENGTH
 NULL.          -999.2500:   NO VALUE
 COMP. U S NAVY-INTEX OIL:   COMPANY
 WELL.        NPR #46-S-2:   WELL
 FLD .             TEAPOT:   FIELD
 LOC .       S2 T38N R78W:   LOCATION
 CNTY.            NATRONA:   COUNTY
 STAT.            WYOMING:   STATE
 CTRY. UNITED STATES OF AMERICA:   COUNTRY
 SRVC.      NL McCullough:   SERVICE COMPANY
 DATE.        13-AUG-1961:   LOGDATE
 API .       490250641500:   API NUMBER
~CURVE INFORMATION
#MNEM.UNIT       API CODE    CURVE DESCRIPTION
#----------   ------------   ------------------------------
 DEPT.F                  :   
 GR  .MG/TON 35 310 30 00:   GAMMA RAY
 NEUT.NAPI   35 330 01 00:   NEUTRON
~PARAMETER INFORMATION
#MNEM.UNIT          VALUE    DESCRIPTION
#----------   ------------   ------------------------------
 PD  .                 GL:   PERMANENT DATUM
 EPD .F              5150:   ELEVATION PERMANENT DATUM
 LMF .                 KB:   LOG MEASURED FROM
 DAPD.F                 6:   FEET ABOVE PERMANENT DATUM
 DMF .                 KB:   DRILLING MEASURED FROM
 EKB .F              5156:   KELLING BUSHING
 EGL .F              5150:   GROUND LEVEL
 DATE.        13-AUG-1961:   RUN DATE
 RUN .                  1:   RUN NUMBER
 DD  .F               830:   DEPTH DRILLER
 DL  .F               834:   DEPTH LOGGER
 BLI .F             832.5:   BOTTOM LOG INTERVAL
 BS  .IN            7.875:   BIT SIZE
 BSD .F               830:   BIT SIZE AT DEPTH
 DFT .       OIL EMULSION:   DRILLING FLUID TYPE
 DFD .                9.5:   DRILLING FLUID DENSITY
 TCS .HRS               1:   TIME CURCULATED STOPPED
 LUN .               1296:   LOGGING UNIT NUMBER
 ENGI.            JACKSON:   RECORDING ENGINEER
 WITN.          JORGENSEN:   WITNESSED BY
 CLNT.            A2DTECH:   CLIENT CODE
 ORIG.        2" 5" PRINT:   ORIGIN OF DATA
 UWI .       490250641500:   UNIQUE WELL ID
 DICO. A2D Technologies, Inc.:   DIGITIZING COMPANY
~OTHER INFORMATION
~A    DEPT        GR     NEUT   
# ...
  488.0000     6.0239   281.4107
  488.5000     6.0463   267.8448
  489.0000     6.1546   255.5397
  489.5000     6.3537   253.5570
  490.0000     6.5648   255.0975
  490.5000     6.6738   256.0606
  491.0000     6.7217   259.5128
  491.5000     6.5506   264.2017
  492.0000     6.3804   266.5677
  492.5000     6.2232   249.4565
  493.0000     6.4231   239.6927
  493.5000     6.4800   234.3913
  494.0000     6.5592   234.7973
  494.5000     6.6260   252.1922
  495.0000     6.7608   271.9300
  495.5000     6.8733   282.1852
  496.0000     6.9550   277.2119
  496.5000     6.8435   270.0787
  497.0000     6.7900   264.5027
  497.5000     6.6874   286.2648
  498.0000     6.4865   288.9206
  498.5000     6.5401   286.9678
  499.0000     6.6081   286.3193
  499.5000     6.6809   295.1090
  500.0000     6.7655   304.3478
  500.5000     6.7037   307.5562
  501.0000     6.5967   306.0793
  501.5000     6.6904   299.1696
  502.0000     6.7418   291.6944
  502.5000     6.7790   285.3449
  503.0000     6.8316   279.7486
  503.5000     6.7202   274.8950
  504.0000     6.6327   269.2953
  504.5000     6.6387   263.5082
  505.0000     6.5682   258.2833
  505.5000     6.3607   254.3720
  506.0000     6.2371   248.3958
  506.5000     6.1994   237.3614
  507.0000     6.1854   230.4532
  507.5000     6.4466   226.3493
  508.0000     6.5848   218.5008
  508.5000     6.6355   226.3945
  509.0000     6.7454   244.2202
  509.5000     6.9121   250.0542
  510.0000     6.9844   256.8216
  510.5000     7.0010   270.3372
  511.0000     7.0072   278.6092
  511.5000     6.9479   270.1948
  512.0000     6.7216   264.4078
  512.5000     6.5218   258.3393
  513.0000     6.4893   251.7092
  513.5000     6.5540   262.2281
  514.0000     6.4411   278.7402
  514.5000     6.3708   284.6663
  515.0000     6.3484   299.7786
  515.5000     6.2346   299.9846
  516.0000     6.3691   282.5787
  516.5000     6.5066   269.6696
  517.0000     6.5558   259.0107
  517.5000     6.3735   252.6629
  518.0000     6.1679   251.1844
  518.5000     5.9679   253.0809
  519.0000     5.9507   257.2299
  519.5000     5.8939   256.8739
  520.0000     5.9866   238.5307
  520.5000     6.0618   231.4319
  521.0000     6.0959   226.5819
  521.5000     6.1111   222.1082
  522.0000     6.1104   224.3778
  522.5000     6.0818   230.1161
  523.0000     6.0141   237.1699
  523.5000     5.9250   250.8701
  524.0000     5.8693   264.1979
  524.5000     5.8231   271.5290
  525.0000     5.7999   276.0493
  525.5000     5.7355   279.2596
  526.0000     5.6162   284.1529
  526.5000     5.5548   294.0141
  527.0000     5.5508   298.0694
  527.5000     5.6298   299.4004
  528.0000     5.6227   307.8560
  528.5000     5.5704   317.7172
  529.0000     5.4667   319.1454
  529.5000     5.4520   319.1696
  530.0000     5.4488   338.6807
  530.5000     5.4004   356.2254
  531.0000     5.3077   374.7111
  531.5000     5.2183   380.3521
  532.0000     5.1777   385.9970
  532.5000     5.1925   392.1100
  533.0000     5.2452   400.0980
  533.5000     5.1939   407.8053
  534.0000     5.1329   401.8286
  534.5000     5.1044   386.4844
  535.0000     5.1427   382.3873
  535.5000     5.1896   378.7522
  536.0000     5.4033   372.6837
  536.5000     5.4938   369.8015
  537.0000     5.5820   366.7281
  537.5000     5.6873   367.5055
  538.0000     5.7149   369.7751
  538.5000     5.7548   368.1110
  539.0000     5.8103   364.5762
  539.5000     5.8224   365.4385
  540.0000     5.7556   378.1109
  540.5000     5.7037   381.6004
  541.0000     5.6515   380.0298
  541.5000     5.5925   376.6809
  542.0000     5.7085   375.9520
  542.5000     5.7794   383.9392
  543.0000     5.7723   397.7396
  543.5000     5.6657   401.7878
  544.0000     5.5565   403.7781
  544.5000     5.4411   405.9560
  545.0000     5.3632   409.2578
  545.5000     5.4977   410.5939
  546.0000     5.5120   406.1169
  546.5000     5.6158   388.7108
  547.0000     5.7444   373.9315
  547.5000     5.7946   366.4543
  548.0000     5.8417   353.7331
  548.5000     5.8389   340.5435
  549.0000     5.7717   343.8453
  549.5000     5.8723   358.3001
  550.0000     6.0067   374.8126
  550.5000     6.0601   383.0810
  551.0000     6.0612   381.6076
  551.5000     6.0345   372.1635
  552.0000     5.8722   357.6612
  552.5000     5.8168   347.8448
  553.0000     5.7931   344.7751
  553.5000     5.7477   343.4875
  554.0000     5.6448   341.6342
  554.5000     5.5198   340.2508
  555.0000     5.4654   334.5612
  555.5000     5.4797   326.3340
  556.0000     5.4888   318.1110
  556.5000     5.4960   332.2826
  557.0000     5.4785   334.6475
  557.5000     5.4294   336.9207
  558.0000     5.4986   335.4423
  558.5000     5.5800   332.9348
  559.0000     5.6463   328.7441
  559.5000     5.7360   333.6358
  560.0000     5.7735   336.2819
  560.5000     5.6620   335.8358
  561.0000     5.5819   325.6454
  561.5000     5.5203   310.8638
  562.0000     5.4988   304.5133
  562.5000     5.5376   293.9470
  563.0000     5.5664   277.9495
  563.5000     5.5476   266.4427
  564.0000     5.5711   257.0015
  564.5000     5.5896   271.1747
  565.0000     5.6725   290.2169
  565.5000     5.8756   300.5490
  566.0000     5.9331   300.5697
  566.5000     5.9709   300.5922
  567.0000     6.0007   302.1174
  567.5000     6.1570   310.2888
  568.0000     6.3303   315.6522
  568.5000     6.4560   320.0789
  569.0000     6.5159   323.7555
  569.5000     6.4910   326.2161
  570.0000     6.2407   325.4872
  570.5000     6.3407   319.5129
  571.0000     6.4510   309.7935
  571.5000     6.4775   305.4084
  572.0000     6.4394   299.3403
  572.5000     6.5103   301.1429
  573.0000     6.5486   306.8816
  573.5000     6.5378   304.6569
  574.0000     6.4813   296.4318
  574.5000     6.3762   277.9950
  575.0000     6.1501   267.9945
  575.5000     6.0499   265.6708
  576.0000     6.0051   259.0405
  576.5000     5.9609   246.0385
  577.0000     5.9252   239.7824
  577.5000     5.9612   238.1185
  578.0000     6.0064   238.5157
  578.5000     6.0403   239.8500
  579.0000     6.2627   246.4353
  579.5000     6.6332   252.8259
  580.0000     6.6289   255.4723
  580.5000     6.5349   256.7128
  581.0000     6.4626   258.1411
  581.5000     6.3212   262.2881
  582.0000     6.4705   269.0561
  582.5000     6.5321   280.3221
  583.0000     6.5753   290.8430
  583.5000     6.5607   297.7022
  584.0000     6.3919   300.6297
  584.5000     6.0991   300.1837
  585.0000     5.9654   296.7387
  585.5000     5.9053   289.4545
  586.0000     5.8616   283.8531
  586.5000     5.8805   279.3779
  587.0000     5.9793   274.5312
  587.5000     6.0039   272.2076
  588.0000     6.0004   270.8246
  588.5000     5.9780   272.5336
  589.0000     5.9079   274.6143
  589.5000     5.8454   270.1442
  590.0000     5.7891   271.6642
  590.5000     5.8538   275.4348
  591.0000     5.9853   273.9615
  591.5000     6.1401   270.1387
  592.0000     6.1365   265.7571
  592.5000     6.0324   264.2804
  593.0000     5.9472   264.4902
  593.5000     5.9251   270.3241
  594.0000     6.0704   286.4618
  594.5000     6.2759   299.6962
  595.0000     6.4493   315.3708
  595.5000     6.6117   312.9535
  596.0000     6.5754   303.4183
  596.5000     6.4447   301.4730
  597.0000     6.3964   298.0287
  597.5000     6.3553   286.2461
  598.0000     6.2088   276.1469
  598.5000     6.0320   263.0511
  599.0000     5.9517   258.6694
  599.5000     5.9357   261.5027
  600.0000     6.3507   297.9910
  600.5000     6.2546   325.6682
  601.0000     6.1880   335.4216
  601.5000     6.5228   350.4028
  602.0000     6.1222   310.1189
  602.5000     5.9369   283.2778
  603.0000     5.9075   275.8542
  603.5000     6.2795   260.9623
  604.0000     6.3542   287.1459
  604.5000     6.0501   292.4072
  605.0000     5.9168   252.1344
  605.5000     5.7390   257.4068
  606.0000     5.8063   273.1237
  606.5000     5.7993   235.8382
  607.0000     5.7180   253.0487
  607.5000     5.6292   234.4339
  608.0000     5.6371   218.7952
  608.5000     5.6971   212.1184
  609.0000     5.8684   221.8718
