~VERSION INFORMATION
 VERS.                2.0:   CWLS LOG ASCII STANDARD - VERSION 2.0
 WRAP.                 NO:   ONE LINE PER DEPTH STEP
~WELL INFORMATION
#MNEM.UNIT      DATA TYPE    INFORMATION
#----------   ------------   ------------------------------
 STRT.F          250.0000:   START DEPTH
 STOP.F         1798.0000:   STOP DEPTH
 STEP.F            0.5000:   STEP LENGTH
 NULL.          -999.2500:   NO VALUE
 COMP. BROWN JOHN E&C INC:   COMPANY
 WELL. NPR 3 STX-10 #57-10:   WELL
 FLD .  TEAPOT DOME NPR 3:   FIELD
 LOC .      S10 T38N R78W:   LOCATION
 CNTY.            NATRONA:   COUNTY
 STAT.            WYOMING:   STATE
 CTRY. UNITED STATES OF AMERICA:   COUNTRY
 SRVC.           BIRDWELL:   SERVICE COMPANY
 DATE.        24-FEB-1979:   LOGDATE
 API .       490251096900:   API NUMBER
~CURVE INFORMATION
#MNEM.UNIT       API CODE    CURVE DESCRIPTION
#----------   ------------   ------------------------------
 DEPT.F                  :   
 GRD .GAPI   45 310 01 00:   GAMMA RAY FROM DENSITY LOG
 CALD.IN     45 280 60 00:   CALIPER
 RHOB.G/C3   45 350 01 00:   BULK DENSITY
 DPHI.DEC    45 890 12 00:   DENSITY POROSITY SANDSTONE
 CORR.G/C3   45 356 01 00:   DENSITY CORRECTION
~PARAMETER INFORMATION
#MNEM.UNIT          VALUE    DESCRIPTION
#----------   ------------   ------------------------------
 PD  .                 GL:   PERMANENT DATUM
 EPD .F              5201:   ELEVATION PERMANENT DATUM
 LMF .                 KB:   LOG MEASURED FROM
 DAPD.F                10:   FEET ABOVE PERMANENT DATUM
 DMF .                 KB:   DRILLING MEASURED FROM
 EKB .F              5211:   KELLING BUSHING
 EGL .F              5201:   GROUND LEVEL
 RUN .                  1:   RUN NUMBER
 DD  .F              1802:   DEPTH DRILLER
 DL  .F              1793:   DEPTH LOGGER
 BLI .F              1793:   BOTTOM LOG INTERVAL
 TLI .F               250:   TOP LOG INTERVAL
 CS  .IN            9.625:   CASING SIZE
 CBD .F               500:   CASING BOTTOM DRILLER
 CBL .F               490:   CASING BOTTOM LOGGER
 BS  .IN             8.75:   BIT SIZE
 BSD .F              1802:   BIT SIZE AT DEPTH
 DFT .                OIL:   DRILLING FLUID TYPE
 BHT .F                90:   BOTTOM HOLE TEMPERATURE
 TCS .HRS               4:   TIME CURCULATED STOPPED
 MRT .F                90:   MAXIMUM RECORDED TEMPERATURE
 LUN .               3029:   LOGGING UNIT NUMBER
 LUL .             CASPER:   LOGGING UNIT LOCATION
 ENGI.            ROLLINS:   RECORDING ENGINEER
 WITN.              AMEND:   WITNESSED BY
 CLNT.            A2DTECH:   CLIENT CODE
 ORIG.       2", 5" PRINT:   ORIGIN OF DATA
 UWI .       490251096900:   UNIQUE WELL ID
 DICO. A2D Technologies, Inc.:   DIGITIZING COMPANY
~OTHER INFORMATION
~A   DEPT       GRD        CALD       RHOB       DPHI      CORR  
# ...
  860.0000   123.3385     9.6176     2.4710     0.0465     0.0784
  860.5000   122.0260     9.5976     2.4792     0.0342     0.0993
  861.0000   123.9421     9.5752     2.5181     0.0201     0.1206
  861.5000   129.0948     9.5698     2.5092     0.0278     0.1210
  862.0000   127.5606     9.5652     2.4862     0.0407     0.1171
  862.5000   124.3088     9.5604     2.4762     0.0460     0.1264
  863.0000   121.0628     9.5556     2.4981     0.0309     0.1464
  863.5000   117.5184     9.5508     2.5224     0.0114     0.1569
  864.0000   120.3723     9.5459     2.5376     0.0134     0.1412
  864.5000   126.5108     9.5411     2.5337     0.0176     0.1221
  865.0000   130.0512     9.5363     2.5269     0.0149     0.1207
  865.5000   129.2420     9.5315     2.5323     0.0122     0.1271
  866.0000   127.8525     9.5266     2.5396     0.0137     0.1336
  866.5000   130.0014     9.5217     2.5322     0.0150     0.1405
  867.0000   134.8557     9.5176     2.5302     0.0080     0.1424
  867.5000   138.5333     9.5290     2.5410     0.0092     0.1363
  868.0000   129.4653     9.5409     2.5345     0.0129     0.1285
  868.5000   120.3287     9.5527     2.5221     0.0188     0.1206
  869.0000   112.7781     9.5644     2.5096     0.0247     0.1128
  869.5000   114.8287     9.5761     2.5012     0.0309     0.1049
  870.0000   116.7326     9.5879     2.4939     0.0354     0.0978
  870.5000   118.6059     9.5996     2.4875     0.0393     0.1130
  871.0000   119.2282     9.6114     2.5016     0.0266     0.1330
  871.5000   118.3020     9.6231     2.5211     0.0155     0.1539
  872.0000   117.3569     9.6348     2.5403     0.0087     0.1551
  872.5000   116.4164     9.6466     2.5320     0.0143     0.1504
  873.0000   115.6006     9.6584     2.5210     0.0204     0.1485
  873.5000   116.4267     9.6701     2.5194     0.0201     0.1673
  874.0000   117.9833     9.6781     2.5460    -0.0096     0.1931
  874.5000   119.5358     9.6622     2.5698    -0.0024     0.1716
  875.0000   120.6369     9.6448     2.5514     0.0118     0.1400
  875.5000   119.0418     9.6272     2.5197     0.0259     0.1070
  876.0000   117.2772     9.6106     2.4878     0.0401     0.0967
  876.5000   115.5317     9.6153     2.4803     0.0429     0.1109
  877.0000   114.2343     9.6885     2.4807     0.0425     0.1696
  877.5000   116.7616     9.7591     2.5118     0.0173     0.2268
  878.0000   122.3222     9.7650     2.5679    -0.0248     0.2836
  878.5000   125.3420     9.6922     2.6002    -0.0135     0.3219
  879.0000   123.8338     9.6201     2.5698     0.0104     0.2188
  879.5000   122.1470     9.5777     2.5243     0.0305     0.1490
  880.0000   116.0658     9.5757     2.4890     0.0313     0.1169
  880.5000   109.6792     9.6059     2.4887     0.0229     0.1179
  881.0000   109.4688     9.6261     2.5142     0.0162     0.1223
  881.5000   114.8214     9.6469     2.5342     0.0100     0.1259
  882.0000   120.3659     9.6674     2.5383     0.0135     0.1247
  882.5000   125.9327     9.6878     2.5247     0.0229     0.1085
  883.0000   126.9872     9.7083     2.5047     0.0322     0.0927
  883.5000   121.4754     9.7287     2.4867     0.0413     0.0899
  884.0000   116.6648     9.7492     2.4911     0.0355     0.0972
  884.5000   111.8904     9.7696     2.5001     0.0312     0.1020
  885.0000   108.5400     9.7900     2.5023     0.0299     0.1011
  885.5000   110.8680     9.8105     2.4965     0.0334     0.1000
  886.0000   118.2935     9.8309     2.4908     0.0373     0.1111
  886.5000   125.6417     9.8514     2.4890     0.0328     0.1243
  887.0000   127.4064     9.8718     2.5110     0.0273     0.1379
  887.5000   126.6295     9.8922     2.5164     0.0228     0.1363
  888.0000   123.3573     9.9127     2.5107     0.0235     0.1340
  888.5000   120.1898     9.9348     2.5137     0.0240     0.1442
  889.0000   116.9262     9.8930     2.5303     0.0164     0.1545
  889.5000   115.4542     9.8257     2.5313     0.0148     0.1505
  890.0000   114.5819     9.7577     2.5239     0.0209     0.1433
  890.5000   113.7093     9.6898     2.5141     0.0270     0.1358
  891.0000   113.2498     9.6215     2.5045     0.0333     0.1343
  891.5000   120.4705     9.5841     2.4946     0.0333     0.1342
  892.0000   127.1047     9.5625     2.4943     0.0333     0.1362
  892.5000   125.4710     9.5411     2.4973     0.0333     0.1372
  893.0000   123.4199     9.5197     2.5003     0.0333     0.1342
  893.5000   121.3906     9.4983     2.4939     0.0330     0.1351
  894.0000   120.4176     9.4771     2.5034     0.0275     0.1540
  894.5000   126.6300     9.4657     2.5214     0.0172     0.1681
  895.0000   123.1267     9.4547     2.5234     0.0183     0.1650
  895.5000   118.8760     9.4436     2.5198     0.0202     0.1532
  896.0000   123.3529     9.4326     2.5161     0.0220     0.1420
  896.5000   128.2993     9.4215     2.5135     0.0239     0.1323
  897.0000   131.9815     9.4231     2.5166     0.0219     0.1328
  897.5000   128.4574     9.4348     2.5234     0.0183     0.1337
  898.0000   124.9609     9.4464     2.5256     0.0210     0.1342
  898.5000   123.3920     9.4582     2.5177     0.0247     0.1261
  899.0000   128.3591     9.4699     2.5091     0.0278     0.1171
  899.5000   124.5210     9.4817     2.5005     0.0305     0.1081
  900.0000   122.0029     9.4939     2.4919     0.0329     0.0983
  900.5000   132.7943     9.4931     2.4832     0.0437     0.0926
  901.0000   130.5650     9.4879     2.4811     0.0361     0.1047
  901.5000   125.7638     9.4824     2.4961     0.0251     0.1189
  902.0000   120.7377     9.4770     2.5220     0.0141     0.1328
  902.5000   122.4827     9.4715     2.5458     0.0040     0.1376
  903.0000   124.8446     9.4661     2.5474     0.0104     0.1269
  903.5000   127.2086     9.4609     2.5317     0.0176     0.1165
  904.0000   129.5558     9.4639     2.5192     0.0248     0.1061
  904.5000   130.7069     9.4959     2.5068     0.0345     0.0952
  905.0000   128.9348     9.5273     2.4971     0.0308     0.0977
  905.5000   127.8796     9.5569     2.4956     0.0251     0.1056
  906.0000   123.0851     9.5611     2.5143     0.0209     0.1137
  906.5000   120.1706     9.5644     2.5156     0.0284     0.1194
  907.0000   124.1867     9.5678     2.5131     0.0214     0.1248
  907.5000   123.8398     9.5713     2.5261     0.0129     0.1300
  908.0000   120.7374     9.5746     2.5341     0.0121     0.1346
  908.5000   119.2703     9.5757     2.5240     0.0261     0.1448
  909.0000   120.7952     9.6361     2.5119     0.0293     0.2230
  909.5000   122.3429     9.7091     2.5024     0.0100     0.3015
  910.0000   123.2334     9.7861     2.5641    -0.0204     0.3631
  910.5000   120.5442     9.7204     2.5892    -0.0098     0.3000
  911.0000   117.8802     9.6213     2.5537     0.0073     0.2007
  911.5000   115.5493     9.5191     2.5298     0.0135     0.1330
  912.0000   117.2028     9.4993     2.5318     0.0127     0.1156
  912.5000   119.3202     9.5118     2.5338     0.0120     0.0995
  913.0000   118.6304     9.5250     2.5340     0.0134     0.0834
  913.5000   117.7799     9.5382     2.5250     0.0168     0.0672
  914.0000   117.3837     9.5512     2.5161     0.0234     0.0535
  914.5000   118.0621     9.5642     2.5072     0.0309     0.0539
  915.0000   118.7103     9.5773     2.4983     0.0343     0.0586
  915.5000   118.9965     9.5903     2.4892     0.0393     0.0633
  916.0000   117.5726     9.6034     2.4868     0.0308     0.0744
  916.5000   115.9898     9.6164     2.5033     0.0198     0.0972
  917.0000   114.4327     9.6295     2.5209     0.0172     0.1193
  917.5000   112.7024     9.6426     2.5265     0.0234     0.1101
  918.0000   115.9706     9.6557     2.5158     0.0281     0.0991
  918.5000   123.9618     9.6683     2.5077     0.0253     0.0883
  919.0000   122.7645     9.6651     2.4997     0.0228     0.0774
  919.5000   120.1247     9.6100     2.4882     0.0395     0.0660
  920.0000   117.5976     9.5569     2.4757     0.0485     0.0603
  920.5000   125.6849     9.5154     2.4626     0.0529     0.0615
