~VERSION INFORMATION
 VERS.                2.0:   CWLS LOG ASCII STANDARD - VERSION 2.0
 WRAP.                 NO:   ONE LINE PER DEPTH STEP
~WELL INFORMATION
#MNEM.UNIT      DATA TYPE    INFORMATION
#----------   ------------   ------------------------------
 STRT.F           22.0000:   START DEPTH
 STOP.F          564.0000:   STOP DEPTH
 STEP.F            0.5000:   STEP LENGTH
 NULL.          -999.2500:   NO VALUE
 COMP.    FENIX & SCISSON:   COMPANY
 WELL. NPR # #3 12 - SX 11:   WELL
 FLD .             TEAPOT:   FIELD
 LOC .      S11 T38N R78W:   LOCATION
 CNTY.            NATRONA:   COUNTY
 STAT.            WYOMING:   STATE
 CTRY. UNITED STATES OF AMERICA:   COUNTRY
 SRVC.           BIRDWELL:   SERVICE COMPANY
 DATE.        29-NOV-1978:   LOGDATE
 API .       490251075500:   API NUMBER
~CURVE INFORMATION
#MNEM.UNIT       API CODE    CURVE DESCRIPTION
#----------   ------------   ------------------------------
 DEPT.F                  :   
 ILD .OHMM   05 120 46 00:   INDUCTION LOG DEEP
 SN  .OHMM   05 040 00 00:   SHORT NORMAL
 SPR .MV     05 010 01 00:   SPONTANEOUS POTENTIAL FROM RES.
 CALD.IN     45 280 60 00:   CALIPER FROM DENSITY LOG
 CORR.G/C3   45 356 01 00:   DENSITY CORRECTION
 DPHI.DEC    45 890 12 00:   DENSITY POROSITY SANDSTONE
 GRD .GAPI   45 310 01 00:   GAMMA RAY FROM DENSITY LOG
 RHOB.G/C3   45 350 01 00:   BULK DENSITY
~PARAMETER INFORMATION
#MNEM.UNIT          VALUE    DESCRIPTION
#----------   ------------   ------------------------------
 PD  .                 GL:   PERMANENT DATUM
 EPD .F              5143:   ELEVATION PERMANENT DATUM
 LMF .                 KB:   LOG MEASURED FROM
 DAPD.F                 4:   FEET ABOVE PERMANENT DATUM
 DMF .                 KB:   DRILLING MEASURED FROM
 EKB .F              5147:   KELLING BUSHING
 EGL .F              5143:   GROUND LEVEL
 DATE.        29-NOV-1978:   RUN DATE
 RUN .                  1:   RUN NUMBER
 DD  .F               562:   DEPTH DRILLER
 DL  .F               564:   DEPTH LOGGER
 BLI .F               564:   BOTTOM LOG INTERVAL
 TLI .F                30:   TOP LOG INTERVAL
 CS  .IN            8.625:   CASING SIZE
 CBL .F                48:   CASING BOTTOM LOGGER
 BS  .IN            7.875:   BIT SIZE
 BSD .F               562:   BIT SIZE AT DEPTH
 DFT .                KCL:   DRILLING FLUID TYPE
 DFD .                8.7:   DRILLING FLUID DENSITY
 DFV .                 36:   DRILLING FLUID VISCOSITY
 DFPH.               10.9:   DRILLING FLUID PH
 DFL .                 12:   DRILLING FLUID LOSS
 MSS .           FLOWLINE:   MUD SAMPLE SOURCE
 RMS .OHMM           0.34:   RESISTIVITY MUD SAMPLE
 MST .F                56:   MUD SAMPLE TEMPERATURE
 RMF .OHMM           0.32:   RESISTIVITY MUD FILTRATE SAMPLE
 MFST.F                59:   MUD FILTRATE SAMPLE TEMPERATURE
 RMC .OHMM            0.4:   RESISTIVITY MUD CAKE
 MCST.F                59:   MUD CAKE SAMPLE TEMPERATURE
 MFSS.               MEAS:   MUD FILTRATE SAMPLE SOURCE
 MCSS.               MEAS:   MUD CAKE SAMPLE SOURCE
 RMB .OHMM           0.33:   RESISTIVITY MUD AT BHT
 BHT .F                59:   BOTTOM HOLE TEMPERATURE
 TCS .HRS               1:   TIME CURCULATED STOPPED
 MRT .F                59:   MAXIMUM RECORDED TEMPERATURE
 LUN .               2958:   LOGGING UNIT NUMBER
 LUL .               CASP:   LOGGING UNIT LOCATION
 ENGI.             MILLER:   RECORDING ENGINEER
 WITN.           DINSMORE:   WITNESSED BY
 CLNT.            A2DTECH:   CLIENT CODE
 ORIG.           5" PRINT:   ORIGIN OF DATA
 UWI .       490251075500:   UNIQUE WELL ID
 DICO. A2D Technologies, Inc.:   DIGITIZING COMPANY
~OTHER INFORMATION
~A   DEPT      ILD         SN        SPR       CALD       CORR       DPHI         GRD      RHOB   
# ...
  427.0000    14.1921    12.8310   -40.8623     8.0525    -0.0021     0.1667    81.1341     2.4025
  427.5000    14.1921    12.8310   -40.8593     8.0548    -0.0005     0.1658    83.8424     2.4070
  428.0000    14.1921    12.8310   -41.0079     8.0832     0.0010     0.1661    86.0995     2.4077
  428.5000    14.1921    12.8310   -41.0042     8.0835    -0.0004     0.1682    88.3566     2.4063
  429.0000    14.2908    12.9203   -41.1529     8.0838    -0.0019     0.1709    87.1550     2.4017
  429.5000    14.2908    13.0102   -40.9983     8.0772    -0.0018     0.1763    87.3069     2.3971
  430.0000    14.3902    13.0102   -41.1462     8.0843    -0.0018     0.1775    88.0599     2.3898
  430.5000    14.3902    13.0102   -41.1433     8.0696    -0.0018     0.1769    86.2572     2.3906
  431.0000    14.5910    13.0102   -41.2911     8.0548    -0.0017     0.1757    84.7549     2.3936
  431.5000    14.5910    13.1007   -41.5898     8.0401    -0.0002     0.1745    83.9910     2.3958
  432.0000    14.3902    13.1007   -41.7377     8.0404     0.0029     0.1739    83.4937     2.3966
  432.5000    14.2908    13.1007   -42.1872     8.0256     0.0074     0.1733    85.5115     2.3959
  433.0000    14.0941    13.0102   -42.6360     8.0260     0.0135     0.1727    87.9190     2.3966
  433.5000    13.8041    12.7423   -42.9348     8.0263     0.0165     0.1682    88.6724     2.3989
  434.0000    13.5200    12.5667   -43.3843     8.0265     0.0136     0.1586    91.6814     2.4184
  434.5000    13.4266    12.3936   -43.6830     8.0117     0.0106     0.1523    91.3821     2.4267
  435.0000    13.2418    12.3080   -43.6800     8.0121     0.0077     0.1480    89.1279     2.4328
  435.5000    13.1504    12.3080   -43.6771     8.0124     0.0077     0.1444    88.2271     2.4406
  436.0000    13.0596    12.2229   -43.5233     8.0127     0.0077     0.1432    88.6797     2.4455
  436.5000    13.0596    12.1384   -43.5204     8.0130     0.0063     0.1444    89.2827     2.4425
  437.0000    12.9694    12.1384   -43.5173     8.0133     0.0048     0.1477    89.9318     2.4396
  437.5000    12.9694    12.1384   -43.5143     7.9985     0.0034     0.1514    91.3909     2.4351
  438.0000    13.0596    12.3080   -43.3599     7.9988     0.0019     0.1532    89.5882     2.4321
  438.5000    13.0596    12.3936   -43.2062     7.9992     0.0005     0.1526    87.7852     2.4306
  439.0000    13.3339    12.4799   -43.0524     7.9994     0.0005     0.1535    86.2829     2.4291
  439.5000    13.5200    12.7423   -42.7478     7.9997     0.0006     0.1586    85.9832     2.4284
  440.0000    13.9001    13.0102   -42.1415     8.0000     0.0006     0.1682    85.6839     2.4186
  440.5000    14.5910    13.2837   -41.3844     8.0003     0.0006     0.1901    85.8362     2.3923
  441.0000    15.2254    13.6574   -40.7781     8.0307     0.0022     0.2171    87.4918     2.3721
  441.5000    16.5611    14.1393   -40.1718     8.0310     0.0022     0.2321    86.5770     2.2985
  442.0000    17.7157    14.9460   -39.5656     8.0313     0.0040     0.2586    79.0736     2.2708
  442.5000    19.3859    15.9086   -39.2559     8.0166     0.0053     0.2574    78.0228     2.2558
  443.0000    21.6592    16.7031   -38.9382     8.0018     0.0069     0.2532    73.3627     2.2596
  443.5000    24.1991    17.4388   -38.5002     8.0021     0.0069     0.2472    70.5066     2.2641
  444.0000    26.8501    18.2757   -38.0447     8.0175     0.0070     0.2462    74.5686     2.2678
  444.5000    29.7915    19.1848   -37.8909     8.0329     0.0055     0.2547    76.6750     2.2671
  445.0000    31.7088    20.2794   -37.8880     8.0332     0.0071     0.2634    74.2708     2.2581
  445.5000    31.9294    21.5855   -37.8850     7.9130     0.0071     0.2721    72.6181     2.2386
  446.0000    31.7088    22.3472   -37.8821     7.8530     0.0071     0.2724    68.5594     2.2326
  446.5000    31.7088    22.8170   -38.0300     7.9136     0.0087     0.2676    66.6060     2.2388
  447.0000    31.2450    23.1357   -38.0270     8.0042     0.0087     0.2550    66.3067     2.2520
  447.5000    30.4174    23.2967   -38.1749     7.9443     0.0088     0.2429    67.8123     2.2830
  448.0000    29.9987    22.9758   -38.0211     7.9145     0.0103     0.2195    70.6709     2.3108
  448.5000    29.3814    22.8086   -38.0070     7.9298     0.0134     0.2189    76.2363     2.3183
  449.0000    28.7769    22.6593   -37.8643     7.9452     0.0164     0.2243    79.3957     2.3100
  449.5000    28.3808    22.5027   -38.0122     7.9455     0.0165     0.2318    77.5926     2.3003
  450.0000    27.6048    22.1927   -38.0090     7.9610     0.0150     0.2312    76.0902     2.2958
  450.5000    27.0368    22.0359   -38.4686     7.9769     0.0151     0.2297    73.0606     2.2996
  451.0000    26.8501    21.5792   -38.6006     7.9778     0.0134     0.2282    70.9193     2.3020
  451.5000    26.8501    21.5762   -38.5932     7.9634     0.0092     0.2310    70.6945     2.3048
  452.0000    26.8501    21.4242   -38.7396     7.9796     0.0077     0.2333    73.2852     2.2996
  452.5000    26.8501    21.1262   -38.8845     7.9805     0.0063     0.2339    74.0162     2.2996
  453.0000    26.4805    20.8324   -39.0294     7.9814     0.0064     0.2336    75.3755     2.2989
  453.5000    26.4805    20.6856   -39.4745     7.9973     0.0064     0.2333    81.6972     2.2989
  454.0000    26.2976    20.5398   -39.6209     8.0133     0.0065     0.2333    86.5152     2.2989
  454.5000    26.1160    20.5370   -39.7659     8.0142     0.0050     0.2327    85.7693     2.2989
  455.0000    26.1160    20.5341   -40.0601     8.0151     0.0036     0.2309    81.7151     2.2990
  455.5000    25.7565    20.5307   -40.0542     8.0160     0.0052     0.2279    76.1571     2.3020
  456.0000    25.7565    20.5279   -40.1992     8.0169     0.0097     0.2240    74.9586     2.3072
  456.5000    25.5786    20.2424   -40.5138     8.0178     0.0143     0.2273    77.3720     2.3065
  457.0000    25.7565    20.2397   -40.6398     8.0161     0.0159     0.2245    82.4907     2.3058
  457.5000    25.4020    20.0970   -40.7848     8.0197     0.0144     0.2182    83.3975     2.3080
  458.0000    24.8793    20.0943   -40.9297     8.0206     0.0130     0.2122    76.1868     2.3261
  458.5000    24.5368    20.2321   -40.9223     8.0215     0.0100     0.2149    75.5898     2.3298
  459.0000    24.3674    20.0889   -41.3689     8.0071     0.0056     0.2185    76.1987     2.3268
  459.5000    24.0320    19.8094   -41.5153     8.0083     0.0041     0.2206    76.8062     2.3214
  460.0000    23.8660    19.5339   -41.5079     8.0091     0.0042     0.2212    76.9625     2.3156
  460.5000    23.7012    19.1290   -41.8039     7.9947     0.0058     0.2208    76.8180     2.3156
  461.0000    23.3749    18.8629   -42.0994     7.9959     0.0073     0.2181    76.3729     2.3179
  461.5000    23.0532    18.6000   -42.2443     7.9815     0.0074     0.2101    76.5293     2.3254
  462.0000    22.4229    18.4689   -42.4012     7.9826     0.0074     0.1929    77.6420     2.3427
  462.5000    22.1015    18.3388   -42.6850     7.9835     0.0045     0.1851    81.1528     2.3697
  463.0000    21.6592    18.0837   -42.9793     7.9844     0.0046     0.2004    81.9606     2.3675
  463.5000    21.3611    17.5865   -43.1257     7.9853     0.0016     0.2140    80.1635     2.3563
  464.0000    21.0670    17.2221   -43.5708     7.9863     0.0017     0.2112    79.4176     2.3338
  464.5000    20.6336    16.8651   -43.8666     7.9872     0.0017     0.2043    78.5213     2.3323
  465.0000    20.2090    16.7463   -44.1623     8.0031     0.0018     0.2025    78.0746     2.3383
  465.5000    19.7932    16.7440   -44.3087     8.0040     0.0019     0.2067    79.8865     2.3421
  466.0000    19.3859    16.7418   -44.6030     7.9896     0.0049     0.2097    83.9526     2.3398
  466.5000    19.2520    16.7394   -44.8989     8.0058     0.0065     0.2100    84.7105     2.3308
  467.0000    19.2520    16.7371   -45.3453     8.0067     0.0111     0.2088    84.4142     2.3324
