~VERSION INFORMATION
 VERS.                2.0:   CWLS LOG ASCII STANDARD - VERSION 2.0
 WRAP.                 NO:   ONE LINE PER DEPTH STEP
~WELL INFORMATION
#MNEM.UNIT      DATA TYPE    INFORMATION
#----------   ------------   ------------------------------
 STRT.F           40.0000:   START DEPTH
 STOP.F          462.0000:   STOP DEPTH
 STEP.F            0.5000:   STEP LENGTH
 NULL.          -999.2500:   NO VALUE
 COMP.    FENIX & SCISSON:   COMPANY
 WELL.        NPR #68-S-3:   WELL
 FLD .             TEAPOT:   FIELD
 LOC .       S3 T38N R78W:   LOCATION
 CNTY.            NATRONA:   COUNTY
 STAT.            WYOMING:   STATE
 CTRY. UNITED STATES OF AMERICA:   COUNTRY
 SRVC.      Dresser Atlas:   SERVICE COMPANY
 DATE.        28-MAR-1977:   LOGDATE
 API .       490251031900:   API NUMBER
~CURVE INFORMATION
#MNEM.UNIT       API CODE    CURVE DESCRIPTION
#----------   ------------   ------------------------------
 DEPT.F                  :   
 SPR .MV     07 010 01 00:   SPONTANEOUS POTENTIAL
 ILD .OHMM   07 120 46 00:   INDUCTION LOG DEEP
 ILM .OHMM   07 120 44 00:   INDUCTION LOG MEDIUM
 SFL .OHMM   07 220 01 00:   SHALLOW FOCUSED LOG RESISTIVITY
 CALD.IN     45 280 60 00:   CALIPER FROM DENSITY LOG
 GRD .GAPI   45 310 01 00:   GAMMA RAY FROM DENSITY LOG
 CORR.G/C3   45 356 01 00:   DENSITY CORRECTION
 RHOB.G/C3   45 350 01 00:   BULK DENSITY
 DPHI.DEC    45 890 12 00:   DENSITY POROSITY SANDSTONE
~PARAMETER INFORMATION
#MNEM.UNIT          VALUE    DESCRIPTION
#----------   ------------   ------------------------------
 PD  .                 GL:   PERMANENT DATUM
 EPD .F              5162:   ELEVATION PERMANENT DATUM
 LMF .                 KB:   LOG MEASURED FROM
 DAPD.F                 5:   FEET ABOVE PERMANENT DATUM
 DMF .                 KB:   DRILLING MEASURED FROM
 EKB .F              5167:   KELLING BUSHING
 EGL .F              5162:   GROUND LEVEL
 DATE.        28-MAR-1977:   RUN DATE
 RUN .                  1:   RUN NUMBER
 DD  .F               452:   DEPTH DRILLER
 DL  .F               464:   DEPTH LOGGER
 BLI .F               462:   BOTTOM LOG INTERVAL
 TLI .F                40:   TOP LOG INTERVAL
 CS  .IN               10:   CASING SIZE
 CBD .F                40:   CASING BOTTOM DRILLER
 CBL .F                40:   CASING BOTTOM LOGGER
 BS  .IN            7.875:   BIT SIZE
 BSD .F               452:   BIT SIZE AT DEPTH
 DFT .           CHEM GEL:   DRILLING FLUID TYPE
 DFD .                8.9:   DRILLING FLUID DENSITY
 DFV .                 34:   DRILLING FLUID VISCOSITY
 DFPH.                8.0:   DRILLING FLUID PH
 DFL .                8.2:   DRILLING FLUID LOSS
 MSS .         CIRCULATED:   MUD SAMPLE SOURCE
 RMS .OHMM           .223:   RESISTIVITY MUD SAMPLE
 MST .F                51:   MUD SAMPLE TEMPERATURE
 RMF .OHMM           .161:   RESISTIVITY MUD FILTRATE SAMPLE
 MFST.F                51:   MUD FILTRATE SAMPLE TEMPERATURE
 RMC .OHMM           .285:   RESISTIVITY MUD CAKE
 MCST.F                51:   MUD CAKE SAMPLE TEMPERATURE
 MFSS.               MEAS:   MUD FILTRATE SAMPLE SOURCE
 MCSS.               MEAS:   MUD CAKE SAMPLE SOURCE
 RMB .OHMM           .186:   RESISTIVITY MUD AT BHT
 BHT .F                61:   BOTTOM HOLE TEMPERATURE
 TCS .HRS            0500:   TIME CURCULATED STOPPED
 MRT .F                61:   MAXIMUM RECORDED TEMPERATURE
 LUN .               6145:   LOGGING UNIT NUMBER
 LUL .              GLTTE:   LOGGING UNIT LOCATION
 ENGI.              GOULD:   RECORDING ENGINEER
 WITN.               LYON:   WITNESSED BY
 CLNT.            A2DTECH:   CLIENT CODE
 ORIG.           5" PRINT:   ORIGIN OF DATA
 UWI .       490251031900:   UNIQUE WELL ID
 DICO. A2D Technologies, Inc.:   DIGITIZING COMPANY
~OTHER INFORMATION
~A   DEPT      SPR        ILD        ILM        SFL       CALD        GRD       CORR       RHOB       DPHI   
# ...
   76.5000   -23.5284     8.9837    10.6436    10.3059     7.9495   102.7676     0.0245     2.5201     0.0833
   77.0000   -23.3612     9.1157    10.7241    10.3854     7.9516   104.1132     0.0261     2.5217     0.0818
   77.5000   -23.3397     9.1226    10.7307    10.3934     7.9537   104.1802     0.0293     2.5233     0.0803
   78.0000   -23.1728     9.1929    10.7373    10.4029     7.9558   105.5171     0.0354     2.5316     0.0745
   78.5000   -23.1550     9.1346    10.6696    10.4107     7.9578   104.0761     0.0431     2.5482     0.0654
   79.0000   -23.1373     9.1432    10.6026    10.4186     7.9599   102.0686     0.0477     2.5498     0.0625
   79.5000   -22.9703     9.1501    10.4636    10.4265     7.9620   100.7705     0.0494     2.5499     0.0634
   80.0000   -22.8033     9.0294    10.4701    10.4344     7.9641   101.2712     0.0495     2.5485     0.0648
   80.5000   -22.6363     8.9753    10.4043    10.3701     7.9662   101.4369     0.0496     2.5448     0.0648
   81.0000   -22.4693     8.9824    10.2677    10.3044     7.9683   100.7140     0.0482     2.5373     0.0706
   81.5000   -22.1531     8.9270    10.1929    10.2409     7.9854   103.2754     0.0439     2.5194     0.0813
   82.0000   -21.9861     8.8722     9.9325    10.1095     7.9724   104.6389     0.0410     2.5007     0.0948
   82.5000   -21.8191     8.8790     9.8021     9.9760     7.9895   102.4257     0.0426     2.4910     0.0989
   83.0000   -21.5029     8.8243     9.6720     9.7800     7.9766   102.5969     0.0473     2.4903     0.0992
   83.5000   -21.3359     8.8312     9.4807     9.6527     7.9788   103.2153     0.0549     2.4949     0.0974
   84.0000   -21.1689     8.8376     9.4197     9.5914     7.9659   103.9827     0.0686     2.5032     0.0922
   84.5000   -21.1512     8.7833     9.3620     9.4684     7.9530   102.3600     0.0748     2.5048     0.0889
   85.0000   -21.1334     8.7915     9.3032     9.6078     7.9552   104.9214     0.0839     2.5003     0.0967
   85.5000   -21.1157     8.7375     9.1796     9.7492     7.9572   107.3281     0.0886     2.4762     0.1117
   86.0000   -21.0980     8.7441     8.9981     9.8928     7.8653   109.7349     0.0842     2.4605     0.1162
   86.5000   -21.2299     8.7506     8.9402     9.7640     7.7775   108.2668     0.0768     2.4471     0.1201
   87.0000   -21.3612     8.6369     8.7634     9.4386     7.6921   107.5439     0.0694     2.4443     0.1224
   87.5000   -21.6418     8.5822     8.6483     9.2511     7.7015   106.0758     0.0560     2.4705     0.1113
   88.0000   -21.7733     8.5310     8.5348     9.5848     7.8234   104.7512     0.0531     2.4931     0.0959
   88.5000   -21.7552     8.4769     8.4810     9.7936     7.9303   106.1147     0.0533     2.5054     0.0899
   89.0000   -21.8871     8.3667     8.3122     9.6661     7.9896   105.8389     0.0459     2.5031     0.0892
   89.5000   -21.8687     8.2595     8.2599     9.5401     8.0039   103.9293     0.0400     2.4987     0.0973
   90.0000   -21.8472     8.1521     8.2081     9.3510     8.0064   102.0086     0.0341     2.4927     0.1009
   90.5000   -21.8295     8.1005     8.2132     9.2272     7.9935   103.2286     0.0297     2.4862     0.1042
   91.0000   -21.8117     7.9966     8.1053     9.0421     7.9956   103.5434     0.0269     2.4831     0.1069
   91.5000   -21.7940     7.9473     8.0544     8.8608     7.9977   101.7828     0.0270     2.4803     0.1077
   92.0000   -21.7763     7.9535     8.0606     8.7435     7.9843   100.6128     0.0287     2.4804     0.1065
   92.5000   -21.7585     7.9045     8.0656     8.5777     7.9869   100.0334     0.0303     2.4829     0.1035
   93.0000   -21.7408     7.8559     8.0705     8.5858     7.9890   101.5515     0.0351     2.4885     0.0980
   93.5000   -21.7231     7.8076     8.1315     8.6521     7.9911   100.5305     0.0428     2.5009     0.0914
   94.0000   -21.7053     7.7596     8.1365     8.7188     7.9932    99.3605     0.0505     2.5115     0.0871
   94.5000   -21.8369     7.7657     8.1415     8.7861     7.9953    98.4886     0.0551     2.5183     0.0817
   95.0000   -21.9684     7.7728     8.2031     8.8539     7.9974    97.7656     0.0580     2.5237     0.0786
   95.5000   -21.9506     7.7786     8.3224     9.0467     7.9995    97.6796     0.0567     2.5268     0.0771
   96.0000   -21.9329     7.7845     8.3275     9.1165     8.0016   101.6849     0.0538     2.5276     0.0780
   96.5000   -22.0689     7.7904     8.3905     9.1234     7.9882   106.4762     0.0434     2.5262     0.0804
   97.0000   -21.8974     7.7425     8.4539     9.0047     7.9908   105.9023     0.0406     2.5090     0.0906
   97.5000   -21.8797     7.7483     8.4591     8.8244     7.9929   103.6891     0.0362     2.5000     0.0965
   98.0000   -21.8620     7.6475     8.3467     8.6493     7.9950   101.0288     0.0348     2.4941     0.0989
   98.5000   -21.8442     7.6005     8.2954     8.5961     7.9816    96.7291     0.0319     2.4934     0.0986
   99.0000   -21.8265     7.5538     8.2434     8.6042     7.9842    97.4965     0.0305     2.4935     0.1004
   99.5000   -21.8157     7.4556     8.1917     8.6107     7.9708    98.1149     0.0307     2.4883     0.1036
  100.0000   -21.8117     7.4083     8.1403     8.6772     7.9729    96.0544     0.0292     2.4673     0.1126
  100.5000   -21.8078     7.4122     8.2593     8.6837     7.9677    96.2199     0.0284     2.4742     0.1093
  101.0000   -21.8038     7.4154     8.3240     8.7507     7.9623    95.0553     0.0281     2.4870     0.1048
  101.5000   -21.7998     7.4185     8.3807     8.8796     7.9642    94.0341     0.0298     2.4864     0.1059
  102.0000   -21.7958     7.4222     8.3848     8.9596     7.9661    94.2053     0.0315     2.4759     0.1083
  102.5000   -21.7919     7.4252     8.3896     9.0261     7.9681    97.5060     0.0331     2.4813     0.1056
  103.0000   -21.8053     7.4283     8.3937     8.9065     7.9546    97.6716     0.0348     2.4896     0.1022
  103.5000   -21.9424     7.3793     8.3977     8.7279     7.9570    98.2953     0.0379     2.4927     0.1010
  104.0000   -21.9276     7.2809     8.2292     8.5506     7.9589    97.4232     0.0350     2.4690     0.1094
  104.5000   -22.0647     7.2336     8.1754     8.3766     7.9608    96.8437     0.0337     2.4580     0.1166
  105.0000   -22.2017     7.1379     8.0124     8.1496     7.9627   100.2990     0.0339     2.4569     0.1169
  105.5000   -22.3393     6.9941     7.7438     7.8644     7.9646   102.4075     0.0355     2.4652     0.1150
  106.0000   -22.4762     6.8532     7.4327     7.5159     7.9665   103.7709     0.0387     2.4833     0.1087
  106.5000   -22.7616     6.6688     7.1340     7.2142     7.9685   103.0477     0.0448     2.4977     0.1011
  107.0000   -23.0476     6.5345     6.9427     7.1177     7.9704   104.2722     0.0525     2.5053     0.0935
  107.5000   -23.6309     6.4029     6.8498     7.0234     7.9723   105.1913     0.0572     2.5099     0.0880
  108.0000   -23.9167     6.3168     6.8539     7.0763     7.9593   105.4985     0.0588     2.5122     0.0854
  108.5000   -23.7455     6.2764     6.9527     7.2280     7.9613   103.8813     0.0574     2.5055     0.0899
  109.0000   -23.4296     6.2791     7.0043     7.5375     7.9636   105.3992     0.0516     2.4996     0.0941
  109.5000   -23.1136     6.3252     7.0077     7.8062     7.9655   104.6761     0.0487     2.4959     0.0959
  110.0000   -22.9738     6.3718     6.9626     7.7562     7.9674   103.2079     0.0459     2.5035     0.0907
  110.5000   -22.8132     6.4633     6.9180     7.5998     7.9694   101.7396     0.0475     2.5074     0.0871
  111.0000   -22.8015     6.5108     6.8736     7.6043     7.9713    99.6753     0.0507     2.5075     0.0880
  111.5000   -22.9385     6.5588     6.8296     7.6607     7.9732    96.1206     0.0508     2.5053     0.0886
  112.0000   -22.9267     6.6535     6.8348     7.8249     7.9750    93.7582     0.0495     2.5054     0.0876
  112.5000   -22.9149     6.7019     6.9354     7.9376     7.9769    97.3570     0.0466     2.5100     0.0855
