~VERSION INFORMATION
 VERS.                2.0:   CWLS LOG ASCII STANDARD - VERSION 2.0
 WRAP.                 NO:   ONE LINE PER DEPTH STEP
~WELL INFORMATION
#MNEM.UNIT      DATA TYPE    INFORMATION
#----------   ------------   ------------------------------
 STRT.F           28.0000:   START DEPTH
 STOP.F          494.0000:   STOP DEPTH
 STEP.F            0.5000:   STEP LENGTH
 NULL.          -999.2500:   NO VALUE
 COMP.    FENIX & SCISSON:   COMPANY
 WELL.        67-S-3 #3-3:   WELL
 FLD .             TEAPOT:   FIELD
 LOC .       S3 T38N R78W:   LOCATION
 CNTY.            NATRONA:   COUNTY
 STAT.            WYOMING:   STATE
 CTRY. UNITED STATES OF AMERICA:   COUNTRY
 SRVC.           BIRDWELL:   SERVICE COMPANY
 DATE.        15-OCT-1978:   LOGDATE
 API .       490251072100:   API NUMBER
~CURVE INFORMATION
#MNEM.UNIT       API CODE    CURVE DESCRIPTION
#----------   ------------   ------------------------------
 DEPT.F                  :   
 ILD .OHMM   05 120 46 00:   INDUCTION LOG DEEP
 SN  .OHMM   05 040 16 00:   SHORT NORMAL 16"
 SPR .MV     05 010 01 00:   SPONTANEOUS POTENTIAL FROM RES.
 CALD.IN     45 280 60 00:   CALIPER FROM DENSITY LOG
 CORR.G/C3   45 356 01 00:   DENSITY CORRECTION
 DPHI.DEC    45 890 12 00:   DENSITY POROSITY SANDSTONE
 GRD .GAPI   45 310 01 00:   GAMMA RAY FROM DENSITY LOG
 RHOB.G/C3   45 350 01 00:   BULK DENSITY
~PARAMETER INFORMATION
#MNEM.UNIT          VALUE    DESCRIPTION
#----------   ------------   ------------------------------
 PD  .                 GL:   PERMANENT DATUM
 EPD .F              5173:   ELEVATION PERMANENT DATUM
 LMF .                 KB:   LOG MEASURED FROM
 DAPD.F                 4:   FEET ABOVE PERMANENT DATUM
 DMF .                 KB:   DRILLING MEASURED FROM
 EKB .F              5177:   KELLING BUSHING
 EGL .F              5173:   GROUND LEVEL
 DATE.        15-OCT-1978:   RUN DATE
 RUN .                  1:   RUN NUMBER
 DD  .F               492:   DEPTH DRILLER
 DL  .F               494:   DEPTH LOGGER
 BLI .F               488:   BOTTOM LOG INTERVAL
 TLI .F                46:   TOP LOG INTERVAL
 CS  .IN            8.625:   CASING SIZE
 CBD .F                40:   CASING BOTTOM DRILLER
 BS  .IN            7.875:   BIT SIZE
 BSD .F               492:   BIT SIZE AT DEPTH
 DFT .                KCL:   DRILLING FLUID TYPE
 DFD .                8.7:   DRILLING FLUID DENSITY
 DFV .                 35:   DRILLING FLUID VISCOSITY
 DFPH.                  9:   DRILLING FLUID PH
 LUN .               2958:   LOGGING UNIT NUMBER
 LUL .               CASP:   LOGGING UNIT LOCATION
 ENGI.             MILLER:   RECORDING ENGINEER
 WITN.           DINSMORE:   WITNESSED BY
 CLNT.            A2DTECH:   CLIENT CODE
 ORIG.           5" PRINT:   ORIGIN OF DATA
 UWI .       490251072100:   UNIQUE WELL ID
 DICO. A2D Technologies, Inc.:   DIGITIZING COMPANY
~OTHER INFORMATION
~A   DEPT      ILD         SN        SPR       CALD       CORR       DPHI         GRD      RHOB   
# ...
  230.5000     7.3867     7.2263   -26.4510     8.0746     0.0366     0.1062   114.3284     2.5225
  231.0000     7.2836     7.1751   -26.4537     8.0746     0.0336     0.1149   115.9701     2.5171
  231.5000     7.2822     7.1243   -26.4567     8.0746     0.0291     0.1203   117.6119     2.5045
  232.0000     7.1805     7.0251   -26.4597     8.0746     0.0216     0.1245   118.3582     2.4850
  232.5000     7.0803     6.9233   -26.4627     8.0746     0.0155     0.1248   118.9552     2.4805
  233.0000     6.9812     6.7835   -26.4662     8.0746     0.0140     0.1233   118.9552     2.4828
  233.5000     6.7891     6.6430   -26.4691     8.0746     0.0125     0.1215   119.1045     2.4858
  234.0000     6.6482     6.5055   -26.3227     8.0746     0.0125     0.1197   121.0448     2.4918
  234.5000     6.4653     6.3707   -26.2779     8.0597     0.0110     0.1185   124.3284     2.4955
  235.0000     6.2440     6.2388   -26.1791     8.0597     0.0095     0.1182   126.1194     2.4985
  235.5000     6.0722     6.1519   -26.1822     8.0447     0.0094     0.1209   124.9254     2.4982
  236.0000     5.7826     6.0663   -26.1851     8.0299     0.0109     0.1251   121.9403     2.4873
  236.5000     5.5736     5.9815   -26.1881     8.0149     0.0139     0.1378   120.5970     2.4760
  237.0000     5.4695     5.9392   -26.1916     8.0149     0.0244     0.1532   120.5831     2.4415
  237.5000     5.5064     5.9380   -26.1945     8.0149     0.0364     0.1545   121.3433     2.4325
  238.0000     5.5053     5.9783   -26.1970     8.0149     0.0529     0.1458   122.4020     2.4348
  238.5000     5.4662     6.1443   -26.2000     8.0149     0.0649     0.1293   122.5373     2.4505
  239.0000     5.4651     6.2731   -26.2031     8.0149     0.0771     0.1050   122.0896     2.4865
  239.5000     5.5787     6.5808   -26.2060     8.0149     0.0889     0.0951   121.9403     2.5114
  240.0000     6.1511     6.6255   -26.2090     8.0000     0.0979     0.0933   122.5373     2.5308
  240.5000     6.6762     6.6701   -26.2119     7.9696     0.0964     0.0942   124.0299     2.5315
  241.0000     6.9581     6.6684   -26.2149     7.9552     0.0889     0.0970   125.6716     2.5255
  241.5000     7.2018     6.6671   -26.2183     7.9552     0.0663     0.1040   125.9701     2.5135
  242.0000     7.2507     6.6199   -26.2212     7.9552     0.0558     0.1098   121.9403     2.5045
  242.5000     7.2489     6.6147   -26.2239     7.9403     0.0528     0.1137   120.1493     2.4978
  243.0000     7.0008     6.5713   -26.2270     7.9552     0.0528     0.1168   118.9433     2.4945
  243.5000     6.5311     6.5700   -26.2299     7.9552     0.0532     0.1174   115.7912     2.4948
  244.0000     6.0884     6.3896   -26.2328     7.9552     0.0647     0.1207   113.5821     2.4932
  244.5000     5.7233     6.1289   -26.2358     7.9552     0.0707     0.1437   118.0597     2.4785
  245.0000     5.5658     5.9196   -26.2206     7.9552     0.0737     0.1530   119.5522     2.4370
  245.5000     5.4881     5.7970   -26.0925     7.9552     0.0827     0.1527   120.5970     2.4318
  246.0000     5.4870     5.7958   -25.9463     7.9552     0.0947     0.1434   122.8358     2.4573
  246.5000     5.4481     5.9981   -25.7995     7.9552     0.1129     0.1078   123.4328     2.5097
  247.0000     5.4849     6.2941   -25.6537     7.9552     0.1052     0.0991   123.7313     2.5345
  247.5000     5.7170     6.6505   -25.6567     7.9552     0.0895     0.0988   122.5373     2.5472
  248.0000     6.2360     6.9786   -25.6597     7.9552     0.0406     0.1027   121.3433     2.5142
  248.5000     6.9364     7.3230   -25.6632     7.9552     0.0301     0.1054   120.7383     2.5157
  249.0000     7.2292     7.5267   -25.6661     7.9552     0.0286     0.1057   120.1493     2.5112
  249.5000     7.5344     7.6366   -25.6690     7.9552     0.0285     0.1063   119.5522     2.5097
  250.0000     7.7445     7.7880   -25.6779     7.9552     0.0277     0.1078   118.0719     2.5105
  250.5000     7.7826     7.8420   -25.7199     7.9698     0.0225     0.1126   107.6279     2.5082
  251.0000     7.9862     7.8420   -25.7618     7.9546     0.0060     0.1174   104.1660     2.4970
  251.5000     8.0732     7.8420   -25.8037     7.9543    -0.0015     0.1174   103.5632     2.4903
  252.0000     8.0732     7.8964   -25.8456     7.9690    -0.0045     0.1146   105.9454     2.4911
  252.5000     8.0175     7.9511   -25.8876     7.9686     0.0015     0.1084   111.0142     2.4985
  253.0000     7.9621     7.9511   -25.9295     7.9534     0.0120     0.0958   112.0532     2.5240
  253.5000     7.9621     7.9511   -25.9701     7.9531     0.0225     0.0907   113.0922     2.5337
  254.0000     7.9621     7.9511   -25.6716     7.9528     0.0255     0.0931   112.4893     2.5315
  254.5000     7.9577     7.9511   -25.6716     7.9376     0.0270     0.0940   111.2895     2.5300
  255.0000     7.9072     7.9511   -25.6716     7.9224     0.0285     0.0940   111.4329     2.5300
  255.5000     7.9072     7.9511   -25.6716     7.9072     0.0285     0.0940   111.4269     2.5307
  256.0000     7.9621     7.9511   -25.6716     7.8919     0.0270     0.0943   112.6139     2.5307
  256.5000     7.9621     7.9511   -25.6716     7.8753     0.0255     0.0947   115.4439     2.5300
  257.0000     8.0732     7.9511   -25.5224     7.8465     0.0255     0.0969   114.3933     2.5270
  257.5000     8.1858     7.9511   -25.5224     7.8462     0.0270     0.1069   111.2532     2.5150
  258.0000     8.2999     7.9511   -25.3731     7.8310     0.0285     0.1129   107.5160     2.4978
  258.5000     8.4765     7.9511   -25.3731     7.8457     0.0345     0.1060   106.3176     2.5007
  259.0000     8.7316     7.9511   -25.3731     7.8453     0.0405     0.0971   108.5491     2.5097
  259.5000     9.1449     7.9511   -25.2239     7.8451     0.0345     0.0938   111.2457     2.5187
  260.0000     9.4018     7.9511   -25.0746     7.8746     0.0300     0.0917   112.8856     2.5240
  260.5000     9.4671     7.8328   -25.0746     7.8743     0.0285     0.0923   113.0093     2.5270
  261.0000     9.1449     7.6283   -25.0746     7.8890     0.0255     0.0929   112.4050     2.5277
  261.5000     8.1858     7.3185   -25.0746     7.8886     0.0195     0.0944   106.5783     2.5277
  262.0000     7.0779     7.0700   -25.0746     7.9032     0.0030     0.1019   102.9904     2.5210
  262.5000     6.2918     6.7829   -25.0746     7.9328    -0.0105     0.1115   108.2085     2.4910
  263.0000     5.7104     6.5525   -25.0746     7.9474    -0.0135     0.1565   111.7847     2.4618
  263.5000     5.9527     6.4181   -25.0746     7.9323    -0.0133     0.1822   112.4657     2.4168
  264.0000     6.0357     6.3739   -24.7761     7.9469    -0.0015     0.1933   106.4000     2.3658
  264.5000     5.9527     6.4626   -23.8806     7.9466     0.0180     0.1921   109.0326     2.3688
  265.0000     5.9527     6.8442   -23.5821     7.9463     0.0225     0.1484   118.7750     2.4070
  265.5000     6.0357     7.7344   -23.2836     7.9609     0.0195     0.1187   121.3065     2.4697
  266.0000     6.6043     8.4030   -23.1343     7.9456     0.0285     0.0965   119.8081     2.5127
  266.5000     8.7727     9.0042   -22.6756     7.9453     0.0288     0.0875   115.9217     2.5382
  267.0000     9.7605     9.4504   -22.3881     7.9600     0.0285     0.0863   110.3935     2.5345
  267.5000    11.1017     9.7826   -22.0896     7.9597     0.0287     0.0863   107.5518     2.5360
  268.0000    11.8157     9.9187   -22.0896     7.9445     0.0390     0.0866   105.7550     2.5397
  268.5000    11.7341    10.0567   -21.7910     7.9442     0.0435     0.0872   105.1522     2.5397
  269.0000    11.1789    10.1966   -21.3433     7.9289     0.0420     0.0911   105.7751     2.5367
  269.5000    10.6499    10.3428   -20.5970     7.9287     0.0435     0.0962   108.0000     2.5277
  270.0000    10.2875    10.6282   -19.8507     7.8985     0.0465     0.1019   108.1198     2.5178
  270.5000    10.5034    10.9261   -19.1045     7.8982     0.0480     0.1031   108.1125     2.5111
