~VERSION INFORMATION
 VERS.                2.0:   CWLS LOG ASCII STANDARD - VERSION 2.0
 WRAP.                 NO:   ONE LINE PER DEPTH STEP
~WELL INFORMATION
#MNEM.UNIT      DATA TYPE    INFORMATION
#----------   ------------   ------------------------------
 STRT.F            8.0000:   START DEPTH
 STOP.F          614.0000:   STOP DEPTH
 STEP.F            0.5000:   STEP LENGTH
 NULL.          -999.2500:   NO VALUE
 COMP. FENIX & SCISSON INC:   COMPANY
 WELL.       SX 10 #34-10:   WELL
 FLD .             TEAPOT:   FIELD
 LOC .      S10 T38N R78W:   LOCATION
 CNTY.            NATRONA:   COUNTY
 STAT.            WYOMING:   STATE
 CTRY. UNITED STATES OF AMERICA:   COUNTRY
 SRVC.            Unknown:   SERVICE COMPANY
 DATE.        29-JUN-1992:   LOGDATE
 API .       490251065800:   API NUMBER
~CURVE INFORMATION
#MNEM.UNIT       API CODE    CURVE DESCRIPTION
#----------   ------------   ------------------------------
 DEPT.F                  :   
 SPR .MV     05 010 01 00:   SPONTANEOUS POTENTIAL
 ILD .OHMM   05 120 46 00:   INDUCTION LOG DEEP
 SN  .OHMM   05 040 16 00:   SHORT NORMAL 16"
 GR  .GAPI   30 310 01 00:   GAMMA RAY
~PARAMETER INFORMATION
#MNEM.UNIT          VALUE    DESCRIPTION
#----------   ------------   ------------------------------
 PD  .                 GL:   PERMANENT DATUM
 EPD .F              5244:   ELEVATION PERMANENT DATUM
 LMF .                 KB:   LOG MEASURED FROM
 DMF .                 KB:   DRILLING MEASURED FROM
 EKB .F              5246:   KELLING BUSHING
 EGL .F              5244:   GROUND LEVEL
 DATE.        29-JUN-1992:   RUN DATE
 RUN .                  1:   RUN NUMBER
 DD  .F               620:   DEPTH DRILLER
 DL  .F               381:   DEPTH LOGGER
 BLI .F               381:   BOTTOM LOG INTERVAL
 TLI .F                 8:   TOP LOG INTERVAL
 BS  .IN            7.875:   BIT SIZE
 BSD .F               620:   BIT SIZE AT DEPTH
 DFT .                KCL:   DRILLING FLUID TYPE
 LUN .                509:   LOGGING UNIT NUMBER
 LUL .           GILLETTE:   LOGGING UNIT LOCATION
 ENGI.          O. METORF:   RECORDING ENGINEER
 WITN.         JEFF CLARK:   WITNESSED BY
 CLNT.            A2DTECH:   CLIENT CODE
 ORIG.           5" PRINT:   ORIGIN OF DATA
 UWI .       490251065800:   UNIQUE WELL ID
 DICO. A2D Technologies, Inc.:   DIGITIZING COMPANY
~OTHER INFORMATION
~A    DEPT     SPR        ILD         SN          GR  
# ...
  154.0000   -57.5592     6.7406     8.8097   108.4753
  154.5000   -57.7075     6.7503     8.7479   106.0677
  155.0000   -57.8560     6.7600     8.7467   109.7151
  155.5000   -57.8546     6.7674     8.7455   107.2474
  156.0000   -57.7032     6.7660     8.7441   109.6374
  156.5000   -57.7018     6.7181     8.7429   108.7290
  157.0000   -57.7001     6.7633     8.7418   109.6198
  157.5000   -57.8486     6.7153     8.7406   103.0121
  158.0000   -57.6971     6.7603     8.7394   104.8046
  158.5000   -57.8455     6.7589     8.6781   105.6931
  159.0000   -57.6942     6.7576     8.6768   109.8844
  159.5000   -57.6927     6.7562     8.6755   104.1763
  160.0000   -57.6913     6.7549     8.6146    99.0700
  160.5000   -57.8396     6.7535     8.5541    98.9299
  161.0000   -57.6880     6.7322     8.5530   107.1484
  161.5000   -57.6866     6.7041     8.3764   111.0376
  162.0000   -57.8351     6.6108     8.2603   108.1856
  162.5000   -57.6837     6.5188     8.2591   105.3207
  163.0000   -57.6822     6.4725     8.2580   108.6102
  163.5000   -57.6808     6.3822     8.1999   111.0002
  164.0000   -57.6792     6.2933     8.1424   114.8895
  164.5000   -57.6775     6.1630     8.0852   116.6798
  165.0000   -57.8260     6.1193     8.0841   116.6710
  165.5000   -57.8246     6.0760     8.0274   116.0625
  166.0000   -57.8231     6.1169     7.8617   108.2218
  166.5000   -57.8217     6.1154     7.8604   115.7451
  167.0000   -57.8201     6.1565     7.8593   110.9207
  167.5000   -57.8186     6.2842     7.9127   110.0300
  168.0000   -57.8170     6.3265     8.0774   116.3162
  168.5000   -57.8155     6.3691     8.1323   115.7077
  169.0000   -57.8141     6.4564     8.3015   114.4995
  169.5000   -57.8127     6.4999     8.3004   117.4892
  170.0000   -57.8112     6.5435     8.3567   112.9826
  170.5000   -57.6597     6.5420     8.3554   110.8771
  171.0000   -57.8080     6.4957     8.3543   114.4665
  171.5000   -57.8065     6.4497     8.2957   114.4555
  172.0000   -57.8051     6.4040     8.2946   120.1438
  172.5000   -57.8036     6.3148     8.2935   113.4783
  173.0000   -57.8022     6.3136     8.2353   110.8306
  173.5000   -57.6508     6.3122     8.2340   112.0193
  174.0000   -57.4993     6.3107     8.2330   103.9145
  174.5000   -57.4976     6.3095     8.2317   104.5076
  175.0000   -57.4962     6.3519     8.1739   104.4967
  175.5000   -57.6447     6.3507     8.2295   104.4879
  176.0000   -57.6432     6.3934     8.2284   104.4791
  176.5000   -57.6418     6.4363     8.2273   106.8691
  177.0000   -57.5652     6.4348     8.2832   110.7583
  177.5000   -57.4888     6.4336     8.3973   110.1498
  178.0000   -57.4872     6.4769     8.4542   107.4063
  178.5000   -57.6356     6.4756     8.4530   103.5355
  179.0000   -57.6342     6.4743     8.4519   112.2202
  179.5000   -57.4828     6.4730     8.3926   109.8126
  180.0000   -57.4814     6.4715     8.3915   106.8053
  180.5000   -57.4798     6.4701     8.3326   104.6975
  181.0000   -57.4781     6.4773     8.3314   105.2884
  181.5000   -57.4767     6.4900     8.3301   108.5780
  182.0000   -57.3252     6.5026     8.3290   111.5677
  182.5000   -57.3239     6.5097     8.3279   108.2605
  183.0000   -57.3225     6.5533     8.2694   104.9534
  183.5000   -57.1711     6.5520     8.2683   107.0525
  184.0000   -57.1693     6.5507     8.2672   108.5340
  184.5000   -57.0179     6.5043     8.2375   104.6249
  185.0000   -56.8665     6.4582     8.2080   101.9175
  185.5000   -56.8651     6.4125     8.1502    97.7108
  186.0000   -56.8636     6.3231     8.0930    95.9029
  186.5000   -56.8622     6.2781     8.1480    94.6969
  187.0000   -56.8605     6.2768     8.0908    98.2841
  187.5000   -56.8591     6.3191     8.0898   100.6763
  188.0000   -56.8575     6.3178     8.0887    98.8662
  188.5000   -56.8560     6.3166     8.0875   103.0553
  189.0000   -56.8546     6.3152     8.0862   102.4056
  189.5000   -56.8531     6.2703     8.0852   101.1069
  190.0000   -56.8517     6.2690     8.0284    96.7299
  190.5000   -57.0000     6.2677     8.0273   102.1184
  191.0000   -56.9984     6.2665     7.9710   105.7100
  191.5000   -56.9969     6.2652     7.9151    97.9029
  192.0000   -57.1454     6.2209     7.8053   101.1924
  192.5000   -57.1440     6.2194     7.8041   102.6851
  193.0000   -57.1425     6.1327     7.8030    97.2768
  193.5000   -56.8412     6.0893     7.8561    96.0686
  194.0000   -56.1650     6.0881     7.8550    98.1587
  194.5000   -56.0883     6.0868     7.9085   102.3596
  195.0000   -55.9370     6.0856     7.9074   108.1558
  195.5000   -55.9354     6.0844     7.8518   115.2216
  196.0000   -55.9341     6.1041     7.7966   111.9145
  196.5000   -55.7827     6.1238     7.7955   112.8052
  197.0000   -55.7811     6.1651     7.7944   113.3961
  197.5000   -55.7796     6.2066     7.8474   114.2869
  198.0000   -55.7780     6.2484     8.0107   116.0772
  198.5000   -56.0764     6.3779     8.0652   116.0684
  199.0000   -56.0750     6.4209     8.1763   112.7612
  199.5000   -56.0735     6.5087     8.2318   109.4541
  200.0000   -56.2220     6.5709     8.3310   109.1454
  200.5000   -56.1461     6.6618     8.2591   109.7451
  201.0000   -56.0701     6.7343     8.1871   107.6462
  201.5000   -55.9942     6.6410     8.2290   104.9475
  202.0000   -56.0840     6.5944     8.2854   104.6477
  202.5000   -56.0869     6.5480     8.3422   106.7466
  203.0000   -56.0898     6.5019     8.2843   105.2474
  203.5000   -56.0927     6.5011     8.2267   103.1484
  204.0000   -56.0959     6.3890     8.1695   104.9475
  204.5000   -56.0992     6.2353     8.0013   106.7466
  205.0000   -55.9522     6.1489     7.9457   106.7466
  205.5000   -56.1050     6.1058     7.8360   104.3478
  206.0000   -56.1079     6.0629     7.7815   106.4468
  206.5000   -55.6610     6.0621     7.7274   111.5442
  207.0000   -55.5140     6.0195     7.6737   109.0417
  207.5000   -55.5173     6.0186     7.5679   102.8486
  208.0000   -55.6704     5.9352     7.5674   104.0480
  208.5000   -55.8130     5.8935     7.5148   105.5472
  209.0000   -55.7910     5.8928     7.4624   105.8471
  209.5000   -55.7690     5.9328     7.4619    96.8516
  210.0000   -55.7469     5.9320     7.4614   103.7481
  210.5000   -55.7249     5.9311     7.5127    97.1514
  211.0000   -55.7029     5.9303     7.5643    96.8516
  211.5000   -55.6911     6.0120     7.5637    99.2504
  212.0000   -55.6940     6.0529     7.6684   104.0641
  212.5000   -55.6969     6.1788     7.7745   102.5487
  213.0000   -55.7001     6.2208     7.8822   101.0495
  213.5000   -55.7034     6.2630     7.9913   103.4483
  214.0000   -55.7063     6.3932     7.9908   110.9215
  214.5000   -55.7092     6.4813     8.1015   104.2925
  215.0000   -55.7121     6.5254     8.1571   102.2489
  215.5000   -55.7150     6.5245     8.2131   101.6492
  216.0000   -55.5680     6.5237     8.2124    99.8501
  216.5000   -55.5712     6.5228     8.2119   102.2489
  217.0000   -55.5745     6.5218     8.2113   102.5487
  217.5000   -55.4274     6.5208     8.2108   102.8486
  218.0000   -55.4303     6.5200     8.2102   104.3478
  218.5000   -55.4332     6.5191     8.2096   102.2489
  219.0000   -55.4361     6.5182     8.2090   104.0480
  219.5000   -55.4390     6.5174     8.2085   102.8426
  220.0000   -55.5972     6.5164     8.1514   107.3463
  220.5000   -55.6244     6.5154     8.0947   108.8456
  221.0000   -55.6515     6.5146     8.0942   102.8486
  221.5000   -55.6787     6.5137     8.0936   108.2459
  222.0000   -55.7058     6.5128     8.1492   110.6447
  222.5000   -55.7330     6.5120     8.1485   110.3448
  223.0000   -55.7601     6.5562     8.2045   109.1454
  223.5000   -55.6130     6.5553     8.2039   106.7466
  224.0000   -55.6159     6.5997     8.2034   104.3478
  224.5000   -55.6191     6.6907     8.2597   107.9460
  225.0000   -55.6224     6.8299     8.2592   111.2444
  225.5000   -55.3255     6.8763     8.2871   112.7436
  226.0000   -55.0285     6.8754     8.3728   112.4438
  226.5000   -54.7316     6.8744     8.4888   110.6447
