~VERSION INFORMATION
 VERS.                2.0:   CWLS LOG ASCII STANDARD - VERSION 2.0
 WRAP.                 NO:   ONE LINE PER DEPTH STEP
~WELL INFORMATION
#MNEM.UNIT      DATA TYPE    INFORMATION
#----------   ------------   ------------------------------
 STRT.F           30.0000:   START DEPTH
 STOP.F          458.0000:   STOP DEPTH
 STEP.F            0.5000:   STEP LENGTH
 NULL.          -999.2500:   NO VALUE
 COMP. FENIX & SCISSON INC:   COMPANY
 WELL. NPR 3 #53 SX 10-10:   WELL
 FLD .             TEAPOT:   FIELD
 LOC .      S10 T38N R78W:   LOCATION
 CNTY.            NATRONA:   COUNTY
 STAT.            WYOMING:   STATE
 CTRY. UNITED STATES OF AMERICA:   COUNTRY
 SRVC.              Welex:   SERVICE COMPANY
 DATE.        16-APR-1977:   LOGDATE
 API .       490251033200:   API NUMBER
~CURVE INFORMATION
#MNEM.UNIT       API CODE    CURVE DESCRIPTION
#----------   ------------   ------------------------------
 DEPT.F                  :   
 SPR .MV     07 010 01 00:   SPONTANEOUS POTENTIAL FROM RES.
 ILD .OHMM   07 120 46 00:   INDUCTION LOG DEEP
 ILM .OHMM   07 120 44 00:   INDUCTION LOG MEDIUM
 SGRD.OHMM   07 220 05 00:   SHALLOW GUARD RESISTIVITY
 GRD .GAPI   45 310 01 00:   GAMMA RAY FROM DENSITY LOG
 CALD.IN     45 280 60 00:   CALIPER FROM DENSITY LOG
 CORR.G/C3   45 356 01 00:   DENSITY CORRECTION
 RHOB.G/C3   45 350 01 00:   BULK DENSITY
 DPHI.DEC    45 890 12 00:   DENSITY POROSITY SANDSTONE
~PARAMETER INFORMATION
#MNEM.UNIT          VALUE    DESCRIPTION
#----------   ------------   ------------------------------
 PD  .                 GL:   PERMANENT DATUM
 EPD .F              5180:   ELEVATION PERMANENT DATUM
 LMF .                 GL:   LOG MEASURED FROM
 DMF .                 GL:   DRILLING MEASURED FROM
 EGL .F              5180:   GROUND LEVEL
 DATE.        16-APR-1977:   RUN DATE
 RUN .                  1:   RUN NUMBER
 DD  .F               455:   DEPTH DRILLER
 DL  .F               461:   DEPTH LOGGER
 BLI .F               459:   BOTTOM LOG INTERVAL
 TLI .F                30:   TOP LOG INTERVAL
 CS  .IN            8.625:   CASING SIZE
 BS  .IN            7.875:   BIT SIZE
 BSD .F               455:   BIT SIZE AT DEPTH
 DFT .            KCL MUD:   DRILLING FLUID TYPE
 DFD .                8.9:   DRILLING FLUID DENSITY
 TCS .HRS            0600:   TIME CURCULATED STOPPED
 MRT .F                66:   MAXIMUM RECORDED TEMPERATURE
 ENGI.               DOAK:   RECORDING ENGINEER
 WITN.      B. HARRINGTON:   WITNESSED BY
 CLNT.            A2DTECH:   CLIENT CODE
 ORIG.           5" PRINT:   ORIGIN OF DATA
 UWI .       490251033200:   UNIQUE WELL ID
 DICO. A2D Technologies, Inc.:   DIGITIZING COMPANY
~OTHER INFORMATION
~A   DEPT      SPR        ILD        ILM       SGRD         GRD        CALD      CORR        RHOB     DPHI   
# ...
  103.0000   -47.2483     8.3420     8.8777    11.5511   102.9450     7.8141     0.0191     2.4240     0.1293
  103.5000   -47.2335     8.3472     9.0695    11.8833   100.4443     7.8158     0.0193     2.4121     0.1341
  104.0000   -47.2186     8.3524     9.2837    12.9204    99.6220     7.8176     0.0194     2.4189     0.1353
  104.5000   -47.2038     8.3576     9.4901    13.4771   100.7474     7.8198     0.0196     2.4303     0.1295
  105.0000   -47.1890     8.4208     9.6704    13.6742   102.3576     7.8058     0.0198     2.4401     0.1259
  105.5000   -47.1741     8.3679     9.9479    13.5894   103.7697     7.8234     0.0199     2.4485     0.1207
  106.0000   -47.3077     8.3732     9.9541    12.6029   105.6410     7.8252     0.0231     2.4553     0.1180
  106.5000   -47.4408     8.3784     9.9603    12.7873   107.7390     7.8111     0.0263     2.4516     0.1174
  107.0000   -47.5740     8.3836     9.7619    12.8827   109.8370     7.8287     0.0249     2.4465     0.1195
  107.5000   -47.5586     8.3889     9.6338    11.9495   112.0836     7.8305     0.0220     2.4398     0.1212
  108.0000   -47.5438     8.3941     9.4405    12.2085   112.6912     7.8472     0.0207     2.4339     0.1245
  108.5000   -47.5290     8.2840     9.4478    12.2169   111.5247     7.8787     0.0194     2.4362     0.1269
  109.0000   -47.3662     8.1754     9.7189    11.6478   110.9437     7.8805     0.0196     2.4378     0.1253
  109.5000   -47.2034     8.2372    10.0670    10.9507   110.3671     7.8525     0.0197     2.4402     0.1244
  110.0000   -47.1886     8.3572    10.3558    12.5857   109.6463     7.8542     0.0214     2.4425     0.1237
  110.5000   -47.3254     8.3624    10.5066    12.9477   108.0296     7.8407     0.0216     2.4456     0.1225
  111.0000   -47.3069     8.1959    10.2973    13.3201   106.2643     7.8425     0.0217     2.4464     0.1216
  111.5000   -47.2920     8.2010    10.0922    13.0534   104.9448     7.8443     0.0219     2.4435     0.1215
  112.0000   -47.2772     8.2061    10.0985    12.1079   105.1111     7.8462     0.0220     2.4369     0.1239
  112.5000   -47.2624     8.2113    10.1048    12.3702   107.3577     7.8480     0.0177     2.4287     0.1275
  113.0000   -47.2476     8.2164    10.0415    12.9927   109.4557     7.8500     0.0148     2.4228     0.1310
  113.5000   -47.3807     8.2216    10.1174    13.0018   111.1079     7.8518     0.0135     2.4221     0.1334
  114.0000   -47.3658     8.1687    10.1238    12.8838   112.1658     7.8386     0.0152     2.4282     0.1324
  114.5000   -47.3510     8.1751    10.0603    12.5597   112.9265     7.8404     0.0123     2.4253     0.1330
  115.0000   -47.3362     8.1803     9.7920    12.4111   114.2816     7.8273     0.0065     2.4171     0.1345
  115.5000   -47.3213     8.1854     9.5293    12.3217   115.7852     7.8137    -0.0024     2.4135     0.1347
  116.0000   -47.3065     8.1341     9.5367    11.9017   117.1403     7.8006    -0.0053     2.4173     0.1344
  116.5000   -47.2917     8.0261     9.6756    11.7585   118.1981     7.8028     0.0010     2.4287     0.1308
  117.0000   -47.4235     7.9221     9.6816    11.6947   113.4611     7.8050     0.0102     2.4363     0.1262
  117.5000   -47.4099     7.8169     9.6194    12.0382   110.0613     7.8068     0.0133     2.4439     0.1229
  118.0000   -47.3951     7.7144     9.6133    12.1229   105.3242     7.8086     0.0180     2.4500     0.1201
  118.5000   -47.3815     7.5619     9.4768    11.7152   101.9244     7.8103     0.0197     2.4448     0.1213
  119.0000   -47.3667     7.4102     9.1621    11.4865   101.7892     7.8121     0.0244     2.4449     0.1222
  119.5000   -47.5000     7.3141     8.7969    11.4944   102.8515     7.8139     0.0245     2.4517     0.1206
  120.0000   -47.7833     7.2171     8.3453    10.2268   106.5839     7.8156     0.0262     2.4555     0.1182
  120.5000   -47.9127     7.1718     8.1227    11.1964   107.6418     7.8174     0.0279     2.4512     0.1185
  121.0000   -47.8979     7.0789     7.8402    11.5184   107.0652     7.8192     0.0280     2.4482     0.1187
  121.5000   -48.0347     6.9860     7.5325    11.2120   106.1915     7.8210     0.0252     2.4453     0.1199
  122.0000   -48.0161     6.8458     7.3831    10.3980   107.2493     7.8227     0.0239     2.4402     0.1220
  122.5000   -48.0013     6.6643     7.3952     9.7774   111.7247     7.8394     0.0195     2.4320     0.1258
  123.0000   -47.9865     6.6684     7.4994     9.1939   115.4572     7.8710     0.0152     2.4208     0.1327
  123.5000   -47.9716     6.5810     7.6634     8.2367   116.2135     7.8728     0.0138     2.4164     0.1387
  124.0000   -47.9568     6.5397     7.7193     9.3997   112.2238     7.8894     0.0095     2.4180     0.1386
  124.5000   -47.9420     6.4977     7.7241    11.1812   107.7839     7.8912     0.0081     2.4166     0.1386
  125.0000   -47.7792     6.5019     7.7289    10.8837   104.9785     7.8930     0.0038     2.4092     0.1404
  125.5000   -47.7644     6.5124     7.8958    10.6674   106.1849     7.8794     0.0024     2.4040     0.1445
  126.0000   -47.6016     6.6520     7.9556     9.5571   109.9174     7.8816     0.0011     2.4033     0.1460
  126.5000   -47.5868     6.7946     8.1838     9.9688   111.5696     7.8532    -0.0018     2.4072     0.1457
  127.0000   -47.4240     6.9437     8.1889    11.5348   111.4388     7.8405    -0.0016     2.4118     0.1420
  127.5000   -47.4092     7.0865     8.3081    11.6229   109.8221     7.8422    -0.0014     2.4194     0.1387
  128.0000   -47.3944     7.2395     8.4291    11.0031   109.0669     7.8587     0.0168     2.4307     0.1314
  128.5000   -47.3795     7.2440     8.3185    11.6390   112.5322     7.8605     0.0230     2.4286     0.1287
  129.0000   -47.5163     7.2485     7.9854    11.6471   115.0759     7.8625     0.0202     2.4211     0.1335
  129.5000   -47.4978     7.2531     7.7189    11.1815   117.0253     7.8642     0.0158     2.4115     0.1382
  130.0000   -47.4830     7.1579     7.7237    10.9577   116.3001     7.8511     0.0100     2.4138     0.1403
  130.5000   -47.4682     7.0641     7.7285    11.0433   110.5032     7.8529     0.0086     2.4162     0.1406
  131.0000   -47.6050     6.9234     7.7870    11.3609   107.1184     7.8547     0.0088     2.4147     0.1396
  131.5000   -47.5864     6.7387     7.7919    10.4635   108.6642     7.8415     0.0104     2.4141     0.1393
  132.0000   -47.5716     6.5590     7.8508     9.1184   109.9819     7.7986     0.0106     2.4119     0.1393
  132.5000   -47.5568     6.5177     7.8014     9.7106   106.8793     7.8004     0.0138     2.4195     0.1356
  133.0000   -47.6936     6.3871     7.7515    10.4131   108.1010     7.8021     0.0170     2.4279     0.1320
  133.5000   -47.9746     6.2167     7.5459    10.4908   109.4760     7.8039     0.0186     2.4227     0.1319
  134.0000   -48.1077     5.7262     7.2940    10.0732   109.9043     7.8057     0.0233     2.4130     0.1364
  134.5000   -48.2371     5.5726     7.0506     9.6705   107.4339     7.8075     0.0235     2.4026     0.1430
  135.0000   -48.3739     5.3134     6.8152     9.1565   102.2386     7.8092     0.0236     2.3937     0.1489
  135.5000   -48.3554     5.1353     6.6324     9.0997    96.3007     7.8110     0.0178     2.3848     0.1551
  136.0000   -48.3405     5.0679     6.2371     6.3120    93.3379     7.8128     0.0164     2.3736     0.1617
  136.5000   -48.1778     5.1071     5.7830     5.1322    92.1625     7.8146     0.0136     2.3816     0.1637
  137.0000   -48.0150     5.2536     5.9498     7.1586    94.7107     7.8163     0.0138     2.3865     0.1576
  137.5000   -48.0002     5.4418     6.1630     9.7109   100.0776     7.8181     0.0140     2.4032     0.1497
  138.0000   -47.8374     5.5979     6.4281    10.2704   103.8101     7.8199     0.0141     2.4127     0.1412
  138.5000   -47.5267     5.7585     6.6584    10.2049   104.2736     7.8217     0.0188     2.4142     0.1412
  139.0000   -47.3640     5.9648     7.1395    10.0717   104.2914     7.8234     0.0205     2.4222     0.1379
