~VERSION INFORMATION
 VERS.                2.0:   CWLS LOG ASCII STANDARD - VERSION 2.0
 WRAP.                 NO:   ONE LINE PER DEPTH STEP
~WELL INFORMATION
#MNEM.UNIT      DATA TYPE    INFORMATION
#----------   ------------   ------------------------------
 STRT.F           15.0000:   START DEPTH
 STOP.F          620.0000:   STOP DEPTH
 STEP.F            0.5000:   STEP LENGTH
 NULL.          -999.2500:   NO VALUE
 COMP.       F D SERV INC:   COMPANY
 WELL. NAVAL PETROLEUM RESERVE 3 SX-1 #87-1-10:   WELL
 FLD .             TEAPOT:   FIELD
 LOC .      S10 T38N R78W:   LOCATION
 CNTY.            NATRONA:   COUNTY
 STAT.            WYOMING:   STATE
 CTRY. UNITED STATES OF AMERICA:   COUNTRY
 SRVC.     Atlas Wireline:   SERVICE COMPANY
 DATE.        02-JAN-1991:   LOGDATE
 API .       490252247100:   API NUMBER
~CURVE INFORMATION
#MNEM.UNIT       API CODE    CURVE DESCRIPTION
#----------   ------------   ------------------------------
 DEPT.F                  :   
 GRR .GAPI   07 310 01 00:   GAMMA RAY
 RILD.OHMM   07 120 46 00:   INDUCTION LOG DEEP RESISTIVITY
 RILM.OHMM   07 120 44 00:   INDUCTION LOG MEDIUM RESISTIVITY
~PARAMETER INFORMATION
#MNEM.UNIT          VALUE    DESCRIPTION
#----------   ------------   ------------------------------
 PD  .                 GL:   PERMANENT DATUM
 EPD .F              5239:   ELEVATION PERMANENT DATUM
 LMF .                 KB:   LOG MEASURED FROM
 DAPD.F                10:   FEET ABOVE PERMANENT DATUM
 DMF .                 KB:   DRILLING MEASURED FROM
 EKB .F              5249:   KELLING BUSHING
 EDF .F              5248:   DRILLING FLOOR
 EGL .F              5239:   GROUND LEVEL
 DATE.        02-JAN-1991:   RUN DATE
 RUN .                  1:   RUN NUMBER
 DD  .F               630:   DEPTH DRILLER
 DL  .F               630:   DEPTH LOGGER
 BLI .F               628:   BOTTOM LOG INTERVAL
 CS  .IN            9.625:   CASING SIZE
 CBD .F                40:   CASING BOTTOM DRILLER
 CBL .F                50:   CASING BOTTOM LOGGER
 BS  .IN            8.625:   BIT SIZE
 BSD .F               630:   BIT SIZE AT DEPTH
 DFT .                AIR:   DRILLING FLUID TYPE
 LUN .            HL 6274:   LOGGING UNIT NUMBER
 LUL .             CASPER:   LOGGING UNIT LOCATION
 ENGI.       P. RASMUSSEN:   RECORDING ENGINEER
 WITN.          G. STRONG:   WITNESSED BY
 CLNT.            A2DTECH:   CLIENT CODE
 ORIG.           5" PRINT:   ORIGIN OF DATA
 UWI .       490252247100:   UNIQUE WELL ID
 DICO. A2D Technologies, Inc.:   DIGITIZING COMPANY
~OTHER INFORMATION
~A   DEPT       GRR      RILD       RILM   
# ...
  106.0000   130.8383     6.9927     7.0685
  106.5000   129.6407     6.9431     7.0186
  107.0000   132.3353     6.9417     7.0174
  107.5000   133.5329     6.9403     7.0162
  108.0000   133.2335     6.9386     7.0151
  108.5000   135.0299     6.9372     7.0139
  109.0000   135.3293     6.9843     7.0127
  109.5000   134.0399     6.9825     7.0602
  110.0000   132.0359     6.9812     7.0587
  110.5000   132.3353     7.0282     7.0575
  111.0000   132.9341     7.0267     7.0564
  111.5000   130.5389     7.0741     7.0552
  112.0000   128.7425     7.0723     7.1033
  112.5000   128.7425     7.0709     7.1018
  113.0000   129.6407     7.1300     7.1006
  113.5000   131.4731     7.1810     7.1561
  114.0000   134.2355     7.2150     7.2037
  114.5000   137.4252     7.2639     7.2962
  115.0000   138.9221     7.2620     7.2946
  115.5000   136.5269     7.2606     7.3441
  116.0000   134.1317     7.3392     7.3941
  116.5000   133.2335     7.3587     7.4659
  117.0000   132.9341     7.3677     7.4944
  117.5000   132.3353     7.4069     7.4931
  118.0000   132.9341     7.4568     7.5438
  118.5000   134.1317     7.4550     7.5946
  119.0000   135.3293     7.5574     7.5934
  119.5000   136.5269     7.6611     7.5921
  120.0000   137.7245     7.7663     7.6438
  120.5000   138.9221     7.8725     7.6956
  121.0000   140.1198     7.8710     7.6940
  121.5000   140.7186     7.8694     7.7470
  122.0000   140.4192     7.8679     7.7986
  122.5000   139.7904     7.9208     7.9060
  123.0000   138.3233     8.0023     7.9592
  123.5000   137.1257     8.0840     8.0134
  124.0000   137.4252     8.1564     8.1237
  124.5000   137.4252     8.3072     8.2356
  125.0000   137.1257     8.4209     8.3486
  125.5000   137.7245     8.5010     8.4052
  126.0000   138.9221     8.6114     8.5248
  126.5000   137.4192     8.7262     8.6378
  127.0000   135.2934     8.8317     8.8175
  127.5000   132.9341     8.9711     8.9389
  128.0000   132.0359     9.0167     9.0623
  128.5000   132.9341     9.2115     9.2504
  129.0000   133.8323     9.3917     9.4429
  129.5000   134.1317     9.5862     9.6394
  130.0000   134.1317     9.7179     9.8399
  130.5000   134.4311     9.8513     9.9834
  131.0000   135.0299     9.9866    10.1127
  131.5000   133.9641    10.0540    10.1105
  132.0000   128.4431    10.1217    10.1088
  132.5000   126.9461    10.0498    10.1072
  133.0000   126.9461    10.0477    10.1055
  133.5000   128.1437    10.0453    10.1038
  134.0000   130.5389    10.0433    10.1021
  134.5000   134.1317     9.9722    10.1003
  135.0000   137.7245     9.9012    10.0870
  135.5000   138.3233     9.8310     9.9578
  136.0000   135.2335     9.7612     9.8874
  136.5000   132.9341     9.7529     9.8176
  137.0000   132.3353     9.6227     9.6810
  137.5000   134.1317     9.6208     9.6127
  138.0000   135.9281     9.5525     9.5448
  138.5000   138.3233     9.4849     9.4774
  139.0000   140.1198     9.4828     9.4039
  139.5000   141.0180     9.4809     9.2791
  140.0000   141.3174     9.4136     9.2776
  140.5000   141.3174     9.2823     9.2120
  141.0000   140.1198     9.2164     9.2105
  141.5000   136.8263     9.1506     9.1454
  142.0000   132.0359     9.0857     9.0808
  142.5000   130.8383     9.0212     9.0793
  143.0000   133.5329     8.9572     9.0778
  143.5000   135.9281     8.9554     9.0668
  144.0000   138.6228     8.9536     9.0118
  144.5000   142.5409     8.9518     9.0103
  145.0000   144.3114     8.9499     9.0088
  145.5000   141.3174     8.9477     9.0072
  146.0000   138.9221     8.9459     9.0057
  146.5000   137.1257     8.9441     8.9421
  147.0000   136.2275     8.8806     8.8790
  147.5000   137.7245     8.8176     8.8111
  148.0000   141.3174     8.6947     8.7536
  148.5000   144.9102     8.5735     8.7521
  149.0000   143.7126     8.4511     8.6903
  149.5000   141.3174     8.3359     8.6289
  150.0000   138.9221     8.1627     8.5089
  150.5000   137.4217     7.9934     8.2752
  151.0000   137.1201     7.7736     8.1601
  151.5000   139.5117     7.6124     8.0457
  152.0000   141.3052     7.4545     7.8256
  152.5000   142.5006     7.1995     7.6104
  153.0000   142.7964     7.0450     7.4014
  153.5000   143.9910     6.9518     7.2481
  154.0000   145.2495     7.1027     7.0512
  154.5000   147.5773     7.2432     7.1981
  155.0000   147.5743     7.3430     7.3989
  155.5000   147.5714     7.4439     7.5010
  156.0000   138.5865     7.5461     7.6047
  156.5000   133.1943     7.6497     7.7629
  157.0000   132.5926     7.8082     7.8161
  157.5000   131.9909     7.9154     7.8147
  158.0000   130.4909     7.9138     7.9226
  158.5000   128.6916     7.9122     7.9765
  159.0000   126.5489     7.9105     7.9754
  159.5000   122.8952     7.9086     7.9741
  160.0000   124.4905     7.9070     7.9730
  160.5000   127.1822     7.9054     7.9719
  161.0000   131.9697     7.9038     7.9709
  161.5000   136.7572     7.9022     7.9698
  162.0000   140.9458     7.9006     7.9687
  162.5000   139.1465     7.8990     7.9676
  163.0000   136.7484     7.9522     8.0219
  163.5000   134.9491     8.0076     8.0345
  164.0000   135.2575     8.1796     8.3594
  164.5000   135.5828     8.5164     8.5929
  165.0000   134.0414     8.6824     8.9559
  165.5000   130.1462     8.8306     9.5302
  166.0000   125.3529     8.9956     9.7291
  166.5000   115.7691     8.8702     9.5276
  167.0000   107.9818     8.8684     9.2662
  167.5000   104.6854     8.8055     9.1376
  168.0000   106.7783     8.6228     8.9454
  168.5000   116.9550     8.5026     8.7032
  169.0000   127.4534     8.3840     8.5822
  169.5000   134.3145     8.3241     8.4631
  170.0000   134.3108     8.2650     8.4619
  170.5000   134.3079     8.2633     8.3445
  171.0000   134.9045     8.2617     8.3434
  171.5000   136.0984     8.2600     8.3422
  172.0000   138.4907     8.2583     8.3411
  172.5000   139.6854     8.1432     8.3400
  173.0000   137.5867     8.0296     8.3388
  173.5000   134.2903     7.9167     8.2229
  174.0000   135.7844     7.8072     7.9973
  174.5000   137.2785     7.7514     7.8863
  175.0000   136.2275     7.6964     7.7769
  175.5000   130.3857     7.6949     7.7758
  176.0000   128.8865     7.6933     7.7212
  176.5000   134.8709     7.6918     7.6669
  177.0000   139.3590     7.6902     7.6658
  177.5000   142.0514     7.6356     7.6648
  178.0000   141.1495     7.6341     7.6637
  178.5000   143.2424     7.5799     7.6096
  179.0000   144.1377     7.5783     7.6086
  179.5000   143.5249     7.5764     7.5551
  180.0000   144.5508     7.5227     7.5541
  180.5000   148.0204     7.5734     7.5531
  181.0000   149.8146     7.5860     7.5521
  181.5000   146.2181     7.6762     7.5511
  182.0000   140.8260     7.6743     7.5500
  182.5000   137.5297     7.6728     7.6041
  183.0000   133.6345     7.6711     7.6531
  183.5000   134.2304     7.6696     7.7585
  184.0000   135.7245     7.7213     7.7575
  184.5000   136.9192     7.7733     7.7564
  185.0000   135.3892     7.7714     7.8637
  185.5000   133.3198     7.7698     7.9173
  186.0000   131.2210     7.8225     7.9712
  186.5000   130.9194     7.8753     7.9698
  187.0000   133.9098     7.8733     8.0798
  187.5000   136.0027     7.9264     8.0230
  188.0000   137.1981     7.9798     7.9663
  188.5000   138.0927     7.9772     7.9653
  189.0000   139.2873     7.9142     7.9642
  189.5000   140.4820     7.8649     7.8537
  190.0000   141.3773     7.8633     7.7985
  190.5000   138.8323     7.7537     7.7436
  191.0000   134.4845     7.6456     7.6679
  191.5000   132.3858     7.5913     7.6113
  192.0000   129.6882     7.4854     7.5292
  192.5000   129.0872     7.4323     7.4217
  193.0000   132.3770     7.3287     7.3214
  193.5000   135.3681     7.2265     7.2198
  194.0000   137.1616     7.2183     7.1196
  194.5000   138.9550     7.1239     7.0696
  195.0000   139.5509     7.0734     7.0199
  195.5000   137.6737     7.1214     7.0679
  196.0000   135.6529     7.1694     7.1158
  196.5000   137.1469     7.2177     7.1642
