~VERSION INFORMATION
 VERS.                2.0:   CWLS LOG ASCII STANDARD - VERSION 2.0
 WRAP.                 NO:   ONE LINE PER DEPTH STEP
~WELL INFORMATION
#MNEM.UNIT      DATA TYPE    INFORMATION
#----------   ------------   ------------------------------
 STRT.F           34.0000:   START DEPTH
 STOP.F          662.0000:   STOP DEPTH
 STEP.F            0.5000:   STEP LENGTH
 NULL.          -999.2500:   NO VALUE
 COMP. LAWRENCE/ALLISON INC:   COMPANY
 WELL.   68-66 STX #34-34:   WELL
 FLD .             TEAPOT:   FIELD
 LOC .      S34 T39N R78W:   LOCATION
 CNTY.            NATRONA:   COUNTY
 STAT.            WYOMING:   STATE
 CTRY. UNITED STATES OF AMERICA:   COUNTRY
 SRVC.           Gearhart:   SERVICE COMPANY
 DATE.        24-AUG-1987:   LOGDATE
 API .       490251115000:   API NUMBER
~CURVE INFORMATION
#MNEM.UNIT       API CODE    CURVE DESCRIPTION
#----------   ------------   ------------------------------
 DEPT.F                  :   
 GRR .GAPI   07 310 01 00:   GAMMA RAY FROM RES. LOG
 ILD .OHMM   07 120 46 00:   INDUCTION LOG DEEP
 ILM .OHMM   07 120 44 00:   INDUCTION LOG MEDIUM
~PARAMETER INFORMATION
#MNEM.UNIT          VALUE    DESCRIPTION
#----------   ------------   ------------------------------
 PD  .                 GL:   PERMANENT DATUM
 EPD .F              5089:   ELEVATION PERMANENT DATUM
 LMF .                 KB:   LOG MEASURED FROM
 DAPD.F                 8:   FEET ABOVE PERMANENT DATUM
 DMF .                 KB:   DRILLING MEASURED FROM
 EKB .F              5097:   KELLING BUSHING
 EDF .F              5095:   DRILLING FLOOR
 EGL .F              5089:   GROUND LEVEL
 DATE.            8-24-87:   RUN DATE
 RUN .                  1:   RUN NUMBER
 DD  .F               675:   DEPTH DRILLER
 DL  .F               670:   DEPTH LOGGER
 BLI .F               662:   BOTTOM LOG INTERVAL
 TLI .F                30:   TOP LOG INTERVAL
 CS  .IN            8.625:   CASING SIZE
 CBD .F                48:   CASING BOTTOM DRILLER
 CBL .F                48:   CASING BOTTOM LOGGER
 BS  .IN            7.875:   BIT SIZE
 BSD .F               675:   BIT SIZE AT DEPTH
 DFT .                AIR:   DRILLING FLUID TYPE
 TCS .HRS            1300:   TIME CURCULATED STOPPED
 TLAB.HRS            1712:   TIME LOGGER AT BOTTOM
 MRT .F                80:   MAXIMUM RECORDED TEMPERATURE
 LUN .               7597:   LOGGING UNIT NUMBER
 LUL .           GILLETTE:   LOGGING UNIT LOCATION
 ENGI.         WEATHERMON:   RECORDING ENGINEER
 WITN.             STRONG:   WITNESSED BY
 CLNT.            A2DTECH:   CLIENT CODE
 ORIG.       2", 5" PRINT:   ORIGIN OF DATA
 UWI .       490251115000:   UNIQUE WELL ID
 DICO. A2D Technologies, Inc.:   DIGITIZING COMPANY
~OTHER INFORMATION
~A   DEPT       GRR       ILD        ILM   
   34.0000    98.5830  -999.2500  -999.2500
   34.5000    98.5830  -999.2500  -999.2500
   35.0000   100.0699  -999.2500  -999.2500
   35.5000   101.3148  -999.2500  -999.2500
   36.0000   102.3130  -999.2500  -999.2500
   36.5000   102.9831  -999.2500  -999.2500
   37.0000   101.0306  -999.2500  -999.2500
   37.5000    98.5512  -999.2500  -999.2500
   38.0000    94.6879  -999.2500  -999.2500
   38.5000    92.0669  -999.2500  -999.2500
   39.0000    92.3986  -999.2500  -999.2500
   39.5000    94.0544  -999.2500  -999.2500
   40.0000    94.3553  -999.2500  -999.2500
   40.5000    93.1213  -999.2500  -999.2500
   41.0000    91.8979  -999.2500  -999.2500
   41.5000    90.7254  -999.2500  -999.2500
   42.0000    87.9673  -999.2500  -999.2500
   42.5000    85.0382  -999.2500  -999.2500
   43.0000    82.8194  -999.2500  -999.2500
   43.5000    82.0522  -999.2500  -999.2500
   44.0000    83.5301  -999.2500  -999.2500
   44.5000    86.8104  -999.2500  -999.2500
   45.0000    90.3650  -999.2500  -999.2500
   45.5000    93.6722  -999.2500  -999.2500
   46.0000    93.0250  -999.2500  -999.2500
   46.5000    90.6152  -999.2500  -999.2500
   47.0000    90.6905  -999.2500  -999.2500
   47.5000    99.5778  -999.2500  -999.2500
   48.0000   108.7965     2.5278     2.7735
   48.5000   113.8594     2.5278     2.7735
   49.0000   110.9345     2.4132     2.4813
   49.5000   105.6207     2.5514     2.5514
   50.0000   100.3408     4.4790     3.2568
   50.5000    99.7719     8.1127     4.2141
   51.0000    99.9777    12.2331     5.4528
   51.5000   100.1432     9.2921     6.7566
   52.0000    99.7230     6.9473     6.3921
   52.5000    99.5740     6.9851     6.0956
   53.0000   100.6786     7.0120     5.8701
   53.5000   101.7563     6.5923     5.6931
   54.0000   102.8201     5.8775     5.2001
   54.5000   103.9152     5.2558     4.7179
   55.0000   105.8215     5.2607     4.2784
   55.5000   113.9761     5.1718     3.9454
   56.0000   122.0241     5.1195     4.0568
   56.5000   127.4566     5.0682     4.7165
   57.0000   124.1916     5.0214     5.4933
   57.5000   114.4529     5.8129     6.3981
   58.0000   105.3107     6.5768     7.3744
   58.5000   104.5856     7.4412     8.2711
   59.0000   105.0407     8.4147     9.3480
   59.5000   105.4821     9.3589     9.7013
   60.0000   104.4442     9.7803    10.1909
   60.5000   103.7508    10.2588    10.7289
   61.0000   106.6236    10.7576    11.2445
   61.5000   109.4955    11.2816    11.7515
   62.0000   110.0302    11.8292    12.2813
   62.5000   108.1571    12.0545    12.5469
   63.0000   105.9401    12.2357    12.7781
   63.5000   102.2343    12.4197    12.9902
   64.0000   100.4825    12.6065    13.1595
   64.5000   101.1431    12.7960    13.3311
   65.0000   101.7717    12.9885    13.5047
   65.5000   102.0024    13.1753    13.6739
   66.0000   101.2298    13.3239    13.8273
   66.5000   100.6766    13.4680    13.9770
   67.0000   102.1903    13.6135    14.1281
   67.5000   105.4492    13.7607    14.2808
   68.0000   108.6747    13.9094    14.4352
   68.5000   111.2775    14.0598    14.5913
   69.0000   108.1776    14.2118    14.7490
   69.5000   104.6564    14.3654    14.9084
   70.0000   101.1200    14.5207    15.0696
   70.5000    99.4130    14.6777    15.2325
   71.0000   101.0609    14.8235    15.3838
   71.5000   104.9362    14.9652    15.5308
   72.0000   108.7728    15.1078    15.6789
   72.5000   111.1271    15.2520    15.8285
   73.0000   110.0024    15.3975    15.9795
   73.5000   108.8642    15.5445    16.1320
   74.0000   107.7148    15.6928    16.2860
   74.5000   106.7012    15.8424    16.4412
   75.0000   107.2865    15.9938    16.5984
   75.5000   109.3453    16.1565    16.7672
   76.0000   111.4446    16.4698    17.0923
   76.5000   112.2519    16.8131    17.4486
   77.0000   108.1930    17.1642    17.8130
   77.5000   103.9006    17.5220    18.1843
   78.0000   103.2834    17.7815    18.4512
   78.5000   104.5940    17.9050    18.5739
   79.0000   106.7385    18.0295    18.6973
   79.5000   107.8820    18.1548    18.8216
   80.0000   108.7037    18.2809    18.9468
   80.5000   108.7142    18.4080    19.0727
   81.0000   108.6909    18.5359    19.1996
   81.5000   107.6871    18.6647    19.3272
   82.0000   106.5937    18.7944    19.4512
   82.5000   105.5066    18.9174    19.6258
   83.0000   104.6347    18.8380    19.8153
   83.5000   104.6570    18.7465    19.7170
   84.0000   104.6559    18.6554    19.5757
   84.5000   104.4517    18.5647    19.4353
   85.0000   103.5451    18.4747    19.2960
   85.5000   102.6941    18.3848    19.1576
   86.0000   104.1085    18.2954    19.0203
   86.5000   105.1610    18.1159    18.8071
   87.0000   102.8279    17.6662    18.3658
   87.5000   101.0937    17.2276    17.9349
   88.0000   100.9050    16.7685    17.5140
   88.5000   101.6589    16.2982    16.9922
   89.0000   102.6950    15.8050    16.4464
   89.5000   105.0883    15.3267    15.9181
   90.0000   108.6344    14.7128    15.4622
   90.5000   109.9380    14.0305    15.0547
   91.0000   109.2025    13.2449    14.6579
   91.5000   111.9854    12.1493    13.9922
   92.0000   115.8295    11.1481    13.0149
   92.5000   119.7464    10.2273    11.6805
   93.0000   121.1042     9.3828    10.4819
   93.5000   121.7990     8.5993     9.4113
   94.0000   127.3785     7.9027     8.6518
   94.5000   133.7111     7.2771     8.0223
   95.0000   140.3064     7.0507     7.5329
   95.5000   141.2780     6.8387     7.1433
   96.0000   135.3441     6.6961     7.0093
   96.5000   130.3109     6.7184     7.0187
   97.0000   128.3360     6.7373     7.0391
   97.5000   126.4470     6.7563     7.0535
   98.0000   128.2573     6.7753     7.0678
   98.5000   132.3494     6.7944     7.0821
   99.0000   135.5735     6.8191     7.0965
   99.5000   136.9381     6.7630     7.1109
  100.0000   133.9143     6.6766     7.1254
  100.5000   131.1919     6.5712     7.1397
  101.0000   130.4008     6.6378     7.1835
  101.5000   129.5869     6.7271     7.2373
  102.0000   129.6228     6.8175     7.2915
  102.5000   132.0031     6.9092     7.3459
  103.0000   134.5784     7.0021     7.4133
  103.5000   135.9915     7.0774     7.3801
  104.0000   134.7989     7.0446     7.3373
  104.5000   131.6928     7.0121     7.2948
  105.0000   131.1462     6.9799     7.2525
  105.5000   133.1085     6.9473     7.2099
  106.0000   135.0982     6.8650     7.1610
  106.5000   135.2915     6.7824     7.1116
  107.0000   134.4661     6.7008     7.0625
  107.5000   133.5893     6.6202     7.0136
  108.0000   133.5661     6.5712     6.9475
  108.5000   134.6276     6.6066     6.9787
  109.0000   135.2705     6.6323     7.0296
  109.5000   134.3688     6.6580     7.0808
  110.0000   132.2555     6.6838     7.1324
  110.5000   127.4340     6.7519     7.2066
  111.0000   125.5000     6.8495     7.2876
  111.5000   124.6896     6.9484     7.3695
  112.0000   125.8154     7.0489     7.4523
  112.5000   127.6921     7.1507     7.5362
  113.0000   129.5793     7.2396     7.5925
  113.5000   131.3115     7.3101     7.6428
  114.0000   130.8053     7.3812     7.6935
  114.5000   128.1069     7.4530     7.7444
  115.0000   125.0827     7.5690     7.9004
  115.5000   122.6665     7.7170     8.1332
  116.0000   122.2777     7.8453     8.3730
  116.5000   123.4544     7.9649     8.4834
  117.0000   124.5562     8.1338     8.5423
  117.5000   124.7007     8.1218     8.5993
  118.0000   123.5389     8.1023     8.5798
  118.5000   122.5511     8.0826     8.5567
  119.0000   124.0856     8.0636     8.5337
  119.5000   125.6420     7.9654     8.4632
  120.0000   124.8314     7.8477     8.3226
  120.5000   121.8618     7.7316     8.1842
  121.0000   119.4696     7.6173     8.0482
  121.5000   120.5854     7.5046     7.9145
  122.0000   122.5219     7.3937     7.8376
  122.5000   124.4629     7.2833     7.8621
  123.0000   123.3236     7.2077     7.8794
  123.5000   121.8562     7.1975     7.8967
  124.0000   122.4452     7.1886     7.9142
  124.5000   124.0364     7.1795     7.9316
