~VERSION INFORMATION
 VERS.                2.0:   CWLS LOG ASCII STANDARD - VERSION 2.0
 WRAP.                 NO:   ONE LINE PER DEPTH STEP
~WELL INFORMATION
#MNEM.UNIT      DATA TYPE    INFORMATION
#----------   ------------   ------------------------------
 STRT.F          550.0000:   START DEPTH
 STOP.F         2078.5000:   STOP DEPTH
 STEP.F            0.5000:   STEP LENGTH
 NULL.          -999.2500:   NO VALUE
 COMP. BROWN JOHN E&C INC:   COMPANY
 WELL. 58-61 STX-10 #58-10:   WELL
 FLD .             TEAPOT:   FIELD
 LOC .      S10 T38N R78W:   LOCATION
 CNTY.            NATRONA:   COUNTY
 STAT.            WYOMING:   STATE
 CTRY. UNITED STATES OF AMERICA:   COUNTRY
 SRVC.            Unknown:   SERVICE COMPANY
 DATE.        07-SEP-1991:   LOGDATE
 API .       490251108000:   API NUMBER
~CURVE INFORMATION
#MNEM.UNIT       API CODE    CURVE DESCRIPTION
#----------   ------------   ------------------------------
 DEPT.F                  :   
 ROP .MIN/FT 91 810 01 00:   RAT OF DRILLING PENETRATION
 TGAS.UNITS  91 830 01 00:   TOTAL GAS FROM HOTWIRE
~PARAMETER INFORMATION
#MNEM.UNIT          VALUE    DESCRIPTION
#----------   ------------   ------------------------------
 EKB .F              5216:   KELLING BUSHING
 EGL .F              5206:   GROUND LEVEL
 DATE.             9-7-91:   RUN DATE
 DD  .F              2079:   DEPTH DRILLER
 TCS .HRS            1815:   TIME CURCULATED STOPPED
 TLAB.HRS            1930:   TIME LOGGER AT BOTTOM
 ENGI.         HUSK/TOWER:   RECORDING ENGINEER
 WITN.             HENDRY:   WITNESSED BY
 CLNT.            A2DTECH:   CLIENT CODE
 ORIG.           5" PRINT:   ORIGIN OF DATA
 UWI .       490251108000:   UNIQUE WELL ID
 DICO. A2D Technologies, Inc.:   DIGITIZING COMPANY
~OTHER INFORMATION
~A   DEPT        ROP       TGAS 
# ...
 1036.0000     0.2776    19.8208
 1036.5000     0.2790    19.7973
 1037.0000     0.2804    19.7939
 1037.5000     0.2817    19.7926
 1038.0000     0.2831    20.1922
 1038.5000     0.2844    23.8695
 1039.0000     0.2858    29.1330
 1039.5000     0.2872    34.1558
 1040.0000     0.2885    34.2526
 1040.5000     0.2899    28.7775
 1041.0000     0.2912    22.7327
 1041.5000     0.2926    21.6113
 1042.0000     0.2940    21.5103
 1042.5000     0.2953    21.4341
 1043.0000     0.2967    21.3480
 1043.5000     0.2981    21.2600
 1044.0000     0.2994    21.1720
 1044.5000     0.3008    21.0840
 1045.0000     0.3022    20.9960
 1045.5000     0.3034    20.9081
 1046.0000     0.3017    20.8201
 1046.5000     0.2999    20.7321
 1047.0000     0.2981    20.6440
 1047.5000     0.2963    20.5564
 1048.0000     0.2945    20.4678
 1048.5000     0.2927    20.4594
 1049.0000     0.2909    20.5213
 1049.5000     0.2931    20.5839
 1050.0000     0.2957    20.6467
 1050.5000     0.2983    20.7093
 1051.0000     0.3008    20.7720
 1051.5000     0.3034    20.8347
 1052.0000     0.3060    20.8974
 1052.5000     0.3086    20.9600
 1053.0000     0.3111    21.0227
 1053.5000     0.3137    21.0854
 1054.0000     0.3159    21.1481
 1054.5000     0.3151    21.2107
 1055.0000     0.3145    21.2734
 1055.5000     0.3138    21.3361
 1056.0000     0.3131    21.3988
 1056.5000     0.3125    21.4614
 1057.0000     0.3118    21.5234
 1057.5000     0.3111    21.5868
 1058.0000     0.3105    21.6440
 1058.5000     0.3098    22.0425
 1059.0000     0.3091    23.3507
 1059.5000     0.3085    31.8197
 1060.0000     0.3078    40.2052
 1060.5000     0.3071    43.8723
 1061.0000     0.3065    33.1293
 1061.5000     0.3058    24.5167
 1062.0000     0.3051    24.0175
 1062.5000     0.3044    23.3639
 1063.0000     0.3038    22.2540
 1063.5000     0.3031    22.2291
 1064.0000     0.3024    22.1777
 1064.5000     0.3018    22.1149
 1065.0000     0.3011    22.0527
 1065.5000     0.3004    21.9904
 1066.0000     0.2998    21.9282
 1066.5000     0.2991    21.8660
 1067.0000     0.2984    21.8038
 1067.5000     0.2978    21.7419
 1068.0000     0.2971    21.6796
 1068.5000     0.2964    21.5815
 1069.0000     0.2958    21.4849
 1069.5000     0.2951    21.3887
 1070.0000     0.2944    21.2925
 1070.5000     0.2937    21.1964
 1071.0000     0.2931    21.1002
 1071.5000     0.2924    21.0040
 1072.0000     0.2918    20.9078
 1072.5000     0.2911    20.8116
 1073.0000     0.2908    20.7155
 1073.5000     0.2908    20.6193
 1074.0000     0.2908    20.5231
 1074.5000     0.2908    20.4269
 1075.0000     0.2908    20.3307
 1075.5000     0.2908    20.2346
 1076.0000     0.2908    20.1384
 1076.5000     0.2908    20.0423
 1077.0000     0.2908    19.9352
 1077.5000     0.2908    19.8345
 1078.0000     0.2908    19.5254
 1078.5000     0.2908    21.4641
 1079.0000     0.2909    25.1686
 1079.5000     0.2911    58.4019
 1080.0000     0.2788    71.3723
 1080.5000     0.2648    73.2882
 1081.0000     0.2508    72.0979
 1081.5000     0.2406    61.6930
 1082.0000     0.2418    40.5938
 1082.5000     0.2428    21.9684
 1083.0000     0.2437    21.7267
 1083.5000     0.2447    21.2743
 1084.0000     0.2457    20.7495
 1084.5000     0.2466    20.2217
 1085.0000     0.2476    19.7871
 1085.5000     0.2486    19.7990
 1086.0000     0.2495    19.6854
 1086.5000     0.2505    19.5478
 1087.0000     0.2515    19.4095
 1087.5000     0.2524    19.2715
 1088.0000     0.2534    19.1335
 1088.5000     0.2544    18.9955
 1089.0000     0.2553    18.8575
 1089.5000     0.2563    18.7194
 1090.0000     0.2572    18.5753
 1090.5000     0.2582    18.5409
 1091.0000     0.2592    18.5401
 1091.5000     0.2601    18.5404
 1092.0000     0.2611    18.5405
 1092.5000     0.2621    18.5405
 1093.0000     0.2630    18.5405
 1093.5000     0.2640    18.5405
 1094.0000     0.2650    18.5405
 1094.5000     0.2659    18.5405
 1095.0000     0.2669    18.5405
 1095.5000     0.2679    18.5405
 1096.0000     0.2688    18.5405
 1096.5000     0.2698    18.5404
 1097.0000     0.2707    18.5375
 1097.5000     0.2717    18.5156
 1098.0000     0.2727    19.3019
 1098.5000     0.2736    20.0170
 1099.0000     0.2746    29.9985
 1099.5000     0.2756    42.2137
 1100.0000     0.2765    40.1352
 1100.5000     0.2775    30.5246
 1101.0000     0.2785    22.0711
 1101.5000     0.2794    21.9796
 1102.0000     0.2804    21.6943
 1102.5000     0.2813    21.3687
 1103.0000     0.2823    21.0426
 1103.5000     0.2833    20.7175
 1104.0000     0.2842    20.4175
 1104.5000     0.2852    20.4226
 1105.0000     0.2862    20.5278
 1105.5000     0.2871    20.6686
 1106.0000     0.2881    20.8115
 1106.5000     0.2891    20.9545
 1107.0000     0.2900    21.0973
 1107.5000     0.2910    21.2401
 1108.0000     0.2920    21.3831
 1108.5000     0.2929    21.5272
 1109.0000     0.2939    21.6755
 1109.5000     0.2948    21.6838
 1110.0000     0.2958    21.6530
 1110.5000     0.2968    21.5289
 1111.0000     0.2977    21.4102
 1111.5000     0.2987    21.2916
 1112.0000     0.2997    21.1730
 1112.5000     0.3006    21.0545
 1113.0000     0.3016    20.9359
 1113.5000     0.3026    20.8173
 1114.0000     0.3031    20.6988
 1114.5000     0.3018    20.5799
 1115.0000     0.3005    20.4562
 1115.5000     0.2992    20.4276
 1116.0000     0.2979    20.4939
 1116.5000     0.2966    20.6312
 1117.0000     0.2953    20.7676
 1117.5000     0.2940    20.8908
 1118.0000     0.2927    20.9814
 1118.5000     0.2914    21.4985
 1119.0000     0.2901    29.8580
 1119.5000     0.2888    38.2632
 1120.0000     0.2875    37.7555
 1120.5000     0.2862    32.2486
 1121.0000     0.2849    26.8211
 1121.5000     0.2836    23.7124
 1122.0000     0.2823    24.6592
 1122.5000     0.2810    51.1624
 1123.0000     0.2797    85.9458
 1123.5000     0.2784   121.4744
 1124.0000     0.2802   159.4214
 1124.5000     0.2824   180.7258
 1125.0000     0.2847   203.0871
 1125.5000     0.2870   224.0339
 1126.0000     0.2893  -999.2500
 1126.5000     0.2916  -999.2500
 1127.0000     0.2938  -999.2500
 1127.5000     0.2961  -999.2500
 1128.0000     0.2984  -999.2500
 1128.5000     0.3007  -999.2500
 1129.0000     0.3029  -999.2500
 1129.5000     0.3052  -999.2500
 1130.0000     0.3075  -999.2500
 1130.5000     0.3097  -999.2500
 1131.0000     0.3120  -999.2500
 1131.5000     0.3143  -999.2500
 1132.0000     0.3159  -999.2500
 1132.5000  -999.2500  -999.2500
 1133.0000  -999.2500  -999.2500
 1133.5000  -999.2500  -999.2500
 1134.0000  -999.2500  -999.2500
 1134.5000  -999.2500  -999.2500
 1135.0000  -999.2500  -999.2500
 1135.5000  -999.2500  -999.2500
 1136.0000  -999.2500  -999.2500
 1136.5000  -999.2500  -999.2500
 1137.0000  -999.2500  -999.2500
 1137.5000  -999.2500  -999.2500
 1138.0000  -999.2500  -999.2500
 1138.5000  -999.2500  -999.2500
 1139.0000  -999.2500  -999.2500
 1139.5000  -999.2500  -999.2500
 1140.0000  -999.2500  -999.2500
 1140.5000  -999.2500  -999.2500
 1141.0000  -999.2500  -999.2500
 1141.5000  -999.2500  -999.2500
 1142.0000  -999.2500  -999.2500
 1142.5000  -999.2500  -999.2500
 1143.0000  -999.2500  -999.2500
 1143.5000  -999.2500  -999.2500
 1144.0000  -999.2500  -999.2500
 1144.5000  -999.2500  -999.2500
 1145.0000  -999.2500  -999.2500
 1145.5000  -999.2500  -999.2500
 1146.0000  -999.2500  -999.2500
 1146.5000  -999.2500  -999.2500
 1147.0000  -999.2500  -999.2500
 1147.5000  -999.2500  -999.2500
 1148.0000  -999.2500     3.3424
 1148.5000     0.2438     3.4397
 1149.0000     0.2438     3.5369
 1149.5000     0.2438     3.6099
 1150.0000     0.2438     3.7072
 1150.5000     0.2438     3.8044
 1151.0000     0.2438     3.9017
 1151.5000     0.2438     3.9990
 1152.0000     0.2438     4.0962
 1152.5000     0.2436     4.1935
 1153.0000     0.2504     4.2908
 1153.5000     0.2603     4.3880
 1154.0000     0.2702     4.4862
 1154.5000     0.2801     4.5831
 1155.0000     0.2904     4.6705
 1155.5000     0.3020     4.7503
 1156.0000     0.3409     4.1997
 1156.5000     0.3796     4.2543
 1157.0000     0.3942     4.2682
