~VERSION INFORMATION
 VERS.                2.0:   CWLS LOG ASCII STANDARD - VERSION 2.0
 WRAP.                 NO:   ONE LINE PER DEPTH STEP
~WELL INFORMATION
#MNEM.UNIT      DATA TYPE    INFORMATION
#----------   ------------   ------------------------------
 STRT.F            0.0000:   START DEPTH
 STOP.F          504.0000:   STOP DEPTH
 STEP.F            0.5000:   STEP LENGTH
 NULL.          -999.2500:   NO VALUE
 COMP.   FLUOR DANIEL INC:   COMPANY
 WELL. NAVAL PETROLEUM RESERVE 3 SX-1 #3-10:   WELL
 FLD .          N.P.R. #3:   FIELD
 LOC .      S10 T38N R78W:   LOCATION
 CNTY.            NATRONA:   COUNTY
 STAT.            WYOMING:   STATE
 CTRY. UNITED STATES OF AMERICA:   COUNTRY
 SRVC.      Western Atlas:   SERVICE COMPANY
 DATE.        22-SEP-1994:   LOGDATE
 API .       490252265600:   API NUMBER
~CURVE INFORMATION
#MNEM.UNIT       API CODE    CURVE DESCRIPTION
#----------   ------------   ------------------------------
 DEPT.F                  :   
 GRR .GAPI   07 310 01 00:   GAMMA RAY FROM RES. LOG.
 RILD.OHMM   07 120 46 00:   INDUCTION LOG DEEP RESISTIVITY
 RILM.OHMM   07 120 44 00:   INDUCTION LOG MEDIUM RESISTIVITY
~PARAMETER INFORMATION
#MNEM.UNIT          VALUE    DESCRIPTION
#----------   ------------   ------------------------------
 PD  .                 GL:   PERMANENT DATUM
 EPD .F              5168:   ELEVATION PERMANENT DATUM
 LMF .                 KB:   LOG MEASURED FROM
 DAPD.F                10:   FEET ABOVE PERMANENT DATUM
 DMF .                 KB:   DRILLING MEASURED FROM
 EKB .F              5178:   KELLING BUSHING
 EDF .F              5177:   DRILLING FLOOR
 EGL .F              5168:   GROUND LEVEL
 DATE.        22-SEP-1994:   RUN DATE
 RUN .                  1:   RUN NUMBER
 DD  .F               510:   DEPTH DRILLER
 DL  .F               512:   DEPTH LOGGER
 BLI .F               504:   BOTTOM LOG INTERVAL
 CS  .IN            9.625:   CASING SIZE
 CBD .F                55:   CASING BOTTOM DRILLER
 CBL .F                55:   CASING BOTTOM LOGGER
 BS  .IN             8.75:   BIT SIZE
 BSD .F               510:   BIT SIZE AT DEPTH
 DFT .                AIR:   DRILLING FLUID TYPE
 MRT .F                83:   MAXIMUM RECORDED TEMPERATURE
 LUN .            HL 6530:   LOGGING UNIT NUMBER
 LUL .             CASPER:   LOGGING UNIT LOCATION
 ENGI.      PAT RASMUSSEN:   RECORDING ENGINEER
 WITN.        GARY STRONG:   WITNESSED BY
 CLNT.            A2DTECH:   CLIENT CODE
 ORIG.           5" PRINT:   ORIGIN OF DATA
 UWI .       490252265600:   UNIQUE WELL ID
 DICO. A2D Technologies, Inc.:   DIGITIZING COMPANY
~OTHER INFORMATION
~A    DEPT      GRR      RILD       RILM   
    0.0000    13.8833  -999.2500  -999.2500
    0.5000    17.4353  -999.2500  -999.2500
    1.0000    22.8545  -999.2500  -999.2500
    1.5000    27.3515  -999.2500  -999.2500
    2.0000    25.7187  -999.2500  -999.2500
    2.5000    20.4874  -999.2500  -999.2500
    3.0000    16.0250  -999.2500  -999.2500
    3.5000    13.1754  -999.2500  -999.2500
    4.0000    13.0554  -999.2500  -999.2500
    4.5000    12.8916  -999.2500  -999.2500
    5.0000    11.8099  -999.2500  -999.2500
    5.5000    10.7369  -999.2500  -999.2500
    6.0000     9.6725  -999.2500  -999.2500
    6.5000     9.0567  -999.2500  -999.2500
    7.0000     9.5417  -999.2500  -999.2500
    7.5000    10.6765  -999.2500  -999.2500
    8.0000    11.7903  -999.2500  -999.2500
    8.5000    12.8164  -999.2500  -999.2500
    9.0000    17.1192  -999.2500  -999.2500
    9.5000    21.6175  -999.2500  -999.2500
   10.0000    31.9832  -999.2500  -999.2500
   10.5000    44.1940  -999.2500  -999.2500
   11.0000    52.6089  -999.2500  -999.2500
   11.5000    50.9186  -999.2500  -999.2500
   12.0000    49.4432  -999.2500  -999.2500
   12.5000    47.9288  -999.2500  -999.2500
   13.0000    46.3856  -999.2500  -999.2500
   13.5000    46.0850  -999.2500  -999.2500
   14.0000    48.8620  -999.2500  -999.2500
   14.5000    55.3389  -999.2500  -999.2500
   15.0000    61.8564  -999.2500  -999.2500
   15.5000    62.1569  -999.2500  -999.2500
   16.0000    49.6068  -999.2500  -999.2500
   16.5000    41.0600  -999.2500  -999.2500
   17.0000    43.6548  -999.2500  -999.2500
   17.5000    48.5244  -999.2500  -999.2500
   18.0000    50.3727  -999.2500  -999.2500
   18.5000    51.8985  -999.2500  -999.2500
   19.0000    53.8675  -999.2500  -999.2500
   19.5000    54.5362  -999.2500  -999.2500
   20.0000    54.0403  -999.2500  -999.2500
   20.5000    53.2180  -999.2500  -999.2500
   21.0000    51.4900  -999.2500  -999.2500
   21.5000    49.7451  -999.2500  -999.2500
   22.0000    49.7909  -999.2500  -999.2500
   22.5000    56.0629  -999.2500  -999.2500
   23.0000    61.5048  -999.2500  -999.2500
   23.5000    63.1749  -999.2500  -999.2500
   24.0000    64.3252  -999.2500  -999.2500
   24.5000    66.3942  -999.2500  -999.2500
   25.0000    70.1052  -999.2500  -999.2500
   25.5000    73.7769  -999.2500  -999.2500
   26.0000    76.7576  -999.2500  -999.2500
   26.5000    76.8439  -999.2500  -999.2500
   27.0000    76.9975  -999.2500  -999.2500
   27.5000    77.8516  -999.2500  -999.2500
   28.0000    79.6571  -999.2500  -999.2500
   28.5000    78.6795  -999.2500  -999.2500
   29.0000    77.0482  -999.2500  -999.2500
   29.5000    75.8504  -999.2500  -999.2500
   30.0000    76.8622  -999.2500  -999.2500
   30.5000    78.9856  -999.2500  -999.2500
   31.0000    79.6611  -999.2500  -999.2500
   31.5000    78.6579  -999.2500  -999.2500
   32.0000    74.6875  -999.2500  -999.2500
   32.5000    70.6434  -999.2500  -999.2500
   33.0000    70.6808  -999.2500  -999.2500
   33.5000    71.7817  -999.2500  -999.2500
   34.0000    72.0670  -999.2500  -999.2500
   34.5000    72.3041  -999.2500  -999.2500
   35.0000    72.5355  -999.2500  -999.2500
   35.5000    73.2549  -999.2500  -999.2500
   36.0000    74.2690  -999.2500  -999.2500
   36.5000    75.2943  -999.2500  -999.2500
   37.0000    75.4431  -999.2500  -999.2500
   37.5000    74.9345  -999.2500  -999.2500
   38.0000    73.8681  -999.2500  -999.2500
   38.5000    74.1110  -999.2500  -999.2500
   39.0000    74.6441  -999.2500  -999.2500
   39.5000    75.8961  -999.2500  -999.2500
   40.0000    77.6431  -999.2500  -999.2500
   40.5000    79.3841  -999.2500  -999.2500
   41.0000    81.1009  -999.2500  -999.2500
   41.5000    81.9289  -999.2500  -999.2500
   42.0000    79.9092  -999.2500  -999.2500
   42.5000    76.3043  -999.2500  -999.2500
   43.0000    72.7975  -999.2500  -999.2500
   43.5000    72.1371  -999.2500  -999.2500
   44.0000    75.1363  -999.2500  -999.2500
   44.5000    79.7499  -999.2500  -999.2500
   45.0000    80.9836  -999.2500  -999.2500
   45.5000    82.0696  -999.2500  -999.2500
   46.0000    83.5357  -999.2500  -999.2500
   46.5000    85.5767  -999.2500  -999.2500
   47.0000    87.6138  -999.2500  -999.2500
   47.5000    89.6321  -999.2500  -999.2500
   48.0000    90.8174  -999.2500  -999.2500
   48.5000    89.1103  -999.2500  -999.2500
   49.0000    87.7515  -999.2500  -999.2500
   49.5000    87.1124  -999.2500  -999.2500
   50.0000    86.4726  -999.2500  -999.2500
   50.5000    85.8080  -999.2500  -999.2500
   51.0000    84.2554  -999.2500  -999.2500
   51.5000    81.7713  -999.2500  -999.2500
   52.0000    82.3193  -999.2500  -999.2500
   52.5000    84.0129  -999.2500  -999.2500
   53.0000    85.6507  -999.2500  -999.2500
   53.5000    89.0458  -999.2500  -999.2500
   54.0000   100.2047  -999.2500  -999.2500
   54.5000   114.2278  -999.2500  -999.2500
   55.0000   128.3899  -999.2500  1954.3390
   55.5000   140.0081    91.6155     8.9258
   56.0000   142.1061     1.8447     2.1784
   56.5000   143.7418     2.0060     2.4360
   57.0000   145.3749     2.3239     3.0140
   57.5000   147.0123     3.3363     3.7291
   58.0000   147.2615     4.8010     4.8506
   58.5000   145.1682     7.0703     6.5946
   59.0000   140.2970     6.2015     8.1632
   59.5000   135.5502     5.2288     7.5709
   60.0000   130.8218     5.0569     6.8282
   60.5000   130.1897     4.8906     6.2488
   61.0000   130.0495     4.6897     6.5836
   61.5000   127.2849     4.7876     6.9127
   62.0000   125.7516     5.2018     6.5071
   62.5000   126.4123     5.7477     6.0740
   63.0000   129.5412     5.8015     6.4202
   63.5000   131.2528     5.7833     6.2213
   64.0000   130.8302     5.7714     6.0198
   64.5000   129.9796     5.7603     5.8509
   65.0000   129.0455     5.7465     5.8509
   65.5000   128.0878     5.9408     6.1362
   66.0000   128.7903     6.2059     6.4449
   66.5000   132.1359     6.4834     6.7691
   67.0000   136.1141     6.7732     7.1097
   67.5000   136.0447     7.0758     7.4677
   68.0000   135.7960     7.3920     7.8463
   68.5000   137.8161     7.7222     8.2390
   69.0000   140.2490     8.0138     8.3926
   69.5000   140.3954     8.1632     8.5491
   70.0000   137.7234     8.3155     8.5491
   70.5000   134.2644     8.3926     8.5491
   71.0000   133.0298     8.3926     8.5491
   71.5000   133.2881     8.3926     8.5491
   72.0000   134.8882     8.3926     8.5491
   72.5000   135.8770     8.3926     8.5491
   73.0000   133.7479     8.3926     8.5491
   73.5000   131.1716     8.3926     8.5491
   74.0000   130.3743     8.3926     8.5491
   74.5000   130.9945     8.3926     8.5491
   75.0000   133.2375     8.3926     8.5491
   75.5000   134.0778     8.3926     8.5491
   76.0000   132.6509     8.3926     8.5491
   76.5000   131.2014     8.3926     8.5491
   77.0000   132.7074     8.3926     8.5491
   77.5000   134.8589     8.3927     8.5492
   78.0000   136.6716     8.3927     8.5492
   78.5000   136.2113     8.3879     8.5497
   79.0000   134.3849     8.3635     8.5271
   79.5000   130.5371     8.3397     8.4921
   80.0000   128.6241     8.3159     8.4568
   80.5000   128.8057     8.2922     8.4217
   81.0000   128.9699     8.2686     8.3868
   81.5000   128.9607     8.2450     8.3521
   82.0000   130.4705     8.2214     8.3175
   82.5000   134.4889     8.1980     8.2830
   83.0000   138.5013     8.1746     8.2486
   83.5000   142.1619     8.1513     8.2145
   84.0000   141.8389     8.1280     8.1804
   84.5000   140.4080     8.1048     8.1465
   85.0000   138.9216     8.0817     8.1127
   85.5000   138.6700     8.0587     8.0791
   86.0000   140.6139     8.0357     8.0456
   86.5000   142.7864     8.0138     8.0138
   87.0000   145.0103     8.0761     8.1254
   87.5000   144.9876     8.1361     8.2336
   88.0000   142.2475     8.1966     8.3432
   88.5000   139.7091     8.2575     8.4542
   89.0000   138.8546     8.3155     8.5668
   89.5000   138.4299     8.4656     8.7079
   90.0000   136.4919     8.6445     8.8844
   90.5000   132.2106     8.8270     9.0643
