~VERSION INFORMATION
 VERS.                2.0:   CWLS LOG ASCII STANDARD - VERSION 2.0
 WRAP.                 NO:   ONE LINE PER DEPTH STEP
~WELL INFORMATION
#MNEM.UNIT      DATA TYPE    INFORMATION
#----------   ------------   ------------------------------
 STRT.F          690.5000:   START DEPTH
 STOP.F         2366.0000:   STOP DEPTH
 STEP.F            0.5000:   STEP LENGTH
 NULL.          -999.2500:   NO VALUE
 COMP. LAWRENCE/ALLISON INC:   COMPANY
 WELL.  NPR 3 #26SHX10-10:   WELL
 FLD .             TEAPOT:   FIELD
 LOC .      S10 T38N R78W:   LOCATION
 CNTY.            NATRONA:   COUNTY
 STAT.            WYOMING:   STATE
 CTRY. UNITED STATES OF AMERICA:   COUNTRY
 SRVC.            Unknown:   SERVICE COMPANY
 DATE.        30-DEC-1992:   LOGDATE
 API .       490251113600:   API NUMBER
~CURVE INFORMATION
#MNEM.UNIT       API CODE    CURVE DESCRIPTION
#----------   ------------   ------------------------------
 DEPT.F                  :   
 ROP .MIN/FT 91 810 01 00:   RATE OF DRILLING PENETRATION
 TGAS.UNITS  91 830 01 00:   TOTAL GAS FROM HOTWIRE
~PARAMETER INFORMATION
#MNEM.UNIT          VALUE    DESCRIPTION
#----------   ------------   ------------------------------
 EKB .F              5235:   KELLING BUSHING
 EGL .F              5225:   GROUND LEVEL
 DATE.           12-30-92:   RUN DATE
 DD  .F              2365:   DEPTH DRILLER
 BLI .F              2360:   BOTTOM LOG INTERVAL
 TLI .F              2160:   TOP LOG INTERVAL
 CS  .IN            8.625:   CASING SIZE
 CBD .F               675:   CASING BOTTOM DRILLER
 TCS .HRS            0200:   TIME CURCULATED STOPPED
 TLAB.HRS            1700:   TIME LOGGER AT BOTTOM
 ENGI.               HUSK:   RECORDING ENGINEER
 WITN.              TOWER:   WITNESSED BY
 CLNT.            A2DTECH:   CLIENT CODE
 ORIG.           5" PRINT:   ORIGIN OF DATA
 UWI .       490251113600:   UNIQUE WELL ID
 DICO. A2D Technologies, Inc.:   DIGITIZING COMPANY
~OTHER INFORMATION
~A   DEPT      ROP         TGAS 
# ...
 1176.5000     0.7856    89.0905
 1177.0000     0.7960    89.1392
 1177.5000     0.7959    89.1879
 1178.0000     0.7745    89.2367
 1178.5000     0.7310    89.2854
 1179.0000     0.7112    89.3341
 1179.5000     0.7005    89.3829
 1180.0000     0.7004    89.4316
 1180.5000     0.7109    89.4803
 1181.0000     0.7213    89.5290
 1181.5000     0.7423    89.5778
 1182.0000     0.7527    89.6012
 1182.5000     0.7526    89.5242
 1183.0000     0.7525    89.4473
 1183.5000     0.7524    89.3703
 1184.0000     0.7523    89.2934
 1184.5000     0.7522    89.2164
 1185.0000     0.7521    89.1394
 1185.5000     0.7520    89.0625
 1186.0000     0.7413    88.9855
 1186.5000     0.7307    88.9086
 1187.0000     0.7200    88.8316
 1187.5000     0.7199    88.7546
 1188.0000     0.7620    88.6777
 1188.5000     0.8146    88.6007
 1189.0000     0.8884    88.5238
 1189.5000     0.9621    88.4468
 1190.0000     1.0253    88.3698
 1190.5000     0.9725    88.2929
 1191.0000     0.8563    88.2159
 1191.5000     0.7914    88.1390
 1192.0000     0.7612    88.0620
 1192.5000     0.7611    87.9850
 1193.0000     0.7610    87.9081
 1193.5000     0.7609    87.8311
 1194.0000     0.7608    87.7542
 1194.5000     0.7817    87.6772
 1195.0000     0.7922    87.6002
 1195.5000     0.8026    87.5233
 1196.0000     0.8131    87.4463
 1196.5000     0.7497    87.3694
 1197.0000     0.6335    87.2924
 1197.5000     0.5490    87.2154
 1198.0000     0.5173    87.1385
 1198.5000     0.5488    87.0615
 1199.0000     0.6120    86.9846
 1199.5000     0.6858    86.9076
 1200.0000     0.7595    86.8244
 1200.5000     0.7918    87.9377
 1201.0000     0.7925    89.0791
 1201.5000     0.7931    88.0662
 1202.0000     0.7937    88.1428
 1202.5000     0.7943    87.1299
 1203.0000     0.7633    86.1459
 1203.5000     0.6268    86.2094
 1204.0000     0.5418    86.2856
 1204.5000     0.5860    86.3469
 1205.0000     0.7237    86.4082
 1205.5000     0.8087    86.4695
 1206.0000     0.8199    86.5307
 1206.5000     0.8098    86.5920
 1207.0000     0.8106    87.7129
 1207.5000     0.8112    87.7887
 1208.0000     0.8012    87.8500
 1208.5000     0.7913    88.9701
 1209.0000     0.7921    89.0314
 1209.5000     0.7927    89.0927
 1210.0000     0.7933    88.0941
 1210.5000     0.8361    87.0976
 1211.0000     0.9017    87.1742
 1211.5000     0.9746    87.2355
 1212.0000     1.0174    87.2968
 1212.5000     0.9653    87.3581
 1213.0000     0.9026    87.4193
 1213.5000     0.8505    88.5394
 1214.0000     0.8300    88.6023
 1214.5000     0.8200    89.7362
 1215.0000     0.8208    88.7233
 1215.5000     0.8002    87.7257
 1216.0000     0.7902    86.7282
 1216.5000     0.8121    84.6871
 1217.0000     0.8654    82.6306
 1217.5000     0.9504    80.4361
 1218.0000     1.0253    78.5181
 1218.5000     1.0571    77.5205
 1219.0000     1.0367    78.6560
 1219.5000     1.0374    79.7761
 1220.0000     1.0591    84.0726
 1220.5000     1.1125    84.1339
 1221.0000     1.1658    82.9693
 1221.5000     1.1981    80.0212
 1222.0000     1.2093    79.0390
 1222.5000     1.1467    79.1002
 1223.0000     1.0841    79.1615
 1223.5000     1.0319    78.1640
 1224.0000     1.0218    77.1664
 1224.5000     1.0226    78.3019
 1225.0000     1.0232    79.4220
 1225.5000     1.0224    82.6597
 1226.0000     0.9718    83.7798
 1226.5000     0.9092    83.8411
 1227.0000     0.8991    82.8436
 1227.5000     0.8998    80.7175
 1228.0000     0.9321    76.6285
 1228.5000     0.9749    75.6157
 1229.0000     1.0084    72.5158
 1229.5000     1.0501    70.4441
 1230.0000     1.0929    68.3877
 1230.5000     1.1252    67.4047
 1231.0000     1.1680    64.1932
 1231.5000     1.2108    62.2340
 1232.0000     1.2114    61.2364
 1232.5000     1.1371    60.2389
 1233.0000     1.0651    60.3155
 1233.5000     1.0341    59.3026
 1234.0000     1.0134    56.2028
 1234.5000     1.0142    55.2052
 1235.0000     1.0359    54.2077
 1235.5000     1.0471    51.1078
 1236.0000     1.0477    50.0950
 1236.5000     1.0168    48.0386
 1237.0000     0.9330    45.9975
 1237.5000     0.9124    43.9412
 1238.0000     0.9237    42.9436
 1238.5000     0.9770    41.9461
 1239.0000     1.0093    42.0227
 1239.5000     1.0416    42.0840
 1240.0000     1.0423    42.1453
 1240.5000     1.0113    43.1364
 1241.0000     1.0012    47.5619
 1241.5000     0.9807    43.3879
 1242.0000     0.9815    41.3469
 1242.5000     0.9821    41.4082
 1243.0000     0.9827    42.5283
 1243.5000     0.9624    43.6484
 1244.0000     0.9313    42.6508
 1244.5000     0.8581    42.7129
 1245.0000     0.8060    42.7887
 1245.5000     0.7642    42.8500
 1246.0000     0.8072    42.9113
 1246.5000     0.8713    44.0314
 1247.0000     0.9262    44.0927
 1247.5000     0.9674    44.1540
 1248.0000     0.9786    44.2165
 1248.5000     1.0214    44.2918
 1249.0000     1.0431    43.2790
 1249.5000     1.0648    43.3556
 1250.0000     1.0443    42.1902
 1250.5000     0.9811    41.3414
 1251.0000     0.9285    40.3342
 1251.5000     0.8442    40.3987
 1252.0000     0.8126    39.3786
 1252.5000     0.8128    39.4431
 1253.0000     0.8234    38.4353
 1253.5000     0.8446    39.6075
 1254.0000     0.8447    40.8275
 1254.5000     0.8109    44.9566
 1255.0000     0.7500    45.0082
 1255.5000     0.7079    46.1186
 1256.0000     0.6869    46.1702
 1256.5000     0.7714    46.2218
 1257.0000     0.9087    48.3911
 1257.5000     1.0248    48.4427
 1258.0000     1.0671    47.4355
 1258.5000     1.0777    46.3340
 1259.0000     1.0673    44.3622
 1259.5000     1.0569    42.2962
 1260.0000     1.0359    42.3607
 1260.5000     1.0360    41.3406
 1261.0000     1.0361    40.3333
 1261.5000     1.0362    40.3979
 1262.0000     1.0363    39.3777
 1262.5000     1.0478    43.6775
 1263.0000     1.0576    42.6703
 1263.5000     1.0683    42.7235
 1264.0000     1.0684    49.1394
 1264.5000     0.9735    59.7792
 1265.0000     0.8471    75.7132
 1265.5000     0.7733    87.4119
 1266.0000     0.7945   101.2282
 1266.5000     0.9438   102.3386
 1267.0000     1.0268   102.3902
 1267.5000     1.0586   102.4461
 1268.0000     1.0798   102.4941
 1268.5000     1.1221   102.5471
 1269.0000     1.2065   102.6095
 1269.5000     1.3016   102.6612
 1270.0000     1.3650   102.7128
 1270.5000     1.2361   102.7644
 1271.0000     1.1015   102.8160
 1271.5000     1.0278   102.8676
 1272.0000     0.9962   102.9192
 1272.5000     1.0174   102.9708
 1273.0000     1.0281   103.0235
 1273.5000     1.0282   103.0869
 1274.0000     1.0283   103.1385
 1274.5000     1.0174   102.1313
 1275.0000     0.9951   102.1829
 1275.5000     0.9548   102.2345
 1276.0000     0.8916   102.2861
 1276.5000     0.8495   102.3377
 1277.0000     0.8179   102.3894
 1277.5000     0.8075   102.4412
 1278.0000     0.7865   102.3668
 1278.5000     0.7761   101.4854
 1279.0000     0.7656   100.4910
 1279.5000     0.7657   100.5426
 1280.0000     0.7658    99.5225
 1280.5000     0.7554    99.5870
 1281.0000     0.7660    99.6386
 1281.5000     0.7872    99.6946
 1282.0000     0.8190    99.7462
 1282.5000     0.8616   108.2684
 1283.0000     0.9382   239.6141
 1283.5000     1.0303   316.9598
 1284.0000     1.0409   384.9768
 1284.5000     0.9988   382.5305
 1285.0000     0.9462   322.4216
 1285.5000     0.8936   232.4733
 1286.0000     0.8198   197.5837
 1286.5000     0.7460   191.2823
 1287.0000     0.6499   189.2034
 1287.5000     0.5776   188.2091
 1288.0000     0.5355   188.2607
 1288.5000     0.5461   188.3123
 1289.0000     0.6411   188.3647
 1289.5000     0.7362   188.4176
 1290.0000     0.7785   189.5389
 1290.5000     0.7786   189.5905
 1291.0000     0.7787   191.7597
 1291.5000     0.7788   191.8113
 1292.0000     0.7789   191.8629
 1292.5000     0.7790   189.7840
 1293.0000     0.8108   188.7882
 1293.5000     0.8214   184.6060
 1294.0000     0.8231   180.4223
 1294.5000     0.8005   175.1927
 1295.0000     0.7352   168.8914
 1295.5000     0.6531   164.7077
 1296.0000     0.6532   163.6876
 1296.5000     0.6849   162.6804
 1297.0000     0.7378   160.6143
 1297.5000     0.7801   160.6788
