~VERSION INFORMATION
 VERS.                2.0:   CWLS LOG ASCII STANDARD - VERSION 2.0
 WRAP.                 NO:   ONE LINE PER DEPTH STEP
~WELL INFORMATION
#MNEM.UNIT      DATA TYPE    INFORMATION
#----------   ------------   ------------------------------
 STRT.F           43.0000:   START DEPTH
 STOP.F          466.0000:   STOP DEPTH
 STEP.F            0.5000:   STEP LENGTH
 NULL.          -999.2500:   NO VALUE
 COMP. JOHn BROWN E & C INC:   COMPANY
 WELL. NPR # #3 64-25-SX-10:   WELL
 FLD .        TEAPOT DOME:   FIELD
 LOC .      S10 T38N R78W:   LOCATION
 CNTY.            NATRONA:   COUNTY
 STAT.            WYOMING:   STATE
 CTRY. UNITED STATES OF AMERICA:   COUNTRY
 SRVC.       Schlumberger:   SERVICE COMPANY
 DATE.        26-SEP-1990:   LOGDATE
 API .       490251132200:   API NUMBER
~CURVE INFORMATION
#MNEM.UNIT       API CODE    CURVE DESCRIPTION
#----------   ------------   ------------------------------
 DEPT.F                  :   
 ILD .OHMM   07 120 46 00:   INDUCTION LOG DEEP RESISTIVITY
 ILM .OHMM   07 120 44 00:   INDUCTION LOG MEDIUM
 GRR .GAPI   07 310 01 00:   GAMMA RAY FROM RES. LOG.
~PARAMETER INFORMATION
#MNEM.UNIT          VALUE    DESCRIPTION
#----------   ------------   ------------------------------
 PD  .                 GL:   PERMANENT DATUM
 EPD .F              5190:   ELEVATION PERMANENT DATUM
 LMF .                 KB:   LOG MEASURED FROM
 DAPD.F                10:   FEET ABOVE PERMANENT DATUM
 DMF .                 KB:   DRILLING MEASURED FROM
 EKB .F              5200:   KELLING BUSHING
 EDF .F              5199:   DRILLING FLOOR
 EGL .F              5190:   GROUND LEVEL
 DATE.            9-29-90:   RUN DATE
 RUN .                  1:   RUN NUMBER
 DD  .F               470:   DEPTH DRILLER
 DL  .F               473:   DEPTH LOGGER
 BLI .F               467:   BOTTOM LOG INTERVAL
 TLI .F                46:   TOP LOG INTERVAL
 CS  .IN            8.625:   CASING SIZE
 CBL .F                55:   CASING BOTTOM LOGGER
 BS  .IN            7.875:   BIT SIZE
 BSD .F               470:   BIT SIZE AT DEPTH
 DFT .                AIR:   DRILLING FLUID TYPE
 TCS .HRS            1900:   TIME CURCULATED STOPPED
 TLAB.HRS            2000:   TIME LOGGER AT BOTTOM
 LUN .               5982:   LOGGING UNIT NUMBER
 LUL .               CODY:   LOGGING UNIT LOCATION
 ENGI.             FISHER:   RECORDING ENGINEER
 WITN.             STRONG:   WITNESSED BY
 CLNT.            A2DTECH:   CLIENT CODE
 ORIG.       2", 5" PRINT:   ORIGIN OF DATA
 UWI .       490251132200:   UNIQUE WELL ID
 DICO. A2D Technologies, Inc.:   DIGITIZING COMPANY
~OTHER INFORMATION
~A   DEPT      ILD        ILM         GRR  
# ...
  134.0000     5.4534     5.1101   118.5370
  134.5000     5.5234     5.2795   120.6878
  135.0000     5.6866     5.4545   124.2164
  135.5000     5.9615     5.7583   127.4074
  136.0000     6.2752     6.1444   127.7798
  136.5000     6.8929     6.5796   128.0129
  137.0000     6.8291     6.9595   127.6961
  137.5000     7.3340     7.1469   129.0654
  138.0000     7.4470     7.2741   131.0930
  138.5000     7.5448     7.3615   132.0246
  139.0000     7.6357     7.4501   128.8839
  139.5000     7.7351     7.5397   122.6132
  140.0000     7.8281     7.6304   117.6766
  140.5000     7.9252     7.7221   119.3463
  141.0000     7.9619     7.8150   123.0710
  141.5000     8.0256     7.9090   126.0797
  142.0000     8.0898     8.0044   125.7321
  142.5000     8.1495     8.0918   122.8776
  143.0000     8.2430     8.1592   122.7385
  143.5000     8.3314     8.2267   124.7063
  144.0000     8.4205     8.2948   127.5378
  144.5000     8.5105     8.3634   130.3743
  145.0000     8.6014     8.4330   131.2385
  145.5000     8.6661     8.5096   128.9154
  146.0000     8.7256     8.6173   126.7204
  146.5000     8.7852     8.6039   124.8043
  147.0000     8.8610     8.5843   124.4899
  147.5000     8.8026     8.5648   124.2174
  148.0000     8.7244     8.5453   124.0830
  148.5000     8.6465     8.4911   124.8405
  149.0000     8.5693     8.4141   126.8877
  149.5000     8.4929     8.3377   128.6909
  150.0000     8.4171     8.2628   128.4234
  150.5000     8.3420     8.2025   124.9912
  151.0000     8.2676     8.1574   121.6871
  151.5000     8.1939     8.1126   118.4137
  152.0000     8.1167     8.0684   116.9183
  152.5000     8.0342     8.0229   117.0258
  153.0000     7.9524     7.9358   119.4146
  153.5000     7.8005     7.6738   122.7218
  154.0000     7.6165     7.4236   126.0395
  154.5000     7.4369     7.1812   127.7603
  155.0000     7.1056     6.9467   127.2325
  155.5000     6.6676     6.5671   124.8305
  156.0000     6.2565     6.1637   124.3856
  156.5000     5.8707     5.5006   125.1185
  157.0000     5.3670     4.9117   126.2857
  157.5000     4.7539     4.3871   125.6023
  158.0000     4.2108     3.9186   124.6262
  158.5000     3.7298     3.5000   124.3949
  159.0000     3.3037     3.1508   124.2271
  159.5000     3.0715     2.9523   122.3700
  160.0000     2.8963     2.7696   118.7268
  160.5000     2.7592     2.6935   113.7053
  161.0000     2.7441     2.7055   109.0480
  161.5000     2.7441     2.7158   108.8516
  162.0000     2.8891     2.8237   114.1836
  162.5000     3.2062     3.0127   120.8386
  163.0000     3.5580     3.4302   127.4498
  163.5000     3.9485     3.8002   129.6772
  164.0000     4.3694     4.1831   129.6360
  164.5000     4.7748     4.5963   130.4401
  165.0000     5.2055     5.1236   135.3558
  165.5000     5.6750     5.5269   140.3819
  166.0000     6.2224     5.9391   139.9548
  166.5000     6.2968     6.1338   138.0093
  167.0000     6.3775     6.2474   136.0511
  167.5000     6.4583     6.3393   135.7079
  168.0000     6.2433     6.0717   136.3741
  168.5000     6.0374     5.8582   136.9573
  169.0000     5.8383     5.6523   137.1834
  169.5000     5.6457     5.4535   139.3940
  170.0000     5.4595     5.2615   145.3196
  170.5000     5.2794     5.0772   152.3736
  171.0000     5.1053     4.9312   152.6804
  171.5000     4.9941     4.9079   145.4624
  172.0000     4.9773     4.8855   139.4106
  172.5000     5.0615     5.0143   135.5925
  173.0000     5.1932     5.1424   136.2527
  173.5000     5.3460     5.2736   137.8057
  174.0000     5.6389     5.4611   137.8254
  174.5000     5.9478     5.7646   137.2955
  175.0000     6.2737     6.0850   137.3123
  175.5000     6.5585     6.3957   137.2301
  176.0000     6.8413     6.6817   135.5315
  176.5000     7.1363     6.9805   135.0716
  177.0000     7.4440     7.2927   136.0911
  177.5000     7.7650     7.6188   138.5904
  178.0000     7.8638     7.7489   139.8203
  178.5000     7.8859     7.8060   140.0681
  179.0000     7.9080     7.8518   140.6728
  179.5000     7.9252     7.6820   141.3028
  180.0000     7.7369     7.5436   141.0383
  180.5000     7.5869     7.4076   139.8665
  181.0000     7.4398     7.2742   138.5511
  181.5000     7.2955     7.1431   139.3226
  182.0000     7.1541     7.0144   140.0560
  182.5000     7.0152     6.8880   140.2362
  183.0000     6.8793     6.7648   139.4134
  183.5000     6.6901     6.4481   140.2937
  184.0000     6.3783     6.1428   141.4886
  184.5000     6.1077     5.8641   142.6907
  185.0000     5.6322     5.4211   144.0556
  185.5000     5.2593     5.0048   146.2932
  186.0000     5.0707     4.5364   147.8149
  186.5000     5.1248     4.6639   146.5860
  187.0000     5.1952     4.8310   143.6759
  187.5000     5.2630     5.0586   140.5491
  188.0000     5.5136     5.3579   140.8979
  188.5000     5.8334     5.6763   141.4485
  189.0000     6.1645     6.0169   140.2620
  189.5000     6.6396     6.4246   139.5699
  190.0000     7.0814     6.8921   142.9935
  190.5000     7.4276     7.1870   147.4120
  191.0000     7.6208     7.4485   149.0516
  191.5000     7.7123     7.5507   148.5870
  192.0000     7.8048     7.6274   147.3879
  192.5000     7.8985     7.7006   144.6512
  193.0000     7.9381     7.7791   141.2816
  193.5000     7.9562     7.8227   138.9589
  194.0000     7.9744     7.8721   139.5445
  194.5000     7.9991     7.9259   141.0177
  195.0000     7.9822     7.9993   142.2340
  195.5000     7.9541     7.9606   142.5538
  196.0000     7.9263     7.9015   142.8019
  196.5000     7.8987     7.8428   146.4339
  197.0000     7.8711     7.7845   147.5151
  197.5000     7.8436     7.7267   145.2720
  198.0000     7.8162     7.6693   142.0241
  198.5000     7.7791     7.6357   142.5047
  199.0000     7.8085     7.7394   147.4291
  199.5000     7.8518     7.7798   151.3841
  200.0000     7.8518     7.7071   152.5396
  200.5000     7.8518     7.7189   148.4459
  201.0000     7.8517     7.7420   146.6519
  201.5000     7.8520     7.7652   147.3448
  202.0000     7.8389     7.7800   147.3254
  202.5000     7.7791     7.5880   146.1876
  203.0000     7.5413     7.3274   145.4604
  203.5000     7.2971     6.8564   145.9807
  204.0000     6.8683     6.3920   146.4628
  204.5000     6.4646     5.9396   147.0031
  205.0000     6.2153     5.9413   149.1588
  205.5000     6.1901     5.8847   151.7282
  206.0000     6.1687     5.9469   152.8230
  206.5000     6.0679     5.9858   153.1588
  207.0000     5.8682     6.1023   153.1828
  207.5000     5.6657     5.9759   150.9821
  208.0000     5.4696     5.6874   148.7728
  208.5000     5.3122     5.2752   146.5681
  209.0000     5.3320     5.0797   145.2155
  209.5000     5.3491     4.9300   142.6315
  210.0000     5.3618     4.9296   137.5787
  210.5000     5.2143     5.1319   132.2960
  211.0000     5.4152     5.2986   130.4942
  211.5000     5.6908     5.5201   134.4284
  212.0000     6.0413     5.8614   138.8132
  212.5000     6.4051     6.2226   141.2952
  213.0000     6.7547     6.6220   140.7182
  213.5000     7.0636     7.0237   139.7719
  214.0000     7.2886     7.2211   137.6810
  214.5000     7.2886     7.1576   134.5563
  215.0000     7.1980     7.0669   132.3684
  215.5000     7.0739     6.9774   135.3297
  216.0000     6.5886     6.6582   139.3270
  216.5000     5.9024     5.6908   143.3663
  217.0000     5.5561     5.3150   146.7655
  217.5000     5.4466     4.9898   149.6305
  218.0000     5.4128     4.8410   151.9691
  218.5000     5.3791     5.0144   147.8991
  219.0000     5.3457     5.1377   142.9058
  219.5000     5.3122     5.2620   137.9921
  220.0000     5.7112     5.6096   135.8990
  220.5000     6.1436     6.1399   137.0323
  221.0000     6.6088     6.6029   138.0925
  221.5000     7.0261     6.9264   136.9438
  222.0000     7.2638     7.1927   135.4151
  222.5000     7.5095     7.3909   133.8739
  223.0000     7.7635     7.5979   134.3027
  223.5000     8.0265     7.8103   135.1671
  224.0000     8.2166     8.0288   133.0519
  224.5000     8.3806     8.2008   130.5232
