~VERSION INFORMATION
 VERS.                2.0:   CWLS LOG ASCII STANDARD - VERSION 2.0
 WRAP.                 NO:   ONE LINE PER DEPTH STEP
~WELL INFORMATION
#MNEM.UNIT      DATA TYPE    INFORMATION
#----------   ------------   ------------------------------
 STRT.F            4.0000:   START DEPTH
 STOP.F          747.0000:   STOP DEPTH
 STEP.F            0.5000:   STEP LENGTH
 NULL.          -999.2500:   NO VALUE
 COMP.          U.S. NAVY:   COMPANY
 WELL. RES 3 TEAPOT DOM #61S-34:   WELL
 FLD .        TRAPOT DOME:   FIELD
 LOC .      S34 T39N R78W:   LOCATION
 CNTY.            NATRONA:   COUNTY
 STAT.            WYOMING:   STATE
 CTRY. UNITED STATES OF AMERICA:   COUNTRY
 SRVC.      NL McCullough:   SERVICE COMPANY
 DATE.        11-AUG-1961:   LOGDATE
 API .       490250656900:   API NUMBER
~CURVE INFORMATION
#MNEM.UNIT       API CODE    CURVE DESCRIPTION
#----------   ------------   ------------------------------
 DEPT.F                  :   
 GRN .GAPI   35 310 30 00:   GAMMA RAY
 NEUT.NAPI   35 330 22 00:   NEUTRON POROSITY
~PARAMETER INFORMATION
#MNEM.UNIT          VALUE    DESCRIPTION
#----------   ------------   ------------------------------
 PD  .                 GL:   PERMANENT DATUM
 EPD .F              5043:   ELEVATION PERMANENT DATUM
 LMF .                 KB:   LOG MEASURED FROM
 DAPD.F                 5:   FEET ABOVE PERMANENT DATUM
 DMF .                 KB:   DRILLING MEASURED FROM
 EKB .F              5048:   KELLING BUSHING
 EGL .F              5043:   GROUND LEVEL
 DATE.        11-AUG-1961:   RUN DATE
 RUN .                  1:   RUN NUMBER
 DD  .F               750:   DEPTH DRILLER
 DL  .F             748.5:   DEPTH LOGGER
 BLI .F               747:   BOTTOM LOG INTERVAL
 TLI .F                 0:   TOP LOG INTERVAL
 BS  .IN            7.875:   BIT SIZE
 BSD .F               750:   BIT SIZE AT DEPTH
 DFT .       OIL EMULSION:   DRILLING FLUID TYPE
 DFD .                9.5:   DRILLING FLUID DENSITY
 ENGI.            JACKSON:   RECORDING ENGINEER
 WITN.          JORGENSON:   WITNESSED BY
 CLNT.            A2DTECH:   CLIENT CODE
 ORIG.        2" 5" PRINT:   ORIGIN OF DATA
 UWI .       490250656900:   UNIQUE WELL ID
 DICO. A2D Technologies, Inc.:   DIGITIZING COMPANY
~OTHER INFORMATION
~A    DEPT       GRN     NEUT   
    4.0000     3.8461  -999.2500
    4.5000     4.7507  -999.2500
    5.0000     5.2407  -999.2500
    5.5000     5.4099  -999.2500
    6.0000     5.4570  -999.2500
    6.5000     5.4631  -999.2500
    7.0000     5.4556  -999.2500
    7.5000     5.4557  -999.2500
    8.0000     5.4633  -999.2500
    8.5000     5.4634  -999.2500
    9.0000     5.4741  -999.2500
    9.5000     5.4954  1023.5040
   10.0000     5.5394   970.5119
   10.5000     5.3501   925.5745
   11.0000     5.0926   763.7059
   11.5000     5.0224   577.6136
   12.0000     4.9730   559.1716
   12.5000     4.8201   511.9410
   13.0000     4.7487   480.1148
   13.5000     4.6839   427.7073
   14.0000     4.6809   352.0187
   14.5000     4.6764   288.3656
   15.0000     4.6765   244.3692
   15.5000     4.6811   235.4362
   16.0000     4.7070   232.9230
   16.5000     4.7146   230.8940
   17.0000     4.7056   233.9221
   17.5000     4.6845   247.2267
   18.0000     4.6255   255.1190
   18.5000     4.5664   258.2706
   19.0000     4.4574   260.5772
   19.5000     4.3982   262.6893
   20.0000     4.3439   264.9098
   20.5000     4.2498   267.4474
   21.0000     4.2057   274.0447
   21.5000     4.2002   280.2259
   22.0000     4.2003   292.9705
   22.5000     4.2004   307.0888
   23.0000     4.2080   310.3821
   23.5000     4.2407   305.8399
   24.0000     4.3036   287.4190
   24.5000     4.4431   277.0728
   25.0000     4.5290   272.5306
   25.5000     4.5872   246.7098
   26.0000     4.6236   207.4212
   26.5000     4.6778   206.6691
   27.0000     4.7162   206.6691
   27.5000     4.7277   206.6691
   28.0000     4.7391   205.9120
   28.5000     4.7316   202.0701
   29.0000     4.6514   184.7152
   29.5000     4.5014   176.8094
   30.0000     4.4086   166.4710
   30.5000     4.4061   161.7709
   31.0000     4.4138   158.7567
   31.5000     4.4386   158.2192
   32.0000     4.5503   154.9788
   32.5000     4.5807   132.8425
   33.0000     4.5217    99.9279
   33.5000     4.4733    99.1709
   34.0000     4.4218    99.1255
   34.5000     4.4040    98.4138
   35.0000     4.4144    98.4138
   35.5000     4.5380    98.4138
   36.0000     4.7812    98.4138
   36.5000     4.8540    98.7191
   37.0000     4.8692   120.3677
   37.5000     4.8693   137.1168
   38.0000     4.9376   146.5657
   38.5000     5.1116   157.4622
   39.0000     5.3322   162.0270
   39.5000     5.5363   174.1168
   40.0000     5.8646   202.2783
   40.5000     6.1501   246.1357
   41.0000     6.2638   270.2596
   41.5000     6.3765   269.8924
   42.0000     6.4836   268.5739
   42.5000     6.5405   266.4744
   43.0000     6.5606   271.8259
   43.5000     6.5975   280.8580
   44.0000     6.7612   287.5805
   44.5000     6.8098   289.3783
   45.0000     6.6861   289.9423
   45.5000     6.5380   288.7979
   46.0000     6.5070   286.7022
   46.5000     6.4995   283.8860
   47.0000     6.4995   284.1863
   47.5000     6.4996   284.6811
   48.0000     6.4997   287.6412
   48.5000     6.4998   299.4317
   49.0000     6.4923   309.6251
   49.5000     6.3807   311.5467
   50.0000     6.2273   312.6532
   50.5000     6.2445   296.7556
   51.0000     6.3370   290.3789
   51.5000     6.4624   290.6994
   52.0000     6.5129   291.4564
   52.5000     6.5383   293.9609
   53.0000     6.5308   295.2415
   53.5000     6.5157   295.2415
   54.0000     6.5158   295.2415
   54.5000     6.5158   295.9985
   55.0000     6.5134   302.0927
   55.5000     6.5008   314.1231
   56.0000     6.4221   333.0930
   56.5000     6.2719   347.7460
   57.0000     6.2586   360.3461
   57.5000     6.2246   366.6799
   58.0000     6.0330   369.7637
   58.5000     5.8801   373.9726
   59.0000     5.8726   379.5622
   59.5000     5.8807   386.4821
   60.0000     5.9056   393.6554
   60.5000     5.9327   395.1695
   61.0000     5.9941   395.9265
   61.5000     6.1116   397.1517
   62.0000     6.2518   398.1975
   62.5000     6.3049   398.1975
   63.0000     6.3934   398.1975
   63.5000     6.5286   393.0177
   64.0000     6.7143   374.7296
   64.5000     6.7474   370.8197
   65.0000     6.7523   367.9038
   65.5000     6.7400   367.1593
   66.0000     6.6943   366.4023
   66.5000     6.5480   365.6453
   67.0000     6.3521   365.6453
   67.5000     6.2514   364.1312
   68.0000     6.2376   361.8601
   68.5000     6.2377   358.6466
   69.0000     6.2190   355.8039
   69.5000     6.0712   355.8039
   70.0000     6.0359   356.2581
   70.5000     6.0183   361.1031
   71.0000     6.0108   365.8169
   71.5000     6.0108   371.6446
   72.0000     6.0109   374.7296
   72.5000     6.0148   372.9695
   73.0000     6.0313   368.4084
   73.5000     6.1627   361.1031
   74.0000     6.2461   354.8607
   74.5000     6.2386   320.9806
   75.0000     6.2184   320.2235
   75.5000     6.1758   322.0580
   76.0000     6.1858   325.5227
   76.5000     6.2861   329.5182
   77.0000     6.3450   333.0930
   77.5000     6.3148   326.2798
   78.0000     6.2558   305.2098
   78.5000     6.1725   283.8860
   79.0000     6.0650   273.2877
   79.5000     6.0368   267.3387
   80.0000     6.0197   264.2033
   80.5000     5.9455   264.2033
   81.0000     5.9062   263.5119
   81.5000     5.8545   259.0821
   82.0000     5.8033   249.8197
   82.5000     5.7701   245.4794
   83.0000     5.7590   238.4643
   83.5000     5.7551   236.0443
   84.0000     5.7627   234.6792
   84.5000     5.8105   236.9503
   85.0000     5.8765   245.5164
   85.5000     5.8470   258.6585
   86.0000     5.8065   278.5869
   86.5000     5.7934   284.7486
   87.0000     5.7975   287.6712
   87.5000     5.9615   285.7155
   88.0000     6.0664   280.8580
   88.5000     6.0816   272.6530
   89.0000     6.0554   267.4531
   89.5000     5.9227   263.4463
   90.0000     5.9227   262.3612
   90.5000     6.0516   266.6493
   91.0000     6.1320   283.1291
   91.5000     6.1351   285.1250
   92.0000     6.1352   286.1572
   92.5000     6.1352   285.7218
   93.0000     6.1257   275.0848
   93.5000     6.0899   261.1752
   94.0000     6.0718   256.0572
   94.5000     6.0752   249.6861
   95.0000     6.0927   247.5487
   95.5000     6.1289   247.5487
   96.0000     6.2267   247.5487
   96.5000     6.2247   252.0970
   97.0000     6.1859   269.2072
   97.5000     6.1511   280.1009
   98.0000     6.1290   288.3676
   98.5000     6.1111   290.6994
   99.0000     6.0680   289.1853
   99.5000     6.0476   288.1469
  100.0000     6.0576   290.6893
  100.5000     6.0675   295.6032
  101.0000     6.0775   300.5171
  101.5000     6.0874   305.8399
  102.0000     6.0986   310.7097
  102.5000     6.1001   318.4445
  103.0000     6.0834   326.2798
  103.5000     6.0809   326.9123
  104.0000     6.0856   308.1111
  104.5000     6.1064   282.5915
  105.0000     6.1548   273.3886
  105.5000     6.2155   263.4463
  106.0000     6.2883   255.5884
  106.5000     6.3512   252.0290
  107.0000     6.4323   250.5768
  107.5000     6.4872   249.8197
  108.0000     6.5095   249.8197
  108.5000     6.5006   250.5768
  109.0000     6.3760   252.9542
  109.5000     6.2652   267.9885
  110.0000     6.2232   283.8358
  110.5000     6.2318   293.0122
  111.0000     6.2736   293.7275
  111.5000     6.3144   294.9363
  112.0000     6.3977   300.5407
  112.5000     6.4145   312.9374
  113.0000     6.3622   319.4665
  113.5000     6.3495   299.0267
  114.0000     6.3705   291.2642
  114.5000     6.5087   286.0931
  115.0000     6.4330   281.9178
  115.5000     6.1938   278.7268
  116.0000     6.0012   271.0166
  116.5000     6.0013   258.1014
  117.0000     6.0013   252.6411
  117.5000     6.0013   249.8197
  118.0000     6.0085   248.7750
  118.5000     6.0399   247.5475
  119.0000     5.9939   246.7916
  119.5000     5.9540   247.7341
  120.0000     5.9030   251.3338
  120.5000     5.8755   269.0268
  121.0000     5.8439   274.0447
  121.5000     5.7895   269.5025
  122.0000     5.8001   263.6234
  122.5000     5.8201   256.6330
  123.0000     5.8615   253.0069
  123.5000     5.9293   250.6728
  124.0000     6.0170   243.0065
  124.5000     6.0099   236.9503
  125.0000     5.9937   236.1932
