~VERSION INFORMATION
 VERS.                2.0:   CWLS LOG ASCII STANDARD - VERSION 2.0
 WRAP.                 NO:   ONE LINE PER DEPTH STEP
~WELL INFORMATION
#MNEM.UNIT      DATA TYPE    INFORMATION
#----------   ------------   ------------------------------
 STRT.F           20.0000:   START DEPTH
 STOP.F          805.5000:   STOP DEPTH
 STEP.F            0.5000:   STEP LENGTH
 NULL.          -999.2500:   NO VALUE
 COMP. FENIX & SCISSON INC:   COMPANY
 WELL.    16-SX-14 #16-14:   WELL
 FLD .             TEAPOT:   FIELD
 LOC .      S14 T38N R78W:   LOCATION
 CNTY.            NATRONA:   COUNTY
 STAT.            WYOMING:   STATE
 CTRY. UNITED STATES OF AMERICA:   COUNTRY
 SRVC.            Unknown:   SERVICE COMPANY
 DATE.        23-MAY-1978:   LOGDATE
 API .       490251063200:   API NUMBER
~CURVE INFORMATION
#MNEM.UNIT       API CODE    CURVE DESCRIPTION
#----------   ------------   ------------------------------
 DEPT.F                  :   
 SN  .OHMM   05 040 16 00:   SHORT NORMAL 16"
 ILD .OHMM   05 120 46 00:   INDUCTION LOG DEEP
 SPR .MV     05 010 01 00:   SPONTANEOUS POTENTIAL FROM RES.
 RHOB.G/C3   45 350 01 00:   BULK DENSITY
 DPOR.DEC    45 890 12 00:   DENSITY POROSITY SANDSTONE
 CORR.G/C3   45 356 01 00:   DENSITY CORRECTION
 GRD .GAPI   45 310 01 00:   GAMMA RAY FROM DENSITY LOG
 CALD.IN     45 280 60 00:   CALIPER FROM DENSITY LOG
~PARAMETER INFORMATION
#MNEM.UNIT          VALUE    DESCRIPTION
#----------   ------------   ------------------------------
 PD  .                 GL:   PERMANENT DATUM
 EPD .F              5246:   ELEVATION PERMANENT DATUM
 LMF .                 KB:   LOG MEASURED FROM
 DAPD.F                 4:   FEET ABOVE PERMANENT DATUM
 DMF .                 KB:   DRILLING MEASURED FROM
 EKB .F              5250:   KELLING BUSHING
 EGL .F              5246:   GROUND LEVEL
 DATE.          5-23-1978:   RUN DATE
 RUN .                  1:   RUN NUMBER
 DD  .F               825:   DEPTH DRILLER
 DL  .F               812:   DEPTH LOGGER
 BLI .F               805:   BOTTOM LOG INTERVAL
 TLI .F                40:   TOP LOG INTERVAL
 CS  .IN            8.625:   CASING SIZE
 CBD .F                40:   CASING BOTTOM DRILLER
 BS  .IN            7.875:   BIT SIZE
 BSD .F               825:   BIT SIZE AT DEPTH
 DFT .                KCL:   DRILLING FLUID TYPE
 DFD .                8.6:   DRILLING FLUID DENSITY
 DFV .                 30:   DRILLING FLUID VISCOSITY
 DFPH.                 11:   DRILLING FLUID PH
 DFL .                 14:   DRILLING FLUID LOSS
 MSS .            MUD PIT:   MUD SAMPLE SOURCE
 RMS .OHMM            .32:   RESISTIVITY MUD SAMPLE
 MST .F                72:   MUD SAMPLE TEMPERATURE
 RMF .OHMM            .28:   RESISTIVITY MUD FILTRATE SAMPLE
 MFST.F                72:   MUD FILTRATE SAMPLE TEMPERATURE
 RMC .OHMM            .50:   RESISTIVITY MUD CAKE
 MCST.F                82:   MUD CAKE SAMPLE TEMPERATURE
 MFSS.               MEAS:   MUD FILTRATE SAMPLE SOURCE
 RMB .OHMM            .31:   RESISTIVITY MUD AT BHT
 BHT .F                75:   BOTTOM HOLE TEMPERATURE
 TCS .HRS               2:   TIME CURCULATED STOPPED
 MRT .F                75:   MAXIMUM RECORDED TEMPERATURE
 LUN .               2958:   LOGGING UNIT NUMBER
 LUL .              CSPR.:   LOGGING UNIT LOCATION
 ENGI.             MILLER:   RECORDING ENGINEER
 WITN.            RHOADES:   WITNESSED BY
 CLNT.            A2DTECH:   CLIENT CODE
 ORIG.    1" , 2.5" PRINT:   ORIGIN OF DATA
 UWI .       490251063200:   UNIQUE WELL ID
 DICO. A2D Technologies, Inc.:   DIGITIZING COMPANY
~OTHER INFORMATION
~A   DEPT       SN        ILD        SPR       RHOB       DPOR       CORR         GRD      CALD   
# ...
  344.0000     8.8507     7.8646   -27.0637     2.4851     0.1197     0.0408    84.7640     7.0207
  344.5000     9.1418     7.9214   -27.1662     2.4834     0.1172     0.0421    84.5077     6.9565
  345.0000     9.1262     7.9786   -27.2602     2.4848     0.1147     0.0390    83.9955     6.8891
  345.5000     9.0821     8.0362   -27.3197     2.4882     0.1124     0.0330    82.6879     6.8154
  346.0000     9.0381     8.0942   -27.3969     2.4862     0.1193     0.0303    82.9039     6.8222
  346.5000     8.9944     8.1526   -27.4758     2.4818     0.1244     0.0329    82.9163     6.9601
  347.0000     8.9509     8.1954   -27.5143     2.4778     0.1236     0.0349    82.3491     7.1018
  347.5000     8.9076     8.2168   -27.5104     2.4734     0.1247     0.0364    81.7950     7.0788
  348.0000     8.8645     8.2384   -27.5102     2.4699     0.1308     0.0433    81.7703     6.8102
  348.5000     8.8216     8.2600   -27.5107     2.4668     0.1260     0.0568    83.3675     6.6536
  349.0000     8.7790     8.2817   -27.5101     2.4645     0.1190     0.0599    85.4604     6.7528
  349.5000     8.7365     8.3035   -27.5102     2.4810     0.1173     0.0534    86.1938     6.8407
  350.0000     8.6943     8.3370   -27.5102     2.4920     0.1178     0.0480    86.6593     6.5985
  350.5000     8.6522     8.3182   -27.5100     2.4885     0.1182     0.0426    87.9373     6.3418
  351.0000     8.6103     8.2702   -27.5100     2.4838     0.1186     0.0367    88.3772     6.4543
  351.5000     8.5687     8.2232   -27.5100     2.4827     0.1190     0.0337    86.9156     6.6497
  352.0000     8.5285     8.1764   -27.5100     2.4821     0.1194     0.0340    85.1579     6.8498
  352.5000     8.4939     8.1299   -27.5102     2.4818     0.1204     0.0341    84.2028     6.8471
  353.0000     8.5297     8.0837   -27.5103     2.4814     0.1187     0.0354    85.5618     6.7154
  353.5000     8.5604     8.0377   -27.5108     2.4813     0.1163     0.0367    89.2306     6.6478
  354.0000     8.5912     7.9920   -27.5105     2.4855     0.1140     0.0380    90.1028     6.6369
  354.5000     8.6223     7.9465   -27.5107     2.4891     0.1117     0.0392    87.7610     6.6217
  355.0000     8.6539     7.9014   -27.5126     2.4907     0.1093     0.0407    85.9286     6.6386
  355.5000     8.6856     7.8703   -27.5089     2.4894     0.1068     0.0422    84.2112     6.6605
  356.0000     8.7175     7.8446   -27.5068     2.4990     0.1087     0.0514    83.5665     6.7194
  356.5000     8.7494     7.8189   -27.3272     2.5065     0.1059     0.0654    83.0427     6.7826
  357.0000     8.7814     7.7934   -27.1076     2.5089     0.1014     0.0781    81.6390     6.9179
  357.5000     8.8111     7.7678   -26.8877     2.5116     0.0988     0.0750    80.3858     6.9881
  358.0000     8.6712     7.7424   -26.6626     2.5148     0.1010     0.0672    80.3841     6.9904
  358.5000     8.5434     7.7171   -26.4507     2.5106     0.1044     0.0594    80.3884     6.9981
  359.0000     8.4174     7.6919   -26.2362     2.5055     0.1084     0.0536    81.2945     7.0063
  359.5000     8.2934     7.6668   -25.9680     2.5005     0.1092     0.0521    81.3636     7.0130
  360.0000     8.1711     7.6418   -26.2626     2.4953     0.1092     0.0510    80.9388     7.0205
  360.5000     8.0358     7.6168   -27.1315     2.4959     0.1092     0.0458    80.4961     7.0278
  361.0000     8.0969     7.5800   -27.9236     2.4969     0.1116     0.0373    80.7851     7.0349
  361.5000     8.1671     7.5310   -28.6782     2.4931     0.1174     0.0294    81.9161     7.0424
  362.0000     8.2380     7.4823   -28.7769     2.4855     0.1233     0.0225    82.9828     7.0496
  362.5000     8.3374     7.4338   -28.8566     2.4781     0.1252     0.0258    84.1905     7.0570
  363.0000     8.3028     7.3858   -28.9116     2.4737     0.1252     0.0289    87.6821     7.0658
  363.5000     8.2466     7.3381   -28.9833     2.4713     0.1232     0.0328    92.1534     7.0897
  364.0000     8.1908     7.2907   -29.0416     2.4768     0.1140     0.0323    93.7732     7.1131
  364.5000     8.1354     7.2436   -29.1082     2.4825     0.1176     0.0285    93.6006     7.1375
  365.0000     8.0803     7.1950   -28.8979     2.4851     0.1263     0.0271    93.6327     7.1617
  365.5000     8.0257     7.0809   -28.6398     2.4770     0.1346     0.0318    93.2713     7.1778
  366.0000     7.9714     6.9640   -28.3752     2.4685     0.1301     0.0361    91.0193     7.1615
  366.5000     7.9174     6.8492   -28.1162     2.4669     0.1258     0.0409    88.1699     7.1538
  367.0000     7.8409     6.7362   -27.8555     2.4721     0.1215     0.0420    85.3836     7.0603
  367.5000     7.7402     6.6251   -27.5930     2.4769     0.1180     0.0413    82.5843     6.8808
  368.0000     7.6404     6.5158   -27.3333     2.4814     0.1211     0.0310    82.7192     6.7032
  368.5000     7.5418     6.4083   -27.0726     2.4835     0.1250     0.0227    87.0063     6.7458
  369.0000     7.4483     6.3411   -26.8071     2.4772     0.1288     0.0145    89.6964     6.8667
  369.5000     7.3699     6.4209   -26.6937     2.4711     0.1316     0.0180    88.8259     6.9851
  370.0000     7.2924     6.5017   -26.6966     2.4655     0.1300     0.0215    87.9628     7.1024
  370.5000     7.2159     6.5836   -26.8571     2.4695     0.1268     0.0252    86.9669     7.2299
  371.0000     7.3308     6.6664   -27.4260     2.4733     0.1236     0.0288    85.9398     7.3025
  371.5000     7.5232     6.7503   -27.9965     2.4774     0.1204     0.0328    83.8130     7.2794
  372.0000     7.7208     6.8353   -28.5540     2.4812     0.1220     0.0322    81.5206     7.2659
  372.5000     7.9236     6.9347   -29.0926     2.4845     0.1236     0.0283    79.0919     7.2532
  373.0000     8.0358     6.9447   -29.1115     2.4793     0.1253     0.0272    77.7739     7.2360
  373.5000     8.0358     6.9565   -29.1253     2.4757     0.1269     0.0313    78.5907     7.2195
  374.0000     8.0358     6.9683   -29.1193     2.4731     0.1286     0.0353    79.7151     7.1821
  374.5000     7.9999     6.9801   -29.1185     2.4711     0.1269     0.0398    80.7551     7.1326
  375.0000     7.9683     6.9920   -29.1188     2.4708     0.1225     0.0412    82.8345     7.0905
  375.5000     7.9368     7.0039   -29.1307     2.4729     0.1184     0.0381    84.8431     6.8874
  376.0000     7.9054     7.0158   -28.9779     2.4767     0.1205     0.0354    87.0872     6.7385
  376.5000     7.8741     7.0277   -28.6314     2.4779     0.1242     0.0328    83.9266     6.6227
  377.0000     7.8430     7.0396   -28.2996     2.4734     0.1276     0.0300    81.9732     6.9159
  377.5000     7.8120     7.0516   -27.9679     2.4704     0.1264     0.0272    80.0128     6.9778
  378.0000     7.7811     7.0643   -27.6311     2.4694     0.1247     0.0254    80.4530     6.8404
  378.5000     7.7504     7.0907   -27.2996     2.4711     0.1230     0.0245    81.8953     6.6571
  379.0000     7.7197     7.1174   -26.9653     2.4741     0.1213     0.0235    83.6011     6.4671
  379.5000     7.6892     7.1444   -26.6264     2.4769     0.1212     0.0227    85.5846     6.3451
  380.0000     7.6589     7.1716   -26.3064     2.4790     0.1220     0.0222    87.5403     6.3674
  380.5000     7.6286     7.1989   -25.9771     2.4791     0.1186     0.0280    89.6549     6.4054
  381.0000     7.6038     7.2262   -26.2788     2.4786     0.1118     0.0351    89.9390     6.4832
  381.5000     7.7359     7.2535   -26.7630     2.4834     0.1071     0.0376    88.7443     6.5606
  382.0000     7.8499     7.2817   -27.2526     2.4925     0.1094     0.0360    87.0123     6.6379
  382.5000     7.9655     7.3227   -27.7242     2.4974     0.1137     0.0346    85.4293     6.7162
  383.0000     8.0829     7.3164   -28.2070     2.4906     0.1181     0.0344    84.0793     6.7941
  383.5000     8.1852     7.2755   -28.4210     2.4843     0.1207     0.0356    85.2601     6.8603
  384.0000     8.1173     7.2349   -28.5481     2.4814     0.1225     0.0368    86.7755     6.8836
