~VERSION INFORMATION
 VERS.                2.0:   CWLS LOG ASCII STANDARD - VERSION 2.0
 WRAP.                 NO:   ONE LINE PER DEPTH STEP
~WELL INFORMATION
#MNEM.UNIT      DATA TYPE    INFORMATION
#----------   ------------   ------------------------------
 STRT.F            2.5000:   START DEPTH
 STOP.F          548.0000:   STOP DEPTH
 STEP.F            0.5000:   STEP LENGTH
 NULL.          -999.2500:   NO VALUE
 COMP. LAWRENCE/ALLISON INC:   COMPANY
 WELL.    55-61 SX #10-10:   WELL
 FLD .           N.P.R #3:   FIELD
 LOC .      S10 T38N R78W:   LOCATION
 CNTY.            NATRONA:   COUNTY
 STAT.            WYOMING:   STATE
 CTRY. UNITED STATES OF AMERICA:   COUNTRY
 SRVC.            Unknown:   SERVICE COMPANY
 DATE.        05-SEP-1984:   LOGDATE
 API .       490251098100:   API NUMBER
~CURVE INFORMATION
#MNEM.UNIT       API CODE    CURVE DESCRIPTION
#----------   ------------   ------------------------------
 DEPT.F                  :   
 GRR .GAPI   07 310 01 00:   GAMMA RAY FROM RES
 SPR .MV     07 010 01 00:   SPONTANEOUS POTENTIAL
 RFOC.OHMM   07 220 04 00:   RESISTIVITY FOCUSED LOG
 RILD.OHMM   07 120 46 00:   INDUCTION LOG DEEP RESISTIVITY
 RILM.OHMM   07 120 44 00:   INDUCTION LOG MEDIUM RESISTIVITY
 CALD.IN     45 280 60 00:   CALIPER FROM DENSITY LOG
 DEN .G/C3   45 350 01 00:   COMPENSATED BULK DENSTIY
 CNC .DEC    42 890 03 00:   NEUTRON POROSITY SANDSTONE
 PORD.DEC    45 890 12 00:   POROSITY DENSITY SANDSTONE
 CORR.G/C3   45 356 01 00:   DENSITY CORRECTION
 AC  .US/F   60 520 00 00:   ACCOUSTIC SONIC
~PARAMETER INFORMATION
#MNEM.UNIT          VALUE    DESCRIPTION
#----------   ------------   ------------------------------
 PD  .                 GL:   PERMANENT DATUM
 EPD .F              5191:   ELEVATION PERMANENT DATUM
 LMF .                 KB:   LOG MEASURED FROM
 DAPD.F                12:   FEET ABOVE PERMANENT DATUM
 DMF .                 KB:   DRILLING MEASURED FROM
 EKB .F              5203:   KELLING BUSHING
 EGL .F              5191:   GROUND LEVEL
 DATE.         5-SEP-1984:   RUN DATE
 RUN .                  1:   RUN NUMBER
 DD  .F               540:   DEPTH DRILLER
 DL  .F               550:   DEPTH LOGGER
 BLI .F               548:   BOTTOM LOG INTERVAL
 CS  .IN            8.625:   CASING SIZE
 CBD .F                42:   CASING BOTTOM DRILLER
 CBL .F                54:   CASING BOTTOM LOGGER
 BS  .IN            7.875:   BIT SIZE
 BSD .F               540:   BIT SIZE AT DEPTH
 DFT .        KCL POLYMER:   DRILLING FLUID TYPE
 MSS .           FLOWLINE:   MUD SAMPLE SOURCE
 RMS .OHMM            .79:   RESISTIVITY MUD SAMPLE
 MST .F                74:   MUD SAMPLE TEMPERATURE
 RMF .OHMM            .59:   RESISTIVITY MUD FILTRATE SAMPLE
 MFST.F                74:   MUD FILTRATE SAMPLE TEMPERATURE
 RMC .OHMM            .99:   RESISTIVITY MUD CAKE
 MCST.F                74:   MUD CAKE SAMPLE TEMPERATURE
 MFSS.               CALC:   MUD FILTRATE SAMPLE SOURCE
 MCSS.               CALC:   MUD CAKE SAMPLE SOURCE
 RMB .OHMM            .65:   RESISTIVITY MUD AT BHT
 BHT .F                90:   BOTTOM HOLE TEMPERATURE
 TCS .HRS               3:   TIME CURCULATED STOPPED
 MRT .F                90:   MAXIMUM RECORDED TEMPERATURE
 LUN .               6274:   LOGGING UNIT NUMBER
 LUL .               GLTE:   LOGGING UNIT LOCATION
 ENGI.             RAUTIO:   RECORDING ENGINEER
 WITN.            JOHNSON:   WITNESSED BY
 CLNT.            A2DTECH:   CLIENT CODE
 ORIG. 2", 2.5", 5" PRINT:   ORIGIN OF DATA
 UWI .       490251098100:   UNIQUE WELL ID
 DICO. A2D Technologies, Inc.:   DIGITIZING COMPANY
~OTHER INFORMATION
~A    DEPT      GRR       SPR       RFOC       RILD       RILM       CALD        DEN        CNC       PORD       CORR         AC   
# ...
  399.0000    81.1460   -64.4940    10.4750     9.2090     9.6980     7.9070     2.5120     0.2610     0.1000     0.0070    90.2310
  399.5000    82.5130   -65.1640    10.4500    10.2310    10.1370     7.9070     2.5090     0.2640     0.1010     0.0190    90.4530
  400.0000    82.5830   -65.6530    10.4250    10.3830    10.2560     7.9070     2.5040     0.2630     0.1040     0.0250    90.6750
  400.5000    83.2540   -65.6440    10.4000    10.6020    10.3870     7.9070     2.5010     0.2590     0.1060     0.0170    90.8960
  401.0000    85.0580   -65.6430    10.3760    10.8200    10.5190     7.9070     2.5010     0.2550     0.1060     0.0200    90.7710
  401.5000    86.2030   -65.6440    10.3510    11.0390    10.6510     7.9070     2.5040     0.2510     0.1050     0.0230    90.5330
  402.0000    86.3100   -65.6450    10.3250    11.2570    10.8260     7.9060     2.5110     0.2500     0.1030     0.0260    90.1330
  402.5000    86.4310   -65.6480    10.7660    11.4760    11.0390     7.8990     2.5230     0.2570     0.0930     0.0240    89.7330
  403.0000    86.5990   -65.7610    11.2300    11.7830    11.2510     7.8920     2.5240     0.2670     0.0920     0.0190    89.3330
  403.5000    88.4580   -66.4980    11.6950    12.1880    11.4630     7.8880     2.5170     0.2720     0.0970     0.0140    89.0680
  404.0000    90.9200   -67.2390    12.1210    12.5920    11.6910     7.8930     2.5090     0.2730     0.1020     0.0080    88.9850
  404.5000    93.2490   -67.9780    12.3890    12.9970    11.9860     7.8980     2.5080     0.2660     0.1030     0.0120    88.9040
  405.0000    92.1790   -68.7220    12.6580    13.4010    12.2800     7.9020     2.5090     0.2570     0.1020     0.0210    88.4680
  405.5000    90.3600   -69.1640    12.9260    13.8060    12.5750     7.9070     2.5060     0.2490     0.1030     0.0150    88.0470
  406.0000    87.5620   -69.4230    13.1940    14.2110    12.8690     7.9120     2.5010     0.2470     0.1060     0.0090    87.6260
  406.5000    83.3590   -69.6810    13.4620    14.6150    13.1640     7.9170     2.4960     0.2470     0.1100     0.0030    87.2050
  407.0000    81.3960   -69.9390    13.7300    15.0200    13.4590     7.9220     2.4960     0.2440     0.1100    -0.0030    86.7840
  407.5000    82.3800   -70.1970    13.9980    15.4250    13.7530     7.9260     2.5050     0.2390     0.1040     0.0040    86.3630
  408.0000    84.5730   -70.4550    14.2660    15.8290    14.0480     7.9360     2.5170     0.2320     0.0990     0.0160    85.9420
  408.5000    87.0290   -70.5800    14.5340    16.1920    14.3700     7.9450     2.5120     0.2360     0.0990     0.0270    85.8340
  409.0000    89.8470   -70.3030    14.7470    16.3630    14.3450     7.9110     2.5020     0.2430     0.1050     0.0190    86.1840
  409.5000    90.8950   -70.0290    14.5360    16.5530    14.3170     7.8940     2.4940     0.2490     0.1120     0.0100    86.5840
  410.0000    89.6510   -69.7510    14.3260    16.7420    14.2900     7.9150     2.4950     0.2510     0.1110     0.0120    86.9840
  410.5000    82.6480   -69.4590    14.1150    16.9310    14.2620     7.9260     2.4910     0.2490     0.1120     0.0140    87.3840
  411.0000    80.3490   -69.6130    13.9800    17.1210    14.2390     7.9220     2.4860     0.2510     0.1150     0.0070    87.4530
  411.5000    81.0460   -69.6030    14.1920    17.3100    14.5200     7.9170     2.4840     0.2500     0.1170     0.0000    87.3700
  412.0000    81.9890   -69.6030    14.4130    17.4260    14.8110     7.9130     2.4870     0.2490     0.1160    -0.0010    87.3420
  412.5000    81.3520   -69.6040    14.5030    17.3950    15.0450     7.9090     2.4870     0.2500     0.1150     0.0180    87.4490
  413.0000    80.2600   -69.6050    14.4140    17.3550    14.8590     7.9070     2.4820     0.2460     0.1180     0.0240    87.5570
  413.5000    80.2240   -69.6060    14.3400    17.3150    14.7040     7.9070     2.4750     0.2410     0.1220     0.0230    87.6640
  414.0000    82.2860   -69.7080    14.2670    17.2740    14.5490     7.9070     2.4720     0.2400     0.1250     0.0140    87.7710
  414.5000    84.1840   -69.9960    14.1930    17.2340    14.3700     7.9070     2.4750     0.2380     0.1230     0.0060    87.8780
  415.0000    84.3270   -70.2850    14.1180    17.1940    14.4140     7.9070     2.4780     0.2330     0.1190     0.0000    87.7090
  415.5000    84.4730   -70.2790    14.1850    17.1540    14.4810     7.9070     2.4760     0.2270     0.1200    -0.0030    87.4310
  416.0000    84.8960   -70.0940    14.2730    17.1140    14.5490     7.9070     2.4740     0.2280     0.1220    -0.0060    87.1540
  416.5000    85.7360   -69.9090    14.3700    16.8820    14.6160     7.9070     2.4680     0.2510     0.1250    -0.0100    86.9120
  417.0000    86.5010   -69.8030    14.3700    16.6250    14.6360     7.9070     2.4610     0.2540     0.1280    -0.0100    87.3730
  417.5000    86.2630   -69.8700    14.2050    16.3690    14.3730     7.9070     2.4640     0.2500     0.1300     0.0010    87.7310
  418.0000    85.9990   -70.0270    13.9240    16.1120    14.1340     7.9070     2.4680     0.2520     0.1270     0.0120    88.0880
  418.5000    85.6230   -70.2220    13.6430    15.7580    13.8960     7.9070     2.4690     0.2580     0.1260     0.0120    88.4450
  419.0000    83.0710   -70.4900    13.3620    15.3700    13.6570     7.9060     2.4700     0.2600     0.1260     0.0080    88.8020
  419.5000    80.7800   -70.7170    13.0810    15.0450    13.4010     7.9040     2.4730     0.2640     0.1250     0.0060    89.1590
  420.0000    84.4310   -70.9380    12.8000    14.5870    13.1390     7.9030     2.4760     0.2730     0.1230     0.0100    89.5160
  420.5000    90.3830   -71.1560    12.5190    14.1140    12.8770     7.9010     2.4790     0.2750     0.1210     0.0070    89.8730
  421.0000    96.1380   -71.3750    12.2380    13.6410    12.6150     7.9000     2.4830     0.2730     0.1190     0.0040    90.1420
  421.5000    97.5460   -71.5930    11.9560    13.1680    12.3520     7.8980     2.4880     0.2660     0.1160     0.0080    90.2570
  422.0000    97.4210   -71.7790    11.8500    12.6950    12.0900     7.8970     2.4920     0.2580     0.1140     0.0110    90.3730
  422.5000    96.0340   -71.6820    12.0690    12.3160    11.8280     7.8950     2.4880     0.2550     0.1130    -0.0050    90.4880
  423.0000    93.3680   -71.5740    11.9000    12.1080    11.5660     7.8940     2.4860     0.2600     0.1140    -0.0210    90.6030
  423.5000    90.3420   -71.4670    11.7680    11.9000    11.4220     7.8930     2.4880     0.2680     0.1150    -0.0200    90.6970
  424.0000    89.9860   -71.3610    11.6360    11.6920    11.2840     7.8910     2.4920     0.2740     0.1130    -0.0080    91.0930
  424.5000    91.2310   -71.2550    11.5040    11.4840    11.1540     7.8900     2.4960     0.2780     0.1110     0.0030    91.4260
  425.0000    94.3700   -71.2070    11.3720    11.2760    11.0110     7.8880     2.5000     0.2830     0.1080     0.0150    91.7600
  425.5000    96.0240   -71.3080    11.2390    11.1550    10.9270     7.8840     2.5050     0.2850     0.1060     0.0270    92.0930
  426.0000    95.7430   -71.4080    11.1070    11.0380    10.7620     7.8780     2.5030     0.2810     0.1040     0.0260    92.3920
  426.5000    94.0660   -71.5070    10.9750    10.9210    10.5970     7.8710     2.4970     0.2740     0.1060     0.0140    92.6890
  427.0000    92.5330   -71.5860    10.8430    10.8040    10.4310     7.8830     2.4920     0.2740     0.1100     0.0100    92.6890
  427.5000    93.0880   -71.5840    10.6130    10.6870    10.3250     7.9130     2.4960     0.2770     0.1120     0.0160    92.5570
  428.0000    95.2410   -71.5840    10.7440    10.6070    10.3250     7.9210     2.5100     0.2790     0.1100     0.0220    92.3430
  428.5000    97.7120   -71.5850    10.9140    10.5900    10.3250     7.9010     2.5130     0.2790     0.1000     0.0220    92.0920
  429.0000    97.1940   -71.7430    11.0850    10.5730    10.3250     7.8870     2.5050     0.2750     0.0990     0.0150    91.9540
