~VERSION INFORMATION
 VERS.                2.0:   CWLS LOG ASCII STANDARD - VERSION 2.0
 WRAP.                 NO:   ONE LINE PER DEPTH STEP
~WELL INFORMATION
#MNEM.UNIT      DATA TYPE    INFORMATION
#----------   ------------   ------------------------------
 STRT.F            0.0000:   START DEPTH
 STOP.F         1340.0000:   STOP DEPTH
 STEP.F            0.5000:   STEP LENGTH
 NULL.          -999.2500:   NO VALUE
 COMP. U S NAVY-INTEX OIL:   COMPANY
 WELL. NAVAL PETROLEUM RESERVE 3 S #81-14:   WELL
 FLD .             TEAPOT:   FIELD
 LOC .      S14 T38N R78W:   LOCATION
 CNTY.            NATRONA:   COUNTY
 STAT.            WYOMING:   STATE
 CTRY. UNITED STATES OF AMERICA:   COUNTRY
 SRVC.       Schlumberger:   SERVICE COMPANY
 DATE.        20-AUG-1966:   LOGDATE
 API .       490250971600:   API NUMBER
~CURVE INFORMATION
#MNEM.UNIT       API CODE    CURVE DESCRIPTION
#----------   ------------   ------------------------------
 DEPT.F                  :   
 SPR .MV     07 010 01 00:   SPONTANEOUS POTENTIAL
 CILD.MMHO   07 110 46 00:   CONDUCTIVITY INDUCTION LOG DEEP
 ILD .OHMM   07 120 46 00:   INDUCTION LOG DEEP
 ASN .OHMM   01 041 16 00:   AMPLIFIED SHORT NORMAL 16"
 CALD.IN     45 280 60 00:   CALIPER
 RHOB.G/C3   45 350 01 00:   BULK DENSITY
 DPHI.DEC    45 890 12 00:   DENSITY POROSITY SANDSTONE
 GRD .GAPI   45 310 01 00:   GAMMA RAY FROM DENSITY LOG
 CORR.G/C3   45 356 01 00:   DENSITY CORRECTION
~PARAMETER INFORMATION
#MNEM.UNIT          VALUE    DESCRIPTION
#----------   ------------   ------------------------------
 PD  .                 GL:   PERMANENT DATUM
 EPD .F              5283:   ELEVATION PERMANENT DATUM
 LMF .                 KB:   LOG MEASURED FROM
 DAPD.F                 5:   FEET ABOVE PERMANENT DATUM
 DMF .                 KB:   DRILLING MEASURED FROM
 EKB .F              5288:   KELLING BUSHING
 EGL .F              5283:   GROUND LEVEL
 DATE.            8-20-66:   RUN DATE
 RUN .                  1:   RUN NUMBER
 DD  .F              1340:   DEPTH DRILLER
 DL  .F              1337:   DEPTH LOGGER
 BLI .F              1336:   BOTTOM LOG INTERVAL
 TLI .F                17:   TOP LOG INTERVAL
 CS  .IN            8.625:   CASING SIZE
 CBD .F                15:   CASING BOTTOM DRILLER
 CBL .F                17:   CASING BOTTOM LOGGER
 BS  .IN            7.875:   BIT SIZE
 BSD .F              1340:   BIT SIZE AT DEPTH
 DFT .           GEL-CHEM:   DRILLING FLUID TYPE
 DFD .                9.8:   DRILLING FLUID DENSITY
 DFV .                 70:   DRILLING FLUID VISCOSITY
 DFL .                  8:   DRILLING FLUID LOSS
 MSS .          FLOW LINE:   MUD SAMPLE SOURCE
 RMS .OHMM           1.26:   RESISTIVITY MUD SAMPLE
 MST .F                71:   MUD SAMPLE TEMPERATURE
 RMF .OHMM            .71:   RESISTIVITY MUD FILTRATE SAMPLE
 MFST.F                71:   MUD FILTRATE SAMPLE TEMPERATURE
 MFSS.                  M:   MUD FILTRATE SAMPLE SOURCE
 RMB .OHMM           1.04:   RESISTIVITY MUD AT BHT
 BHT .F                86:   BOTTOM HOLE TEMPERATURE
 TCS .HRS               2:   TIME CURCULATED STOPPED
 MRT .F                86:   MAXIMUM RECORDED TEMPERATURE
 LUN .               3527:   LOGGING UNIT NUMBER
 LUL .               CSPR:   LOGGING UNIT LOCATION
 ENGI.          TOLLEFSON:   RECORDING ENGINEER
 WITN.                MAY:   WITNESSED BY
 CLNT.            A2DTECH:   CLIENT CODE
 ORIG.        2" 5" PRINT:   ORIGIN OF DATA
 UWI .       490250971600:   UNIQUE WELL ID
 DICO. A2D Technologies, Inc.:   DIGITIZING COMPANY
~OTHER INFORMATION
~A    DEPT     SPR       CILD        ILD        ASN         CALD     RHOB       DPHI          GRD     CORR   
# ...
  255.5000   -52.8172   173.6068     5.5182     6.7518     7.9924     2.4244     0.1454    99.0902     0.0645
  256.0000   -52.4958   179.3593     5.3038     6.5968     7.9923     2.4163     0.1504   100.5567     0.0563
  256.5000   -52.2061   183.7183     5.1694     6.4535     7.9922     2.4082     0.1553   101.6368     0.0483
  257.0000   -52.2032   187.4537     5.0693     6.3105     7.9921     2.3999     0.1609   100.0036     0.0391
  257.5000   -52.2051   191.1178     4.9689     6.1865     7.9920     2.3983     0.1583    98.4004     0.0304
  258.0000   -52.1974   193.4018     4.8683     6.1441     7.9919     2.4042     0.1540    96.8038     0.0264
  258.5000   -52.0264   195.6430     4.7639     6.1005     7.9918     2.4097     0.1497    95.2071     0.0570
  259.0000   -52.2322   198.1038     4.7393     6.0556     7.9917     2.4153     0.1454    93.6072     0.0703
  259.5000   -52.5932   197.6176     4.7892     6.0233     7.9916     2.4209     0.1411    92.0204     0.0609
  260.0000   -52.4394   196.9900     4.8528     6.0067     7.9915     2.4265     0.1367    90.8155     0.0561
  260.5000   -52.2954   196.3625     4.9164     5.9977     7.9914     2.4321     0.1324    96.4928     0.0443
  261.0000   -52.1499   195.7349     4.9798     6.0073     7.9912     2.4377     0.1316    96.1019     0.0467
  261.5000   -52.0152   195.1098     5.0432     6.0247     7.9911     2.4432     0.1318    94.8136     0.0558
  262.0000   -52.3051   191.1202     5.1064     6.0420     7.9910     2.4489     0.1331    93.5039     0.0505
  262.5000   -52.6047   187.1457     5.1386     6.0591     7.9909     2.4457     0.1343    92.1881     0.0477
  263.0000   -52.4393   183.1713     5.2021     6.0788     7.9908     2.4371     0.1356    91.0894     0.0453
  263.5000   -52.2404   179.1968     5.2889     6.1768     7.9907     2.4284     0.1368    93.9067     0.0532
  264.0000   -52.0339   175.7998     5.3762     6.2817     7.9906     2.4196     0.1380    96.8294     0.0537
  264.5000   -52.2313   174.3057     5.4635     6.3868     7.9905     2.4109     0.1475    98.4072     0.0497
  265.0000   -52.5199   172.8115     5.5512     6.4977     7.9904     2.4022     0.1564    95.7999     0.0459
  265.5000   -52.5732   171.3174     5.6368     6.5366     7.9903     2.3935     0.1537    93.1756     0.0420
  266.0000   -52.4685   170.3069     5.6122     6.5367     7.9902     2.3942     0.1504    92.9775     0.0378
  266.5000   -52.3727   170.9606     5.5776     6.5154     7.9900     2.4034     0.1484    96.1215     0.0360
  267.0000   -52.2920   172.8971     5.5433     6.4943     7.9899     2.4125     0.1483    99.2696     0.0454
  267.5000   -52.2112   175.3873     5.5092     6.4800     7.9898     2.4216     0.1499    99.6598     0.0560
  268.0000   -52.1304   177.8776     5.4751     6.5015     7.9897     2.4257     0.1516    94.4545     0.0657
  268.5000   -52.0510   180.3678     5.4410     6.5106     7.9896     2.4139     0.1532    95.2014     0.0617
  269.0000   -52.0412   181.4156     5.4068     6.4776     7.9895     2.4016     0.1565    96.8377     0.0516
  269.5000   -52.1296   181.8179     5.3726     6.4008     7.9894     2.3894     0.1610    98.4928     0.0452
  270.0000   -52.1961   182.2202     5.3405     6.3187     7.9893     2.3770     0.1655    99.5847     0.0503
  270.5000   -52.1135   182.6225     5.3237     6.2560     7.9892     2.3779     0.1700    97.3904     0.0577
  271.0000   -52.0324   183.0247     5.3052     6.2572     7.9891     2.3848     0.1735    94.9774     0.0441
  271.5000   -51.9515   183.4270     5.2862     6.2672     7.9890     2.3919     0.1657    93.9536     0.0248
  272.0000   -51.8703   183.8293     5.2674     6.3347     7.9889     2.3990     0.1593    96.0047     0.0288
  272.5000   -51.8034   183.6128     5.2516     6.4018     7.9887     2.4061     0.1528    98.1241     0.0354
  273.0000   -51.8844   180.1185     5.3731     6.4687     7.9886     2.4133     0.1463    98.6608     0.0417
  273.5000   -51.9689   173.2547     5.6487     6.5360     7.9885     2.4102     0.1434    96.6897     0.0482
  274.0000   -52.0541   166.3910     5.9238     6.6267     7.9884     2.4057     0.1461    94.6910     0.0542
  274.5000   -52.1372   160.0998     6.1984     6.7563     7.9883     2.4014     0.1488    92.6305     0.0632
  275.0000   -52.1071   155.1896     6.3100     6.8884     7.9882     2.4107     0.1514    92.5692     0.0611
  275.5000   -51.9636   152.9370     6.3934     7.1554     7.9881     2.4209     0.1508    94.5197     0.0526
  276.0000   -51.9127   150.4467     6.4769     7.4139     7.9880     2.4310     0.1469    96.4242     0.0448
  276.5000   -51.8634   147.9565     6.5609     7.6695     7.9879     2.4406     0.1431    98.3232     0.0368
  277.0000   -51.8098   145.4662     6.6364     7.8585     7.9878     2.4456     0.1392   100.2211     0.0282
  277.5000   -51.9227   144.5395     6.6402     7.8372     7.9877     2.4506     0.1354   102.1190     0.0251
  278.0000   -52.0730   147.1457     6.4992     7.6890     7.9876     2.4556     0.1315   104.0223     0.0348
  278.5000   -52.1909   152.3752     6.3165     7.5340     7.9875     2.4667     0.1277   105.9305     0.0446
  279.0000   -52.0378   157.6048     6.1316     7.3795     7.9873     2.4801     0.1238   107.7771     0.0542
  279.5000   -51.8885   163.1736     5.9465     7.2245     7.9872     2.4936     0.1200   105.4312     0.0648
  280.0000   -51.8285   165.3942     5.8877     7.1459     7.9871     2.5072     0.1161   100.6481     0.0755
  280.5000   -51.8875   166.1677     5.8610     7.1248     7.9870     2.5201     0.1188    96.2766     0.0822
  281.0000   -51.9455   164.2963     5.9897     7.1052     7.9869     2.5228     0.1226    95.4798     0.0695
  281.5000   -52.0039   160.1760     6.1142     7.1309     7.9868     2.4756     0.1252    94.7979     0.0588
  282.0000   -52.0624   156.0558     6.2388     7.2514     7.9867     2.4890     0.1186    94.0241     0.0450
  282.5000   -52.1203   151.9355     6.3740     7.4702     7.9866     2.5054     0.1118    97.3412     0.0605
  283.0000   -52.1794   147.8153     6.5588     7.6835     7.9865     2.5216     0.1049    97.8154     0.0764
  283.5000   -52.0435   143.6950     6.7422     7.8575     7.9864     2.5353     0.1041    94.4150     0.0781
  284.0000   -51.7614   139.9468     6.9237     8.0211     7.9863     2.5225     0.1078    95.9327     0.0830
  284.5000   -51.6411   138.2318     7.0362     8.1865     7.9861     2.5098     0.1115    98.2612     0.0864
  285.0000   -51.7268   136.1919     7.0714     8.2284     7.9860     2.4973     0.1152    99.5931     0.0896
  285.5000   -51.8114   135.2270     7.1156     8.2459     7.9859     2.4848     0.1189    96.5775     0.0766
  286.0000   -51.8967   136.0688     7.0495     8.2441     7.9858     2.4723     0.1226    95.4128     0.0615
  286.5000   -51.9817   137.6635     6.8887     8.1778     7.9857     2.4598     0.1269    98.2379     0.0548
  287.0000   -52.0669   139.2590     6.7398     8.1116     7.9856     2.4473     0.1326   100.5130     0.0491
  287.5000   -52.1507   140.8487     6.7545     8.0462     7.9855     2.4348     0.1383   102.7114     0.0428
  288.0000   -52.1828   142.2156     6.7734     7.9782     7.9854     2.4223     0.1440   102.7994     0.0387
  288.5000   -52.1217   143.2136     6.7914     7.9740     7.9853     2.4097     0.1498   102.7052     0.0442
  289.0000   -52.0621   143.2136     6.8091     7.9924     7.9852     2.3987     0.1555   101.0332     0.0481
  289.5000   -52.0021   143.2136     6.8281     8.0340     7.9851     2.4083     0.1579    99.3662     0.0405
  290.0000   -51.9420   140.9444     6.8985     8.1613     7.9850     2.4200     0.1515    97.7109     0.0189
  290.5000   -51.8825   136.5406     7.1003     8.3027     7.9848     2.4316     0.1469    96.0597     0.0241
  291.0000   -51.8201   132.1368     7.2996     8.5114     7.9847     2.4431     0.1424    94.4038     0.0381
  291.5000   -51.9082   127.7330     7.4970     8.7350     7.9846     2.4547     0.1378    92.5663     0.0512
