~VERSION INFORMATION
 VERS.                2.0:   CWLS LOG ASCII STANDARD - VERSION 2.0
 WRAP.                 NO:   ONE LINE PER DEPTH STEP
~WELL INFORMATION
#MNEM.UNIT      DATA TYPE    INFORMATION
#----------   ------------   ------------------------------
 STRT.F            4.0000:   START DEPTH
 STOP.F          674.0000:   STOP DEPTH
 STEP.F            0.5000:   STEP LENGTH
 NULL.          -999.2500:   NO VALUE
 COMP. LAWRENCE/ALLISON INC:   COMPANY
 WELL.         21X #10-10:   WELL
 FLD .             TEAPOT:   FIELD
 LOC .      S10 T38N R78W:   LOCATION
 CNTY.            NATRONA:   COUNTY
 STAT.            WYOMING:   STATE
 CTRY. UNITED STATES OF AMERICA:   COUNTRY
 SRVC.           Gearhart:   SERVICE COMPANY
 DATE.        17-AUG-1987:   LOGDATE
 API .       490251118400:   API NUMBER
~CURVE INFORMATION
#MNEM.UNIT       API CODE    CURVE DESCRIPTION
#----------   ------------   ------------------------------
 DEPT.F                  :   
 GRR .GAPI   07 310 01 00:   GAMMA RAY FROM RESISTIVITY
 ILD .OHMM   07 120 46 00:   INDUCTION LOG DEEP
 ILM .OHMM   07 120 44 00:   INDUCTION LOG MEDIUM
~PARAMETER INFORMATION
#MNEM.UNIT          VALUE    DESCRIPTION
#----------   ------------   ------------------------------
 PD  .                 GL:   PERMANENT DATUM
 EPD .F              5253:   ELEVATION PERMANENT DATUM
 LMF .                 KB:   LOG MEASURED FROM
 DAPD.F                12:   FEET ABOVE PERMANENT DATUM
 DMF .                 KB:   DRILLING MEASURED FROM
 EKB .F              5265:   KELLING BUSHING
 EDF .F              5263:   DRILLING FLOOR
 EGL .F              5253:   GROUND LEVEL
 DATE.        17-AUG-1987:   RUN DATE
 RUN .                  1:   RUN NUMBER
 DD  .F               690:   DEPTH DRILLER
 DL  .F               682:   DEPTH LOGGER
 BLI .F               674:   BOTTOM LOG INTERVAL
 TLI .F                60:   TOP LOG INTERVAL
 CS  .IN            8.625:   CASING SIZE
 CBD .F                50:   CASING BOTTOM DRILLER
 CBL .F                60:   CASING BOTTOM LOGGER
 BS  .IN             7.87:   BIT SIZE
 BSD .F               690:   BIT SIZE AT DEPTH
 DFT .               FOAM:   DRILLING FLUID TYPE
 TCS .HRS            1500:   TIME CURCULATED STOPPED
 TLAB.HRS            1609:   TIME LOGGER AT BOTTOM
 LUN .               7597:   LOGGING UNIT NUMBER
 LUL .           GILLETTE:   LOGGING UNIT LOCATION
 ENGI.           JOHNSTON:   RECORDING ENGINEER
 WITN.             STRONG:   WITNESSED BY
 CLNT.            A2DTECH:   CLIENT CODE
 ORIG.       2", 5" PRINT:   ORIGIN OF DATA
 UWI .       490251118400:   UNIQUE WELL ID
 DICO. A2D Technologies, Inc.:   DIGITIZING COMPANY
~OTHER INFORMATION
~A    DEPT      GRR       ILD        ILM   
# ...
  186.0000   117.7282     9.5660     9.6237
  186.5000   116.2263     9.7689     9.6931
  187.0000   110.7731     9.7696     9.6951
  187.5000   110.4357     9.7702     9.6971
  188.0000   115.3682     9.7709     9.6991
  188.5000   118.1217     9.5028     9.3684
  189.0000   119.6593     9.3067     9.1754
  189.5000   117.4732     9.1785     8.9880
  190.0000   113.0127     9.0520     8.9274
  190.5000   113.3346     8.9273     8.8671
  191.0000   115.1762     8.9280     8.8694
  191.5000   114.8901     8.9911     8.8712
  192.0000   114.5996     8.9291     8.9352
  192.5000   114.6220     8.8677     8.9994
  193.0000   115.2478     8.8684     9.0015
  193.5000   118.0013     8.9328     9.0033
  194.0000   122.8824     9.0325     9.0052
  194.5000   124.4201     9.1142     9.0071
  195.0000   123.2222     9.1154     9.0089
  195.5000   120.5006     9.0533     8.7629
  196.0000   118.6987     9.0546     8.7038
  196.5000   119.3718     8.9929     8.5248
  197.0000   121.1706     8.9941     8.5270
  197.5000   121.1885     8.9329     8.5287
  198.0000   120.9025     8.8720     8.2957
  198.5000   120.3080     8.8733     8.2397
  199.0000   119.7180     8.9369     8.1841
  199.5000   120.0444     8.8760     8.1289
  200.0000   121.2781     8.8155     8.1875
  200.5000   120.9856     8.6947     8.1892
  201.0000   119.7818     8.5754     8.1909
  201.5000   119.4894     8.5766     8.2503
  202.0000   122.5413     8.5778     8.1942
  202.5000   126.8086     8.6390     8.1963
  203.0000   125.9007     8.6402     8.1980
  203.5000   123.7406     8.6414     8.1423
  204.0000   121.9372     8.6426     8.0873
  204.5000   121.3854     8.6438     8.0328
  205.0000   121.7043     8.7054     7.9785
  205.5000   125.9716     8.7676     7.9806
  206.0000   128.1113     8.8301     8.0381
  206.5000   128.7281     8.8313     8.0961
  207.0000   127.8283     8.8326     8.0977
  207.5000   127.5363     8.8338     8.1561
  208.0000   126.0315     8.8466     8.2725
  208.5000   124.8277     8.9606     8.5088
  209.0000   122.7120     9.0245     8.6905
  209.5000   119.3805     9.1525     8.8145
  210.0000   116.9609     9.1538     8.8780
  210.5000   113.6294     9.0911     9.0046
  211.0000   112.1175     9.0927     9.0695
  211.5000   115.8805     9.0304     9.0083
  212.0000   120.0811     8.9066     9.0102
  212.5000   120.3642     8.7845     8.9489
  213.0000   118.5555     8.7246     8.9512
  213.5000   117.9566     8.7872     8.9599
  214.0000   120.4032     8.8499     8.7694
  214.5000   121.9349     8.7896     8.6479
  215.0000   123.1627     8.7908     8.4722
  215.5000   123.4786     8.5502     8.4151
  216.0000   122.5757     8.4306     8.3006
  216.5000   122.8947     8.2022     8.2441
  217.0000   123.8185     8.0897     8.1889
  217.5000   124.1344     7.7596     8.0771
  218.0000   125.9701     7.6529     7.9664
  218.5000   127.8058     7.6542     7.9126
  219.0000   127.8178     7.7088     7.9146
  219.5000   126.9179     7.8182     7.9163
  220.0000   127.2543     7.9845     7.9733
  220.5000   127.6079     8.0978     8.0871
  221.0000   127.8663     8.2126     8.2598
  221.5000   124.5372     8.3288     8.5554
  222.0000   119.0781     8.2147     8.6817
  222.5000   111.7952     8.1590     8.7395
  223.0000   110.8923     8.0471     8.8028
  223.5000   114.5547     8.1045     8.8047
  224.0000   115.4786     8.1057     8.8681
  224.5000   114.8826     8.2206     8.9321
  225.0000   113.6788     8.3955     9.1229
  225.5000   114.2987     8.5742     9.1248
  226.0000   115.5265     8.6958     9.1266
  226.5000   116.1464     8.8191     9.1285
  227.0000   115.5504     8.9441     9.1304
  227.5000   115.5624     9.0121     9.1322
  228.0000   115.8865     9.0092     9.0706
  228.5000   116.8024     9.0080     8.9468
  229.0000   116.8146     8.8195     8.8210
  229.5000   116.5222     8.7042     8.6436
  230.0000   116.5372     8.7055     8.4078
  230.5000   117.1570     8.7067     8.2926
  231.0000   118.9927     8.7079     8.2947
  231.5000   121.1324     8.7091     8.3545
  232.0000   122.6641     8.7103     8.3562
  232.5000   123.8919     8.7115     8.2999
  233.0000   124.5118     8.7737     8.3016
  233.5000   124.5237     8.8981     8.3033
  234.0000   123.9278     8.9616     8.3050
  234.5000   122.1161     9.0887     8.4234
  235.0000   121.8237     9.1578     8.6636
  235.5000   123.0519     9.2912     8.9730
  236.0000   123.6718     9.4924     9.2289
  236.5000   122.3971     9.8189     9.3606
  237.0000   117.1185    10.0980     9.3625
  237.5000   112.6646    10.2412     9.3649
  238.0000   111.2577    10.4591     9.8356
  238.5000   113.0964    10.8317    10.2583
  239.0000   113.7162    11.1395    10.3322
  239.5000   113.1203    11.2190    10.4067
  240.0000   110.7007    11.7818    10.4817
  240.5000   107.9771    12.2014    10.7806
  241.0000   107.6821    12.4610    11.2438
  241.5000   106.7853    12.5499    11.6454
  242.0000   106.1863    12.7279    12.2309
  242.5000   106.2013    12.7297    12.7564
  243.0000   105.9088    12.7314    13.0308
  243.5000   105.8865    12.7332    13.0317
  244.0000   106.5412    12.7349    12.9436
  244.5000   107.1611    12.5603    12.8570
  245.0000   106.5248    12.4633    12.7695
  245.5000   105.0193    12.3037    12.5952
  246.0000   104.1575    12.3058    12.4232
  246.5000   105.8237    12.3075    12.4264
  247.0000   106.3111    12.2237    12.4289
  247.5000   102.9796    12.0561    12.4315
  248.0000   101.1679    11.8903    12.1765
  248.5000   100.5714    11.8924    11.8438
  249.0000   102.4077    11.8940    11.5201
  249.5000   108.1947    11.8957    11.2838
  250.0000   113.3739    11.8974    11.1297
  250.5000   114.3030    11.8998    10.8999
  251.0000   113.1021    11.9855    10.9909
  251.5000   110.3814    11.9879    11.2101
  252.0000   106.7488    11.9904    11.2109
  252.5000   105.2439    11.9095    11.2117
  253.0000   104.6505    11.8292    11.2124
  253.5000   105.2736    11.8322    11.2917
  254.0000   105.9210    11.8346    11.2140
  254.5000   105.5552    11.6731    11.2147
  255.0000   103.1942    11.4338    11.2155
  255.5000   101.6893    11.2778    11.1383
  256.0000   103.2239    11.2801    10.9022
  256.5000   105.3664    11.1261    10.5226
  257.0000   107.5089    11.0496    10.3897
  257.5000   106.6119    10.9003    10.4634
  258.0000   103.5873    10.6774    10.5373
  258.5000   103.9061    10.6796    10.5381
  259.0000   103.6130    10.5333    10.5388
  259.5000   103.0239    10.5357    10.5395
  260.0000   104.2583    10.5160    10.3940
  260.5000   103.9692    10.3944    10.1795
  261.0000   103.6764    10.3242    10.1094
  261.5000   102.4791    10.1834    10.0398
  262.0000   101.5821     9.9746    10.0405
  262.5000   101.2893     9.9767     9.7650
  263.0000   101.3079     9.9788     9.4308
  263.5000   101.3227     9.8430     9.1717
  264.0000   101.6415     9.8450     9.1725
  264.5000   103.2127     9.8470     9.1731
  265.0000   105.4002     9.8490     9.1738
  265.5000   106.2491     9.8511     9.1744
  266.0000   105.9600     9.8531     9.1750
  266.5000   102.6314     9.8551     9.1118
  267.0000   101.1264     9.9261     9.0453
  267.5000    99.3176     9.8591     8.9868
  268.0000    99.0248     9.7926     8.9876
  268.5000   102.0829     9.7265     9.0511
  269.0000   103.9214     9.6609     9.1788
  269.5000   104.2402     9.5291     9.3316
  270.0000   103.2827     9.2694     9.7072
  270.5000    99.6626     9.0789     9.1170
  271.0000    98.5097     8.9550     8.7438
  271.5000    97.9166     8.8950     8.6232
  272.0000    98.8471     8.6522     8.3865
  272.5000   100.3817     8.3575     8.2133
  273.0000   104.3479     8.1293     7.7679
  273.5000   107.7062     8.0183     7.4499
  274.0000   108.3290     8.0204     7.5026
  274.5000   105.9122     8.0781     7.7196
  275.0000   105.9271     8.1363     7.8884
  275.5000   107.1581     8.3681     7.9906
  276.0000   106.8723     8.5468     7.9912
  276.5000   105.0635     8.7292     8.1040
