~VERSION INFORMATION
 VERS.                2.0:   CWLS LOG ASCII STANDARD - VERSION 2.0
 WRAP.                 NO:   ONE LINE PER DEPTH STEP
~WELL INFORMATION
#MNEM.UNIT      DATA TYPE    INFORMATION
#----------   ------------   ------------------------------
 STRT.F           95.0000:   START DEPTH
 STOP.F          862.0000:   STOP DEPTH
 STEP.F            0.5000:   STEP LENGTH
 NULL.          -999.2500:   NO VALUE
 COMP. U S NAVY INTEX OIL:   COMPANY
 WELL. RES 3 TEAMPT DOME #13-S-35:   WELL
 FLD .        TEAPOT DOME:   FIELD
 LOC .      S35 T39N R78W:   LOCATION
 CNTY.            NATRONA:   COUNTY
 STAT.            WYOMING:   STATE
 CTRY. UNITED STATES OF AMERICA:   COUNTRY
 SRVC.       Schlumberger:   SERVICE COMPANY
 DATE.        27-JUL-1963:   LOGDATE
 API .       490250655000:   API NUMBER
~CURVE INFORMATION
#MNEM.UNIT       API CODE    CURVE DESCRIPTION
#----------   ------------   ------------------------------
 DEPT.F                  :   
 SPR .MV     05 010 01 00:   SPONTANEOUS POTENTIAL FROM RES.
 ILD .OHMM   05 120 46 00:   INDUCTION LOG DEEP
 ASN .OHMM   05 041 18 00:   AMPLIFIED SHORT NORMAL 18"
 CILD.MMHO   05 110 46 00:   CONDUCTIVITY INDUCTION LOG DEEP
 GR  .GAPI   30 310 01 00:   GAMMA RAY
~PARAMETER INFORMATION
#MNEM.UNIT          VALUE    DESCRIPTION
#----------   ------------   ------------------------------
 PD  .                 GL:   PERMANENT DATUM
 EPD .F              5100:   ELEVATION PERMANENT DATUM
 LMF .                 KB:   LOG MEASURED FROM
 DAPD.F               5.0:   FEET ABOVE PERMANENT DATUM
 DMF .                 KB:   DRILLING MEASURED FROM
 EKB .F              5105:   KELLING BUSHING
 EGL .F              5100:   GROUND LEVEL
 DATE.        27-JUL-1963:   RUN DATE
 RUN .                  1:   RUN NUMBER
 DD  .F               862:   DEPTH DRILLER
 DL  .F               863:   DEPTH LOGGER
 BLI .F               862:   BOTTOM LOG INTERVAL
 TLI .F               100:   TOP LOG INTERVAL
 CS  .IN            8.625:   CASING SIZE
 CBD .F                10:   CASING BOTTOM DRILLER
 BS  .IN             6.75:   BIT SIZE
 BSD .F               862:   BIT SIZE AT DEPTH
 DFT . NATURAL- GEL ADDED:   DRILLING FLUID TYPE
 DFD .                9.0:   DRILLING FLUID DENSITY
 DFV .                 38:   DRILLING FLUID VISCOSITY
 DFPH.                8.5:   DRILLING FLUID PH
 DFL .                5.6:   DRILLING FLUID LOSS
 MSS .           FLOWLINE:   MUD SAMPLE SOURCE
 RMS .OHMM            4.6:   RESISTIVITY MUD SAMPLE
 MST .F                83:   MUD SAMPLE TEMPERATURE
 RMF .OHMM            3.8:   RESISTIVITY MUD FILTRATE SAMPLE
 MFST.F                83:   MUD FILTRATE SAMPLE TEMPERATURE
 RMC .OHMM            4.8:   RESISTIVITY MUD CAKE
 MCST.F                83:   MUD CAKE SAMPLE TEMPERATURE
 MFSS.                 FP:   MUD FILTRATE SAMPLE SOURCE
 MCSS.                 FP:   MUD CAKE SAMPLE SOURCE
 TCS .HRS               1:   TIME CURCULATED STOPPED
 LUN .               2523:   LOGGING UNIT NUMBER
 LUL .               CSPR:   LOGGING UNIT LOCATION
 ENGI.            GIFFORD:   RECORDING ENGINEER
 WITN.          JORGENSON:   WITNESSED BY
 CLNT.            A2DTECH:   CLIENT CODE
 ORIG.           5" PRINT:   ORIGIN OF DATA
 UWI .       490250655000:   UNIQUE WELL ID
 DICO. A2D Technologies, Inc.:   DIGITIZING COMPANY
~OTHER INFORMATION
~A   DEPT      SPR        ILD        ASN       CILD         GR   
# ...
  644.0000   -32.3001     6.0330     7.6233   156.1562    84.1551
  644.5000   -32.2987     5.8817     7.3978   158.4084    84.7563
  645.0000   -32.2972     5.8057     7.2023   162.1622    85.0598
  645.5000   -32.4459     5.5790     7.0968   169.6697    86.5538
  646.0000   -32.8949     5.3524     6.9763   187.6877    87.4526
  646.5000   -33.4937     5.0505     6.8108   198.9489    88.3514
  647.0000   -34.0929     4.8991     6.5448   211.9830    92.8216
  647.5000   -34.6920     4.8982     6.1498   218.4685    91.6370
  648.0000   -34.9909     4.8975     5.8644   219.2192    90.3037
  648.5000   -35.2897     4.8215     5.7589   217.7177    87.0088
  649.0000   -35.2883     4.8962     5.8932   217.7177    84.8096
  649.5000   -34.0853     5.0459     5.7877   217.7177    86.6012
  650.0000   -33.4329     5.3464     5.9670   211.7117    87.6488
  650.5000   -32.9801     5.4970     6.4216   198.1892    83.0386
  651.0000   -32.6775     5.7274     6.8204   187.6715    83.5001
  651.5000   -32.0736     6.0994     7.1496   176.4031    84.2531
  652.0000   -31.6204     6.3253     7.3176   166.6362    84.7201
  652.5000   -31.1671     6.5512     7.4782   155.3678    85.6101
  653.0000   -31.3163     6.6265     7.6125   149.2645    86.3809
  653.5000   -32.0675     6.7771     7.7169   145.5918    87.4344
  654.0000   -32.6685     6.9277     7.8063   144.0832    87.6962
  654.5000   -33.1192     6.9277     7.8972   144.0760    84.4018
  655.0000   -32.8162     7.0783     7.9849   143.3181    83.2452
  655.5000   -32.5111     7.0783     8.0743   142.5198    77.4476
  656.0000   -31.6081     7.1536     8.1787   140.2990    71.9476
  656.5000   -31.9079     7.2289     8.2980   138.0395    71.5056
  657.0000   -33.2619     7.2289     8.3600   137.2816    74.9356
  657.5000   -33.8629     7.1536     8.4317   136.5237    81.7868
  658.0000   -34.3132     7.1536     8.5361   136.5165    89.0843
  658.5000   -34.2942     7.1536     8.6704   136.5075    87.4534
  659.0000   -33.5570     7.2289     8.6848   136.5004    85.8209
  659.5000   -33.1037     7.2289     8.6843   136.4932    87.0188
  660.0000   -32.6505     7.2289     8.7437   135.7352    87.3223
  660.5000   -31.8960     7.2289     8.8179   134.9773    86.1378
  661.0000   -31.4428     7.2289     8.8625   134.2192    84.9532
  661.5000   -31.4410     7.2289     8.9067   134.2104    84.3624
  662.0000   -31.7407     7.2289     8.9669   134.2033    84.5186
  662.5000   -32.0405     7.2289     9.0255   134.1961    84.5246
  663.0000   -32.4912     7.3042     8.9948   134.1889    82.7433
  663.5000   -32.7906     7.3795     8.8443   134.1816    80.0721
  664.0000   -32.7691     7.4548     8.6938   132.6713    78.5885
  664.5000   -31.5826     7.4548     8.4973   131.9134    81.1256
  665.0000   -30.5269     7.3795     8.3327   131.1554    83.5125
  665.5000   -30.0737     7.2289     8.2272   131.1483    82.9232
  666.0000   -30.3734     7.1536     8.1217   132.6426    83.6731
  666.5000   -30.8389     6.9277     8.0162   135.8784    84.5719
  667.0000   -31.8762     6.6265     7.8648   143.1370    84.8755
  667.5000   -32.0257     6.0241     7.6551   149.8866    85.1790
  668.0000   -31.8734     5.4217     7.2947   156.6361    85.6314
  668.5000   -32.0225     4.8193     6.9343   164.8872    86.3813
  669.0000   -33.0753     4.4217     6.5289   188.5312    87.5777
  669.5000   -33.5257     3.6145     6.1081   227.9341    85.0539
  670.0000   -33.0720     3.2380     5.6581   253.4525    83.7190
  670.5000   -32.4682     2.8614     5.1477   302.2441    84.4705
  671.0000   -31.4125     2.6355     4.6824   328.5132    87.6014
  671.5000   -30.6581     2.4849     4.2770   359.5662    88.6490
  672.0000   -30.3554     2.4096     3.8717   413.3319    85.6787
  672.5000   -30.2030     2.4096     3.5861   445.6070    86.1311
  673.0000   -30.2016     2.4096     3.5106   461.3656    85.8394
  673.5000   -30.0496     2.4096     3.3900   468.8659    82.2739
  674.0000   -29.4457     2.6435     3.2695   469.6096    80.3452
  674.5000   -28.6913     2.9367     3.1640   448.0106    81.8393
  675.0000   -28.2377     3.1627     3.4482   402.0258    82.8869
  675.5000   -28.6880     3.5392     4.1372   338.2048    83.3423
  676.0000   -29.2890     3.9157     4.4365   317.9274    84.2381
  676.5000   -29.4385     4.2989     4.5109   262.3647    80.2085
  677.0000   -29.4367     4.6687     4.9751   228.2124    81.3804
  677.5000   -29.8995     4.9699     5.7675   209.7960    88.9139
  678.0000   -30.4877     5.1958     6.1432   185.0140    90.4606
  678.5000   -30.7878     5.3464     6.2626   170.7426    95.2796
  679.0000   -30.7860     5.4217     6.3220   163.9787    86.7559
  679.5000   -30.6343     5.4970     6.4114   160.9685    85.3095
  680.0000   -31.8374     5.4970     6.5328   161.7121    81.6083
  680.5000   -32.4383     5.4970     6.5001   163.9554    85.3335
  681.0000   -32.1353     5.4970     6.4395   165.4497    86.3948
  681.5000   -31.5315     5.4217     6.5289   166.1951    85.3452
  682.0000   -30.7770     5.4217     6.6333   168.4383    87.4346
  682.5000   -30.6250     5.3464     6.7393   180.8435    86.6965
  683.0000   -31.0904     5.1205     6.6170   194.6985    87.1488
  683.5000   -31.8265     4.7440     6.3765   211.2078    88.7939
  684.0000   -32.4275     4.4398     6.0012   228.4679    90.4591
  684.5000   -32.8782     4.2169     5.5358   232.2147    96.8534
  685.0000   -32.7258     3.9910     5.3703   235.3106    93.3344
  685.5000   -32.4232     3.9157     5.4296   247.9641    91.6172
  686.0000   -31.8190     3.9157     5.2941   258.4675    88.5846
  686.5000   -31.2151     3.9157     5.0087   259.9636    86.2974
  687.0000   -30.6113     3.9910     4.9897   257.7024    86.6012
  687.5000   -30.0074     4.1416     5.2236   249.4369    86.3093
  688.0000   -29.2530     4.3675     5.4416   234.4129    89.4682
  688.5000   -28.4809     4.5934     5.3810   226.8983    92.7199
  689.0000   -28.1955     4.8193     5.3506   220.1343    91.9818
  689.5000   -28.1941     5.0452     6.0096   208.8659    93.3285
  690.0000   -28.4939     5.2711     6.2679   196.8467    94.3746
  690.5000   -28.7937     5.4217     6.5480   184.5578    91.4043
  691.0000   -29.3997     5.6476     6.8023   175.8096    92.4534
  691.5000   -30.5976     5.7982     7.1616   168.2949    92.1617
  692.0000   -31.1986     6.0241     7.3709   158.5280    91.8700
  692.5000   -31.6489     6.1747     7.5367   151.0133    91.2807
  693.0000   -31.7985     6.2500     7.6695   149.5045    88.7569
  693.5000   -31.0437     6.3253     7.7139   149.4956    88.4637
  694.0000   -30.7410     6.3253     7.7284   150.9900    88.9175
  694.5000   -30.7392     6.2500     7.6827   152.4843    89.5187
  695.0000   -30.7378     6.1747     7.5767   154.7312    88.7806
  695.5000   -30.8869     6.0994     7.4416   158.4760    85.5127
  696.0000   -31.0361     5.9488     7.3211   162.2207    85.3683
  696.5000   -31.1853     5.7229     7.2005   164.4658    87.0126
  697.0000   -31.3344     5.4855     7.0351   170.4647    89.5483
  697.5000   -31.4836     5.2711     6.8688   180.2172    90.2983
  698.0000   -31.4818     5.0452     6.6740   189.2191    95.5125
  698.5000   -31.4803     4.8946     6.5085   200.7951    96.7089
  699.0000   -31.4789     4.7440     6.3580   213.9777    98.9470
  699.5000   -31.4774     4.5181     5.9976   221.4781    95.2327
  700.0000   -31.4382     4.4428     5.7271   224.4757    94.0112
  700.5000   -31.1711     4.4428     5.5932   223.7237    91.9763
  701.0000   -30.8670     4.5181     5.6353   221.4462    91.0955
  701.5000   -30.7135     4.5934     5.9043   216.9670    89.9171
  702.0000   -30.7106     4.8193     5.9812   210.2102    87.3994
  702.5000   -30.7078     5.1205     6.2772   202.7027    87.2596
  703.0000   -31.1687     5.5061     6.7711   191.4414    86.9771
  703.5000   -31.7555     5.9488     7.1001   176.4264    86.2451
  704.0000   -31.6020     6.1747     7.2192   162.7128    85.3613
  704.5000   -31.2979     6.3253     7.2939   157.6577    87.6085
