~VERSION INFORMATION
 VERS.                2.0:   CWLS LOG ASCII STANDARD - VERSION 2.0
 WRAP.                 NO:   ONE LINE PER DEPTH STEP
~WELL INFORMATION
#MNEM.UNIT      DATA TYPE    INFORMATION
#----------   ------------   ------------------------------
 STRT.F            1.0000:   START DEPTH
 STOP.F          478.0000:   STOP DEPTH
 STEP.F            0.1000:   STEP LENGTH
 NULL.          -999.2500:   NO VALUE
 COMP. LAWRENCE/ALLISON INC:   COMPANY
 WELL.     58-61 SX #58-3:   WELL
 FLD .             TEAPOT:   FIELD
 LOC .       S3 T38N R78W:   LOCATION
 CNTY.            NATRONA:   COUNTY
 STAT.            WYOMING:   STATE
 CTRY. UNITED STATES OF AMERICA:   COUNTRY
 SRVC.           Gearhart:   SERVICE COMPANY
 DATE.        08-JUL-1988:   LOGDATE
 API .       490251123400:   API NUMBER
~CURVE INFORMATION
#MNEM.UNIT       API CODE    CURVE DESCRIPTION
#----------   ------------   ------------------------------
 DEPT.F                  :   
 GRR .GAPI   07 310 01 00:   GAMMA RAY
 RILD.OHMM   07 120 46 00:   INDUCTION LOG DEEP RESISTIVITY
 RILM.OHMM   07 120 44 00:   INDUCTION LOG MEDIUM RESISTIVITY
~PARAMETER INFORMATION
#MNEM.UNIT          VALUE    DESCRIPTION
#----------   ------------   ------------------------------
 PD  .                 GL:   PERMANENT DATUM
 EPD .F              5184:   ELEVATION PERMANENT DATUM
 LMF .                 KB:   LOG MEASURED FROM
 DAPD.F                 5:   FEET ABOVE PERMANENT DATUM
 DMF .                 KB:   DRILLING MEASURED FROM
 EKB .F              5189:   KELLING BUSHING
 EGL .F              5184:   GROUND LEVEL
 DATE.        08-JUL-1988:   RUN DATE
 RUN .                  1:   RUN NUMBER
 DD  .F               485:   DEPTH DRILLER
 DL  .F               486:   DEPTH LOGGER
 BLI .F               478:   BOTTOM LOG INTERVAL
 CS  .IN            9.625:   CASING SIZE
 CBD .F                45:   CASING BOTTOM DRILLER
 CBL .F                44:   CASING BOTTOM LOGGER
 BS  .IN             8.75:   BIT SIZE
 BSD .F               485:   BIT SIZE AT DEPTH
 DFT .                AIR:   DRILLING FLUID TYPE
 TCS .HRS            2200:   TIME CURCULATED STOPPED
 TLAB.HRS            2315:   TIME LOGGER AT BOTTOM
 LUN .               7597:   LOGGING UNIT NUMBER
 LUL .           GILLETTE:   LOGGING UNIT LOCATION
 ENGI.           JOHNSTON:   RECORDING ENGINEER
 WITN.              FIVAS:   WITNESSED BY
 CLNT.            A2DTECH:   CLIENT CODE
 ORIG.           5" PRINT:   ORIGIN OF DATA
 UWI .       490251123400:   UNIQUE WELL ID
 DICO. A2D Technologies, Inc.:   DIGITIZING COMPANY
~OTHER INFORMATION
~A    DEPT     GRR       RILD       RILM   
# ...
  401.4000   112.6373    14.1909    14.0835
  401.5000   112.6404    14.1907    14.0828
  401.6000   112.6434    14.1905    14.0362
  401.7000   112.6467    14.1902    13.9830
  401.8000   112.4269    14.1175    13.9823
  401.9000   112.3490    14.0909    13.9813
  402.0000   112.1498    14.0579    13.9157
  402.1000   111.6268    13.9922    13.8824
  402.2000   110.8409    13.9920    13.8558
  402.3000   110.1759    13.9918    13.7840
  402.4000   109.6124    13.9396    13.7831
  402.5000   109.2311    13.8939    13.7184
  402.6000   109.0314    13.8808    13.6856
  402.7000   109.6421    13.7966    13.6848
  402.8000   109.8674    13.7964    13.6841
  402.9000   110.2751    13.7962    13.6832
  403.0000   110.6626    13.7639    13.6189
  403.1000   110.9489    13.6869    13.5864
  403.2000   111.4782    13.6038    13.5603
  403.3000   111.9262    13.5341    13.4776
  403.4000   112.2530    13.4583    13.3017
  403.5000   112.6000    13.4142    13.3011
  403.6000   113.0480    13.4016    13.3003
  403.7000   113.3144    13.3203    13.2996
  403.8000   113.5397    13.2520    13.3051
  403.9000   113.6237    13.2766    13.3914
  404.0000   113.7278    13.3197    13.5166
  404.1000   113.9332    13.3320    13.6232
  404.2000   113.9365    13.4129    13.6734
  404.3000   113.9393    13.4127    13.6790
  404.4000   113.9423    13.4125    13.7677
  404.5000   113.8442    13.4437    13.7671
  404.6000   113.6045    13.5064    13.7663
  404.7000   113.3447    13.5061    13.7655
  404.8000   113.1250    13.5755    13.7648
  404.9000   112.8852    13.6006    13.7639
  405.0000   112.6454    13.6323    13.7632
  405.1000   112.4056    13.6958    13.7177
  405.2000   112.1459    13.6956    13.6657
  405.3000   112.3713    13.6954    13.6649
  405.4000   112.6171    13.6952    13.6640
  405.5000   112.8629    13.6950    13.6634
  405.6000   113.1492    13.7076    13.6626
  405.7000   113.6786    13.7908    13.6619
  405.8000   114.3489    13.7906    13.6611
  405.9000   114.9185    13.7904    13.6602
  406.0000   115.4072    13.7902    13.6596
  406.1000   115.9769    13.7900    13.6588
  406.2000   117.0321    13.7898    13.6580
  406.3000   117.7026    13.7896    13.6573
  406.4000   118.4339    13.7894    13.6564
  406.5000   119.0642    13.7893    13.6558
  406.6000   119.5528    13.7891    13.6550
  406.7000   120.0822    13.7888    13.6542
  406.8000   120.5300    13.7887    13.6535
  406.9000   120.6950    13.7885    13.6526
  407.0000   120.3944    13.7883    13.6519
  407.1000   119.6690    13.7753    13.6512
  407.2000   118.8834    13.6917    13.6504
  407.3000   117.9960    13.6915    13.6496
  407.4000   117.1898    13.6914    13.6487
  407.5000   116.4644    13.6912    13.6481
  407.6000   115.6986    13.6910    13.6473
  407.7000   114.6497    13.6908    13.6466
  407.8000   114.2074    13.6906    13.6458
  407.9000   114.2104    13.6395    13.6449
  408.0000   114.5575    13.5947    13.6443
  408.1000   115.0866    13.5945    13.6435
  408.2000   115.8789    13.5943    13.6428
  408.3000   116.7718    13.5246    13.6420
  408.4000   117.5841    13.4992    13.6411
  408.5000   118.1133    13.4990    13.6405
  408.6000   118.3995    13.4862    13.5953
  408.7000   118.9289    13.4044    13.5438
  408.8000   119.1543    13.4043    13.5431
  408.9000   119.0763    13.4041    13.5422
  409.0000   118.8366    13.4039    13.5415
  409.1000   118.5969    13.3912    13.5408
  409.2000   118.3371    13.3100    13.5400
  409.3000   118.1174    13.3098    13.5330
  409.4000   117.7158    13.3097    13.4440
  409.5000   117.3344    13.3095    13.4433
  409.6000   117.0542    13.2969    13.4426
  409.7000   116.5314    13.2163    13.4168
  409.8000   115.8663    13.2161    13.3473
  409.9000   115.1410    13.2159    13.3465
  410.0000   114.5169    13.2157    13.3458
  410.1000   114.0749    13.2032    13.3017
  410.2000   113.8151    13.1232    13.2513
  410.3000   113.5954    13.1230    13.2505
  410.4000   113.6793    13.1228    13.2497
  410.5000   114.0262    13.0921    13.1875
  410.6000   114.5149    13.0309    13.1559
  410.7000   115.0443    13.0307    13.1552
  410.8000   115.4923    13.0306    13.1483
  410.9000   116.1427    13.0304    13.0618
  411.0000   116.7728    13.0302    13.0612
  411.1000   117.2615    13.0179    13.0180
  411.2000   117.7908    12.9389    12.9687
  411.3000   118.2387    12.9388    12.9620
  411.4000   118.7273    12.9386    12.8767
  411.5000   119.1148    12.9083    12.8761
  411.6000   119.3607    12.8480    12.8335
  411.7000   119.6270    12.8478    12.7849
  411.8000   119.6297    12.7819    12.7782
  411.9000   119.6328    12.7579    12.6941
  412.0000   119.6358    12.7577    12.6936
  412.1000   119.6388    12.7575    12.6515
  412.2000   119.6421    12.7573    12.6036
  412.3000   119.6449    12.7571    12.5970
  412.4000   119.6479    12.7095    12.5142
  412.5000   119.6510    12.6678    12.5136
  412.6000   119.6540    12.6676    12.5129
  412.7000   119.6573    12.6674    12.4889
  412.8000   119.6601    12.6673    12.4242
  412.9000   119.6631    12.6671    12.4234
  413.0000   119.6662    12.6669    12.4229
  413.1000   119.6692    12.6550    12.3817
  413.2000   119.6725    12.5782    12.3348
  413.3000   119.6753    12.5781    12.3284
  413.4000   119.6783    12.5779    12.2473
  413.5000   119.6813    12.5485    12.2468
  413.6000   119.6844    12.4898    12.2062
  413.7000   119.6877    12.4896    12.1600
  413.8000   119.6904    12.4256    12.1593
  413.9000   119.6935    12.4022    12.1585
  414.0000   119.6965    12.3732    12.1014
  414.1000   119.6591    12.3153    12.0725
  414.2000   119.3993    12.3152    12.0493
  414.3000   119.4021    12.3150    11.9869
  414.4000   119.2432    12.2690    11.9861
  414.5000   118.9023    12.2288    11.9299
  414.6000   118.4603    12.2286    11.8626
  414.7000   118.2006    12.2284    11.8177
  414.8000   117.9808    12.1657    11.8170
  414.9000   117.7411    12.0976    11.8162
  415.0000   117.5013    12.0579    11.8157
  415.1000   117.3015    12.0466    11.7766
  415.2000   117.3053    11.9735    11.7320
  415.3000   117.3080    11.9733    11.7258
  415.4000   117.3111    11.9732    11.6487
  415.5000   117.5165    11.9452    11.5940
  415.6000   118.0050    11.8893    11.5287
  415.7000   118.5344    11.8892    11.4850
  415.8000   119.2048    11.8282    11.4843
  415.9000   119.7744    11.7620    11.4836
  416.0000   120.2630    11.6962    11.4297
  416.1000   120.7112    11.6415    11.4023
  416.2000   120.9775    11.6413    11.3805
  416.3000   121.2029    11.5816    11.3163
  416.4000   121.4487    11.5168    11.2418
  416.5000   121.5933    11.4523    11.1890
  416.6000   121.5964    11.3882    11.1623
  416.7000   121.5996    11.3191    11.1617
  416.8000   121.6024    11.3190    11.1558
  416.9000   121.6055    11.2767    11.0825
  417.0000   121.6085    11.1877    11.0304
  417.1000   121.6115    11.0731    10.9682
  417.2000   121.6148    11.0059    10.9064
  417.3000   121.6176    10.9495    10.8499
  417.4000   121.6206    10.8882    10.8492
  417.5000   121.8260    10.8022    10.7982
  417.6000   122.3146    10.6915    10.7373
  417.7000   122.8440    10.6267    10.6768
  417.8000   123.5143    10.5722    10.6166
  417.9000   124.0839    10.4740    10.5467
  418.0000   124.6738    10.4055    10.4972
  418.1000   125.4458    10.3956    10.4380
  418.2000   126.5010    10.3326    10.3791
  418.3000   126.9489    10.2796    10.3206
  418.4000   127.5993    10.1842    10.2527
  418.5000   128.1284    10.1175    10.2522
  418.6000   128.4552    10.1079    10.2183
  418.7000   129.2476    10.0466    10.1418
  418.8000   129.6955     9.9441    10.0328
  418.9000   130.3460     9.8699     9.9668
  419.0000   130.9763     9.8146     9.9200
  419.1000   131.4649     9.7597     9.8321
  419.2000   131.9942     9.7005     9.7220
  419.3000   132.4421     9.6014     9.6087
  419.4000   132.9306     9.5298     9.4215
  419.5000   133.3181     9.4764     9.3338
