~VERSION INFORMATION
 VERS.                2.0:   CWLS LOG ASCII STANDARD - VERSION 2.0
 WRAP.                 NO:   ONE LINE PER DEPTH STEP
~WELL INFORMATION
#MNEM.UNIT      DATA TYPE    INFORMATION
#----------   ------------   ------------------------------
 STRT.F           42.0000:   START DEPTH
 STOP.F          533.0000:   STOP DEPTH
 STEP.F            0.5000:   STEP LENGTH
 NULL.          -999.2500:   NO VALUE
 COMP.    FENIX & SCISSON:   COMPANY
 WELL.      NPR-3 #38S3-3:   WELL
 FLD .             TEAPOT:   FIELD
 LOC .       S3 T38N R78W:   LOCATION
 CNTY.            NATRONA:   COUNTY
 STAT.            WYOMING:   STATE
 CTRY. UNITED STATES OF AMERICA:   COUNTRY
 SRVC.           BIRDWELL:   SERVICE COMPANY
 DATE.        29-JUN-1978:   LOGDATE
 API .       490251066300:   API NUMBER
~CURVE INFORMATION
#MNEM.UNIT       API CODE    CURVE DESCRIPTION
#----------   ------------   ------------------------------
 DEPT.F                  :   
 ILD .OHMM   05 120 46 00:   INDUCTION LOG DEEP
 SN  .OHMM   05 040 16 00:   SHORT NORMAL 16"
 SPR .MV     05 010 01 00:   SPONTANEOUS POTENTIAL FROM RES.
 CALD.IN     45 280 60 00:   CALIPER FROM DENSITY LOG
 CORR.G/C3   45 356 01 00:   DENSITY CORRECTION
 DPHI.DEC    45 890 12 00:   DENSITY POROSITY SANDSTONE
 GRD .GAPI   45 310 01 00:   GAMMA RAY FROM DENSITY LOG
 RHOB.G/C3   45 350 01 00:   BULK DENSITY
~PARAMETER INFORMATION
#MNEM.UNIT          VALUE    DESCRIPTION
#----------   ------------   ------------------------------
 PD  .                 GL:   PERMANENT DATUM
 EPD .F              5238:   ELEVATION PERMANENT DATUM
 LMF .                 KB:   LOG MEASURED FROM
 DAPD.F                 4:   FEET ABOVE PERMANENT DATUM
 DMF .                 KB:   DRILLING MEASURED FROM
 EKB .F              5242:   KELLING BUSHING
 EGL .F              5238:   GROUND LEVEL
 DATE.        29-JUN-1978:   RUN DATE
 RUN .                  1:   RUN NUMBER
 DD  .F               530:   DEPTH DRILLER
 DL  .F               540:   DEPTH LOGGER
 BLI .F               533:   BOTTOM LOG INTERVAL
 TLI .F                40:   TOP LOG INTERVAL
 CS  .IN            8.625:   CASING SIZE
 CBD .F                40:   CASING BOTTOM DRILLER
 BS  .IN            7.875:   BIT SIZE
 BSD .F               530:   BIT SIZE AT DEPTH
 DFT .                KCL:   DRILLING FLUID TYPE
 DFD .                8.7:   DRILLING FLUID DENSITY
 DFV .                 34:   DRILLING FLUID VISCOSITY
 DFPH.                9.5:   DRILLING FLUID PH
 MSS .           FLOWLINE:   MUD SAMPLE SOURCE
 RMS .OHMM            0.2:   RESISTIVITY MUD SAMPLE
 MST .F                82:   MUD SAMPLE TEMPERATURE
 RMF .OHMM           0.18:   RESISTIVITY MUD FILTRATE SAMPLE
 MFST.F                82:   MUD FILTRATE SAMPLE TEMPERATURE
 RMC .OHMM           0.14:   RESISTIVITY MUD CAKE
 MCST.F                82:   MUD CAKE SAMPLE TEMPERATURE
 MFSS.               MEAS:   MUD FILTRATE SAMPLE SOURCE
 TCS .HRS               1:   TIME CURCULATED STOPPED
 LUN .               2958:   LOGGING UNIT NUMBER
 LUL .             CASPER:   LOGGING UNIT LOCATION
 ENGI.             MILLER:   RECORDING ENGINEER
 WITN.         ZARGARNIAN:   WITNESSED BY
 CLNT.            A2DTECH:   CLIENT CODE
 ORIG.           5" PRINT:   ORIGIN OF DATA
 UWI .       490251066300:   UNIQUE WELL ID
 DICO. A2D Technologies, Inc.:   DIGITIZING COMPANY
~OTHER INFORMATION
~A   DEPT      ILD         SN        SPR       CALD       CORR       DPHI         GRD      RHOB   
   42.0000  -999.2500  -999.2500  -999.2500  -999.2500  -999.2500  -999.2500    59.9939  -999.2500
   42.5000  -999.2500  -999.2500  -999.2500  -999.2500  -999.2500  -999.2500    59.6931  -999.2500
   43.0000  -999.2500  -999.2500  -999.2500  -999.2500  -999.2500  -999.2500    58.8743  -999.2500
   43.5000  -999.2500  -999.2500  -999.2500  -999.2500  -999.2500  -999.2500    57.1450  -999.2500
   44.0000  -999.2500  -999.2500  -999.2500  -999.2500  -999.2500  -999.2500    56.0956  -999.2500
   44.5000  -999.2500  -999.2500  -999.2500  -999.2500  -999.2500  -999.2500    56.5433  -999.2500
   45.0000  -999.2500  -999.2500  -999.2500  -999.2500  -999.2500  -999.2500    59.0868  -999.2500
   45.5000  -999.2500  -999.2500  -999.2500  -999.2500  -999.2500  -999.2500    63.1269  -999.2500
   46.0000  -999.2500  -999.2500  -999.2500  -999.2500  -999.2500  -999.2500    64.0237  -999.2500
   46.5000  -999.2500  -999.2500  -999.2500  -999.2500  -999.2500  -999.2500    61.3277  -999.2500
   47.0000  -999.2500  -999.2500  -999.2500  -999.2500  -999.2500  -999.2500    59.5299  -999.2500
   47.5000  -999.2500  -999.2500  -999.2500  -999.2500  -999.2500  -999.2500    55.0374  -999.2500
   48.0000  -999.2500  -999.2500  -999.2500  -999.2500  -999.2500  -999.2500    53.6883  -999.2500
   48.5000  -999.2500  -999.2500  -999.2500  -999.2500  -999.2500  -999.2500    59.2258  -999.2500
   49.0000  -999.2500  -999.2500  -999.2500  -999.2500  -999.2500  -999.2500    68.5058  -999.2500
   49.5000  -999.2500  -999.2500  -999.2500  -999.2500  -999.2500  -999.2500    78.5344  -999.2500
   50.0000  -999.2500  -999.2500  -999.2500  -999.2500  -999.2500  -999.2500    77.4850  -999.2500
   50.5000  -999.2500  -999.2500  -999.2500  -999.2500  -999.2500  -999.2500    75.2377  -999.2500
   51.0000  -999.2500  -999.2500  -999.2500     7.3186  -999.2500  -999.2500    74.0387  -999.2500
   51.5000  -999.2500  -999.2500  -999.2500     7.1935  -999.2500  -999.2500    73.2888  -999.2500
   52.0000     7.9871     8.1576   -12.4010     7.1313  -999.2500  -999.2500    73.1380  -999.2500
   52.5000    22.1151     7.9732   -12.7820     7.0658  -999.2500  -999.2500    77.0434  -999.2500
   53.0000     5.8287     7.8637   -12.9323     7.0002  -999.2500  -999.2500    79.4219  -999.2500
   53.5000     5.9513     7.8037   -13.0827     6.9246  -999.2500  -999.2500    79.2708  -999.2500
   54.0000     6.0367     7.7557   -13.2331     6.8032  -999.2500  -999.2500    77.3232  -999.2500
   54.5000     6.1614     7.7022   -13.3835     6.7082  -999.2500  -999.2500    76.5737  -999.2500
   55.0000     6.2045     7.7557   -13.3835     6.5434  -999.2500  -999.2500    78.6826  -999.2500
   55.5000     6.3349     7.7022   -13.6842     6.6480  -999.2500  -999.2500    78.5162  -999.2500
   56.0000     6.4270     7.5964   -13.9850     6.9024  -999.2500  -999.2500    76.8681  -999.2500
   56.5000     6.4685     7.3383   -13.9850     7.1268  -999.2500  -999.2500    76.5675  -999.2500
   57.0000     6.4244     6.9916   -14.2857     7.3063  -999.2500  -999.2500    78.6615  -999.2500
   57.5000     6.3804     6.7013   -14.3484     7.4708  -999.2500  -999.2500    81.2050  -999.2500
   58.0000     6.3370     6.3905   -14.5865     7.6802     0.0273     0.1765    81.2036  -999.2500
   58.5000     6.0383     6.2162   -14.5965     7.7400     0.0348     0.1655    81.5200  -999.2500
   59.0000     5.7140     6.0466   -14.9073     7.7698     0.0453     0.1553    82.8471     2.4264
   59.5000     5.5971     5.9635   -15.1880     7.7397     0.0573     0.1421    83.5945     2.4489
   60.0000     5.5206     5.9225   -15.4887     7.6796     0.0667     0.1349    78.2035     2.4711
   60.5000     5.5211     5.8816   -15.6391     7.5447     0.0768     0.1352    78.1926     2.4823
   61.0000     5.5597     5.8816   -15.9398     7.4398     0.0827     0.1373    78.2007     2.4793
   61.5000     5.6765     5.8411   -15.9398     7.3049     0.0887     0.1189    77.3007     2.4719
   62.0000     5.7164     5.8009   -15.9398     7.1701     0.0887     0.1124    74.1555     2.4999
   62.5000     5.7963     5.8009   -15.9398     7.0501     0.0664     0.1259    72.2081     2.5161
   63.0000     5.8369     5.8009   -15.9398     6.9602     0.0381     0.1378    75.4997     2.5056
   63.5000     5.9185     5.8009   -15.9398     6.9301     0.0336     0.1483    78.6420     2.4539
   64.0000     5.9600     5.8411   -16.0251     6.9000     0.0352     0.1553    80.4370     2.4479
   64.5000     6.0433     5.9225   -16.0902     6.8998     0.0360     0.1624    80.6008     2.4374
   65.0000     6.0437     5.9635   -16.1153     6.8997     0.0382     0.1663    79.6557     2.4330
   65.5000     6.1062     6.0466   -16.2406     6.8846     0.0382     0.1756    77.4384     2.4248
   66.0000     6.1712     6.0885   -16.3910     6.8694     0.0383     0.1786    76.2393     2.4143
   66.5000     6.1716     6.1733   -16.3910     6.8244     0.0353     0.1695    76.8367     2.4278
   67.0000     6.2579     6.2162   -16.5414     6.8242     0.0339     0.1588    78.1826     2.4346
   67.5000     6.3670     6.3905   -16.6917     6.9439     0.0339     0.1537    80.3119     2.4391
   68.0000     6.4787     6.4795   -16.6917     7.1982     0.0339     0.1480    81.1734     2.4458
   68.5000     6.5241     6.5244   -16.6917     7.4076     0.0339     0.1401    81.0223     2.4541
   69.0000     6.5698     6.5244   -16.6917     7.5572     0.0348     0.1310    79.9730     2.4698
   69.5000     6.6273     6.5697   -16.6917     7.6468     0.0370     0.1302    79.3727     2.4856
   70.0000     6.7084     6.6612   -16.6917     7.6617     0.0385     0.1344    81.0978     2.4766
   70.5000     6.7324     6.7074   -16.6917     7.6615     0.0400     0.1341    84.0102     2.4774
   71.0000     6.7924     6.8008   -16.6917     7.6614     0.0445     0.1317    86.8531     2.4774
   71.5000     6.8502     6.8955   -16.6917     7.6462     0.0476     0.1375    88.9475     2.4699
   72.0000     6.8983     6.9916   -16.6917     7.6251     0.0476     0.1401    84.7545     2.4722
   72.5000     6.9291     7.0401   -16.8421     7.6010     0.0461     0.1341    84.7979     2.4797
   73.0000     6.9952     7.0889   -16.8421     7.5695     0.0432     0.1329    86.2483     2.4827
   73.5000     7.0441     7.1381   -16.8421     7.5251     0.0417     0.1332    86.8460     2.4820
   74.0000     7.0935     7.1999   -16.8421     7.4808     0.0402     0.1323    82.6526     2.4805
   74.5000     7.0940     7.2375   -16.9925     7.4358     0.0373     0.1307    82.3463     2.4797
   75.0000     7.1436     7.2877   -16.9925     7.3907     0.0358     0.1187    83.0989     2.4880
   75.5000     7.1936     7.2877   -16.9925     7.3157     0.0329     0.1169    82.1989     2.4955
   76.0000     7.1942     7.2877   -16.9925     7.2557     0.0284     0.1301    80.8502     2.4858
   76.5000     7.2097     7.2877   -16.9925     7.1956     0.0255     0.1316    79.9509     2.4843
   77.0000     7.2953     7.3383   -16.9474     7.1356     0.0240     0.1307    82.3443     2.4858
   77.5000     7.3508     7.4921   -16.8421     7.0906     0.0240     0.1415    83.2407     2.4825
   78.0000     7.5104     7.6491   -16.6190     7.0305     0.0241     0.1361    83.6884     2.4701
   78.5000     7.6584     7.7557   -16.3910     6.9855     0.0241     0.1286    83.8370     2.4776
   79.0000     7.7655     7.8095   -16.1554     6.9254     0.0226     0.1262    83.9853     2.4829
   79.5000     7.8198     7.8637   -15.7895     6.8504     0.0197     0.1289    84.4326     2.4874
   80.0000     7.8747     7.9732   -15.7895     6.7605     0.0152     0.1348    84.8800     2.4788
   80.5000     7.8752     8.0285   -15.7895     6.5507     0.0063     0.1393    85.3280     2.4679
   81.0000     7.9303     8.1403   -15.7895     6.5206     0.0093     0.1480    86.2244     2.4672
   81.5000     7.9859     8.1403   -15.7895     6.6253     0.0228     0.1496    86.8221     2.4627
   82.0000     8.2103     8.1557   -15.7895     6.9245     0.0333     0.1504    82.7665     2.4470
