~VERSION INFORMATION
 VERS.                2.0:   CWLS LOG ASCII STANDARD - VERSION 2.0
 WRAP.                 NO:   ONE LINE PER DEPTH STEP
~WELL INFORMATION
#MNEM.UNIT      DATA TYPE    INFORMATION
#----------   ------------   ------------------------------
 STRT.F           36.0000:   START DEPTH
 STOP.F         3160.0000:   STOP DEPTH
 STEP.F            0.5000:   STEP LENGTH
 NULL.          -999.2500:   NO VALUE
 COMP.    FENIX & SCISSON:   COMPANY
 WELL.        NPR-3 #28-3:   WELL
 FLD .             TEAPOT:   FIELD
 LOC .       S3 T38N R78W:   LOCATION
 CNTY.            NATRONA:   COUNTY
 STAT.            WYOMING:   STATE
 CTRY. UNITED STATES OF AMERICA:   COUNTRY
 SRVC.            Unknown:   SERVICE COMPANY
 DATE.        01-JUL-1978:   LOGDATE
 API .       490251066500:   API NUMBER
~CURVE INFORMATION
#MNEM.UNIT       API CODE    CURVE DESCRIPTION
#----------   ------------   ------------------------------
 DEPT.F                  :   
 ILD .OHMM   05 120 46 00:   INDUCTION LOG DEEP
 SN  .OHMM   05 040 16 00:   SHORT NORMAL 16"
 SPR .MV     05 010 01 00:   SPONTANEOUS POTENTIAL FROM RES.
 CALD.IN     45 280 60 00:   CALIPER FROM DENSITY LOG
 CORR.G/C3   45 356 01 00:   DENSITY CORRECTION
 DPHI.DEC    45 890 12 00:   DENSITY POROSITY SANDSTONE
 GRD .GAPI   45 310 01 00:   GAMMA RAY FROM DENSITY LOG
 RHOB.G/C3   45 350 01 00:   BULK DENSITY
 GR  .GAPI   30 310 01 00:   GAMMA RAY
~PARAMETER INFORMATION
#MNEM.UNIT          VALUE    DESCRIPTION
#----------   ------------   ------------------------------
 PD  .                 GL:   PERMANENT DATUM
 EPD .F              5264:   ELEVATION PERMANENT DATUM
 LMF .                 KB:   LOG MEASURED FROM
 DAPD.F                 4:   FEET ABOVE PERMANENT DATUM
 DMF .                 KB:   DRILLING MEASURED FROM
 EKB .F              5268:   KELLING BUSHING
 EGL .F              5264:   GROUND LEVEL
 DATE.        01-JUL-1978:   RUN DATE
 RUN .                  1:   RUN NUMBER
 DD  .F               630:   DEPTH DRILLER
 DL  .F               636:   DEPTH LOGGER
 BLI .F               630:   BOTTOM LOG INTERVAL
 TLI .F                50:   TOP LOG INTERVAL
 CS  .IN            8.625:   CASING SIZE
 CBD .F                40:   CASING BOTTOM DRILLER
 BS  .IN            7.875:   BIT SIZE
 BSD .F               630:   BIT SIZE AT DEPTH
 DFT .                KCL:   DRILLING FLUID TYPE
 DFD .                8.6:   DRILLING FLUID DENSITY
 DFV .                 32:   DRILLING FLUID VISCOSITY
 DFPH.                9.5:   DRILLING FLUID PH
 MSS .           FLOWLINE:   MUD SAMPLE SOURCE
 BHT .F                74:   BOTTOM HOLE TEMPERATURE
 TCS .HRS               1:   TIME CURCULATED STOPPED
 MRT .F                74:   MAXIMUM RECORDED TEMPERATURE
 LUN .               2958:   LOGGING UNIT NUMBER
 LUL .               CASP:   LOGGING UNIT LOCATION
 ENGI.             MILLER:   RECORDING ENGINEER
 WITN.           MCGINLEY:   WITNESSED BY
 CLNT.            A2DTECH:   CLIENT CODE
 ORIG.        2" 5" PRINT:   ORIGIN OF DATA
 UWI .       490251066500:   UNIQUE WELL ID
 DICO. A2D Technologies, Inc.:   DIGITIZING COMPANY
~OTHER INFORMATION
~A   DEPT      ILD         SN        SPR       CALD       CORR       DPHI         GRD      RHOB         GR   
# ...
  547.0000    16.4977    13.0077   -26.8332     7.4576    -0.0029     0.2090    64.4305     2.3317  -999.2500
  547.5000    16.4938    13.0042   -26.6883     7.4590     0.0047     0.2150    64.1512     2.3303  -999.2500
  548.0000    16.3764    13.0910   -26.6972     7.4605     0.0078     0.2102    61.3269     2.3355  -999.2500
  548.5000    16.3725    13.1775   -26.7043     7.4619     0.0109     0.2090    59.5490     2.3341  -999.2500
  549.0000    16.3678    13.1741   -26.5612     7.4634     0.0125     0.2102    59.8638     2.3349  -999.2500
  549.5000    16.3639    13.2620   -26.5701     7.4652     0.0111     0.2045    61.8228     2.3409  -999.2500
  550.0000    16.2474    13.1667   -26.7267     7.4666     0.0112     0.2006    63.3333     2.3514  -999.2500
  550.5000    16.2436    13.1641   -26.8859     7.4529     0.0113     0.2018    63.6519     2.3469  -999.2500
  551.0000    16.2397    13.1615   -26.8965     7.4399     0.0129     0.2015    63.3647     2.3492  -999.2500
  551.5000    16.2350    13.2501   -26.9052     7.4265     0.0145     0.1996    62.9360     2.3530  -999.2500
  552.0000    16.1194    13.2468   -27.0640     7.4430     0.0161     0.1972    62.9517     2.3560  -999.2500
  552.5000    16.1157    13.5215   -27.3730     7.4600     0.0192     0.1981    63.5653     2.3546  -999.2500
  553.0000    16.2236    13.7069   -27.8322     7.4765     0.0223     0.1984    63.5810     2.3524  -999.2500
  553.5000    16.3473    13.8949   -28.4415     7.4781     0.0254     0.1912    62.1059     2.3614  -999.2500
  554.0000    17.3750    14.0855   -29.0511     7.4796     0.0255     0.1772    63.0184     2.3771  -999.2500
  554.5000    18.2317    14.2785   -29.3620     7.4812     0.0227     0.1482    63.4826     2.4092  -999.2500
  555.0000    18.3549    14.2756   -29.5208     7.4828     0.0183     0.1309    63.7972     2.4518  -999.2500
  555.5000    18.2232    14.2721   -29.5295     7.4848     0.0050     0.1144    63.3407     2.4842  -999.2500
  556.0000    17.9605    14.0734   -29.6884     7.4863    -0.0113     0.1001    60.8430     2.5146  -999.2500
  556.5000    17.7170    13.7820   -29.6971     7.5178    -0.0172     0.1030    59.3640     2.5213  -999.2500
  557.0000    17.4698    13.4965   -29.7058     7.5343    -0.0111     0.1212    58.4828     2.4983  -999.2500
  557.5000    17.1074    13.1260   -29.7147     7.5508    -0.0018     0.1472    58.0462     2.4684  -999.2500
  558.0000    16.5226    12.7540   -29.7254     7.5525    -0.0004     0.1663    57.4679     2.4327  -999.2500
  558.5000    15.8405    12.3291   -29.8842     7.5544    -0.0003     0.1704    58.0855     2.4126  -999.2500
  559.0000    15.0952    11.9906   -29.8929     7.5560    -0.0002     0.1753    61.5391     2.3962  -999.2500
  559.5000    14.5791    11.7423   -29.9016     7.5575     0.0029     0.1838    64.6939     2.3835  -999.2500
  560.0000    14.1784    11.4199   -29.9103     7.5438     0.0060     0.1889    66.5033     2.3709  -999.2500
  560.5000    14.0775    11.1834   -29.9191     7.2169     0.0096     0.1862    66.8179     2.3695  -999.2500
  561.0000    14.1717    11.1042   -30.0781     6.9943     0.0167     0.1814    65.7242     2.3747  -999.2500
  561.5000    14.3656    11.0166   -30.0888     7.2204     0.0212     0.1766    63.4153     2.3845  -999.2500
  562.0000    14.4618    10.9468   -30.2476     7.4014     0.0273     0.1730    61.0394     2.3905  -999.2500
  562.5000    14.5586    10.9447   -30.4065     7.5226     0.0364     0.1697    59.7098     2.3943  -999.2500
  563.0000    14.5543    10.9425   -30.4152     7.5690     0.0454     0.1724    58.9782     2.3951  -999.2500
  563.5000    14.5508    10.8649   -30.5741     7.5106     0.0605     0.1697    58.5396     2.3990  -999.2500
  564.0000    14.4465    10.7880   -30.5828     7.4675     0.0696     0.1676    58.2622     2.4005  -999.2500
  564.5000    14.4431    10.7858   -30.4413     7.4541     0.0801     0.1693    59.0292     2.4013  -999.2500
  565.0000    14.4397    10.7836   -30.6023     7.4561     0.0967     0.1645    61.5860     2.4043  -999.2500
  565.5000    14.4363    10.7810   -30.6110     7.4577     0.1087     0.1535    65.7871     2.4096  -999.2500
  566.0000    14.4328    10.7788   -30.6197     7.4742     0.1103     0.1478    69.3902     2.4335  -999.2500
  566.5000    14.3293    10.7767   -30.6285     7.4907     0.0448     0.1439    71.4992     2.4639  -999.2500
  567.0000    14.2273    10.7745   -30.6372     7.5076     0.0255     0.1397    70.9203     2.4769  -999.2500
  567.5000    14.0287    10.7724   -30.6459     7.5092     0.0181     0.1400    67.1991     2.4605  -999.2500
  568.0000    13.9289    10.7702   -30.8048     7.5108     0.0167     0.1489    65.1222     2.4337  -999.2500
  568.5000    13.9255    10.7675   -31.1159     7.5124     0.0168     0.1459    64.9741     2.4398  -999.2500
  569.0000    13.9215    10.7654   -31.2748     7.5139     0.0184     0.1450    66.2142     2.4436  -999.2500
  569.5000    13.9182    10.7632   -31.4336     7.5155     0.0185     0.1503    65.3227     2.4330  -999.2500
  570.0000    13.9145    10.7611   -31.5925     7.5175     0.0187     0.1560    61.1531     2.4280  -999.2500
  570.5000    13.8141    10.7589   -31.6012     7.5340     0.0188     0.1533    62.5141     2.4243  -999.2500
  571.0000    13.6201    10.7568   -31.6099     7.5356     0.0189     0.1548    64.9214     2.4236  -999.2500
  571.5000    13.5218    10.7546   -31.7688     7.5372     0.0175     0.1500    65.9836     2.4274  -999.2500
  572.0000    13.4098    10.7519   -31.9519     7.5238     0.0087     0.1437    65.2557     2.4402  -999.2500
  572.5000    13.2346    10.7498   -32.5391     7.5274    -0.0017     0.1458    65.7198     2.4439  -999.2500
  573.0000    13.3220    10.8227   -32.9982     7.5423    -0.0075     0.1460    66.0345     2.4380  -999.2500
  573.5000    13.3177    10.8200   -33.1571     7.5439    -0.0089     0.1457    65.8968     2.4366  -999.2500
  574.0000    13.3133    10.8929   -33.3159     7.5454    -0.0103     0.1494    66.3649     2.4344  -999.2500
  574.5000    13.2162    10.9662   -33.4748     7.5470    -0.0102     0.1505    68.8825     2.4337  -999.2500
  575.0000    13.2118    10.8884   -33.4835     7.5486    -0.0101     0.1496    70.8845     2.4338  -999.2500
  575.5000    13.1166    10.8108   -33.6426     7.5505    -0.0084     0.1483    71.3487     2.4353  -999.2500
  576.0000    13.1122    10.8087   -33.6532     7.5368    -0.0083     0.1456    71.6633     2.4391  -999.2500
  576.5000    13.1079    10.8065   -33.8121     7.5238    -0.0067     0.1441    71.8285     2.4422  -999.2500
  577.0000    13.1026    10.7299   -33.9709     7.5254    -0.0051     0.1462    72.7414     2.4444  -999.2500
  577.5000    13.0982    10.5806   -33.9796     7.5120    -0.0035     0.1501    72.0133     2.4341  -999.2500
  578.0000    13.0939    10.4332   -33.9883     7.5136    -0.0019     0.1536    69.6374     2.4259  -999.2500
  578.5000    12.9995    10.2875   -33.9970     7.5002     0.0027     0.1497    69.9521     2.4297  -999.2500
  579.0000    12.9952    10.2146   -34.0060     7.4868     0.0073     0.1497    69.5194     2.4357  -999.2500
  579.5000    12.9005    10.1423   -33.8643     7.4589     0.0118     0.1440    68.3373     2.4410  -999.2500
  580.0000    12.7192    10.1403   -33.8752     7.4452     0.0134     0.1383    69.2558     2.4485  -999.2500
  580.5000    12.6275    10.1382   -33.7337     7.4322     0.0121     0.1344    73.1579     2.4530  -999.2500
  581.0000    12.5364    10.1362   -33.7424     7.3405     0.0122     0.1329    76.4621     2.4583  -999.2500
  581.5000    12.3603    10.2044   -33.7511     7.2115     0.0123     0.1353    78.8694     2.4599  -999.2500
  582.0000    12.1018    10.2019   -33.7598     7.1084     0.0124     0.1392    80.3799     2.4501  -999.2500
  582.5000    11.9318    10.1999   -33.7838     7.0502     0.0125     0.1409    79.5887     2.4488  -999.2500
  583.0000    11.8457    10.1978   -33.9296     7.0219     0.0126     0.1403    71.1477     2.4533  -999.2500
