~VERSION INFORMATION
 VERS.                2.0:   CWLS LOG ASCII STANDARD - VERSION 2.0
 WRAP.                 NO:   ONE LINE PER DEPTH STEP
~WELL INFORMATION
#MNEM.UNIT      DATA TYPE    INFORMATION
#----------   ------------   ------------------------------
 STRT.F            2.0000:   START DEPTH
 STOP.F          508.0000:   STOP DEPTH
 STEP.F            0.1000:   STEP LENGTH
 NULL.          -999.2500:   NO VALUE
 COMP. LAWRENCE/ALLISON INC:   COMPANY
 WELL.      48-41 SX #3-3:   WELL
 FLD .             TEAPOT:   FIELD
 LOC .       S3 T38N R78W:   LOCATION
 CNTY.            NATRONA:   COUNTY
 STAT.            WYOMING:   STATE
 CTRY. UNITED STATES OF AMERICA:   COUNTRY
 SRVC.           Gearhart:   SERVICE COMPANY
 DATE.        09-JUL-1988:   LOGDATE
 API .       490251123300:   API NUMBER
~CURVE INFORMATION
#MNEM.UNIT       API CODE    CURVE DESCRIPTION
#----------   ------------   ------------------------------
 DEPT.F                  :   
 GRR .GAPI   07 310 01 00:   GAMMA RAY
 RILD.OHMM   07 120 46 00:   INDUCTION LOG DEEP RESISTIVITY
 RILM.OHMM   07 120 44 00:   INDUCTION LOG MEDIUM RESISTIVITY
~PARAMETER INFORMATION
#MNEM.UNIT          VALUE    DESCRIPTION
#----------   ------------   ------------------------------
 PD  .                 GL:   PERMANENT DATUM
 EPD .F              5200:   ELEVATION PERMANENT DATUM
 LMF .                 KB:   LOG MEASURED FROM
 DAPD.F                 5:   FEET ABOVE PERMANENT DATUM
 DMF .                 KB:   DRILLING MEASURED FROM
 EKB .F              5205:   KELLING BUSHING
 EDF .F              5204:   DRILLING FLOOR
 EGL .F              5200:   GROUND LEVEL
 DATE.        09-JUL-1988:   RUN DATE
 RUN .                  1:   RUN NUMBER
 DD  .F               510:   DEPTH DRILLER
 DL  .F               516:   DEPTH LOGGER
 BLI .F               508:   BOTTOM LOG INTERVAL
 TLI .F               1.5:   TOP LOG INTERVAL
 CS  .IN            9.625:   CASING SIZE
 CBD .F                40:   CASING BOTTOM DRILLER
 CBL .F                45:   CASING BOTTOM LOGGER
 BS  .IN             8.75:   BIT SIZE
 BSD .F               510:   BIT SIZE AT DEPTH
 DFT .                AIR:   DRILLING FLUID TYPE
 TCS .HRS            1800:   TIME CURCULATED STOPPED
 TLAB.HRS            1843:   TIME LOGGER AT BOTTOM
 MRT .F                70:   MAXIMUM RECORDED TEMPERATURE
 LUN .               7597:   LOGGING UNIT NUMBER
 LUL .           GILLETTE:   LOGGING UNIT LOCATION
 ENGI.         WEATHERMON:   RECORDING ENGINEER
 WITN.              FIVAS:   WITNESSED BY
 CLNT.            A2DTECH:   CLIENT CODE
 ORIG.           5" PRINT:   ORIGIN OF DATA
 UWI .       490251123300:   UNIQUE WELL ID
 DICO. A2D Technologies, Inc.:   DIGITIZING COMPANY
~OTHER INFORMATION
~A    DEPT      GRR      RILD       RILM   
# ...
   38.4000    75.1494  -999.2500  -999.2500
   38.5000    75.4397  -999.2500  -999.2500
   38.6000    75.9760  -999.2500  -999.2500
   38.7000    75.9788  -999.2500  -999.2500
   38.8000    75.7928  -999.2500  -999.2500
   38.9000    75.5434  -999.2500  -999.2500
   39.0000    75.3846  -999.2500  -999.2500
   39.1000    75.3465  -999.2500  -999.2500
   39.2000    75.0891  -999.2500  -999.2500
   39.3000    75.0920  -999.2500  -999.2500
   39.4000    75.0950  -999.2500  -999.2500
   39.5000    74.9522  -999.2500  -999.2500
   39.6000    74.7994  -999.2500  -999.2500
   39.7000    74.8024  -999.2500  -999.2500
   39.8000    74.8055  -999.2500  -999.2500
   39.9000    74.8085  -999.2500  -999.2500
   40.0000    75.0127  -999.2500  -999.2500
   40.1000    75.1161  -999.2500  -999.2500
   40.2000    75.2216  -999.2500  -999.2500
   40.3000    75.4238  -999.2500  -999.2500
   40.4000    75.4268  -999.2500  -999.2500
   40.5000    75.1287  -999.2500  -999.2500
   40.6000    74.7170  -999.2500  -999.2500
   40.7000    74.0576  -999.2500  -999.2500
   40.8000    73.3033  -999.2500  -999.2500
   40.9000    72.6084  -999.2500  -999.2500
   41.0000    72.1065  -999.2500  -999.2500
   41.1000    71.5269  -999.2500  -999.2500
   41.2000    70.8900  -999.2500  -999.2500
   41.3000    70.4636  -999.2500  -999.2500
   41.4000    70.0996  -999.2500  -999.2500
   41.5000    69.5977  -999.2500  -999.2500
   41.6000    69.1280  -999.2500  -999.2500
   41.7000    69.1316  -999.2500  -999.2500
   41.8000    69.3534  -999.2500  -999.2500
   41.9000    69.6088  -999.2500  -999.2500
   42.0000    69.8642  -999.2500  -999.2500
   42.1000    70.1197  -999.2500  -999.2500
   42.2000    70.3752  -999.2500  -999.2500
   42.3000    70.6579  -999.2500  -999.2500
   42.4000    70.6606  -999.2500  -999.2500
   42.5000    70.4877  -999.2500  -999.2500
   42.6000    70.3650  -999.2500  -999.2500
   42.7000    70.2905  -999.2500  -999.2500
   42.8000    70.0411  -999.2500  -999.2500
   42.9000    69.7710  -999.2500  -999.2500
   43.0000    69.5425  -999.2500  -999.2500
   43.1000    69.4751  -999.2500  -999.2500
   43.2000    69.3453  -999.2500  -999.2500
   43.3000    69.1795  -999.2500  -999.2500
   43.4000    69.1825  -999.2500  -999.2500
   43.5000    69.1857  -999.2500  -999.2500
   43.6000    69.1885  -999.2500  -999.2500
   43.7000    69.1915  -999.2500  -999.2500
   43.8000    69.3334  -999.2500  -999.2500
   43.9000    70.1261  -999.2500  -999.2500
   44.0000    71.9350  -999.2500  -999.2500
   44.1000    74.0303  -999.2500  -999.2500
   44.2000    75.0066  -999.2500  -999.2500
   44.3000    76.6016  -999.2500  -999.2500
   44.4000    78.0813  -999.2500  -999.2500
   44.5000    79.4413  -999.2500  -999.2500
   44.6000    80.9127  -999.2500  -999.2500
   44.7000    82.1931  -999.2500  -999.2500
   44.8000    83.9419  -999.2500  -999.2500
   44.9000    85.9121  -999.2500  -999.2500
   45.0000    88.2353    30.8419   269.3920
   45.1000    90.9644    26.3398   194.8408
   45.2000    93.9444    21.2739   145.2828
   45.3000    96.7211    14.9243   105.6581
   45.4000    99.7110    11.6889    79.6063
   45.5000   101.5696     9.6795    64.4830
   45.6000   103.5296     7.2359    51.0931
   45.7000   105.7289     4.9660    42.6088
   45.8000   108.2755     3.3849    30.2598
   45.9000   110.0637     3.1063    19.5140
   46.0000   112.7003     2.9229    13.6610
   46.1000   114.8240     2.7137    10.3870
   46.2000   116.6994     2.4676     9.5476
   46.3000   117.7626     2.2932     7.4107
   46.4000   118.1418     2.2154     5.3340
   46.5000   118.1448     2.1398     4.0000
   46.6000   118.1482     2.2021     3.4877
   46.7000   117.7145     2.3409     3.4048
   46.8000   117.3817     2.5801     3.3490
   46.9000   116.8930     2.8934     3.2916
   47.0000   116.1386     3.2286     3.2251
   47.1000   115.4056     3.5489     3.1396
   47.2000   114.8480     3.9694     3.0397
   47.3000   114.1782     4.5592     2.9838
   47.4000   113.5988     5.1754     2.9836
   47.5000   113.0970     5.8410     3.0465
   47.6000   112.6716     6.5669     3.1639
   47.7000   112.4223     6.8552     3.3121
   47.8000   112.1511     7.9406     3.4625
   47.9000   111.9236     9.4507     3.5958
   48.0000   111.6742    11.2571     3.7095
   48.1000   111.4248    13.3863     3.8551
   48.2000   111.2579    15.7816     4.0014
   48.3000   111.2609    17.3512     4.1342
   48.4000   111.2641    17.5308     4.2599
   48.5000   111.2670    17.8041     4.4859
   48.6000   111.2700    18.1134     4.6467
   48.7000   111.2730    18.1431     4.8753
   48.8000   111.3646    17.4253     5.0916
   48.9000   111.5807    16.6445     5.2774
   49.0000   111.5838    15.8495     5.4958
   49.1000   112.0714    14.9666     5.8339
   49.2000   112.5793    14.0275     6.0360
   49.3000   113.2311    13.0140     6.4275
   49.4000   114.0858    12.0673     6.9066
   49.5000   115.0526    10.9062     7.4278
   49.6000   115.8251    10.3577     8.0884
   49.7000   116.5733     9.7915     8.8968
   49.8000   117.3336     9.3620     9.4166
   49.9000   118.0935     9.0135    10.0888
   50.0000   118.9539     8.5572    10.5769
   50.1000   119.8129     8.1749    10.7353
   50.2000   121.2682     7.9146    10.7969
   50.3000   121.2688     7.7938    10.7962
   50.4000   120.4876     7.7323    10.7954
   50.5000   119.4885     7.6515    10.7947
   50.6000   118.4891     7.6062    10.7709
   50.7000   117.4084     7.5224    10.6983
   50.8000   115.8420     7.5015    10.5705
   50.9000   113.9331     7.5254    10.4539
   51.0000   111.3735     7.5838    10.2452
   51.1000   109.0296     7.6714    10.0431
   51.2000   107.1135     7.7660     9.8517
   51.3000   105.4606     7.8077     9.6270
   51.4000   104.3825     7.9188     9.3926
   51.5000   103.2322     8.0564     9.1448
   51.6000   102.1611     8.1963     8.9593
   51.7000   101.0346     8.3384     8.8318
   51.8000    99.7855     8.4981     8.6993
   51.9000    98.5130     8.6310     8.5112
   52.0000    96.8447     8.7811     8.4040
   52.1000    97.7327     8.9337     8.3168
   52.2000   100.0948     9.0741     8.2213
   52.3000   102.7392     9.1828     8.1497
   52.4000   104.9224     9.3639     8.1158
   52.5000   106.9075     9.5526     8.1153
   52.6000   108.9147     9.7374     8.1146
   52.7000   109.9824     9.8807     8.1550
   52.8000   111.3943     9.9948     8.2014
   52.9000   112.6746    10.1057     8.2481
   53.0000   113.6168    10.1057     8.2828
   53.1000   114.3610    10.1541     8.2846
   53.2000   114.9515    10.2126     8.3390
   53.3000   115.5668    10.2963     8.3792
   53.4000   116.1640    10.3898     8.3959
   53.5000   116.6646    10.3889     8.3953
   53.6000   117.1654    10.1535     8.4058
   53.7000   117.6694     9.9233     8.4525
   53.8000   117.9182     9.6979     8.4518
   53.9000   118.1687     9.4775     8.4513
   54.0000   118.4192     9.2620     8.4805
   54.1000   118.5767     9.0450     8.5089
   54.2000   118.6189     8.8954     8.5083
   54.3000   118.8797     8.7818     8.5077
   54.4000   119.1200     8.6540     8.4587
   54.5000   119.3704     8.5061     8.4478
   54.6000   119.4848     8.3742     8.4473
   54.7000   119.4007     8.3232     8.4650
   54.8000   119.1513     8.2787     8.5049
   54.9000   118.8833     8.2313     8.5041
   55.0000   118.8838     8.2087     8.5035
   55.1000   118.7049     8.2087     8.5030
   55.2000   118.3275     8.2087     8.5024
   55.3000   117.9045     8.2087     8.5018
   55.4000   117.6552     8.2087     8.5012
   55.5000   117.3786     8.2087     8.5006
   55.6000   117.1563     8.2318     8.5001
   55.7000   116.9069     8.2792     8.4995
   55.8000   116.6576     8.3232     8.5245
   55.9000   116.4083     8.3232     8.5573
   56.0000   116.1269     8.3649     8.5567
   56.1000   115.2707     8.3811     8.5561
   56.2000   115.0567     8.4031     8.6002
   56.3000   114.8074     8.4394     8.6492
   56.4000   114.5581     8.4414     8.6984
   56.5000   114.2495     8.4981     8.7333
