~VERSION INFORMATION
 VERS.                2.0:   CWLS LOG ASCII STANDARD - VERSION 2.0
 WRAP.                 NO:   ONE LINE PER DEPTH STEP
~WELL INFORMATION
#MNEM.UNIT      DATA TYPE    INFORMATION
#----------   ------------   ------------------------------
 STRT.F          534.0000:   START DEPTH
 STOP.F         1847.5000:   STOP DEPTH
 STEP.F            0.5000:   STEP LENGTH
 NULL.          -999.2500:   NO VALUE
 COMP. LAWRENCE/ALLISON INC:   COMPANY
 WELL.      18 SHX #18-27:   WELL
 FLD .             TEAPOT:   FIELD
 LOC .      S27 T39N R78W:   LOCATION
 CNTY.            NATRONA:   COUNTY
 STAT.            WYOMING:   STATE
 CTRY. UNITED STATES OF AMERICA:   COUNTRY
 SRVC.            Unknown:   SERVICE COMPANY
 DATE.        01-MAR-1985:   LOGDATE
 API .       490251102000:   API NUMBER
~CURVE INFORMATION
#MNEM.UNIT       API CODE    CURVE DESCRIPTION
#----------   ------------   ------------------------------
 DEPT.F                  :   
 ROP .MIN/FT 91 810 01 00:   RATE OF DRILLING PENETRATION
 TGAS.UNITS  91 830 01 00:   TOTAL GAS FROM HOTWIRE
~PARAMETER INFORMATION
#MNEM.UNIT          VALUE    DESCRIPTION
#----------   ------------   ------------------------------
 DATE.           3-1-1985:   RUN DATE
 DD  .F              1848:   DEPTH DRILLER
 DL  .F              1825:   DEPTH LOGGER
 TLI .F               535:   TOP LOG INTERVAL
 WITN.  ALBERT C. KRAVATZ:   WITNESSED BY
 CLNT.            A2DTECH:   CLIENT CODE
 ORIG.           5" PRINT:   ORIGIN OF DATA
 UWI .       490251102000:   UNIQUE WELL ID
 DICO. A2D Technologies, Inc.:   DIGITIZING COMPANY
~OTHER INFORMATION
~A   DEPT      ROP       TGAS   
# ...
 1506.0000     1.4674     4.2663
 1506.5000     1.4671     4.2768
 1507.0000     1.4668     4.2873
 1507.5000     1.4664     4.2978
 1508.0000     1.4661     4.3083
 1508.5000     1.4658     4.3189
 1509.0000     1.4655     4.3294
 1509.5000     1.4651     4.3399
 1510.0000     1.4648     4.3504
 1510.5000     1.4645     4.3609
 1511.0000     1.4642     4.3715
 1511.5000     1.4638     4.3820
 1512.0000     1.4635     4.3925
 1512.5000     1.4632     4.4030
 1513.0000     1.4629     4.4135
 1513.5000     1.4625     4.4241
 1514.0000     1.4622     4.4346
 1514.5000     1.4619     4.4451
 1515.0000     1.4616     4.4556
 1515.5000     1.4612     4.4661
 1516.0000     1.4609     4.4767
 1516.5000     1.4606     4.4872
 1517.0000     1.4603     4.4977
 1517.5000     1.4599     4.5082
 1518.0000     1.4596     4.5187
 1518.5000     1.4593     4.5293
 1519.0000     1.4590     4.5398
 1519.5000     1.4586     4.5503
 1520.0000     1.4583     4.5608
 1520.5000     1.4580     4.5713
 1521.0000     1.4577     4.5819
 1521.5000     1.4573     4.5924
 1522.0000     1.4570     4.6029
 1522.5000     1.4567     4.6134
 1523.0000     1.4564     4.6239
 1523.5000     1.4560     4.6345
 1524.0000     1.4557     4.6450
 1524.5000     1.4554     4.6555
 1525.0000     1.4551     4.6660
 1525.5000     1.4547     4.6765
 1526.0000     1.4544     4.6870
 1526.5000     1.4541     4.6976
 1527.0000     1.4538     4.7081
 1527.5000     1.4534     4.7186
 1528.0000     1.4151     4.7291
 1528.5000     1.3325     4.7396
 1529.0000     1.3007     4.7502
 1529.5000     1.3005     4.7607
 1530.0000     1.3003     4.7712
 1530.5000     1.3002     4.7817
 1531.0000     1.3000     4.7922
 1531.5000     1.2998     4.8028
 1532.0000     1.2996     4.8133
 1532.5000     1.2995     4.8238
 1533.0000     1.2993     4.8343
 1533.5000     1.2991     4.8448
 1534.0000     1.2989     4.8554
 1534.5000     1.2988     4.8659
 1535.0000     1.2986     4.8764
 1535.5000     1.2984     4.8869
 1536.0000     1.2982     4.8974
 1536.5000     1.2980     4.9080
 1537.0000     1.2979     4.9185
 1537.5000     1.2977     4.9290
 1538.0000     1.2975     4.9395
 1538.5000     1.2973     4.9500
 1539.0000     1.2972     4.9606
 1539.5000     1.2970     4.9711
 1540.0000     1.2968     4.9816
 1540.5000     1.2966     4.9921
 1541.0000     1.2965     5.0026
 1541.5000     1.2963     5.0132
 1542.0000     1.2961     5.0237
 1542.5000     1.2959     5.0342
 1543.0000     1.2957     5.0447
 1543.5000     1.2956     5.0552
 1544.0000     1.2954     5.0658
 1544.5000     1.2952     5.0763
 1545.0000     1.2950     5.0868
 1545.5000     1.2949     5.0973
 1546.0000     1.2947     5.1078
 1546.5000     1.2945     5.1184
 1547.0000     1.2943     5.1289
 1547.5000     1.2942     5.1394
 1548.0000     1.2940     5.1499
 1548.5000     1.2938     5.1604
 1549.0000     1.2936     5.1709
 1549.5000     1.2934     5.1815
 1550.0000     1.2933     5.1920
 1550.5000     1.2931     5.2025
 1551.0000     1.2929     5.2130
 1551.5000     1.2927     5.2235
 1552.0000     1.2926     5.2341
 1552.5000     1.2924     5.2446
 1553.0000     1.2922     5.2551
 1553.5000     1.2920     5.2656
 1554.0000     1.2918     5.2761
 1554.5000     1.2917     5.2867
 1555.0000     1.2915     5.2972
 1555.5000     1.2913     5.3077
 1556.0000     1.2911     5.3182
 1556.5000     1.2910     5.3287
 1557.0000     1.2908     5.3393
 1557.5000     1.3008     5.3498
 1558.0000     1.3502     5.3603
 1558.5000     1.4097     5.3708
 1559.0000     1.4691     5.3813
 1559.5000     1.5346     5.3919
 1560.0000     1.5341     5.4024
 1560.5000     1.5336     5.4129
 1561.0000     1.5330     5.4234
 1561.5000     1.5325     5.4339
 1562.0000     1.5320     5.4445
 1562.5000     1.5314     5.4550
 1563.0000     1.5309     5.4655
 1563.5000     1.5304     5.4760
 1564.0000     1.5298     5.4865
 1564.5000     1.5293     5.4971
 1565.0000     1.5288     5.5076
 1565.5000     1.5282     5.5181
 1566.0000     1.5277     5.5286
 1566.5000     1.5272     5.5391
 1567.0000     1.5266     5.5497
 1567.5000     1.5261     5.5602
 1568.0000     1.5256     5.5707
 1568.5000     1.5250     5.5812
 1569.0000     1.5245     5.5917
 1569.5000     1.5240     5.6023
 1570.0000     1.5234     5.6128
 1570.5000     1.5229     5.6233
 1571.0000     1.5224     5.6338
 1571.5000     1.5218     5.6443
 1572.0000     1.5213     5.6548
 1572.5000     1.5208     5.6654
 1573.0000     1.5202     5.6759
 1573.5000     1.5197     5.6864
 1574.0000     1.5192     5.6969
 1574.5000     1.5186     5.7074
 1575.0000     1.5181     5.7180
 1575.5000     1.5176     5.7285
 1576.0000     1.5170     5.7390
 1576.5000     1.5165     5.7495
 1577.0000     1.5159     5.7600
 1577.5000     1.5154     5.7706
 1578.0000     1.5149     5.7811
 1578.5000     1.5143     5.7916
 1579.0000     1.5138     5.8021
 1579.5000     1.5133     5.8126
 1580.0000     1.5127     5.8232
 1580.5000     1.5122     5.8337
 1581.0000     1.5117     5.8442
 1581.5000     1.5111     5.8547
 1582.0000     1.5106     5.8652
 1582.5000     1.5101     5.8758
 1583.0000     1.5095     5.8863
 1583.5000     1.5090     5.8968
 1584.0000     1.5085     5.9073
 1584.5000     1.5079     5.9178
 1585.0000     1.5074     5.9284
 1585.5000     1.5069     5.9389
 1586.0000     1.5063     5.9494
 1586.5000     1.5058     5.9599
 1587.0000     1.5053     5.9704
 1587.5000     1.5047     5.9810
 1588.0000     1.5042     5.9915
 1588.5000     1.3946     6.0020
 1589.0000     1.2499     6.0125
 1589.5000     1.1052     6.0230
 1590.0000     1.0162     6.0336
 1590.5000     1.0160     6.0441
 1591.0000     1.0159     6.0546
 1591.5000     1.0157     6.0651
 1592.0000     1.0156     6.0756
 1592.5000     1.0154     6.0861
 1593.0000     1.0153     6.0967
 1593.5000     1.0151     6.1072
 1594.0000     1.0149     6.1177
 1594.5000     1.0148     6.1282
 1595.0000     1.0146     6.1387
 1595.5000     1.0145     6.1493
 1596.0000     1.0143     6.1598
 1596.5000     1.0141     6.1703
 1597.0000     1.0140     6.1808
 1597.5000     1.0138     6.1913
 1598.0000     1.0137     6.2019
 1598.5000     1.0135     6.2124
 1599.0000     1.0134     6.2229
 1599.5000     1.0132     6.2334
 1600.0000     1.0130     6.2439
 1600.5000     1.0129     6.2575
 1601.0000     1.0127     6.2938
 1601.5000     1.0126     6.3301
 1602.0000     1.0124     6.3665
 1602.5000     1.0123     6.4028
 1603.0000     1.0121     6.4391
 1603.5000     1.0119     6.4754
 1604.0000     1.0118     6.5117
 1604.5000     1.0116     6.5481
 1605.0000     1.0115     6.5844
 1605.5000     1.0113     6.6207
 1606.0000     1.0111     6.6570
 1606.5000     1.0110     6.6934
 1607.0000     1.0108     6.7297
 1607.5000     1.0107     6.7660
 1608.0000     1.0105     6.8023
 1608.5000     1.0104     6.8386
 1609.0000     1.0102     6.8750
 1609.5000     1.0100     6.9113
 1610.0000     1.0099     6.9476
 1610.5000     1.0097     6.9839
 1611.0000     1.0096     7.0202
 1611.5000     1.0094     7.0566
 1612.0000     1.0093     7.0929
 1612.5000     1.0091     7.1292
 1613.0000     1.0089     7.1655
 1613.5000     1.0088     7.2019
 1614.0000     1.0086     7.2382
 1614.5000     1.0085     7.2745
 1615.0000     1.0083     7.3108
 1615.5000     1.0081     7.3471
 1616.0000     1.0080     7.3835
 1616.5000     1.0078     7.4198
 1617.0000     1.0077     7.4561
 1617.5000     1.0075     7.4924
 1618.0000     1.0074     7.5287
 1618.5000     1.0072     7.5651
 1619.0000     1.0070     7.6014
 1619.5000     1.0069     7.6377
 1620.0000     1.0067     7.6740
 1620.5000     1.0066     7.7104
 1621.0000     1.0064     7.7467
 1621.5000     1.0063     7.7830
 1622.0000     1.0073     7.8193
 1622.5000     1.0693     7.8556
 1623.0000     1.1312     7.8920
 1623.5000     1.1932     7.9283
 1624.0000     1.2399     7.9646
 1624.5000     1.2403     8.0009
 1625.0000     1.2406     8.0372
 1625.5000     1.2410     8.0736
 1626.0000     1.2413     8.1099
 1626.5000     1.2417     8.1462
 1627.0000     1.2420     8.1825
