~VERSION INFORMATION
 VERS.                2.0:   CWLS LOG ASCII STANDARD - VERSION 2.0
 WRAP.                 NO:   ONE LINE PER DEPTH STEP
~WELL INFORMATION
#MNEM.UNIT      DATA TYPE    INFORMATION
#----------   ------------   ------------------------------
 STRT.F           80.0000:   START DEPTH
 STOP.F          679.5000:   STOP DEPTH
 STEP.F            0.5000:   STEP LENGTH
 NULL.          -999.2500:   NO VALUE
 COMP. U S NAVY/INTEX OIL CO:   COMPANY
 WELL.      NPR 3 #23-S-2:   WELL
 FLD .        TEAPOT DOME:   FIELD
 LOC .       S2 T38N R78W:   LOCATION
 CNTY.            NATRONA:   COUNTY
 STAT.            WYOMING:   STATE
 CTRY. UNITED STATES OF AMERICA:   COUNTRY
 SRVC.       Schlumberger:   SERVICE COMPANY
 DATE.        16-JUL-1962:   LOGDATE
 API .       490250645000:   API NUMBER
~CURVE INFORMATION
#MNEM.UNIT       API CODE    CURVE DESCRIPTION
#----------   ------------   ------------------------------
 DEPT.F                  :   
 GR  .GAPI   30 310 01 00:   GAMMA RAY
 SPR .MV     05 010 01 00:   SPONTANEOUS POTENTIAL FROM RES.
 ILD .OHMM   05 120 46 00:   INDUCTION LOG DEEP
 CILD.MMHO   05 110 46 00:   CONDUCTIVITY INDUCTION LOG DEEP
 ASN .OHMM   05 041 16 00:   AMPLIFIED SHORT NORMAL 16"
~PARAMETER INFORMATION
#MNEM.UNIT          VALUE    DESCRIPTION
#----------   ------------   ------------------------------
 PD  .                 GL:   PERMANENT DATUM
 EPD .F              5126:   ELEVATION PERMANENT DATUM
 LMF .                 KB:   LOG MEASURED FROM
 DAPD.F                 5:   FEET ABOVE PERMANENT DATUM
 DMF .                 KB:   DRILLING MEASURED FROM
 EKB .F              5131:   KELLING BUSHING
 EGL .F              5126:   GROUND LEVEL
 DATE.            7-17-62:   RUN DATE
 RUN .                  1:   RUN NUMBER
 DD  .F               680:   DEPTH DRILLER
 DL  .F               680:   DEPTH LOGGER
 BLI .F               679:   BOTTOM LOG INTERVAL
 TLI .F                87:   TOP LOG INTERVAL
 BS  .IN             6.75:   BIT SIZE
 BSD .F               680:   BIT SIZE AT DEPTH
 DFT .       OIL EMULSION:   DRILLING FLUID TYPE
 DFD .                 10:   DRILLING FLUID DENSITY
 DFV .                 41:   DRILLING FLUID VISCOSITY
 DFL .                2.9:   DRILLING FLUID LOSS
 RMS .OHMM           5.86:   RESISTIVITY MUD SAMPLE
 MST .F                73:   MUD SAMPLE TEMPERATURE
 RMF .OHMM           4.19:   RESISTIVITY MUD FILTRATE SAMPLE
 MFST.F                73:   MUD FILTRATE SAMPLE TEMPERATURE
 RMC .OHMM           5.66:   RESISTIVITY MUD CAKE
 MCST.F                73:   MUD CAKE SAMPLE TEMPERATURE
 TCS .HRS               1:   TIME CURCULATED STOPPED
 LUN .               2503:   LOGGING UNIT NUMBER
 LUL .               CSPR:   LOGGING UNIT LOCATION
 ENGI.             DANNER:   RECORDING ENGINEER
 WITN.          JORGENSON:   WITNESSED BY
 CLNT.            A2DTECH:   CLIENT CODE
 ORIG.       2", 5" PRINT:   ORIGIN OF DATA
 UWI .       490250645000:   UNIQUE WELL ID
 DICO. A2D Technologies, Inc.:   DIGITIZING COMPANY
~OTHER INFORMATION
~A   DEPT       GR        SPR          ILD      CILD         ASN 
# ...
  385.0000  -999.2500   -33.0319     7.8401   120.1621     8.5112
  385.5000  -999.2500   -32.5104     7.5723   124.4909     8.2568
  386.0000  -999.2500   -32.0575     7.3407   126.6393     8.0740
  386.5000  -999.2500   -32.2243     7.2808   128.8147     7.8892
  387.0000  -999.2500   -32.4175     7.2104   130.9844     7.8009
  387.5000  -999.2500   -32.1505     7.1391   131.9206     7.7649
  388.0000  -999.2500   -31.7951     7.0643   132.5000     7.6899
  388.5000  -999.2500   -31.6509     7.1420   130.3864     7.7798
  389.0000  -999.2500   -31.6500     7.2645   128.1364     7.9015
  389.5000  -999.2500   -32.0167     7.3886   125.8864     8.0139
  390.0000  -999.2500   -32.4869     7.5128   123.6364     8.0538
  390.5000  -999.2500   -32.6038     7.6360   122.5000     8.0926
  391.0000  -999.2500   -32.7270     7.6980   122.5000     8.1637
  391.5000  -999.2500   -32.8792     7.7518   122.5000     8.2326
  392.0000  -999.2500   -33.2581     7.8055   122.2511     8.3005
  392.5000  -999.2500   -33.6389     7.8592   121.3032     8.2760
  393.0000  -999.2500   -34.0177     7.9130   120.3553     8.2368
  393.5000  -999.2500   -34.1485     7.9669   119.4074     8.2697
  394.0000  -999.2500   -33.9432     8.0207   118.4596     8.3618
  394.5000  -999.2500   -33.5934     8.0744   117.5117     8.4540
  395.0000  -999.2500   -33.2421     8.1285   116.5638     8.5222
  395.5000  -999.2500   -33.0027     8.1446   115.6160     8.5760
  396.0000  -999.2500   -34.1040     8.1364   114.6681     8.6285
  396.5000  -999.2500   -35.8078     8.1279   113.7202     8.6304
  397.0000  -999.2500   -37.5081     8.1194   113.7235     8.6301
  397.5000  -999.2500   -38.8829     8.1108   114.0147     8.6301
  398.0000  -999.2500   -39.3566     8.1023   114.3059     8.6299
  398.5000  -999.2500   -39.2373     8.0938   114.9500     8.6242
  399.0000  -999.2500   -39.1307     8.0853   116.3000     8.6038
  399.5000  -999.2500   -39.0345     8.0767   117.5191     8.5834
  400.0000  -999.2500   -38.2557     8.0682   117.6915     8.5502
  400.5000  -999.2500   -37.8136     8.0597   117.8639     8.4768
  401.0000  -999.2500   -37.4092     8.0512   118.0362     8.4054
  401.5000  -999.2500   -36.8524     8.0427   118.2086     8.3765
  402.0000  -999.2500   -36.2356     8.0341   118.3810     8.4315
  402.5000  -999.2500   -36.2064     8.0256   118.2978     8.4872
  403.0000  -999.2500   -36.2648     8.0171   117.6443     8.5425
  403.5000  -999.2500   -36.4702     8.0086   116.9909     8.5599
  404.0000  -999.2500   -36.4783     8.0000   116.3374     8.5234
  404.5000  -999.2500   -36.7372     7.9915   115.6839     8.4878
  405.0000  -999.2500   -37.7078     7.9830   116.1000     8.4509
  405.5000  -999.2500   -38.1854     7.9745   116.9350     8.4741
  406.0000  -999.2500   -36.6305     7.9661   117.5736     8.5068
  406.5000  -999.2500   -34.3783     7.9576   117.8014     8.5112
  407.0000  -999.2500   -33.5144     7.9386   118.0291     8.4222
  407.5000  -999.2500   -34.4953     7.8506   118.2568     8.3285
  408.0000  -999.2500   -35.9569     7.7619   118.5000     8.2334
  408.5000  -999.2500   -36.1415     7.6735   120.6976     8.2208
  409.0000  -999.2500   -35.4185     7.5850   123.0553     8.2139
  409.5000  -999.2500   -33.9237     7.4965   125.4129     8.1423
  410.0000  -999.2500   -32.4176     7.4086   126.6286     8.0513
  410.5000  -999.2500   -30.9014     7.3491   126.8671     7.9595
  411.0000  -999.2500   -30.5788     7.3506   127.1057     7.8685
  411.5000  -999.2500   -30.6104     7.3502   127.3443     7.7866
  412.0000   131.1434   -31.2395     7.3152   128.5440     7.7784
  412.5000   130.4291   -31.9320     7.0757   133.3636     7.9574
  413.0000   121.7506   -32.6244     6.8353   141.5618     8.0936
  413.5000   108.6748   -33.3188     6.5961   149.0723     7.7895
  414.0000    95.3244   -33.5112     6.3558   152.3967     7.4464
  414.5000    90.4656   -32.8250     6.2515   154.0576     7.4164
  415.0000    91.0675   -31.7586     6.2309   152.7859     7.0668
  415.5000    98.0348   -30.6748     6.2055   155.1670     6.4959
  416.0000   111.1943   -30.0652     6.1815   158.6740     6.1963
  416.5000   120.8379   -30.3498     6.1564   158.8617     6.5991
  417.0000   119.4282   -30.7304     6.2950   155.0391     7.0650
  417.5000   115.1763   -31.0245     6.5584   148.9792     7.1112
  418.0000   123.2072   -30.7866     6.8522   142.9177     7.2250
  418.5000   133.6694   -30.5555     7.1409   136.8470     7.3391
  419.0000   121.9184   -30.8464     7.1404   134.3397     7.4380
  419.5000   114.3576   -31.5024     7.1264   132.8751     7.5100
  420.0000   134.5068   -32.1620     7.1137   131.4074     7.5722
  420.5000   119.0031   -32.8235     7.1014   130.4980     7.5705
  421.0000   128.2401   -33.1932     7.0892   130.5018     7.5685
  421.5000   131.5071   -33.0108     7.0770   130.5071     7.5096
  422.0000   138.6639   -31.8176     7.0648   131.3243     7.4554
  422.5000   128.9955   -30.5604     7.0536   132.7131     7.4007
  423.0000   119.4285   -29.7461     7.0103   134.1000     7.3895
  423.5000   116.1178   -29.9992     6.9638   135.5000     7.3696
  424.0000   116.9710   -30.2121     6.8285   139.0571     7.2520
  424.5000   123.7455   -30.0935     6.6767   142.6357     7.0917
  425.0000   126.4524   -29.9781     6.5241   147.1667     6.9065
  425.5000   138.9718   -29.8610     6.3748   155.5167     6.8405
  426.0000   136.4680   -29.7438     6.2343   166.0550     6.6679
  426.5000   141.1525   -29.6272     5.8283   179.8325     6.4404
  427.0000   126.7453   -29.5078     5.4067   193.5000     6.1708
  427.5000   138.4655   -29.5950     5.1374   202.1571     5.9012
  428.0000   148.9501   -29.8077     5.1009   207.5400     5.6310
  428.5000   131.8784   -30.0298     5.0632   209.1236     5.3689
  429.0000   129.7465   -29.8262     5.0281   208.2127     5.1442
  429.5000   120.4119   -29.5420     4.9917   206.2283     5.0664
  430.0000   102.9054   -29.2817     4.9453   200.3833     5.1987
  430.5000   109.7263   -29.5729     5.2541   194.5383     5.7437
  431.0000   122.6689   -29.8793     5.6207   174.4102     6.2827
  431.5000   130.5302   -30.0579     5.9917   160.0766     6.5212
  432.0000   125.5059   -30.0588     6.3478   151.5033     6.7351
  432.5000   116.6331   -30.0782     6.5226   145.9575     6.9489
  433.0000   127.7089   -30.1669     6.6890   140.5830     7.0671
  433.5000   147.0009   -30.2735     6.8559   136.7713     7.1801
  434.0000   137.3584   -30.8193     7.0224   135.0154     7.2930
  434.5000   126.4846   -31.3710     7.1794   133.2600     7.4057
  435.0000   136.7400   -31.9226     7.2947   131.5174     7.5251
  435.5000   129.6021   -32.4148     7.4115   129.7748     7.6542
  436.0000   125.3118   -31.9890     7.5286   126.9680     7.8061
  436.5000   117.5722   -31.6551     7.6456   123.9712     8.0129
  437.0000   115.1944   -31.7421     7.7620   120.9574     8.0588
  437.5000   117.9333   -31.8203     7.8602   119.8618     8.1048
  438.0000   113.4361   -31.9509     7.8918   119.1098     8.2298
  438.5000   101.0508   -32.0403     7.9251   118.3586     8.4617
  439.0000   103.7977   -31.7318     7.9586   117.6079     8.5501
  439.5000    93.9308   -31.0463     7.9920   116.8560     8.4468
  440.0000   101.3381   -30.3691     8.0252   116.1040     8.4810
  440.5000    96.5378   -29.8801     8.0507   115.3535     8.6292
  441.0000   115.5251   -30.0409     8.0500   114.6020     8.6113
  441.5000   128.1825   -30.1860     8.0500   115.3327     8.5709
  442.0000   117.6392   -30.7180     8.0503   116.2962     8.6015
  442.5000   124.9331   -31.6586     8.0499   117.2612     8.6394
  443.0000   117.7702   -32.4809     7.9731   118.2300     8.6350
  443.5000   115.1735   -33.8273     7.8850   119.1971     8.5734
  444.0000   126.9458   -35.0012     7.7969   119.1330     8.4365
  444.5000   116.5421   -34.5760     7.7624   118.5678     8.2816
  445.0000   120.5664   -33.0259     7.7873   118.0111     8.1266
  445.5000   129.2646   -31.6595     7.8118   117.5000     7.9720
