~VERSION INFORMATION
 VERS.                2.0:   CWLS LOG ASCII STANDARD - VERSION 2.0
 WRAP.                 NO:   ONE LINE PER DEPTH STEP
~WELL INFORMATION
#MNEM.UNIT      DATA TYPE    INFORMATION
#----------   ------------   ------------------------------
 STRT.F           80.0000:   START DEPTH
 STOP.F          715.0000:   STOP DEPTH
 STEP.F            0.5000:   STEP LENGTH
 NULL.          -999.2500:   NO VALUE
 COMP. U S NAVY-INTEX OIL:   COMPANY
 WELL.     NPR #3 #37-S-2:   WELL
 FLD .             TEAPOT:   FIELD
 LOC .       S2 T38N R78W:   LOCATION
 CNTY.            NATRONA:   COUNTY
 STAT.            WYOMING:   STATE
 CTRY. UNITED STATES OF AMERICA:   COUNTRY
 SRVC.       Schlumberger:   SERVICE COMPANY
 DATE.        21-JUN-1962:   LOGDATE
 API .       490250640600:   API NUMBER
~CURVE INFORMATION
#MNEM.UNIT       API CODE    CURVE DESCRIPTION
#----------   ------------   ------------------------------
 DEPT.F                  :   
 ASN .OHMM   05 041 16 00:   AMPLIFIED SHORT NORMAL 16"
 CILD.MMHO   05 110 46 00:   CONDUCTIVITY INDUCTION LOG DEEP
 ILD .OHMM   05 120 46 00:   INDUCTION LOG DEEP
 SPR .MV     05 010 01 00:   SPONTANEOUS POTENTIAL FROM RES.
 GR  .GAPI   30 310 01 00:   GAMMA RAY
~PARAMETER INFORMATION
#MNEM.UNIT          VALUE    DESCRIPTION
#----------   ------------   ------------------------------
 LMF .                 KB:   LOG MEASURED FROM
 DMF .                 KB:   DRILLING MEASURED FROM
 EKB .F              5159:   KELLING BUSHING
 EGL .F              5154:   GROUND LEVEL
 DATE.        21-JUN-1962:   RUN DATE
 RUN .                  1:   RUN NUMBER
 DD  .F               715:   DEPTH DRILLER
 DL  .F               716:   DEPTH LOGGER
 BLI .F               715:   BOTTOM LOG INTERVAL
 TLI .F                80:   TOP LOG INTERVAL
 BS  .IN             6.75:   BIT SIZE
 BSD .F               715:   BIT SIZE AT DEPTH
 DFT .       OIL-EMULSION:   DRILLING FLUID TYPE
 DFD .                9.3:   DRILLING FLUID DENSITY
 DFV .                 50:   DRILLING FLUID VISCOSITY
 DFL .                3.8:   DRILLING FLUID LOSS
 RMS .OHMM            3.9:   RESISTIVITY MUD SAMPLE
 MST .F                72:   MUD SAMPLE TEMPERATURE
 RMF .OHMM            2.6:   RESISTIVITY MUD FILTRATE SAMPLE
 MFST.F                72:   MUD FILTRATE SAMPLE TEMPERATURE
 RMC .OHMM            5.2:   RESISTIVITY MUD CAKE
 MCST.F                72:   MUD CAKE SAMPLE TEMPERATURE
 TCS .HRS               1:   TIME CURCULATED STOPPED
 LUN .               2503:   LOGGING UNIT NUMBER
 LUL .               CSPR:   LOGGING UNIT LOCATION
 ENGI.             DANNER:   RECORDING ENGINEER
 WITN.          JORGENSEN:   WITNESSED BY
 CLNT.            A2DTECH:   CLIENT CODE
 ORIG.           5" PRINT:   ORIGIN OF DATA
 UWI .       490250640600:   UNIQUE WELL ID
 DICO. A2D Technologies, Inc.:   DIGITIZING COMPANY
~OTHER INFORMATION
~A   DEPT        ASN      CILD         ILD      SPR         GR   
# ...
  568.0000    33.0687    39.8387    20.7289   -83.0533    25.0173
  568.5000    32.8422    42.0228    20.7363   -82.4346    21.2330
  569.0000    34.3586    42.5803    20.8177   -81.9683    27.9349
  569.5000    34.5109    41.7299    20.9745   -81.8069    36.6126
  570.0000    33.3001    40.8979    21.0558   -81.6454    43.1626
  570.5000    33.3769    39.3085    21.3735   -81.1791    40.1381
  571.0000    34.3628    37.7190    21.6813   -80.2555    31.0346
  571.5000    34.8184    36.1295    21.9801   -79.1795    32.8734
  572.0000    34.6679    36.0552    22.7402   -79.3229    35.9242
  572.5000    35.6048    34.4657    23.5002   -80.6859    33.8153
  573.0000    37.6123    34.3913    23.6570   -81.9085    34.1343
  573.5000    38.7619    34.3170    23.7383   -82.3448    36.7330
  574.0000    36.7178    34.2323    23.8197   -82.1811    37.8118
  574.5000    36.6428    34.1667    23.8256   -82.7819    33.7236
  575.0000    35.8865    34.0909    23.7547   -83.8400    15.9574
  575.5000    33.9936    34.7772    23.6852   -83.9857    16.2218
  576.0000    33.8429    34.6843    23.6157   -83.5171    30.4741
  576.5000    34.2229    33.8524    23.4723   -83.3557    31.2006
  577.0000    34.6028    33.7781    23.2519   -83.3467    30.3829
  577.5000    34.5280    33.7038    22.9563   -83.3377    32.7538
  578.0000    32.5382    34.4056    22.3540   -83.3288    37.3281
  578.5000    29.4907    35.0888    21.5052   -84.2344    34.4556
  579.0000    28.6223    39.5414    20.5623   -85.7498    33.8590
  579.5000    28.3203    42.4973    20.0403   -85.5884    36.1574
  580.0000    26.6547    45.4533    19.3675   -83.2521    39.8199
  580.5000    25.0648    46.9015    18.3930   -81.5854    52.2932
  581.0000    23.7022    49.8501    17.4940   -79.9190    46.5331
  581.5000    22.8699    52.8061    16.8212   -78.8429    55.3665
  582.0000    22.2649    54.2469    16.4501   -78.3766    47.1749
  582.5000    21.8114    55.6691    16.1543   -77.9103    45.3625
  583.0000    21.3579    55.5948    16.0834   -78.0538    43.1017
  583.5000    21.0559    54.7629    16.0908   -78.6545    36.8857
  584.0000    21.0570    53.9310    16.3984   -79.4078    49.5147
  584.5000    21.0582    53.0991    16.6306   -79.3988    44.8185
  585.0000    21.1350    53.0247    16.8627   -79.3898    41.4864
  585.5000    21.2118    52.9504    17.0196   -79.3808    47.2802
  586.0000    21.2886    52.8761    17.1765   -79.3718    45.7751
  586.5000    21.3654    52.8017    17.2591   -79.6707    40.0155
  587.0000    21.4422    51.9697    17.2650   -80.1161    39.4225
  587.5000    21.3675    51.8939    17.2710   -80.4120    41.4134
  588.0000    21.3685    50.9396    17.2769   -80.2483    40.3646
  588.5000    21.0665    50.2131    17.2828   -79.7820    36.4283
  589.0000    20.9903    49.3812    17.2119   -78.8584    41.0388
  589.5000    20.7656    49.3068    17.2193   -78.0872    50.0092
  590.0000    20.6154    50.0087    17.0744   -78.2307    50.1550
  590.5000    20.4646    50.6919    17.0034   -78.8314    56.8570
  591.0000    20.2386    51.3752    16.7831   -78.8225    57.7839
  591.5000    20.1637    51.2822    16.4887   -78.5086    58.5550
  592.0000    19.8619    51.2079    16.1932   -78.1947    57.6620
  592.5000    19.7112    51.1336    16.1991   -77.8809    54.1816
  593.0000    19.4095    51.0592    16.2051   -77.5670    50.5492
  593.5000    19.1832    50.9849    16.2112   -77.4055    50.1046
  594.0000    18.9570    52.4257    15.9921   -77.2439    52.0953
  594.5000    18.6550    53.1090    15.6964   -76.9281    49.8345
  595.0000    18.4970    53.7736    15.4746   -76.9191    48.7857
  595.5000    18.2783    53.6993    15.4066   -76.7577    36.6427
  596.0000    17.9766    53.6250    15.3357   -76.5962    40.9881
  596.5000    17.7503    56.5809    15.0414   -76.4348    45.1834
  597.0000    17.4483    58.0218    14.7457   -76.2734    40.9432
  597.5000    17.1463    60.2201    14.5254   -76.2644    45.5175
  598.0000    16.9201    62.4185    14.3051   -76.1030    56.7787
  598.5000    16.7694    63.1018    14.1587   -76.0940    57.5536
  599.0000    16.7707    63.0275    14.0153   -75.9326    56.2009
  599.5000    16.7717    62.9531    14.0966   -76.0760    46.3375
  600.0000    16.8128    62.1212    14.1780   -76.2195    41.6413
  600.5000    16.9183    62.0455    14.1840   -76.2104    48.0090
  601.0000    17.0332    61.9697    14.3509   -76.0488    56.8937
  601.5000    17.1482    61.1221    14.4989   -76.1903    54.8850
  602.0000    17.2631    61.8239    14.6557   -76.4862    48.6924
  602.5000    17.3949    61.7310    14.6616   -76.9345    51.2948
  603.0000    17.3994    61.6566    14.6676   -77.3851    46.5986
  603.5000    17.4038    61.5823    14.5981   -77.0690    49.0453
  604.0000    17.4083    61.5080    14.5271   -76.4503    56.5071
  604.5000    17.1106    61.4336    14.5345   -75.9248    58.9538
  605.0000    16.5108    61.3779    14.3142   -75.4870    61.2447
  605.5000    16.3642    61.4492    14.1693   -75.3226    59.1321
  606.0000    16.1420    61.4848    14.0984   -75.1582    52.9199
  606.5000    15.9925    61.4312    14.1812   -75.1462    62.7937
  607.0000    15.9154    61.3788    14.1116   -74.9817    64.6275
  607.5000    15.7033    61.3258    14.0422   -74.8171    64.0331
  608.0000    15.5567    61.2727    13.9728   -74.8049    56.4511
  608.5000    15.3345    61.2099    13.8180   -74.6380    56.9205
  609.0000    15.1124    62.6860    13.4582   -74.4736    67.4203
  609.5000    14.9658    64.1491    13.1625   -74.3092    62.4186
  610.0000    14.8181    67.1143    12.9329   -74.4496    53.0096
  610.5000    14.5970    70.0925    12.6457   -74.7425    42.9926
  611.0000    14.3749    73.0707    12.3500   -74.7306    42.0820
  611.5000    14.0772    75.2914    12.1282   -74.4137    43.7795
  612.0000    13.8550    75.2393    11.9779   -74.0968    42.1212
  612.5000    13.7085    75.9470    11.8276   -73.7800    46.6185
  613.0000    13.5618    75.8927    11.6965   -73.6156    47.4707
  613.5000    13.5544    75.8407    11.7024   -73.6036    42.0130
  614.0000    13.5718    75.7879    11.7083   -73.4390    35.1842
  614.5000    13.5763    75.7348    11.7896   -73.4268    37.6327
  615.0000    13.5807    75.6714    11.7956   -73.4122    41.1416
  615.5000    13.5852    74.8617    11.8015   -73.0954    48.4499
  616.0000    13.5130    75.5803    11.9582   -72.7785    47.2442
  616.5000    13.4430    75.5152    11.9642   -72.6141    47.8690
  617.0000    13.2953    76.2207    11.8190   -72.4497    50.3141
  617.5000    13.1487    77.6838    11.6744   -72.7456    47.1360
  618.0000    13.0030    79.1468    11.6803   -72.7306    45.7817
  618.5000    12.7810    80.6099    11.6108   -72.7187    42.1478
  619.0000    12.7069    81.3284    11.5324   -72.7067    39.6972
  619.5000    12.5544    81.2633    11.3964   -72.6947    55.5550
  620.0000    12.4167    81.9697    11.2515   -72.6827    56.0180
  620.5000    12.3456    82.6743    11.1820   -72.3649    47.9579
  621.0000    12.2745    83.3798    11.1125   -71.7196    46.5296
  621.5000    12.2034    84.0853    10.9691   -70.7937    54.2381
  622.0000    12.2090    85.5354    10.7488   -70.4977    56.2273
  622.5000    12.2134    86.9985    10.6778   -71.4003    56.2407
  623.0000    12.1412    87.7040    10.5344   -71.6932    58.0779
  623.5000    12.0713    88.4225    10.5403   -71.3764    56.8756
  624.0000    12.0000    88.3574    10.5462   -70.7547    56.2778
  624.5000    11.9290    88.3053    10.4012   -70.1329    57.5104
  625.0000    11.8580    88.2532    10.4072   -69.6636    60.2595
  625.5000    11.8625    87.4436    10.4133   -69.4992    64.0690
  626.0000    11.9547    86.6339    10.5058   -69.4872    68.4931
  626.5000    12.0990    86.5819    10.7282   -69.6281    68.3546
  627.0000    12.1790    85.0146    10.8849   -69.7683    62.4410
  627.5000    12.2590    84.1793    10.8908   -69.7561    59.5617
  628.0000    12.4145    82.6364    10.8968   -69.7439    73.4998
  628.5000    12.4944    81.0705    10.9027   -69.5793    77.0711
