~VERSION INFORMATION
 VERS.                2.0:   CWLS LOG ASCII STANDARD - VERSION 2.0
 WRAP.                 NO:   ONE LINE PER DEPTH STEP
~WELL INFORMATION
#MNEM.UNIT      DATA TYPE    INFORMATION
#----------   ------------   ------------------------------
 STRT.F           34.0000:   START DEPTH
 STOP.F          614.0000:   STOP DEPTH
 STEP.F            0.5000:   STEP LENGTH
 NULL.          -999.2500:   NO VALUE
 COMP. FENIX & SCISSON INC:   COMPANY
 WELL.      71-SX-3 #71-3:   WELL
 FLD .             TEAPOT:   FIELD
 LOC .       S3 T38N R78W:   LOCATION
 CNTY.            NATRONA:   COUNTY
 STAT.            WYOMING:   STATE
 CTRY. UNITED STATES OF AMERICA:   COUNTRY
 SRVC.              Welex:   SERVICE COMPANY
 DATE.        10-MAR-1977:   LOGDATE
 API .       490251028900:   API NUMBER
~CURVE INFORMATION
#MNEM.UNIT       API CODE    CURVE DESCRIPTION
#----------   ------------   ------------------------------
 DEPT.F                  :   
 CALD.IN     45 280 60 00:   CALIPER
 GRD .GAPI   45 310 01 00:   GAMMA RAY FROM DENSITY LOG
 RHOB.G/C3   45 350 01 00:   BULK DENSITY
 DPHI.DEC    45 890 12 00:   DENSITY POROSITY SANDSTONE
 CORR.G/C3   45 356 01 00:   DENSITY CORRECTION
 SGRD.OHMM   07 220 05 00:   SHALLOW RESISTIVITY
 ILD .OHMM   07 120 46 00:   INDUCTION LOG DEEP
 ILM .OHMM   07 120 44 00:   INDUCTION LOG MEDIUM
 SPR .MV     07 010 01 00:   SPONTANEOUS POTENTIAL
~PARAMETER INFORMATION
#MNEM.UNIT          VALUE    DESCRIPTION
#----------   ------------   ------------------------------
 PD  .                 GL:   PERMANENT DATUM
 EPD .F              5117:   ELEVATION PERMANENT DATUM
 LMF .                 GL:   LOG MEASURED FROM
 DMF .                 GL:   DRILLING MEASURED FROM
 EGL .F              5117:   GROUND LEVEL
 DATE.          3-10-1977:   RUN DATE
 RUN .                  1:   RUN NUMBER
 DD  .F               630:   DEPTH DRILLER
 DL  .F               619:   DEPTH LOGGER
 BLI .F               617:   BOTTOM LOG INTERVAL
 TLI .F                34:   TOP LOG INTERVAL
 CS  .IN            8.625:   CASING SIZE
 CBD .F                40:   CASING BOTTOM DRILLER
 CBL .F                41:   CASING BOTTOM LOGGER
 BS  .IN            7.875:   BIT SIZE
 BSD .F               630:   BIT SIZE AT DEPTH
 DFT .            KCL MUD:   DRILLING FLUID TYPE
 DFD .                  9:   DRILLING FLUID DENSITY
 DFV .                 33:   DRILLING FLUID VISCOSITY
 MSS .            MUD PIT:   MUD SAMPLE SOURCE
 RMS .OHMM           2.33:   RESISTIVITY MUD SAMPLE
 MST .F                57:   MUD SAMPLE TEMPERATURE
 RMF .OHMM           1.83:   RESISTIVITY MUD FILTRATE SAMPLE
 MFST.F                57:   MUD FILTRATE SAMPLE TEMPERATURE
 RMC .OHMM           2.53:   RESISTIVITY MUD CAKE
 MCST.F                57:   MUD CAKE SAMPLE TEMPERATURE
 MFSS.           FANN KIT:   MUD FILTRATE SAMPLE SOURCE
 MCSS.           FANN KIT:   MUD CAKE SAMPLE SOURCE
 RMB .OHMM            2.1:   RESISTIVITY MUD AT BHT
 BHT .F                63:   BOTTOM HOLE TEMPERATURE
 TCS .HRS             1.5:   TIME CURCULATED STOPPED
 MRT .F                63:   MAXIMUM RECORDED TEMPERATURE
 LUN .               8611:   LOGGING UNIT NUMBER
 LUL .           GILLETTE:   LOGGING UNIT LOCATION
 ENGI.               DOAK:   RECORDING ENGINEER
 WITN.              BURKE:   WITNESSED BY
 CLNT.            A2DTECH:   CLIENT CODE
 ORIG.       2", 5" PRINT:   ORIGIN OF DATA
 UWI .       490251028900:   UNIQUE WELL ID
 DICO. A2D Technologies, Inc.:   DIGITIZING COMPANY
~OTHER INFORMATION
~A   DEPT     CALD        GRD       RHOB       DPHI       CORR       SGRD        ILD        ILM        SPR   
# ...
  143.5000     7.6900    84.3445     2.4376     0.1261     0.0628     8.3123     6.4541     7.1039   -43.2994
  144.0000     7.5833    83.4290     2.4448     0.1258     0.0657     8.4794     6.5350     7.1652   -43.4786
  144.5000     7.4787    80.7670     2.4417     0.1266     0.0610     8.6069     6.6068     7.2269   -43.2005
  145.0000     7.5443    78.1115     2.4358     0.1306     0.0557     8.1848     6.6678     7.2893   -42.9405
  145.5000     7.6219    79.6850     2.4299     0.1346     0.0503     7.8185     6.6678     7.3521   -42.7785
  146.0000     7.6989    84.9975     2.4243     0.1389     0.0450     7.6536     6.6678     7.4155   -42.8386
  146.5000     7.7758    90.6039     2.4229     0.1372     0.0397     9.3085     6.6679     7.4454   -42.8922
  147.0000     7.8555    90.1403     2.4251     0.1355     0.0342     9.9965     6.6684     7.4131   -42.9384
  147.5000     7.8858    87.8448     2.4286     0.1337     0.0358     9.4964     6.6687     7.3889   -43.3512
  148.0000     7.9094    87.9662     2.4353     0.1321     0.0385     8.8509     6.6045     7.2429   -44.0885
  148.5000     7.9325    90.9057     2.4420     0.1262     0.0411     8.2923     6.4852     7.1911   -45.2955
  149.0000     7.9559    93.8565     2.4486     0.1190     0.0438     8.1389     6.3677     7.1350   -46.2670
  149.5000     7.9791    96.8112     2.4548     0.1173     0.0465     8.0653     6.2523     7.0793   -46.5119
  150.0000     8.0025    99.7537     2.4588     0.1148     0.0492     7.9930     6.1389     7.0241   -46.2920
  150.5000     8.0100   102.7573     2.4635     0.1112     0.0487     7.9901     5.9720     6.9693   -45.8383
  151.0000     8.0025   103.7707     2.4684     0.1086     0.0469     7.8669     6.0040     6.9149   -45.3845
  151.5000     7.9949    99.0013     2.4685     0.1086     0.0452     7.7056     6.0697     6.8610   -44.9288
  152.0000     7.9872    93.6456     2.4668     0.1071     0.0434     7.6536     6.1362     6.9534   -44.4778
  152.5000     7.9795    88.2844     2.4756     0.1025     0.0423     7.9423     6.2038     7.0685   -44.1923
  153.0000     7.9719    82.9324     2.4854     0.0980     0.0458     8.2223     6.2720     7.1854   -44.6250
  153.5000     7.9642    77.6439     2.4956     0.0934     0.0493     8.5122     6.3748     7.3043   -45.7317
  154.0000     7.9566    73.5902     2.4995     0.0905     0.0528     8.8123     6.5217     7.4252   -46.3439
  154.5000     7.9489    76.9869     2.4960     0.0906     0.0562     9.1141     6.6721     7.6975   -46.6889
  155.0000     7.9413    83.2633     2.4924     0.0954     0.0597     9.0307     6.8260     8.0108   -46.9585
  155.5000     7.9336    89.5367     2.4836     0.1002     0.0633    11.7067     6.9833     8.3368   -47.0039
  156.0000     7.9260    92.2847     2.4796     0.1031     0.0614    22.8945     7.0510     8.4679   -46.7568
  156.5000     7.9183    92.4514     2.4796     0.1032     0.0588    18.9098     7.0595     8.3167   -46.5125
  157.0000     7.9106    90.9448     2.4795     0.1025     0.0563    11.7093     7.0680     8.1300   -46.2764
  157.5000     7.9029    90.7559     2.4764     0.1019     0.0537     8.6147     7.0765     7.9430   -46.1723
  158.0000     7.8950    91.4250     2.4680     0.1071     0.0511     8.9551     7.0849     7.9996   -46.4539
  158.5000     7.9021    91.9462     2.4596     0.1136     0.0486     9.4554     7.0934     8.0875   -46.7250
  159.0000     7.9125    90.7451     2.4512     0.1192     0.0460     9.4516     7.1016     8.0581   -46.9983
  159.5000     7.9229    89.5767     2.4428     0.1218     0.0435     9.5427     7.1103     8.0058   -46.8744
  160.0000     7.9334    89.8474     2.4345     0.1239     0.0409     9.4703     7.0565     7.9402   -46.4863
  160.5000     7.9440    91.5787     2.4260     0.1259     0.0383     9.3944     6.9994     7.9569   -46.4057
  161.0000     7.9530    93.3129     2.4208     0.1264     0.0358     9.3191     6.9428     7.9796   -46.4866
  161.5000     7.9369    93.5657     2.4229     0.1264     0.0340     9.1971     6.8867     8.0135   -46.2538
  162.0000     7.9142    92.7603     2.4250     0.1258     0.0353     9.0338     6.8310     7.9151   -46.0268
  162.5000     7.8847    92.6503     2.4272     0.1251     0.0366     8.8735     6.7757     7.7263   -45.7999
  163.0000     7.8294    95.2389     2.4320     0.1228     0.0393     8.7159     6.7210     7.5421   -45.5691
  163.5000     7.7627    95.0187     2.4435     0.1198     0.0419     8.5612     6.6666     7.3773   -45.3499
  164.0000     7.6955    93.5369     2.4551     0.1166     0.0445     8.3904     6.6127     7.3237   -45.8399
  164.5000     7.6279    92.3733     2.4529     0.1171     0.0472     8.4292     6.5592     7.2451   -46.3595
  165.0000     7.5854    93.8353     2.4492     0.1178     0.0498     8.4870     6.5062     7.1671   -46.4189
  165.5000     7.6031    95.4394     2.4491     0.1165     0.0508     8.5452     6.4535     7.1092   -46.2332
  166.0000     7.7330    97.0955     2.4568     0.1134     0.0516     8.6186     6.4014     7.3098   -46.0474
  166.5000     7.8588    96.3833     2.4643     0.1103     0.0544     8.5275     6.3496     7.2468   -45.8599
  167.0000     7.9873    94.7879     2.4718     0.1072     0.0578     8.3777     6.3100     7.1870   -45.6727
  167.5000     7.9795    93.2915     2.4781     0.1041     0.0611     8.2304     6.3227     7.1276   -45.4856
  168.0000     7.9615    94.9879     2.4803     0.1010     0.0642     8.0874     6.3330     7.0459   -45.2974
  168.5000     7.9440    98.2246     2.4787     0.1023     0.0660     8.1873     6.3433     7.0767   -45.1071
  169.0000     7.9268   101.4636     2.4772     0.1046     0.0678     8.3132     6.3537     7.1531   -44.9599
  169.5000     7.9096   104.6931     2.4772     0.1041     0.0696     8.4411     6.3640     7.2302   -45.4562
  170.0000     7.8924   107.4135     2.4815     0.1019     0.0714     8.5466     6.3744     7.3098   -45.9195
  170.5000     7.8752   106.3741     2.4855     0.0998     0.0732     8.4991     6.3848     7.2488   -45.6961
  171.0000     7.8580   105.3765     2.4800     0.1020     0.0725     8.4172     6.3952     7.1871   -45.3094
  171.5000     7.8259   106.5107     2.4714     0.1067     0.0695     8.3352     6.4056     7.1110   -44.9084
  172.0000     7.7892   108.0185     2.4627     0.1114     0.0664     8.2577     6.4160     7.2682   -44.5066
  172.5000     7.7523   108.9912     2.4540     0.1162     0.0633     8.2376     6.4271     7.4822   -44.1069
  173.0000     7.7155   104.8699     2.4483     0.1178     0.0603     8.9992     6.4639     7.5835   -43.7041
  173.5000     7.6786   100.8192     2.4520     0.1166     0.0599     9.2832     6.5033     7.4285   -43.5058
  174.0000     7.6418    97.2026     2.4555     0.1150     0.0599     8.6333     6.5430     7.3098   -43.4228
  174.5000     7.6050    96.2277     2.4563     0.1138     0.0599     8.3137     6.5829     7.4057   -43.3404
  175.0000     7.5681    95.4179     2.4559     0.1138     0.0586     8.6383     6.6230     7.5120   -43.2595
  175.5000     7.5311    97.0634     2.4554     0.1138     0.0568     9.1141     6.6634     7.6536   -43.1898
  176.0000     7.4937   100.9019     2.4550     0.1150     0.0550     9.0354     6.7040     7.5342   -42.7208
  176.5000     7.4777   104.6933     2.4538     0.1185     0.0532     8.9641     6.7449     7.3644   -42.1948
  177.0000     7.6229   108.3258     2.4471     0.1227     0.0514     8.8933     6.7860     7.3098   -42.3815
  177.5000     7.7718   107.1598     2.4401     0.1270     0.0503     8.8231     6.8135     7.4440   -42.6036
  178.0000     7.9219   103.5743     2.4382     0.1290     0.0534     8.7047     6.8389     7.6505   -42.8255
  178.5000     7.9605   101.1173     2.4396     0.1259     0.0564     9.0085     6.8644     8.0135   -43.1855
  179.0000     7.9420   102.7094     2.4455     0.1226     0.0595     9.2583     6.8900     7.9983   -43.8117
  179.5000     7.9223   102.8931     2.4514     0.1193     0.0625     9.4554     6.9157     7.9636   -44.2469
