~VERSION INFORMATION
 VERS.                2.0:   CWLS LOG ASCII STANDARD - VERSION 2.0
 WRAP.                 NO:   ONE LINE PER DEPTH STEP
~WELL INFORMATION
#MNEM.UNIT      DATA TYPE    INFORMATION
#----------   ------------   ------------------------------
 STRT.F            0.0000:   START DEPTH
 STOP.F          678.0000:   STOP DEPTH
 STEP.F            0.5000:   STEP LENGTH
 NULL.          -999.2500:   NO VALUE
 COMP. FENIX & SCISSON INC:   COMPANY
 WELL. 37-21 SX 11 WO #37-11:   WELL
 FLD .             TEAPOT:   FIELD
 LOC .      S11 T38N R78W:   LOCATION
 CNTY.            NATRONA:   COUNTY
 STAT.            WYOMING:   STATE
 CTRY. UNITED STATES OF AMERICA:   COUNTRY
 SRVC.      Dresser Atlas:   SERVICE COMPANY
 DATE.        14-OCT-1983:   LOGDATE
 API .       490251084300:   API NUMBER
~CURVE INFORMATION
#MNEM.UNIT       API CODE    CURVE DESCRIPTION
#----------   ------------   ------------------------------
 DEPT.F                  :   
 SPR .MV     07 010 01 00:   SPONTANEOUS POTENTIAL
 SFLU.OHMM   07 220 01 00:   SPHERICALLY FOCUSED LOG UNAVERAGED RESISTIVITY
 ILM .OHMM   07 120 44 00:   INDUCTION LOG MEDIUM
 ILD .OHMM   07 120 46 00:   INDUCTION LOG DEEP
 NPHI.DEC    42 890 03 00:   NEUTRON POROSITY SANDSTONE
 DPHI.DEC    45 890 12 00:   DENSITY POROSITY SANDSTONE
 RHOB.G/C3   45 350 01 00:   BULK DENSITY
 CORR.G/C3   45 356 01 00:   DENSITY CORRECTION
 GRD .GAPI   45 310 01 00:   GAMMA RAY FROM DENSITY LOG
 CALD.IN     45 280 60 00:   CALIPER
~PARAMETER INFORMATION
#MNEM.UNIT          VALUE    DESCRIPTION
#----------   ------------   ------------------------------
 PD  .                 GL:   PERMANENT DATUM
 EPD .F              5188:   ELEVATION PERMANENT DATUM
 LMF .                 KB:   LOG MEASURED FROM
 DAPD.F                 5:   FEET ABOVE PERMANENT DATUM
 DMF .                 KB:   DRILLING MEASURED FROM
 EKB .F              5193:   KELLING BUSHING
 EGL .F              5188:   GROUND LEVEL
 DATE.           10-14-83:   RUN DATE
 RUN .                  4:   RUN NUMBER
 DD  .F               629:   DEPTH DRILLER
 DL  .F               630:   DEPTH LOGGER
 BLI .F               624:   BOTTOM LOG INTERVAL
 TLI .F               335:   TOP LOG INTERVAL
 BS  .IN             8.75:   BIT SIZE
 BSD .F               629:   BIT SIZE AT DEPTH
 DFT .          KCL WATER:   DRILLING FLUID TYPE
 LUN .               6307:   LOGGING UNIT NUMBER
 LUL .               GLTE:   LOGGING UNIT LOCATION
 ENGI.            DEYOUNG:   RECORDING ENGINEER
 WITN.            SCHULTE:   WITNESSED BY
 CLNT.            A2DTECH:   CLIENT CODE
 ORIG.       2", 5" PRINT:   ORIGIN OF DATA
 UWI .       490251084300:   UNIQUE WELL ID
 DICO. A2D Technologies, Inc.:   DIGITIZING COMPANY
~OTHER INFORMATION
~A    DEPT     SPR       SFLU        ILM        ILD       NPHI       DPHI       RHOB       CORR        GRD       CALD   
# ...
  368.5000   -29.8679     9.1437     8.8743     8.3994     0.2313     0.1086     2.4906     0.0851    89.6743     9.5826
  369.0000   -30.0198     9.3762     9.0113     8.4340     0.2297     0.1043     2.4813     0.0828    89.5086     9.5848
  369.5000   -30.0630     9.6046     9.1504     8.4650     0.2322     0.1085     2.4742     0.0861    90.7420     9.5869
  370.0000   -30.1025     9.8386     9.2917     8.4967     0.2384     0.1141     2.4918     0.0932    91.8085     9.5891
  370.5000   -30.1424    10.1113     9.4351     8.5284     0.2349     0.1197     2.4935     0.1002    92.4968     9.5913
  371.0000   -30.1822    10.0939     9.5808     8.5603     0.2358     0.1238     2.4887     0.0941    93.1800     9.5934
  371.5000   -30.2071    10.0737     9.6589     8.5922     0.2372     0.1185     2.4804     0.0868    93.8661     9.5956
  372.0000   -30.1235    10.0536     9.5155     8.6243     0.2425     0.1131     2.4703     0.0796    95.2051     9.5978
  372.5000   -30.0401    10.0335     9.4184     8.6539     0.2479     0.1159     2.4614     0.0747    97.2402     9.5996
  373.0000   -29.9571     9.9504     9.3225     8.6826     0.2504     0.1208     2.4560     0.0744    97.8520     9.5934
  373.5000   -29.8759     9.7112     9.2278     8.7092     0.2646     0.1258     2.4551     0.0739    96.1383     9.5867
  374.0000   -29.8745     9.4778     9.1339     8.7335     0.2680     0.1307     2.4630     0.0735    96.7283     9.5801
  374.5000   -30.0152     9.2500     9.0412     8.6058     0.2591     0.1356     2.4609     0.0730    94.5283     9.5734
  375.0000   -30.1687     9.2267     8.9768     8.4444     0.2464     0.1378     2.4553     0.0718    94.0283     9.5667
  375.5000   -29.7729     9.2912     9.0287     8.2861     0.2388     0.1345     2.4441     0.0702    94.0128     9.5601
  376.0000   -29.6714     9.3503     9.0690     8.1914     0.2360     0.1312     2.4330     0.0687    95.9395     9.5534
  376.5000   -29.5483     9.4098     9.1094     8.1167     0.2346     0.1340     2.4261     0.0749    94.6694     9.5467
  377.0000   -29.4255     9.4701     9.1500     8.1463     0.2355     0.1397     2.4393     0.0822    95.4690     9.5401
  377.5000   -29.3118     9.5292     9.1908     8.2041     0.2365     0.1472     2.4448     0.0896    93.9403     9.5334
  378.0000   -29.6111     9.6595     9.2267     8.2623     0.2413     0.1559     2.4532     0.0930    92.3531     9.5267
  378.5000   -29.7203     9.4556     9.1405     8.3209     0.2481     0.1512     2.4616     0.0957    90.7638     9.5201
  379.0000   -29.7970     9.2267     9.0593     8.3805     0.2461     0.1455     2.4699     0.0984    89.1820     9.5134
  379.5000   -29.8796     9.3520     9.0944     8.4201     0.2413     0.1398     2.4702     0.0942    90.1633     9.5067
  380.0000   -29.9612     9.5915     9.1607     8.4195     0.2366     0.1341     2.4623     0.0890    88.5441     9.5022
  380.5000   -30.0129     9.8370     9.2274     8.3491     0.2350     0.1284     2.4716     0.0906    87.1655     9.5127
  381.0000   -29.9844    10.2043     9.3116     8.2970     0.2438     0.1291     2.4769     0.0933    87.0573     9.5231
  381.5000   -29.9577    10.0037     9.1526     8.2451     0.2489     0.1321     2.4858     0.0961    88.0711     9.5335
  382.0000   -29.9308     9.6489     8.9447     8.1914     0.2528     0.1293     2.4984     0.0988    86.3747     9.5438
  382.5000   -29.9040     9.3067     8.7335     8.2231     0.2545     0.1241     2.4835     0.1004    87.2848     9.5540
  383.0000   -29.8773     9.1282     8.7018     8.2652     0.2486     0.1190     2.4767     0.0998    88.3740     9.5569
  383.5000   -29.8509     9.0403     8.6706     8.3075     0.2380     0.1139     2.4699     0.0991    87.1311     9.5486
  384.0000   -29.8201     8.9532     8.6390     8.3427     0.2321     0.1162     2.4710     0.0971    87.8739     9.5406
  384.5000   -29.6773     8.8670     8.6073     8.2356     0.2288     0.1228     2.4677     0.0956    87.9151     9.5324
  385.0000   -29.5275     8.8138     8.5751     8.1453     0.2302     0.1286     2.4656     0.0944    89.6954     9.5243
  385.5000   -29.3773     8.8973     8.5367     8.0559     0.2364     0.1267     2.4643     0.0932    90.4840     9.5162
  386.0000   -29.2378     8.9687     8.4878     7.9675     0.2454     0.1298     2.4630     0.0903    86.8621     9.5081
  386.5000   -29.2851     9.0407     8.4391     7.8586     0.2541     0.1306     2.4605     0.0863    88.9141     9.5011
  387.0000   -29.3391     9.1426     8.3908     7.6576     0.2586     0.1317     2.4559     0.0834    87.7889     9.5035
  387.5000   -29.3924     8.8786     8.3427     7.4630     0.2564     0.1324     2.4658     0.0965    88.5026     9.5059
  388.0000   -29.4454     8.4539     7.9017     7.2714     0.2536     0.1325     2.4820     0.1102    89.3871     9.5082
  388.5000   -29.4984     8.0494     7.4839     6.8765     0.2515     0.1368     2.4856     0.1126    90.3093     9.5105
  389.0000   -29.5514     7.6643     7.0883     6.5027     0.2590     0.1337     2.4818     0.1099    89.5230     9.5128
  389.5000   -29.6045     7.2976     6.5755     6.2240     0.2658     0.1179     2.4733     0.1039    89.8189     9.5151
  390.0000   -29.6575     6.8208     6.6532     6.1453     0.2675     0.1186     2.4608     0.0936    89.8817     9.5174
  390.5000   -29.7105     7.1354     6.7809     6.0542     0.2614     0.1214     2.4484     0.0845    89.5370     9.5197
  391.0000   -29.7635     7.6725     6.9111     6.0541     0.2546     0.1261     2.4401     0.0912    91.6046     9.5219
  391.5000   -29.8165     8.2500     7.0438     6.1209     0.2531     0.1345     2.4454     0.0979    93.7346     9.5243
  392.0000   -29.8696     8.9767     7.1790     6.1748     0.2562     0.1430     2.4496     0.0908    93.8476     9.5266
  392.5000   -29.9230     8.7575     7.3169     6.4518     0.2586     0.1443     2.4361     0.0827    93.0653     9.5288
  393.0000   -29.9758     8.5026     7.4711     6.7165     0.2548     0.1408     2.4278     0.0795    92.1933     9.5311
  393.5000   -30.0032     8.2667     7.6313     6.9921     0.2501     0.1423     2.4353     0.0822    94.0707     9.5335
  394.0000   -29.8875     8.3897     7.7949     7.2287     0.2453     0.1504     2.4375     0.0848    96.8954     9.5358
  394.5000   -29.7734     8.5114     7.9620     7.3176     0.2464     0.1548     2.4489     0.0896    99.0310     9.5381
  395.0000   -29.6597     8.6342     8.1327     7.4077     0.2497     0.1477     2.4549     0.0947    96.3616     9.5402
  395.5000   -29.5461     8.7580     8.2270     7.4747     0.2476     0.1436     2.4608     0.0998    94.0220     9.5357
  396.0000   -29.4322     8.8839     8.2812     7.4747     0.2456     0.1393     2.4664     0.0993    94.8536     9.5306
  396.5000   -29.3188     8.9767     8.3427     7.5030     0.2477     0.1349     2.4604     0.0979    95.4474     9.5255
  397.0000   -29.2304     8.6722     8.2320     7.5296     0.2506     0.1304     2.4627     0.0966    94.6010     9.5203
  397.5000   -29.2542     8.4398     8.1068     7.5435     0.2559     0.1325     2.4694     0.0934    93.8434     9.5411
  398.0000   -29.3602     8.2137     7.9836     7.5435     0.2612     0.1346     2.4677     0.0855    95.0297     9.5661
  398.5000   -29.4631     7.9932     7.8622     7.4147     0.2609     0.1319     2.4733     0.0779    95.6797     9.5912
  399.0000   -29.5660     7.9489     7.7427     7.2978     0.2568     0.1293     2.4688     0.0730    97.0298     9.6163
  399.5000   -29.6685     7.9266     7.6410     7.1828     0.2518     0.1276     2.4729     0.0686    98.9555     9.6387
  400.0000   -29.7705     7.9036     7.5006     7.0695     0.2486     0.1280     2.4787     0.0642    97.5926     9.6428
  400.5000   -29.7823     7.7894     7.3628     6.9581     0.2445     0.1285     2.4836     0.0602    96.0598     9.6468
  401.0000   -29.7002     7.6384     7.2276     6.8023     0.2477     0.1257     2.4835     0.0565    94.5269     9.6509
  401.5000   -29.6189     7.4916     7.0948     6.7404     0.2568     0.1215     2.4609     0.0527    93.0302     9.6550
