~VERSION INFORMATION
 VERS.                2.0:   CWLS LOG ASCII STANDARD - VERSION 2.0
 WRAP.                 NO:   ONE LINE PER DEPTH STEP
~WELL INFORMATION
#MNEM.UNIT      DATA TYPE    INFORMATION
#----------   ------------   ------------------------------
 STRT.F           36.0000:   START DEPTH
 STOP.F          686.0000:   STOP DEPTH
 STEP.F            0.5000:   STEP LENGTH
 NULL.          -999.2500:   NO VALUE
 COMP.    FENIX & SCISSON:   COMPANY
 WELL.        NPR #15-S-2:   WELL
 FLD .             TEAPOT:   FIELD
 LOC .       S2 T38N R78W:   LOCATION
 CNTY.            NATRONA:   COUNTY
 STAT.            WYOMING:   STATE
 CTRY. UNITED STATES OF AMERICA:   COUNTRY
 SRVC.       Schlumberger:   SERVICE COMPANY
 DATE.        16-MAR-1977:   LOGDATE
 API .       490251029900:   API NUMBER
~CURVE INFORMATION
#MNEM.UNIT       API CODE    CURVE DESCRIPTION
#----------   ------------   ------------------------------
 DEPT.F                  :   
 SPR .MV     07 010 01 00:   SPONTANEOUS POTENTIAL FROM RES.
 ILD .OHMM   07 120 46 00:   INDUCTION LOG DEEP
 ILM .OHMM   07 120 44 00:   INDUCTION LOG MEDIUM
 LL8 .OHMM   07 220 08 00:   LATEROLOG-8 RES.
 GRD .GAPI   45 310 01 00:   GAMMA RAY FROM DENSITY LOG
 CALD.IN     45 280 60 00:   CALIPER FROM DENSITY LOG
 CORR.G/C3   45 356 01 00:   DENSITY CORRECTION
 RHOB.G/C3   45 350 01 00:   BULK DENSITY
 DPHI.DEC    45 890 12 00:   DENSITY POROSITY SANDSTONE
~PARAMETER INFORMATION
#MNEM.UNIT          VALUE    DESCRIPTION
#----------   ------------   ------------------------------
 PD  .                 GL:   PERMANENT DATUM
 EPD .F              5129:   ELEVATION PERMANENT DATUM
 LMF .                 KB:   LOG MEASURED FROM
 DAPD.F                 4:   FEET ABOVE PERMANENT DATUM
 DMF .                 KB:   DRILLING MEASURED FROM
 EKB .F              5133:   KELLING BUSHING
 EGL .F              5129:   GROUND LEVEL
 DATE.        15-MAR-1977:   RUN DATE
 RUN .                  1:   RUN NUMBER
 DD  .F               680:   DEPTH DRILLER
 DL  .F               680:   DEPTH LOGGER
 BLI .F               683:   BOTTOM LOG INTERVAL
 TLI .F                48:   TOP LOG INTERVAL
 CS  .IN            8.625:   CASING SIZE
 CBD .F                40:   CASING BOTTOM DRILLER
 CBL .F                49:   CASING BOTTOM LOGGER
 BS  .IN            7.875:   BIT SIZE
 BSD .F               680:   BIT SIZE AT DEPTH
 DFT .            KCL MUD:   DRILLING FLUID TYPE
 DFD .                8.8:   DRILLING FLUID DENSITY
 DFV .                 33:   DRILLING FLUID VISCOSITY
 DFPH.                9.6:   DRILLING FLUID PH
 DFL .                9.0:   DRILLING FLUID LOSS
 MSS .                PIT:   MUD SAMPLE SOURCE
 RMS .OHMM           0.22:   RESISTIVITY MUD SAMPLE
 MST .F                50:   MUD SAMPLE TEMPERATURE
 RMF .OHMM           0.21:   RESISTIVITY MUD FILTRATE SAMPLE
 MFST.F                50:   MUD FILTRATE SAMPLE TEMPERATURE
 MFSS.               MEAS:   MUD FILTRATE SAMPLE SOURCE
 TCS .HRS            1800:   TIME CURCULATED STOPPED
 TLAB.HRS            2130:   TIME LOGGER AT BOTTOM
 LUN .               7711:   LOGGING UNIT NUMBER
 LUL .               CSPR:   LOGGING UNIT LOCATION
 ENGI.             TAYLER:   RECORDING ENGINEER
 CLNT.            A2DTECH:   CLIENT CODE
 ORIG.           5" PRINT:   ORIGIN OF DATA
 UWI .       490251029900:   UNIQUE WELL ID
 DICO. A2D Technologies, Inc.:   DIGITIZING COMPANY
~OTHER INFORMATION
~A   DEPT      SPR        ILD        ILM        LL8         GRD      CALD       CORR       RHOB       DPHI   
# ...
  547.0000   -52.9431    21.9620    23.0976    19.7869    91.8146     7.9613     0.0471     2.3973     0.1555
  547.5000   -52.7761    20.9357    18.5378    19.3881    92.1265     7.8455     0.0441     2.3816     0.1612
  548.0000   -52.7586    20.0959    15.6161    19.2678    92.1413     7.7605     0.0418     2.3997     0.1543
  548.5000   -52.8902    19.4235    14.2929    19.2796    92.1561     7.7318     0.0386     2.3960     0.1518
  549.0000   -53.0218    18.7737    14.5116    18.8960    92.1708     7.8818     0.0270     2.3908     0.1563
  549.5000   -53.1534    18.1456    14.7336    18.2613    92.7799     8.0167     0.0240     2.3984     0.1545
  550.0000   -53.4921    17.7292    15.2726    17.7684    94.1283     8.0938     0.0212     2.4092     0.1457
  550.5000   -54.3093    17.4175    15.4412    17.7853    91.2300     8.1165     0.0141     2.4106     0.1430
  551.0000   -54.4463    17.1058    15.6294    17.8002    88.2218     8.1392     0.0152     2.4159     0.1400
  551.5000   -54.5793    16.8512    15.6478    17.4471    88.2627     8.1405     0.0183     2.4243     0.1378
  552.0000   -54.8574    16.7151    15.6764    16.9824    89.9070     8.1270     0.0085     2.4259     0.1357
  552.5000   -55.1436    16.5024    15.9159    16.7617    90.9683     8.1283     0.0056     2.4154     0.1405
  553.0000   -55.2766    16.2924    16.0316    16.7941    91.4235     8.1297     0.0019     2.4125     0.1427
  553.5000   -55.4095    16.0885    15.7038    16.1249    91.0903     8.1310     0.0035     2.4103     0.1435
  554.0000   -55.6876    15.7743    15.1856    15.9133    88.7241     8.1323     0.0066     2.4187     0.1394
  554.5000   -55.6713    15.4662    14.9096    15.8166    87.0232     8.1336     0.0096     2.4225     0.1373
  555.0000   -55.9575    15.2695    14.8242    15.5079    87.6574     8.1350     0.0043     2.4263     0.1326
  555.5000   -56.2397    15.0753    15.3681    15.2020    88.5700     8.1363     0.0014     2.4339     0.1289
  556.0000   -56.8163    15.0913    15.7086    15.1066    89.5069     8.1376     0.0068     2.4505     0.1199
  556.5000   -56.9533    15.1069    15.9459    15.0148    91.4418     8.1390     0.0100     2.4596     0.1151
  557.0000   -57.2355    14.9144    16.1869    15.0303    93.7138     8.1403     0.0160     2.4635     0.1135
  557.5000   -57.5177    14.6233    16.4315    15.0427    94.1272     8.1417     0.0213     2.4733     0.1057
  558.0000   -57.9492    14.5375    16.3373    14.9513    93.9930     8.1281     0.0150     2.4689     0.1063
  558.5000   -58.0821    14.4521    15.6917    14.7577    93.8637     8.1146     0.0085     2.4607     0.1150
  559.0000   -58.0617    14.3647    15.1762    14.5671    93.8878     8.1161     0.0055     2.4608     0.1156
  559.5000   -58.0454    14.0867    14.8777    14.3789    93.1641     8.0820     0.0026     2.4608     0.1140
  560.0000   -57.8798    13.9979    14.7924    14.1932    91.4003     8.0151     0.0052     2.4617     0.1077
  560.5000   -57.8635    13.8258    14.8141    14.0099    90.5280     8.0313     0.0096     2.4670     0.1062
  561.0000   -57.9970    13.7446    14.8314    13.9249    90.2452     8.1068     0.0126     2.4731     0.1083
  561.5000   -58.1298    13.6525    15.0555    13.9365    90.5665     8.1230     0.0044     2.4762     0.1146
  562.0000   -58.4119    13.5837    15.2830    13.8518    90.8829     8.1243     0.0150     2.4792     0.1091
  562.5000   -58.5447    13.5984    15.4071    13.8634    90.9022     8.1256     0.0105     2.4665     0.1130
  563.0000   -58.8268    13.7071    15.4251    13.8749    90.9214     8.1270     0.0083     2.4546     0.1184
  563.5000   -58.9597    13.8194    15.3322    13.7904    91.5350     8.1283     0.0092     2.4524     0.1187
  564.0000   -59.2418    13.9297    15.3546    13.8980    92.7430     8.1296     0.0131     2.4547     0.1178
  564.5000   -59.5239    14.0409    15.3726    14.0083    94.2481     8.1309     0.0153     2.4563     0.1171
  565.0000   -59.8061    14.0554    15.6049    14.0199    95.7533     8.1323     0.0169     2.4564     0.1165
  565.5000   -59.9472    14.0699    15.9506    14.2268    98.1499     8.1336     0.0192     2.4581     0.1153
  566.0000   -60.0720    14.2808    16.1916    14.5370   100.8438     8.1053     0.0260     2.4672     0.1129
  566.5000   -60.0552    14.4947    16.2106    14.4487   102.0517     8.0918     0.0419     2.4613     0.1164
  567.0000   -60.0388    13.9196    16.0066    13.7774   101.0309     7.9596     0.0578     2.4522     0.1185
  567.5000   -59.7239    13.6442    14.2481    13.4098    98.2269     7.7829     0.0654     2.4342     0.1290
  568.0000   -59.5582    13.4706    12.9486    13.3284    95.4230     7.6355     0.0368     2.4177     0.1332
  568.5000   -59.3893    13.7709    12.1810    13.7163    95.7394     7.8300     0.0339     2.4635     0.1170
  569.0000   -59.5263    14.0743    12.3656    14.0153    98.5819     7.9649     0.0241     2.4720     0.1094
  569.5000   -59.6592    14.3844    13.4511    14.1242    99.6412     8.0256     0.0204     2.4653     0.1100
  570.0000   -59.9373    14.3993    13.8445    14.2339   100.1063     8.0269     0.0182     2.4812     0.1061
  570.5000   -59.9210    13.7326    13.5762    14.0471   100.4227     8.0282     0.0160     2.4813     0.1015
  571.0000   -60.0580    13.1877    13.1302    13.5837   101.4821     8.0444     0.0116     2.4799     0.1018
  571.5000   -60.4894    12.8376    12.8753    13.1329   103.1358     8.0606     0.0034     2.4739     0.1027
  572.0000   -60.9168    12.9243    12.6260    12.6971   103.7446     8.0916    -0.0019     2.4755     0.1009
  572.5000   -61.3482    12.8661    12.5495    12.6174   102.7285     8.0929     0.0042     2.4906     0.0985
  573.0000   -61.7797    12.7026    12.3958    12.7180   102.0000     8.1091     0.0088     2.5050     0.0939
  573.5000   -62.2111    12.6281    12.4967    13.3597   101.4297     8.1104     0.0126     2.5148     0.0813
  574.0000   -62.6425    12.6411    12.5982    14.1312    99.6659     8.1266     0.0119     2.5194     0.0767
  574.5000   -63.0740    12.6542    12.7005    14.4363    99.8338     8.1279     0.0030     2.5150     0.0812
  575.0000   -63.3603    12.6673    12.7303    13.9601   100.1502     8.1141     0.0098     2.5105     0.0842
  575.5000   -63.3398    12.6805    12.8188    13.3115    99.7237     8.1006     0.0129     2.5069     0.0851
  576.0000   -63.3235    12.6936    12.7446    13.0486    98.5542     8.1022     0.0152     2.4987     0.0926
  576.5000   -63.3072    12.7068    12.7633    12.9695    98.7221     8.0887     0.0183     2.4927     0.0938
  577.0000   -63.4442    12.7200    12.6864    13.0704    99.7814     8.0901     0.0213     2.4913     0.0930
  577.5000   -63.4238    12.7332    12.6137    13.0812   100.5436     8.0914     0.0282     2.5034     0.0887
  578.0000   -63.4075    12.6581    12.8081    13.0920   100.7115     8.0927     0.0162     2.4975     0.0877
  578.5000   -63.5445    12.6717    13.1827    13.1028   100.8793     8.1089     0.0110     2.4893     0.0930
  579.0000   -63.8267    12.5968    13.6624    13.0232   100.4528     8.1102     0.0103     2.4871     0.0973
  579.5000   -63.9555    12.4365    14.1595    12.8549    98.9862     8.1116     0.0081     2.4887     0.0966
  580.0000   -63.9392    12.2783    14.3735    12.7768    93.8048     8.1129     0.0051     2.4978     0.0909
  580.5000   -63.7736    12.1220    14.4902    12.6854    93.0802     8.0991     0.0127     2.5038     0.0882
  581.0000   -63.7573    11.9709    14.3079    12.6221    93.5462     8.1008     0.0158     2.5069     0.0873
  581.5000   -63.7410    11.9832    14.0305    12.5455    96.8360     8.1022     0.0106     2.5078     0.0860
  582.0000   -63.7247    11.9956    13.6637    12.4693   101.0157     8.0887     0.0099     2.5048     0.0896
  582.5000   -63.8582    11.9221    12.7657    12.4821   103.7095     8.0010     0.0152     2.4981     0.0914
  583.0000   -64.1403    11.8521    12.0096    12.4924   105.9576     7.9133     0.0123     2.4974     0.0923
