~VERSION INFORMATION
 VERS.                2.0:   CWLS LOG ASCII STANDARD - VERSION 2.0
 WRAP.                 NO:   ONE LINE PER DEPTH STEP
~WELL INFORMATION
#MNEM.UNIT      DATA TYPE    INFORMATION
#----------   ------------   ------------------------------
 STRT.F           30.0000:   START DEPTH
 STOP.F          570.0000:   STOP DEPTH
 STEP.F            0.5000:   STEP LENGTH
 NULL.          -999.2500:   NO VALUE
 COMP.    FENIX & SCISSON:   COMPANY
 WELL.  NPR #3 #13SX11-11:   WELL
 FLD .             TEAPOT:   FIELD
 LOC .      S11 T38N R78W:   LOCATION
 CNTY.            NATRONA:   COUNTY
 STAT.            WYOMING:   STATE
 CTRY. UNITED STATES OF AMERICA:   COUNTRY
 SRVC.       Schlumberger:   SERVICE COMPANY
 DATE.        27-FEB-1977:   LOGDATE
 API .       490251029400:   API NUMBER
~CURVE INFORMATION
#MNEM.UNIT       API CODE    CURVE DESCRIPTION
#----------   ------------   ------------------------------
 DEPT.F                  :   
 GRD .GAPI   45 310 01 00:   GAMMA RAY FROM DENSITY LOG
 CALD.IN     45 280 60 00:   CALIPER FROM DENSITY LOG
 CORR.G/C3   45 356 01 00:   DENSITY CORRECTION
 DPHI.DEC    45 890 12 00:   DENSITY POROSITY STANDSTONE
 RHOB.G/C3   45 350 01 00:   BULK DENSITY
 SPR .MV     07 010 01 00:   SPONTANEOUS POTENTIAL
 ILD .OHMM   07 120 46 00:   INDUCTION LOG DEEP
 ILM .OHMM   07 120 44 00:   INDUCTION LOG MEDIUM
 LL8 .OHMM   07 220 08 00:   LATEROLOG-8 RES.
~PARAMETER INFORMATION
#MNEM.UNIT          VALUE    DESCRIPTION
#----------   ------------   ------------------------------
 PD  .                 GL:   PERMANENT DATUM
 EPD .F              5180:   ELEVATION PERMANENT DATUM
 LMF .                 GL:   LOG MEASURED FROM
 DAPD.F                 0:   FEET ABOVE PERMANENT DATUM
 DMF .                 GL:   DRILLING MEASURED FROM
 EKB .F              5183:   KELLING BUSHING
 EGL .F              5180:   GROUND LEVEL
 DATE.        27-FEB-1977:   RUN DATE
 RUN .                  1:   RUN NUMBER
 DD  .F               585:   DEPTH DRILLER
 DL  .F               571:   DEPTH LOGGER
 BLI .F               570:   BOTTOM LOG INTERVAL
 TLI .F                44:   TOP LOG INTERVAL
 CS  .IN            8.625:   CASING SIZE
 CBD .F                40:   CASING BOTTOM DRILLER
 CBL .F                44:   CASING BOTTOM LOGGER
 BS  .IN            7.875:   BIT SIZE
 BSD .F               585:   BIT SIZE AT DEPTH
 DFT .                KCL:   DRILLING FLUID TYPE
 DFD .                8.7:   DRILLING FLUID DENSITY
 DFV .                 42:   DRILLING FLUID VISCOSITY
 DFPH.                  8:   DRILLING FLUID PH
 DFL .                9.2:   DRILLING FLUID LOSS
 MSS .                PIT:   MUD SAMPLE SOURCE
 RMS .OHMM           .806:   RESISTIVITY MUD SAMPLE
 MST .F                70:   MUD SAMPLE TEMPERATURE
 RMF .OHMM           .720:   RESISTIVITY MUD FILTRATE SAMPLE
 MFST.F                70:   MUD FILTRATE SAMPLE TEMPERATURE
 MFSS.               MEAS:   MUD FILTRATE SAMPLE SOURCE
 RMB .OHMM           .973:   RESISTIVITY MUD AT BHT
 BHT .F                58:   BOTTOM HOLE TEMPERATURE
 TCS .HRS            0230:   TIME CURCULATED STOPPED
 MRT .F                58:   MAXIMUM RECORDED TEMPERATURE
 LUN .               5642:   LOGGING UNIT NUMBER
 LUL .             CASPER:   LOGGING UNIT LOCATION
 ENGI.         JIM MARTIN:   RECORDING ENGINEER
 WITN.         STUEBINGER:   WITNESSED BY
 CLNT.            A2DTECH:   CLIENT CODE
 ORIG.           5" PRINT:   ORIGIN OF DATA
 UWI .       490251029400:   UNIQUE WELL ID
 DICO. A2D Technologies, Inc.:   DIGITIZING COMPANY
~OTHER INFORMATION
~A   DEPT      GRD       CALD       CORR       DPHI       RHOB        SPR        ILD        ILM        LL8   
# ...
  212.5000   105.3707     8.1586     0.0142     0.0998     2.5045   -24.6603    11.8251    11.8472    13.0102
  213.0000   104.9168     8.1608     0.0052     0.1033     2.5045   -24.5107    11.7405    11.8424    12.9166
  213.5000   106.1271     8.1630     0.0097     0.1108     2.4819   -24.0587    11.7375    11.8375    12.5583
  214.0000   101.7398     8.1652     0.0030     0.1188     2.4496   -23.6070    11.7345    11.8325    12.2977
  214.5000   100.2269     8.1675    -0.0098     0.1263     2.4353   -23.6088    11.6506    11.6647    12.3043
  215.0000   100.9834     8.1697    -0.0031     0.1209     2.4514   -23.7614    11.4876    11.4860    12.5785
  215.5000   102.4962     8.1719     0.0089     0.1194     2.4578   -24.0650    11.3268    11.2568    12.9887
  216.0000   103.7105     8.1742     0.0134     0.1209     2.4352   -24.6707    11.1682    11.0972    12.2835
  216.5000   104.7786     8.1764     0.0156     0.1248     2.4224   -24.9743    11.0119    10.9399    11.6982
  217.0000   105.5461     8.1786     0.0126     0.1299     2.4299   -25.2779    10.7829    10.8598    11.1408
  217.5000   105.2194     8.1809     0.0171     0.1351     2.4359   -25.4305    10.6246    10.7803    11.0607
  218.0000   104.3116     8.1831     0.0231     0.1444     2.4163   -25.4320    10.4831    10.6274    11.5276
  218.5000   104.1604     8.1853     0.0103     0.1462     2.4110   -25.4058    10.4798    10.5496    12.0141
  219.0000   104.1604     8.1875     0.0155     0.1417     2.4185   -25.2839    10.4772    10.5453    11.8453
  219.5000   105.0681     8.1897     0.0155     0.1357     2.4283   -25.2858    10.4745    10.4681    11.3594
  220.0000   106.7322     8.2052     0.0095     0.1375     2.4004   -25.1358    10.6177    10.4638    11.0456
  220.5000   107.7912     8.3649     0.0005     0.1402     2.4004   -24.9863    10.6894    10.4595    11.0426
  221.0000   104.0091     8.8871     0.0065     0.1369     2.4065   -24.8367    10.7609    10.5280    11.0395
  221.5000   100.9834     8.7344     0.0140     0.1218     2.4308   -24.6875    10.9081    10.5969    11.5055
  222.0000    99.0166     8.2070     0.0186     0.1179     2.4551   -24.6890    10.9810    10.8154    11.3439
  222.5000    99.1679     8.1018     0.0214     0.1161     2.4619   -24.6905    10.9775    11.0381    11.0305
  223.0000   100.5416     8.1163     0.0139     0.1246     2.4527   -24.6920    10.9747    11.1104    11.1815
  223.5000    99.9384     8.1154     0.0019     0.1348     2.4164   -24.6935    10.9719    11.1058    11.6561
  224.0000    95.2345     8.1144     0.0004     0.1289     2.4227   -24.8460    10.8934    11.0244    11.8951
  224.5000    94.0242     8.1134     0.0094     0.1212     2.4370   -25.3007    10.7410    10.8593    11.0860
  225.0000    94.3268     8.1124     0.0064     0.1155     2.4519   -25.6043    10.6642    10.6275    10.7885
  225.5000    95.8396     8.1115     0.0049     0.1140     2.4617   -25.7568    10.4424    10.3436    11.6398
  226.0000    99.0166     8.1105     0.0078     0.1209     2.4496   -25.7583    10.2962    10.1969    13.7451
  226.5000   101.2859     8.1095     0.0101     0.1137     2.4616   -25.7598    10.1520    10.0523    12.8197
  227.0000   102.9501     8.1086     0.0123     0.1083     2.4683   -25.6103     9.9404     9.9097    12.0406
  227.5000   103.7065     8.1076     0.0093     0.1062     2.4773   -25.4607     9.8012     9.9057    11.4669
  228.0000   101.8911     8.1066     0.0108     0.1053     2.4841   -25.4622     9.6641     9.9016    10.9965
  228.5000   100.2269     8.1056     0.0123     0.1075     2.4848   -25.3126     9.5288     9.8291    10.7671
  229.0000    98.8654     8.1047     0.0092     0.1035     2.4900   -25.3145     9.3954     9.7572    10.5425
  229.5000    97.2012     8.1037    -0.0080     0.1023     2.4953   -25.3160     9.2639     9.6188    10.2513
  230.0000    95.8296     8.1027     0.0032     0.0992     2.5027   -25.3175     9.1977     9.6149    10.1776
  230.5000    96.5507     8.1018     0.0100     0.1243     2.4764   -25.3190     9.0689     9.4785    10.3888
  231.0000    99.3192     8.1008     0.0017     0.1378     2.4306   -25.3205     9.0666     9.3441    10.5317
  231.5000   100.3782     8.0998     0.0107     0.1415     2.4208   -25.3219     9.0643     9.3403    10.5417
  232.0000   100.8321     8.0988     0.0137     0.1400     2.4192   -25.0209     9.1250     9.3279    10.0962
  232.5000   100.6808     8.0979     0.0133     0.1436     2.4132   -24.7203     9.1860     9.3327     9.7494
  233.0000   100.3782     8.0969     0.0046     0.1388     2.4177   -24.7222     9.2474     9.3288     9.7445
  233.5000   100.0756     8.0959     0.0204     0.1403     2.4231   -24.7237     9.3092     9.3249    10.1605
  234.0000   100.9834     8.0950     0.0263     0.1379     2.4071   -24.7252     9.3068     9.3860    10.3689
  234.5000   101.5885     8.0940     0.0248     0.1306     2.4011   -24.8777     9.3043     9.3820     9.7829
  235.0000   100.5295     8.0930     0.0196     0.1273     2.4288   -25.6345     9.3015     9.4543     9.4041
  235.5000   100.0756     8.0920     0.0158     0.1300     2.4386   -26.0892     9.2991     9.5715     9.5323
  236.0000    99.4705     8.0911     0.0113     0.1356     2.4355   -26.5438     9.2967     9.5666     9.8660
  236.5000    99.4766     8.0901     0.0015     0.1379     2.4332   -26.5453     9.2302     9.5626    10.3540
  237.0000   100.8603     8.0891     0.0090     0.1376     2.4310   -26.5468     9.2279     9.4926    10.7164
  237.5000   101.4372     8.0882     0.0097     0.1349     2.4264   -26.5483     9.1619     9.3580    10.7887
  238.0000   102.7988     8.0872     0.0109     0.1225     2.4454   -26.5498     8.9714     9.2895    10.7850
  238.5000   104.7655     8.0862     0.0210     0.1201     2.4549   -26.5514     8.6043     8.7845    10.5601
  239.0000   106.1271     8.0845     0.0224     0.1255     2.4241   -26.5532     8.3096     8.1359    10.0569
  239.5000   106.7322     8.0826     0.0194     0.1307     2.4301   -26.8568     8.0249     7.8011     9.6443
  240.0000   105.5219     8.0808     0.0119     0.1228     2.4473   -27.1604     7.6966     7.5321     9.2487
  240.5000   104.0091     8.0790     0.0194     0.1216     2.4503   -27.1619     7.4330     7.4253     8.2178
  241.0000   102.9501     8.0772     0.0179     0.1246     2.4330   -27.1634     7.3289     7.4739     7.6121
  241.5000   103.4039     8.0753     0.0254     0.1346     2.4292   -26.8624     7.3779     7.6281     7.8241
  242.0000   107.1861     8.0735     0.0284     0.1427     2.3976   -26.5617     7.5328     7.8393     8.4420
  242.5000   110.2118     8.0717     0.0043     0.1426     2.3961   -26.1104     7.6921     8.0565     8.9833
  243.0000   111.2708     8.0699     0.0021     0.1379     2.4186   -25.8098     7.8460     8.1657     8.9188
  243.5000   112.4882     8.0681     0.0122     0.1277     2.4366   -25.9624     8.0636     8.2773     8.6105
  244.0000   111.5795     8.0662     0.0328     0.1247     2.4478   -26.5681     8.1181     8.3885     8.4915
  244.5000   107.3374     8.0644     0.0313     0.1337     2.4294   -27.1738     8.1723     8.3849     8.8030
  245.0000   105.8245     8.0626     0.0088     0.1289     2.4147   -27.3263     8.2270     8.3814     9.2448
  245.5000   105.0681     8.0608     0.0013     0.1235     2.4417   -27.3278     8.2815     8.4952     9.9512
  246.0000   105.6732     8.0589     0.0020     0.1319     2.4297   -27.3293     8.2794     8.6094     9.3465
  246.5000   107.0348     8.0571     0.0042     0.1379     2.4229   -27.3308     8.3931     8.6667     8.9630
  247.0000   107.9425     8.0553     0.0110     0.1383     2.4289   -27.3323     8.5079     8.7234     9.1490
  247.5000   107.6399     8.0535     0.0139     0.1355     2.4371   -27.3338     8.5932     8.8416     9.6015
  248.0000   106.4296     8.0516     0.0079     0.1307     2.4108   -27.4864     8.9559     8.9614     9.9375
  248.5000   106.7322     8.0498     0.0027     0.1252     2.4273   -27.4879     8.9535     9.1451     9.8662
