~VERSION INFORMATION
 VERS.                2.0:   CWLS LOG ASCII STANDARD - VERSION 2.0
 WRAP.                 NO:   ONE LINE PER DEPTH STEP
~WELL INFORMATION
#MNEM.UNIT      DATA TYPE    INFORMATION
#----------   ------------   ------------------------------
 STRT.F           20.0000:   START DEPTH
 STOP.F          678.0000:   STOP DEPTH
 STEP.F            0.5000:   STEP LENGTH
 NULL.          -999.2500:   NO VALUE
 COMP. FENIX & SCISSON INC:   COMPANY
 WELL. 27-42 SX 11 WO #27-11:   WELL
 FLD .        TEAPOT DOME:   FIELD
 LOC .      S11 T38N R78W:   LOCATION
 CNTY.            NATRONA:   COUNTY
 STAT.            WYOMING:   STATE
 CTRY. UNITED STATES OF AMERICA:   COUNTRY
 SRVC.      Dresser Atlas:   SERVICE COMPANY
 DATE.        13-AUG-1985:   LOGDATE
 API .       490251083800:   API NUMBER
~CURVE INFORMATION
#MNEM.UNIT       API CODE    CURVE DESCRIPTION
#----------   ------------   ------------------------------
 DEPT.F                  :   
 RHOB.G/C3   45 350 01 00:   BULK DENSITY
 CORR.G/C3   45 356 01 00:   DENSITY CORRECTION
 CALD.IN     45 280 60 00:   CALIPER
 GRD .GAPI   45 310 01 00:   GAMMA RAY FROM DENSITY LOG
 DPOR.DEC    45 890 12 00:   DENSITY POROSITY SANDSTONE
 NPOR.DEC    42 890 03 00:   NEUTRON POROSITY SANDSTONE
 SPR .MV     07 010 01 00:   SPONTANEOUS POTENTIAL
 SFL .OHMM   07 220 01 00:   SHALLOW FOCUSED LOG RESISTIVITY
 ILD .OHMM   07 120 46 00:   INDUCTION LOG DEEP
 ILM .OHMM   07 120 44 00:   INDUCTION LOG MEDIUM
~PARAMETER INFORMATION
#MNEM.UNIT          VALUE    DESCRIPTION
#----------   ------------   ------------------------------
 PD  .                 GL:   PERMANENT DATUM
 EPD .F              5188:   ELEVATION PERMANENT DATUM
 LMF .                 KB:   LOG MEASURED FROM
 DAPD.F                 5:   FEET ABOVE PERMANENT DATUM
 DMF .                 KB:   DRILLING MEASURED FROM
 EKB .F              5193:   KELLING BUSHING
 EGL .F              5188:   GROUND LEVEL
 DATE.          8-13-1985:   RUN DATE
 RUN .                  8:   RUN NUMBER
 DD  .F               632:   DEPTH DRILLER
 BLI .F               598:   BOTTOM LOG INTERVAL
 TLI .F               303:   TOP LOG INTERVAL
 CBL .F               303:   CASING BOTTOM LOGGER
 BS  .IN              .75:   BIT SIZE
 BSD .F               632:   BIT SIZE AT DEPTH
 DFT .          KCL WATER:   DRILLING FLUID TYPE
 LUN .            HL-6274:   LOGGING UNIT NUMBER
 LUL .           GILLETTE:   LOGGING UNIT LOCATION
 ENGI.             RAUTIO:   RECORDING ENGINEER
 WITN.            SCHULTE:   WITNESSED BY
 CLNT.            A2DTECH:   CLIENT CODE
 ORIG.           2" PRINT:   ORIGIN OF DATA
 UWI .       490251083800:   UNIQUE WELL ID
 DICO. A2D Technologies, Inc.:   DIGITIZING COMPANY
~OTHER INFORMATION
~A   DEPT     RHOB       CORR       CALD        GRD       DPOR       NPOR        SPR        SFL        ILD          ILM 
# ...
  388.5000     2.5107     0.0921     8.8235   125.2977     0.1013     0.3293    -6.9724     7.2579     5.9967     5.6940
  389.0000     2.5063     0.0937     8.8100   123.5440     0.1037     0.3266    -6.9720     7.3204     6.1530     5.9303
  389.5000     2.5033     0.0956     8.8197   121.5948     0.1063     0.3240    -6.9717     7.3835     6.3133     6.1247
  390.0000     2.4969     0.1000     8.8299   121.4566     0.1109     0.3200    -6.9722     7.4470     6.4713     6.1247
  390.5000     2.4891     0.1049     8.8408   122.8866     0.1167     0.3123    -6.9736     7.4944     6.4713     6.1247
  391.0000     2.4800     0.1098     8.8417   124.6377     0.1183     0.3044    -6.9714     7.4012     6.3740     6.1247
  391.5000     2.4816     0.1146     8.8097   123.3005     0.1194     0.3044    -6.9686     7.2958     6.2643     5.9791
  392.0000     2.4780     0.1196     8.7786   125.6383     0.1207     0.3115    -6.8667     7.1918     6.1564     5.8490
  392.5000     2.4776     0.1246     8.7460   124.2436     0.1145     0.3205    -6.7538     7.0893     6.0504     5.7217
  393.0000     2.4900     0.1273     8.7138   123.0649     0.1178     0.3273    -6.6385     6.9883     5.9461     5.5972
  393.5000     2.4767     0.1172     8.6894   124.6078     0.1251     0.3319    -6.5254     6.8888     5.8438     5.4753
  394.0000     2.4631     0.1069     8.6889   125.4510     0.1323     0.3339    -6.4090     6.7906     5.7431     5.3475
  394.5000     2.4524     0.1036     8.6957   124.2949     0.1367     0.3329    -6.2986     6.6939     5.5865     5.1984
  395.0000     2.4605     0.1085     8.7183   125.8140     0.1264     0.3301    -6.1836     6.5911     5.3738     5.0981
  395.5000     2.4745     0.1134     8.7403   125.9229     0.1160     0.3275    -6.1721     6.5911     5.1691     4.8963
  396.0000     2.4901     0.1190     8.7633   124.5056     0.1140     0.3304    -6.3151     6.5911     4.9722     4.6866
  396.5000     2.4892     0.1141     8.7845   126.4917     0.1182     0.3345    -6.5011     6.5004     4.7828     4.4858
  397.0000     2.4844     0.1081     8.8063   124.7448     0.1192     0.3387    -6.6652     6.3490     4.6007     4.2936
  397.5000     2.4794     0.1016     8.7868   126.9661     0.1287     0.3428    -6.9297     6.1202     4.4021     4.1097
  398.0000     2.4542     0.0954     8.7648   129.3087     0.1437     0.3509    -6.6811     5.6755     4.2435     3.9432
  398.5000     2.4326     0.0892     8.7385   130.5044     0.1567     0.3640    -7.0627     5.2631     4.1663     4.0723
  399.0000     2.4185     0.0836     8.7424   131.5910     0.1513     0.3741    -7.4749     4.8806     4.2435     4.2602
  399.5000     2.4352     0.0871     8.7757   132.4298     0.1407     0.3713    -7.9375     4.6512     4.5588     4.4567
  400.0000     2.4591     0.0976     8.8064   131.4405     0.1302     0.3657    -8.3595     5.9858     4.8546     4.6623
  400.5000     2.4740     0.1080     8.8384   129.3101     0.1200     0.3603    -8.8372     6.9641     5.1696     4.8774
  401.0000     2.4776     0.1157     8.8425   127.4367     0.1178     0.3355    -8.7195     7.2680     5.5051     5.1024
  401.5000     2.4824     0.1134     8.8305   129.0895     0.1157     0.3301    -8.2146     7.3581     5.7640     5.3379
  402.0000     2.4873     0.1091     8.8175   132.8893     0.1136     0.3275    -7.7594     7.3231     5.9214     5.5841
  402.5000     2.4907     0.1045     8.8033   135.1001     0.1128     0.3320    -7.3870     7.2089     6.0831     5.8417
  403.0000     2.4857     0.1053     8.7607   133.7729     0.1164     0.3366    -7.3743     7.0930     6.1367     6.0134
  403.5000     2.4861     0.1117     8.8035   133.3349     0.1117     0.3411    -7.3667     7.1654     6.1528     6.0134
  404.0000     2.4983     0.1062     8.8294   134.4497     0.1047     0.3435    -7.3709     7.2409     6.1690     6.0134
  404.5000     2.5029     0.0936     8.8563   135.7146     0.1085     0.3451    -7.3695     7.3171     6.1851     6.0134
  405.0000     2.4950     0.0841     8.8814   136.0966     0.1120     0.3438    -7.3705     7.3581     6.2014     6.0134
  405.5000     2.4991     0.0840     8.9073   134.1810     0.1080     0.3415    -7.3702     7.3847     6.2176     6.0134
  406.0000     2.5000     0.0948     8.9280   132.3485     0.1079     0.3387    -7.3697     7.4235     6.2339     6.0134
  406.5000     2.4945     0.0953     8.9197   131.3336     0.1110     0.3387    -7.3797     7.4625     6.2381     6.0134
  407.0000     2.4896     0.0960     8.9093   131.4521     0.1144     0.3408    -7.2824     7.5017     6.2381     6.0134
  407.5000     2.4874     0.0956     8.8982   133.3040     0.1144     0.3439    -7.1016     7.5413     6.2381     6.0134
  408.0000     2.5037     0.1070     8.8872   135.5270     0.0989     0.3453    -6.9305     7.5809     6.2382     6.0134
  408.5000     2.5338     0.1229     8.8766   136.9935     0.0879     0.3434    -6.7617     7.6331     6.2382     6.0134
  409.0000     2.5287     0.1364     8.8657   136.1837     0.0923     0.3416    -6.5890     7.6228     6.2382     6.0134
  409.5000     2.5196     0.1273     8.8541   135.0467     0.0977     0.3426    -6.4180     7.5869     6.2381     6.0135
  410.0000     2.5098     0.1131     8.8481   132.5330     0.1030     0.3499    -6.2484     7.5510     6.2381     6.0136
  410.5000     2.5002     0.0999     8.8487   130.6436     0.1083     0.3463    -6.0745     7.5153     6.2382     6.0135
  411.0000     2.4911     0.0866     8.8535   130.5311     0.1142     0.3430    -5.9038     7.4801     6.2379     6.0143
  411.5000     2.4878     0.0835     8.8590   131.4149     0.1098     0.3411    -5.7782     7.4449     6.2381     6.0134
  412.0000     2.5077     0.0869     8.8650   132.6938     0.0983     0.3492    -5.7671     7.4099     6.2379     6.0131
  412.5000     2.5270     0.1008     8.8706   131.6328     0.0866     0.3563    -5.8730     7.3581     6.2372     6.0134
  413.0000     2.5418     0.1136     8.8761   130.9316     0.0745     0.3515    -6.0479     7.4178     6.2377     5.9606
  413.5000     2.5552     0.1181     8.8823   131.4198     0.0748     0.3470    -6.2112     7.5353     6.2397     5.8593
  414.0000     2.5504     0.0912     8.8890   132.0296     0.0842     0.3427    -6.3707     7.6331     6.2036     5.7597
  414.5000     2.5297     0.0684     8.9193   131.4721     0.0957     0.3351    -6.5339     7.5129     6.1369     5.6618
  415.0000     2.5098     0.0438     8.9532   132.9541     0.1072     0.3277    -6.6964     7.4123     6.0720     5.5791
  415.5000     2.4884     0.0278     8.9880   134.4431     0.1152     0.3195    -6.8606     7.3581     6.0126     5.5416
  416.0000     2.4881     0.0283     9.0225   136.0501     0.1119     0.3222    -6.9750     7.3581     5.8574     5.5044
  416.5000     2.4977     0.0316     9.0489   136.3374     0.1056     0.3273    -6.9708     7.3581     5.7156     5.4863
  417.0000     2.5046     0.0323     9.0535   135.8640     0.1048     0.3332    -6.9698     6.9871     5.5773     5.4234
  417.5000     2.5009     0.0350     9.0585   136.2218     0.1096     0.3423    -6.8750     6.2381     5.4423     5.2437
  418.0000     2.4973     0.0375     9.0632   136.1801     0.0992     0.3533    -6.7738     6.3536     5.3104     5.0701
  418.5000     2.5153     0.0404     9.0677   136.1525     0.1010     0.3715    -6.6700     6.7265     5.1814     4.9022
  419.0000     2.5083     0.0388     9.0725   136.3572     0.1044     0.3692    -6.5674     7.0930     5.0555     4.7398
  419.5000     2.4934     0.0309     9.0771   136.7773     0.1089     0.3627    -6.4651     7.1439     4.9327     4.5828
  420.0000     2.4783     0.0242     9.0816   136.2727     0.1175     0.3562    -6.3613     7.2243     4.8133     4.4310
  420.5000     2.4639     0.0240     9.0864   133.3727     0.1262     0.3515    -6.2588     7.1100     4.7361     4.2843
  421.0000     2.4483     0.0236     9.0847   131.5257     0.1348     0.3554    -6.1758     6.3770     4.7366     4.1663
  421.5000     2.4367     0.0273     9.0802   133.2209     0.1439     0.3598    -6.1757     5.4495     4.7371     4.3371
