~VERSION INFORMATION
 VERS.                2.0:   CWLS LOG ASCII STANDARD - VERSION 2.0
 WRAP.                 NO:   ONE LINE PER DEPTH STEP
~WELL INFORMATION
#MNEM.UNIT      DATA TYPE    INFORMATION
#----------   ------------   ------------------------------
 STRT.F           40.0000:   START DEPTH
 STOP.F          684.0000:   STOP DEPTH
 STEP.F            0.5000:   STEP LENGTH
 NULL.          -999.2500:   NO VALUE
 COMP.    FENIX & SCISSON:   COMPANY
 WELL.   N P R-3 #26SX2-2:   WELL
 FLD .             TEAPOT:   FIELD
 LOC .       S2 T38N R78W:   LOCATION
 CNTY.            NATRONA:   COUNTY
 STAT.            WYOMING:   STATE
 CTRY. UNITED STATES OF AMERICA:   COUNTRY
 SRVC.            Unknown:   SERVICE COMPANY
 DATE.        26-JAN-1978:   LOGDATE
 API .       490251056400:   API NUMBER
~CURVE INFORMATION
#MNEM.UNIT       API CODE    CURVE DESCRIPTION
#----------   ------------   ------------------------------
 DEPT.F                  :   
 ILD .OHMM   05 120 46 00:   INDUCTION LOG DEEP
 SN  .OHMM   05 040 16 00:   SHORT NORMAL 16"
 SPR .MV     05 010 01 00:   SPONTANEOUS POTENTIAL FROM RES.
 CALD.IN     45 280 60 00:   CALIPER FROM DENSITY LOG
 CORR.G/C3   45 356 01 00:   DENSITY CORRECTION
 DPHI.DEC    45 890 12 00:   DENSITY POROSITY SANDSTONE
 GRD .GAPI   45 310 01 00:   GAMMA RAY FROM DENSITY LOG
 RHOB.G/C3   45 350 01 00:   BULK DENSITY
~PARAMETER INFORMATION
#MNEM.UNIT          VALUE    DESCRIPTION
#----------   ------------   ------------------------------
 PD  .                 GL:   PERMANENT DATUM
 EPD .F              5142:   ELEVATION PERMANENT DATUM
 LMF .                 KB:   LOG MEASURED FROM
 DMF .                 KB:   DRILLING MEASURED FROM
 EKB .F              5146:   KELLING BUSHING
 EGL .F              5142:   GROUND LEVEL
 DATE.        26-JAN-1978:   RUN DATE
 RUN .                  1:   RUN NUMBER
 DD  .F               690:   DEPTH DRILLER
 DL  .F               684:   DEPTH LOGGER
 BLI .F               684:   BOTTOM LOG INTERVAL
 TLI .F                50:   TOP LOG INTERVAL
 CS  .IN            8.625:   CASING SIZE
 CBD .F                39:   CASING BOTTOM DRILLER
 CBL .F                40:   CASING BOTTOM LOGGER
 BS  .IN            7.875:   BIT SIZE
 BSD .F               690:   BIT SIZE AT DEPTH
 DFT .                KCL:   DRILLING FLUID TYPE
 DFD .                8.5:   DRILLING FLUID DENSITY
 DFV .                 33:   DRILLING FLUID VISCOSITY
 DFPH.                  9:   DRILLING FLUID PH
 MSS .           FLOWLINE:   MUD SAMPLE SOURCE
 RMS .OHMM           0.48:   RESISTIVITY MUD SAMPLE
 MST .F                75:   MUD SAMPLE TEMPERATURE
 RMF .OHMM           0.46:   RESISTIVITY MUD FILTRATE SAMPLE
 MFST.F                75:   MUD FILTRATE SAMPLE TEMPERATURE
 RMC .OHMM              1:   RESISTIVITY MUD CAKE
 MCST.F                75:   MUD CAKE SAMPLE TEMPERATURE
 MFSS.               MEAS:   MUD FILTRATE SAMPLE SOURCE
 MCSS.               MEAS:   MUD CAKE SAMPLE SOURCE
 RMB .OHMM           0.47:   RESISTIVITY MUD AT BHT
 BHT .F                76:   BOTTOM HOLE TEMPERATURE
 TCS .HRS               1:   TIME CURCULATED STOPPED
 MRT .F                76:   MAXIMUM RECORDED TEMPERATURE
 LUN .               2958:   LOGGING UNIT NUMBER
 LUL .             CASPER:   LOGGING UNIT LOCATION
 ENGI.           REYNOLDS:   RECORDING ENGINEER
 WITN.       MR. MCGINLEY:   WITNESSED BY
 CLNT.            A2DTECH:   CLIENT CODE
 ORIG.      2.5" 5" PRINT:   ORIGIN OF DATA
 UWI .       490251056400:   UNIQUE WELL ID
 DICO. A2D Technologies, Inc.:   DIGITIZING COMPANY
~OTHER INFORMATION
~A   DEPT      ILD         SN        SPR       CALD       CORR       DPHI         GRD        RHOB 
# ...
  364.0000     7.2199     8.0670   -57.3666     9.2553     0.1798     0.1801    94.0367     2.3676
  364.5000     7.2756     8.1849   -57.3506     9.2553     0.1767     0.1819    95.2599     2.3661
  365.0000     7.2815     8.1910   -57.1863     9.2553     0.1737     0.1833    97.7064     2.3631
  365.5000     7.3377     8.1971   -57.0221     9.2553     0.1737     0.1850    97.0469     2.3615
  366.0000     7.2933     8.2031   -56.8578     9.2553     0.1737     0.1869    96.0917     2.3586
  366.5000     7.2992     8.2092   -56.6935     9.2553     0.1737     0.1835    94.7691     2.3607
  367.0000     7.2550     8.2721   -56.6775     9.2553     0.1707     0.1794    93.6504     2.3635
  367.5000     7.2611     8.3581   -56.6615     9.2553     0.1707     0.1779    92.8135     2.3647
  368.0000     7.2169     8.3992   -56.6451     9.2553     0.1707     0.1797    92.8135     2.3647
  368.5000     7.2242     8.4054   -56.6288     9.2553     0.1677     0.1812    93.9419     2.3640
  369.0000     7.2300     8.4118   -56.7618     9.2553     0.1677     0.1830    97.1070     2.3624
  369.5000     7.1848     8.4181   -56.8940     9.2553     0.1677     0.1848    98.6677     2.3601
  370.0000     7.1921     8.4245   -56.8740     9.2553     0.1677     0.1867    99.2355     2.3571
  370.5000     7.1979     8.4320   -56.8580     9.2553     0.1707     0.1873    98.3180     2.3571
  371.0000     7.2034     8.3804   -56.8420     9.2553     0.1707     0.1873    97.4006     2.3556
  371.5000     7.2095     8.3866   -56.8260     9.2553     0.1707     0.1855    96.4832     2.3541
  372.0000     7.2153     8.3771   -56.9623     9.2857     0.1737     0.1794    95.8716     2.3602
  372.5000     7.2211     8.3399   -56.9423     9.2857     0.1737     0.1750    95.2599     2.3738
  373.0000     7.1774     8.2888   -57.0751     9.2857     0.1745     0.1713    96.4872     2.3814
  373.5000     7.1354     8.2965   -57.0586     9.2857     0.1798     0.1638    98.6239     2.3875
  374.0000     7.1412     8.3025   -57.0425     9.2857     0.1839     0.1592    97.6289     2.3921
  374.5000     7.0965     8.3089   -57.3361     9.2553     0.1902     0.1588    96.4256     2.3952
  375.0000     7.0536     8.3150   -57.6036     9.2553     0.1964     0.1639    95.7951     2.3900
  375.5000     7.0607     8.3213   -57.8802     9.2553     0.1962     0.1677    95.1646     2.3823
  376.0000     7.0664     8.3276   -58.0164     9.2774     0.1918     0.1718    94.2283     2.3765
  376.5000     7.0721     8.3351   -57.8482     9.2857     0.1858     0.1749    93.5979     2.3714
  377.0000     7.0778     8.3413   -57.5356     9.2857     0.1858     0.1771    92.8135     2.3657
  377.5000     7.0835     8.3475   -57.0748     9.2857     0.1858     0.1788    92.6427     2.3633
  378.0000     7.1382     8.3537   -56.9105     9.2857     0.1858     0.1800    92.8135     2.3648
  378.5000     7.1440     8.3010   -56.7463     9.2857     0.1858     0.1746    93.7309     2.3694
  379.0000     7.0520     8.2517   -56.5820     9.2857     0.1858     0.1704    94.3425     2.3648
  379.5000     6.9613     8.1997   -56.5660     9.2857     0.1888     0.1728    94.9541     2.3644
  380.0000     6.9192     8.1495   -56.4017     9.2857     0.1918     0.1752    95.2599     2.3679
  380.5000     6.8787     8.1570   -56.5340     9.2857     0.1952     0.1789    95.8716     2.3649
  381.0000     6.8357     8.1631   -56.8145     9.2857     0.1979     0.1855    96.1774     2.3649
  381.5000     6.8426     8.1692   -57.1186     9.2857     0.2009     0.1904    96.1616     2.3573
  382.0000     6.8481     8.1126   -57.5199     9.2857     0.2009     0.1840    95.2599     2.3603
  382.5000     6.8064     8.0156   -57.8044     9.2857     0.1958     0.1695    94.5948     2.3740
  383.0000     6.7654     7.9650   -57.9367     9.2857     0.1846     0.1704    94.0367     2.3816
  383.5000     6.7245     7.9177   -58.2172     9.2857     0.1798     0.1758    93.6397     2.3781
  384.0000     6.6784     7.8153   -58.3455     9.2857     0.1752     0.1797    93.3150     2.3719
  384.5000     6.5090     7.7660   -58.3295     9.2857     0.1737     0.1807    92.8135     2.3676
  385.0000     6.4239     7.6669   -58.3135     9.2553     0.1737     0.1805    92.8135     2.3649
  385.5000     6.2991     7.5663   -58.2975     9.2553     0.1737     0.1777    92.8135     2.3634
  386.0000     6.2180     7.4185   -58.2815     9.2652     0.1767     0.1780    92.8135     2.3634
  386.5000     6.1791     7.2723   -58.2654     9.2857     0.1828     0.1798    92.8135     2.3634
  387.0000     6.1009     7.0315   -58.2494     9.2857     0.1858     0.1813    92.8135     2.3634
  387.5000     6.1058     6.7986   -58.2331     9.2857     0.1888     0.1825    92.8135     2.3634
  388.0000     6.0686     6.6189   -58.0685     9.2857     0.1949     0.1801    93.1193     2.3635
  388.5000     6.0737     6.6240   -57.9009     9.2857     0.1949     0.1735    93.4251     2.3680
  389.0000     6.0787     6.6299   -57.7366     9.2857     0.1946     0.1710    93.7309     2.3726
  389.5000     6.1257     6.6349   -57.7206     9.2857     0.1884     0.1692    94.0367     2.3786
  390.0000     6.3019     6.9676   -57.5564     9.2857     0.1858     0.1680    94.3425     2.3817
  390.5000     6.4830     7.3170   -57.3921     9.2857     0.1820     0.1723    94.6483     2.3817
  391.0000     6.5781     7.4239   -57.3761     9.2857     0.1798     0.1735    94.5117     2.3771
  391.5000     6.5836     7.4807   -57.2158     9.2857     0.1767     0.1741    92.9449     2.3756
  392.0000     6.5900     7.4863   -57.4963     9.2744     0.1767     0.1748    91.7900     2.3741
  392.5000     6.5501     7.4391   -57.6252     9.2553     0.1798     0.1753    91.1595     2.3726
  393.0000     6.5554     7.4460   -57.6086     9.2553     0.1858     0.1753    90.6728     2.3726
  393.5000     6.5144     7.4515   -57.5926     9.2553     0.1949     0.1751    90.5296     2.3730
  394.0000     6.4763     7.4571   -57.7249     9.2553     0.1979     0.1737    91.2844     2.3746
  394.5000     6.4815     7.4627   -57.7082     9.2857     0.1988     0.1680    92.5076     2.3798
  395.0000     6.4410     7.4169   -57.6889     9.2857     0.1979     0.1627    93.4251     2.3904
  395.5000     6.4031     7.3728   -57.6729     9.2857     0.1918     0.1592    94.0367     2.4007
  396.0000     6.4085     7.3277   -57.8091     9.2857     0.1888     0.1598    94.0367     2.4021
  396.5000     6.3697     7.2815   -57.9414     9.2857     0.1858     0.1656    93.4251     2.3999
  397.0000     6.3750     7.1886   -58.0737     9.2857     0.1828     0.1662    92.8135     2.3984
  397.5000     6.3813     7.0943   -58.2059     9.2857     0.1767     0.1632    92.8135     2.3984
  398.0000     6.2992     7.0508   -58.3382     9.2857     0.1737     0.1572    92.8664     2.4000
  398.5000     6.2169     6.9596   -58.4705     9.2857     0.1737     0.1535    94.1274     2.4030
  399.0000     6.0128     6.8708   -58.4505     9.3161     0.1737     0.1517    94.6483     2.4091
  399.5000     5.7347     6.7353   -57.9896     9.3161     0.1737     0.1511    94.0367     2.4136
  400.0000     5.4453     6.5573   -57.5288     9.3138     0.1767     0.1499    94.6483     2.4058
  400.5000     5.2984     6.2763   -57.4318     9.3103     0.1767     0.1577    93.6588     2.3977
  401.0000     5.1467     5.8800   -57.3348     9.3067     0.1767     0.1639    92.8071     2.3921
  401.5000     5.0791     5.7234   -57.2377     9.3032     0.1798     0.1663    91.9553     2.3859
  402.0000     5.0819     5.5710   -57.1407     9.2996     0.1798     0.1687    91.5392     2.3812
  402.5000     5.2265     5.4601   -57.0437     9.2961     0.1828     0.1711    90.6091     2.3768
  403.0000     5.4924     5.4202   -56.9466     9.2926     0.1828     0.1578    90.3670     2.3756
  403.5000     5.7771     5.4667   -57.0313     9.2890     0.1767     0.1445    92.5076     2.3981
  404.0000     6.3042     5.9817   -57.3224     9.2855     0.1647     0.1409    91.7941     2.4200
