~VERSION INFORMATION
 VERS.                2.0:   CWLS LOG ASCII STANDARD - VERSION 2.0
 WRAP.                 NO:   ONE LINE PER DEPTH STEP
~WELL INFORMATION
#MNEM.UNIT      DATA TYPE    INFORMATION
#----------   ------------   ------------------------------
 STRT.F           80.0000:   START DEPTH
 STOP.F          718.0000:   STOP DEPTH
 STEP.F            0.5000:   STEP LENGTH
 NULL.          -999.2500:   NO VALUE
 COMP. U S NAVY-INTEX OIL:   COMPANY
 WELL. RES 3 TEAPOT DOM #11SX-2:   WELL
 FLD .             TEAPOT:   FIELD
 LOC .       S2 T38N R78W:   LOCATION
 CNTY.            NATRONA:   COUNTY
 STAT.            WYOMING:   STATE
 CTRY. UNITED STATES OF AMERICA:   COUNTRY
 SRVC.       Schlumberger:   SERVICE COMPANY
 DATE.        05-AUG-1961:   LOGDATE
 API .       490250647900:   API NUMBER
~CURVE INFORMATION
#MNEM.UNIT       API CODE    CURVE DESCRIPTION
#----------   ------------   ------------------------------
 DEPT.F                  :   
 ILD .OHMM   05 120 46 00:   INDUCTION LOG DEEP
 ASN .OHMM   05 041 16 00:   AMPLIFIED SHORT NORMAL 16"
 SPR .MV     05 010 01 00:   SPONTANEOUS POTENTIAL FROM RES.
 CILD.MMHO   05 110 46 00:   CONDUCTIVITY INDUCTION LOG DEEP
 GR  .GAPI   30 310 01 00:   GAMMA RAY
~PARAMETER INFORMATION
#MNEM.UNIT          VALUE    DESCRIPTION
#----------   ------------   ------------------------------
 LMF .                 KB:   LOG MEASURED FROM
 DMF .                 KB:   DRILLING MEASURED FROM
 EKB .F              5105:   KELLING BUSHING
 EGL .F              5100:   GROUND LEVEL
 DATE.           8-5-1961:   RUN DATE
 RUN .                  1:   RUN NUMBER
 DD  .F               715:   DEPTH DRILLER
 DL  .F               719:   DEPTH LOGGER
 BLI .F               718:   BOTTOM LOG INTERVAL
 TLI .F               120:   TOP LOG INTERVAL
 BS  .IN             6.75:   BIT SIZE
 BSD .F               715:   BIT SIZE AT DEPTH
 DFT .       OIL EMULSION:   DRILLING FLUID TYPE
 DFV .                 40:   DRILLING FLUID VISCOSITY
 RMS .OHMM           1.11:   RESISTIVITY MUD SAMPLE
 MST .F                68:   MUD SAMPLE TEMPERATURE
 TCS .HRS               2:   TIME CURCULATED STOPPED
 LUN .               2544:   LOGGING UNIT NUMBER
 LUL .                 NC:   LOGGING UNIT LOCATION
 ENGI.            EARNEST:   RECORDING ENGINEER
 WITN.          JORGENSEN:   WITNESSED BY
 CLNT.            A2DTECH:   CLIENT CODE
 ORIG.      2" & 5" PRINT:   ORIGIN OF DATA
 UWI .       490250647900:   UNIQUE WELL ID
 DICO. A2D Technologies, Inc.:   DIGITIZING COMPANY
~OTHER INFORMATION
~A   DEPT        ILD        ASN      SPR        CILD        GR   
# ...
  324.0000     9.0364    10.2278   -47.8413   119.1625  -999.2500
  324.5000     9.1446    10.2350   -47.6845   118.9128  -999.2500
  325.0000     9.2528    10.2421   -47.7541   117.5723  -999.2500
  325.5000     9.3610    10.2493   -48.0529   115.1303  -999.2500
  326.0000     9.4693    10.2564   -48.3457   112.6883  -999.2500
  326.5000     9.5777    10.2635   -48.6379   110.2463  -999.2500
  327.0000     9.6863    10.2707   -48.9311   107.8529  -999.2500
  327.5000     9.7889    10.2777   -49.2266   108.0926  -999.2500
  328.0000     9.7843    10.2847   -49.2803   108.3277  -999.2500
  328.5000     9.7696    10.2595   -49.2824   108.5627  -999.2500
  329.0000     9.7552    10.2065   -49.2880   108.7978  -999.2500
  329.5000     9.7409    10.1534   -49.1087   109.0329  -999.2500
  330.0000     9.7266    10.1001   -48.9591   109.2679  -999.2500
  330.5000     9.7124    10.0468   -48.6370   109.5030  -999.2500
  331.0000     9.6981     9.9933   -48.3499   109.7380  -999.2500
  331.5000     9.6838     9.9394   -48.0636   110.0014  -999.2500
  332.0000     9.6695     9.8939   -47.7763   110.2868  -999.2500
  332.5000     9.6553     9.9610   -47.4886   110.5723  -999.2500
  333.0000     9.6410    10.0284   -47.1987   110.8577  -999.2500
  333.5000     9.6267    10.0950   -46.9036   111.1431  -999.2500
  334.0000     9.6127    10.1621   -46.9290   111.4286  -999.2500
  334.5000     9.5990    10.1507   -47.0261   111.7140  -999.2500
  335.0000     9.5936    10.1392   -47.1211   113.8477  -999.2500
  335.5000     9.5408    10.1278   -47.2158   117.2289  -999.2500
  336.0000     9.0785    10.1163   -47.3104   120.6102  -999.2500
  336.5000     8.6108    10.1049   -47.4051   123.9914  -999.2500
  337.0000     8.2016    10.0934   -47.5000   127.3727  -999.2500
  337.5000     8.2479    10.0820   -47.5947   130.7539  -999.2500
  338.0000     8.3273    10.0705   -47.6852   133.5132  -999.2500
  338.5000     8.4056    10.0591   -47.6148   132.0861  -999.2500
  339.0000     8.4839    10.0476   -47.4729   130.6589  -999.2500
  339.5000     8.5622    10.0362   -47.3312   129.2318  -999.2500
  340.0000     8.6403    10.0248   -47.1892   127.8046  -999.2500
  340.5000     8.7185    10.0133   -47.0471   126.3774  -999.2500
  341.0000     8.7967    10.0019   -46.9051   124.9503  -999.2500
  341.5000     8.8750     9.9904   -46.7629   123.3826  -999.2500
  342.0000     8.9534     9.9790   -46.6210   121.0991  -999.2500
  342.5000     9.0310     9.9675   -46.4932   118.8157  -999.2500
  343.0000     9.0949     9.9561   -46.5975   116.5322  -999.2500
  343.5000     9.0759     9.9446   -46.7697   116.2402  -999.2500
  344.0000     9.0591     9.9332   -46.9420   116.9175  -999.2500
  344.5000     9.0425     9.8733   -47.1146   117.5929  -999.2500
  345.0000     9.0258     9.7966   -47.2870   118.2650  -999.2500
  345.5000     9.0092     9.7154   -47.4594   118.6217  -999.2500
  346.0000     8.9947     9.6321   -47.6317   117.7620  -999.2500
  346.5000     9.0317     9.6523   -47.8044   116.9020  -999.2500
  347.0000     9.0814     9.7067   -47.9770   116.0441  -999.2500
  347.5000     9.1314     9.7622   -48.1483   115.1874  -999.2500
  348.0000     9.1814     9.8177   -48.2952   114.3312  -999.2500
  348.5000     9.2314     9.8732   -48.0742   113.4749  -999.2500
  349.0000     9.2813     9.9281   -47.7807   112.6186  -999.2500
  349.5000     9.3313     9.9717   -47.4855   111.7623  -999.2500
  350.0000     9.3813     9.9717   -47.1903   110.9060  -999.2500
  350.5000     9.4310     9.9729   -46.8948   110.0497  -999.2500
  351.0000     9.4823     9.9741   -46.5992   110.8482  -999.2500
  351.5000     9.4993     9.9753   -46.3075   113.1022  -999.2500
  352.0000     9.2834     9.9765   -46.1378   117.9307  -999.2500
  352.5000     9.0127     9.9777   -46.3341   122.7593  -999.2500
  353.0000     8.7394     9.9789   -46.5200   127.5878  -999.2500
  353.5000     8.4664     9.9802   -46.7052   132.4163  -999.2500
  354.0000     8.1955     9.9814   -46.8911   137.2449  -999.2500
  354.5000     7.9973     9.9826   -47.0774   140.6561  -999.2500
  355.0000     8.0011     9.9838   -47.2629   140.6896  -999.2500
  355.5000     8.0287     9.9850   -47.2891   138.8249  -999.2500
  356.0000     8.0614     9.9863   -47.2151   136.4983  -999.2500
  356.5000     8.0965     9.9872   -47.0020   134.1777  -999.2500
  357.0000     8.1410     9.9889   -46.7913   131.8625  -999.2500
  357.5000     8.2860     9.9968   -46.5807   129.5490  -999.2500
  358.0000     8.4260     9.7911   -46.3699   127.2355  -999.2500
  358.5000     8.5655     9.5538   -46.1592   124.9221  -999.2500
  359.0000     8.7049     9.3749   -45.9486   122.6086  -999.2500
  359.5000     8.8013     9.3223   -45.7378   120.2951  -999.2500
  360.0000     8.7335     9.2689   -45.5267   120.0398  -999.2500
  360.5000     8.6592     9.2155   -45.3151   123.6362  -999.2500
  361.0000     8.5834     9.1623   -45.1071   127.2343  -999.2500
  361.5000     8.5091     9.1691   -45.2152   126.1461  -999.2500
  362.0000     8.6069     9.2716   -45.4622   124.2884  -999.2500
  362.5000     8.7316     9.3835   -45.7078   122.4289  -999.2500
  363.0000     8.8567     9.4955   -45.9537   120.5708  -999.2500
  363.5000     8.9817     9.6075   -46.1996   118.7155  -999.2500
  364.0000     9.1066     9.7194   -46.4454   116.8599  -999.2500
  364.5000     9.2316     9.8306   -46.6913   115.0052  -999.2500
  365.0000     9.3576     9.9427   -46.9367   113.3845  -999.2500
  365.5000     9.4878    10.0491   -47.1837   111.7910  -999.2500
  366.0000     9.5167    10.1683   -47.2902   110.8437  -999.2500
  366.5000     9.5409    10.2827   -47.2836   110.8392  -999.2500
  367.0000     9.5662    10.2586   -47.1288   110.8350  -999.2500
  367.5000     9.5913    10.2113   -46.9764   111.8912  -999.2500
  368.0000     9.5913    10.1715   -46.8254   114.3887  -999.2500
  368.5000     9.4519    10.1319   -46.6746   117.5348  -999.2500
  369.0000     9.1236    10.0919   -46.5237   122.0775  -999.2500
  369.5000     8.7972    10.0519   -46.3736   127.3223  -999.2500
  370.0000     8.4699    10.0119   -46.2234   132.5671  -999.2500
  370.5000     8.1407     9.9720   -46.0132   137.8119  -999.2500
  371.0000     7.8129     9.9320   -45.8971   141.3877  -999.2500
  371.5000     7.7373     9.8920   -46.0311   142.9861  -999.2500
  372.0000     7.7028     9.8522   -46.2318   144.6322  -999.2500
  372.5000     7.7067     9.8126   -46.4335   142.8877  -999.2500
  373.0000     7.8328     9.8116   -46.6346   141.0895  -999.2500
  373.5000     7.9665     9.8536   -46.8359   139.2912  -999.2500
  374.0000     8.1003     9.8954   -47.0422   137.4930  -999.2500
  374.5000     8.2339     9.9375   -47.0896   135.6859  -999.2500
  375.0000     8.4440     9.9796   -47.0769   129.9024  -999.2500
  375.5000     8.7317    10.0217   -47.0117   124.0900  -999.2500
  376.0000     9.0192    10.0637   -46.9479   118.2776  -999.2500
  376.5000     9.3073    10.1054   -46.8845   112.4652  -999.2500
  377.0000     9.5953    10.1461   -46.8210   106.6528  -999.2500
  377.5000     9.8832    10.1961   -46.7575   102.6243  -999.2500
  378.0000    10.1712    10.4627   -46.6940   100.2266  -999.2500
  378.5000    10.4591    10.7332   -46.6296    97.9125  -999.2500
  379.0000    10.7471    11.0025   -46.5668    95.0931  -999.2500
  379.5000    11.0350    11.2714   -46.5172    92.3685  -999.2500
  380.0000    11.3229    11.5404   -46.2873    89.6440  -999.2500
  380.5000    11.6109    11.8093   -46.2959    86.9194  -999.2500
  381.0000    11.8988    12.0783   -46.4923    84.1948  -999.2500
  381.5000    12.1869    12.3473   -46.7214    82.0659  -999.2500
  382.0000    12.4749    12.6162   -46.9518    80.4009  -999.2500
  382.5000    12.7630    12.8851   -47.1818    78.7359  -999.2500
  383.0000    13.0530    13.1545   -47.4120    78.9543  -999.2500
  383.5000    13.1658    13.4253   -47.6435    80.5527  -999.2500
  384.0000    13.1659    13.6661   -47.8773    82.0079  -999.2500
  384.5000    12.4693    13.8518   -47.7820    86.3618  -999.2500
