~VERSION INFORMATION
 VERS.                2.0:   CWLS LOG ASCII STANDARD - VERSION 2.0
 WRAP.                 NO:   ONE LINE PER DEPTH STEP
~WELL INFORMATION
#MNEM.UNIT      DATA TYPE    INFORMATION
#----------   ------------   ------------------------------
 STRT.F           22.0000:   START DEPTH
 STOP.F          500.0000:   STOP DEPTH
 STEP.F            0.5000:   STEP LENGTH
 NULL.          -999.2500:   NO VALUE
 COMP.    FENIX & SCISSON:   COMPANY
 WELL.      NPR-3 #65S3-3:   WELL
 FLD .             teapot:   FIELD
 LOC .       S3 T38N R78W:   LOCATION
 CNTY.            NATRONA:   COUNTY
 STAT.            WYOMING:   STATE
 CTRY. UNITED STATES OF AMERICA:   COUNTRY
 SRVC.           BIRDWELL:   SERVICE COMPANY
 DATE.        07-JAN-1978:   LOGDATE
 API .       490251055200:   API NUMBER
~CURVE INFORMATION
#MNEM.UNIT       API CODE    CURVE DESCRIPTION
#----------   ------------   ------------------------------
 DEPT.F                  :   
 ILD .OHMM   05 120 46 00:   INDUCTION LOG DEEP
 SN  .OHMM   05 040 16 00:   SHORT NORMAL 16"
 SPR .MV     05 010 01 00:   SPONTANEOUS POTENTIAL FROM RES.
 CALD.IN     45 280 60 00:   CALIPER FROM DENSITY LOG
 DPHI.DEC    45 890 12 00:   DENSITY POROSITY SANDSTONE
 DRHO.G/C3   45 356 01 00:   DENSITY CORRECTION
 GRD .GAPI   45 310 01 00:   GAMMA RAY FROM DENSITY LOG
 RHOB.G/C3   45 350 01 00:   BULK DENSITY
~PARAMETER INFORMATION
#MNEM.UNIT          VALUE    DESCRIPTION
#----------   ------------   ------------------------------
 PD  .                 GL:   PERMANENT DATUM
 EPD .F              5156:   ELEVATION PERMANENT DATUM
 LMF .                 KB:   LOG MEASURED FROM
 DAPD.F                 4:   FEET ABOVE PERMANENT DATUM
 DMF .                 KB:   DRILLING MEASURED FROM
 EKB .F              5160:   KELLING BUSHING
 EGL .F              5156:   GROUND LEVEL
 DATE.        07-JAN-1978:   RUN DATE
 RUN .                  1:   RUN NUMBER
 DD  .F               500:   DEPTH DRILLER
 DL  .F               502:   DEPTH LOGGER
 BLI .F               500:   BOTTOM LOG INTERVAL
 TLI .F                30:   TOP LOG INTERVAL
 CS  .IN            8.625:   CASING SIZE
 CBD .F                40:   CASING BOTTOM DRILLER
 CBL .F                40:   CASING BOTTOM LOGGER
 BS  .IN            7.875:   BIT SIZE
 BSD .F               500:   BIT SIZE AT DEPTH
 DFT .                KCL:   DRILLING FLUID TYPE
 DFD .                8.6:   DRILLING FLUID DENSITY
 DFV .                 33:   DRILLING FLUID VISCOSITY
 DFPH.                9.0:   DRILLING FLUID PH
 DFL .                7.6:   DRILLING FLUID LOSS
 MSS .           FLOWLINE:   MUD SAMPLE SOURCE
 RMS .OHMM           0.23:   RESISTIVITY MUD SAMPLE
 MST .F                60:   MUD SAMPLE TEMPERATURE
 RMF .OHMM            2.2:   RESISTIVITY MUD FILTRATE SAMPLE
 MFST.F                60:   MUD FILTRATE SAMPLE TEMPERATURE
 RMC .OHMM            3.4:   RESISTIVITY MUD CAKE
 MCST.F                60:   MUD CAKE SAMPLE TEMPERATURE
 MFSS.               MEAS:   MUD FILTRATE SAMPLE SOURCE
 MCSS.               MEAS:   MUD CAKE SAMPLE SOURCE
 RMB .OHMM            1.9:   RESISTIVITY MUD AT BHT
 BHT .F                71:   BOTTOM HOLE TEMPERATURE
 TCS .HRS               8:   TIME CURCULATED STOPPED
 MRT .F                71:   MAXIMUM RECORDED TEMPERATURE
 LUN .               2958:   LOGGING UNIT NUMBER
 LUL .             CASPER:   LOGGING UNIT LOCATION
 ENGI.            POINTER:   RECORDING ENGINEER
 WITN.      DAVE MCGINLEY:   WITNESSED BY
 CLNT.            A2DTECH:   CLIENT CODE
 ORIG.           5" PRINT:   ORIGIN OF DATA
 UWI .       490251055200:   UNIQUE WELL ID
 DICO. A2D Technologies, Inc.:   DIGITIZING COMPANY
~OTHER INFORMATION
~A   DEPT      ILD         SN        SPR       CALD       DPHI       DRHO         GRD      RHOB   
# ...
  103.0000    10.6760    15.6133   -10.7266     8.0258     0.0990     0.0207    94.3707     2.4893
  103.5000    10.8903    15.5958   -10.7456     8.0261     0.0966     0.0134    93.4955     2.4803
  104.0000    11.0312    15.5750   -10.4616     8.0264     0.0972     0.0142    92.9295     2.4780
  104.5000    11.1712    15.4541   -10.1773     8.0267     0.0986     0.0165    92.6548     2.4826
  105.0000    11.3190    15.5456    -9.7421     8.0270     0.1028     0.0180    92.6788     2.4796
  105.5000    11.3038    15.5247   -10.0689     8.0273     0.1055     0.0188    92.4046     2.4751
  106.0000    11.3737    15.5080   -10.2395     8.0276     0.1019     0.0173    91.2103     2.4706
  106.5000    11.3584    15.3835   -10.2585     8.0283     0.0985     0.0287    89.9315     2.4684
  107.0000    11.3462    15.0470   -10.4290     8.0432     0.1015     0.0287    87.4212     2.4797
  107.5000    11.4133    14.9262   -10.5996     8.0435     0.1063     0.0287    87.1412     2.4745
  108.0000    11.3979    14.9100   -10.9217     8.0410     0.1078     0.0288    87.4681     2.4692
  108.5000    11.3857    14.8934   -10.9409     8.0291     0.1045     0.0288    88.0868     2.4647
  109.0000    11.3734    14.8740   -11.1160     8.0294     0.1032     0.0273    88.7055     2.4633
  109.5000    11.3611    14.8580   -11.1350     8.0297     0.1009     0.0257    89.3241     2.4686
  110.0000    11.3489    14.6361   -11.3056     8.0300     0.1044     0.0236    89.3476     2.4693
  110.5000    11.3366    14.5186   -11.3246     8.0303     0.1041     0.0236    89.9663     2.4678
  111.0000    11.3240    14.4021   -11.3436     8.0306     0.1041     0.0229    91.4778     2.4686
  111.5000    11.1525    14.3864   -11.3627     8.0159     0.1068     0.0177    92.3941     2.4709
  112.0000    10.9861    14.2672   -11.3818     8.0162     0.1113     0.0132    93.0128     2.4597
  112.5000    10.8222    14.1527   -11.5530     8.0014     0.1116     0.0140    93.9291     2.4552
  113.0000    10.7353    14.1374   -12.0306     8.0018     0.1115     0.0147    95.1430     2.4567
  113.5000    10.7238    14.0239   -12.1964     8.0021     0.1121     0.0110    96.0612     2.4575
  114.0000    10.6377    13.9113   -11.7608     8.0024     0.1196     0.0050    94.2989     2.4552
  114.5000    10.6988    13.8964   -11.9361     8.0027     0.1229     0.0028    91.9414     2.4515
  115.0000    10.6129    13.9787   -12.4097     8.0030     0.1220     0.0066    89.5833     2.4463
  115.5000    10.6015    13.9598   -12.5803     8.0033     0.1181     0.0120    89.3095     2.4486
  116.0000    10.5901    13.9448   -12.4478     8.0186     0.1105     0.0142    88.4325     2.4576
  116.5000    10.5785    13.9298   -12.4716     8.0339     0.1075     0.0089    87.2733     2.4606
  117.0000    10.5644    14.0161   -12.3343     8.0342     0.1079     0.0089    87.9385     2.4576
  117.5000    10.4068    13.8031   -12.3581     8.0195     0.1045     0.0112    89.7070     2.4668
  118.0000    10.2515    13.5970   -13.1347     8.0198     0.1039     0.0135    90.6233     2.4682
  118.5000    10.1693    13.4875   -14.3659     8.0051     0.1044     0.0143    90.9385     2.4712
  119.0000    10.0877    13.3759   -14.0819     8.0054     0.1060     0.0196    89.4797     2.4682
  119.5000     9.7995    13.1762   -14.1207     8.0207     0.1136     0.0159    88.6044     2.4690
  120.0000     9.5105    12.9795   -14.4277     8.0360     0.1200     0.0061    90.1218     2.4540
  120.5000     9.3097    12.9655   -14.7498     8.0363     0.1248     0.0024    91.6333     2.4353
  121.0000     9.2997    12.8614   -14.9203     8.0215     0.1287     0.0062    92.5496     2.4233
  121.5000     9.2897    12.8476   -15.2424     8.0069     0.1250     0.0100    92.5731     2.4331
  122.0000     9.2152    12.8333   -15.7160     8.0072     0.1196     0.0100    92.0012     2.4481
  122.5000     9.1412    12.8164   -15.5835     8.0075     0.1202     0.0100    90.8342     2.4474
  123.0000     9.0048    12.8026   -15.6192     7.9927     0.1220     0.0101    89.0719     2.4421
  123.5000     8.8703    12.6999   -15.9293     7.9931     0.1244     0.0101    86.4168     2.4354
  124.0000     8.7969    12.5979   -16.2514     7.9934     0.1268     0.0094    87.0476     2.4317
  124.5000     8.8514    12.5843   -16.5735     8.0087     0.1249     0.0086    88.9068     2.4340
  125.0000     8.8395    12.5708   -19.9258     8.0090     0.1246     0.0064    89.4633     2.4377
  125.5000     8.8942    12.5567   -16.7630     8.0251     0.1285     0.0072    88.2963     2.4303
  126.0000     8.8822    12.5403   -16.3273     8.0396     0.1321     0.0087    87.1351     2.4190
  126.5000     8.9349    12.6146   -17.1308     8.0399     0.1300     0.0095    86.5574     2.4235
  127.0000     9.0550    12.5133   -17.5825     8.0552     0.1249     0.0104    86.2833     2.4281
  127.5000     9.1654    12.4129   -18.2076     8.0555     0.1140     0.0171    86.3126     2.4348
  128.0000     9.1555    12.3995   -20.6508     8.0558     0.1050     0.0217    86.6336     2.4432
  128.5000     9.2122    12.4729   -21.7305     8.0561     0.0996     0.0247    87.2523     2.4600
  129.0000     9.3316    12.5468   -22.5071     8.0564     0.0984     0.0300    88.4662     2.4704
  129.5000     9.1899    12.5299   -22.8291     8.0567     0.1025     0.0308    89.9777     2.4762
  130.0000     9.1161    12.4293   -23.3043     8.0419     0.1094     0.0271    92.0845     2.4747
  130.5000     8.9127    12.3295   -23.9294     8.0423     0.1193     0.0188    93.8937     2.4710
  131.0000     8.6003    12.1454   -24.5545     8.0426     0.1265     0.0098    94.8100     2.4553
  131.5000     8.4131    12.0479   -24.9005     8.0429     0.1271     0.0038    95.4286     2.4380
  132.0000     8.1727    11.8679   -25.6579     8.0432     0.1235     0.0083    96.6587     2.4313
  132.5000     8.0508    11.7696   -32.0406     8.0585     0.1204     0.0129    97.5595     2.4215
  133.0000     7.9307    11.5939   -35.0899     8.0588     0.1216     0.0159    98.1786     2.4343
  133.5000     7.8123    11.6657   -34.9527     8.0591     0.1240     0.0182    97.9092     2.4411
  134.0000     7.6956    11.6500   -34.8242     8.0594     0.1267     0.0145    97.3374     2.4396
  134.5000     7.6320    11.6374   -34.6924     8.0597     0.1291     0.0123    96.4680     2.4373
  135.0000     7.5707    11.6249   -34.5600     8.0600     0.1309     0.0085    94.7057     2.4329
  135.5000     7.5626    11.5316   -34.8868     8.0753     0.1312     0.0025    93.8304     2.4277
  136.0000     7.5544    11.5181   -34.9058     8.0756     0.1287     0.0116    93.8597     2.4247
  136.5000     7.6012    11.5863   -34.9249     8.0609     0.1245     0.0064    94.7760     2.4278
  137.0000     7.7515    11.5707   -34.7924     8.0462     0.1233     0.0041    95.0971     2.4405
  137.5000     7.8520    11.5583   -34.3569     8.0465     0.1281     0.0034    95.7158     2.4323
  138.0000     7.9537    11.6299   -33.9213     8.0618     0.1257     0.0025    95.4405     2.4263
  138.5000     8.0008    11.7807   -33.9409     8.0621     0.1232     0.0012    93.9769     2.4376
  139.0000     7.9900    11.8505   -34.5702     8.0624     0.1244    -0.0018    94.0004     2.4361
  139.5000     7.9814    11.9177   -34.8875     8.0777     0.1292    -0.0010    95.8115     2.4301
  140.0000     8.0308    11.9044   -33.9975     8.0780     0.1301     0.0020    97.6190     2.4272
  140.5000     8.0200    11.8886   -33.8650     8.0783     0.1214     0.0066    97.6429     2.4309
  141.0000     8.0722    11.9622   -34.0403     8.0786     0.1147     0.0081    96.4809     2.4407
  141.5000     8.1152    11.9461   -34.2108     8.0789     0.1114     0.0119    95.3139     2.4505
  142.0000     8.1632    12.0201   -34.3960     8.0942     0.1096     0.0127    95.6349     2.4543
  142.5000     8.2668    12.0039   -34.7082     8.0795     0.1090     0.0127    96.5512     2.4566
  143.0000     8.4326    12.0752   -35.1818     8.0648     0.1093     0.0120    97.4675     2.4588
