~VERSION INFORMATION
 VERS.                2.0:   CWLS LOG ASCII STANDARD - VERSION 2.0
 WRAP.                 NO:   ONE LINE PER DEPTH STEP
~WELL INFORMATION
#MNEM.UNIT      DATA TYPE    INFORMATION
#----------   ------------   ------------------------------
 STRT.F           15.0000:   START DEPTH
 STOP.F          531.0000:   STOP DEPTH
 STEP.F            0.1000:   STEP LENGTH
 NULL.          -999.2500:   NO VALUE
 COMP. LAWRENCE/ALLISON INC:   COMPANY
 WELL.   NPR 3 #42-61SX10:   WELL
 FLD .          N.P.R. #3:   FIELD
 LOC .      S10 T38N R78W:   LOCATION
 CNTY.            NATRONA:   COUNTY
 STAT.            WYOMING:   STATE
 CTRY. UNITED STATES OF AMERICA:   COUNTRY
 SRVC.           Gearhart:   SERVICE COMPANY
 DATE.        06-JUL-1986:   LOGDATE
 API .       490251109500:   API NUMBER
~CURVE INFORMATION
#MNEM.UNIT       API CODE    CURVE DESCRIPTION
#----------   ------------   ------------------------------
 DEPT.F                  :   
 GRR .GAPI   07 310 01 00:   GAMMA RAY
 RILD.OHMM   07 120 46 00:   INDUCTION LOG DEEP
 RILM.OHMM   07 120 44 00:   INDUCTION LOG MEDIUM
~PARAMETER INFORMATION
#MNEM.UNIT          VALUE    DESCRIPTION
#----------   ------------   ------------------------------
 PD  .                 GL:   PERMANENT DATUM
 EPD .F              5196:   ELEVATION PERMANENT DATUM
 LMF .                 KB:   LOG MEASURED FROM
 DAPD.F                 5:   FEET ABOVE PERMANENT DATUM
 DMF .                 KB:   DRILLING MEASURED FROM
 EKB .F              5201:   KELLING BUSHING
 EGL .F              5196:   GROUND LEVEL
 DATE.        06-JUL-1986:   RUN DATE
 RUN .                  1:   RUN NUMBER
 DD  .F               548:   DEPTH DRILLER
 DL  .F               541:   DEPTH LOGGER
 BLI .F               531:   BOTTOM LOG INTERVAL
 TLI .F                15:   TOP LOG INTERVAL
 CS  .IN            8.625:   CASING SIZE
 CBD .F                47:   CASING BOTTOM DRILLER
 CBL .F                47:   CASING BOTTOM LOGGER
 BS  .IN            7.875:   BIT SIZE
 BSD .F               548:   BIT SIZE AT DEPTH
 DFT .                AIR:   DRILLING FLUID TYPE
 BHT .F                82:   BOTTOM HOLE TEMPERATURE
 TCS .HRS            2000:   TIME CURCULATED STOPPED
 TLAB.HRS            2130:   TIME LOGGER AT BOTTOM
 MRT .F                82:   MAXIMUM RECORDED TEMPERATURE
 LUN .               7609:   LOGGING UNIT NUMBER
 LUL .           GILLETTE:   LOGGING UNIT LOCATION
 ENGI.              BAUER:   RECORDING ENGINEER
 WITN.           JENNINGS:   WITNESSED BY
 CLNT.            A2DTECH:   CLIENT CODE
 ORIG.           5" PRINT:   ORIGIN OF DATA
 UWI .       490251109500:   UNIQUE WELL ID
 DICO. A2D Technologies, Inc.:   DIGITIZING COMPANY
~OTHER INFORMATION
~A   DEPT      GRR       RILD       RILM   
# ...
   51.4000   113.4137     9.4353     7.0388
   51.5000   113.9211     9.4356     7.2048
   51.6000   114.4285     9.4359     7.3858
   51.7000   114.9879     9.4362     7.5495
   51.8000   115.4433     9.4365     7.6948
   51.9000   115.9506     9.4368     7.8309
   52.0000   116.3359     9.4370     7.9541
   52.1000   116.6601     9.2698     8.0421
   52.2000   117.1328     8.9039     8.0936
   52.3000   117.1346     8.4624     8.1370
   52.4000   117.3537     8.1437     8.2189
   52.5000   117.4427     8.1439     8.2669
   52.6000   117.3313     8.1441     8.2816
   52.7000   117.0799     8.1444     8.3303
   52.8000   116.8285     8.1447     8.3849
   52.9000   116.5331     8.1449     8.3852
   53.0000   116.1171     8.1452     8.4190
   53.1000   115.4565     8.1454     8.4450
   53.2000   114.6992     8.1457     8.4453
   53.3000   113.9420     8.1459     8.4457
   53.4000   113.1817     8.1462     8.4461
   53.5000   112.1756     8.1465     8.4464
   53.6000   111.1654     8.1468     8.4793
   53.7000   110.3023     8.1065     8.5066
   53.8000   109.5450     8.0902     8.5070
   53.9000   108.7878     8.0695     8.5073
   54.0000   108.0001     8.0228     8.5077
   54.1000   107.2733     7.9747     8.5080
   54.2000   106.8967     7.8670     8.5084
   54.3000   106.6453     7.8293     8.5087
   54.4000   106.6504     7.7840     8.5091
   54.5000   107.1578     7.7201     8.5095
   54.6000   107.7039     7.6403     8.5099
   54.7000   108.1725     7.5961     8.5102
   54.8000   108.6799     7.5438     8.5105
   54.9000   109.1873     7.5440     8.4908
   55.0000   109.6183     7.5442     8.4517
   55.1000   109.8728     7.5444     8.4521
   55.2000   110.1559     7.5532     8.4035
   55.3000   110.3817     7.5981     8.3936
   55.4000   110.4641     7.5983     8.3654
   55.5000   110.4656     7.6334     8.3356
   55.6000   110.4000     7.6524     8.3360
   55.7000   110.1338     7.6694     8.3363
   55.8000   109.5544     7.7144     8.2896
   55.9000   108.9099     7.7614     8.2787
   56.0000   108.3155     7.7617     8.2791
   56.1000   107.8112     7.7964     8.2794
   56.2000   107.3069     7.8169     8.2798
   56.3000   106.8026     7.8331     8.2801
   56.4000   106.2049     7.8725     8.2349
   56.5000   106.0000     7.8727     8.2229
   56.6000   105.7486     7.9163     8.2232
   56.7000   105.4972     7.9287     8.2077
   56.8000   105.2944     7.9536     8.1663
   56.9000   105.2962     7.9851     8.1668
   57.0000   105.2977     7.9910     8.1671
   57.1000   105.4962     8.0420     8.1333
   57.2000   105.6061     8.0422     8.1106
   57.3000   105.6998     8.0759     8.1110
   57.4000   105.9542     8.0994     8.1113
   57.5000   106.2215     8.0997     8.1117
   57.6000   106.7033     8.1045     8.1120
   57.7000   107.0229     8.1573     8.1123
   57.8000   107.4127     8.2001     8.1127
   57.9000   107.8372     8.2153     8.1265
   58.0000   108.0916     8.2387     8.1705
   58.1000   108.3681     8.2738     8.1709
   58.2000   108.1384     8.2740     8.2130
   58.3000   107.8870     8.2743     8.2291
   58.4000   107.7618     8.3165     8.2519
   58.5000   107.6896     8.3331     8.2878
   58.6000   107.4168     8.3557     8.2909
   58.7000   106.8506     8.3924     8.3469
   58.8000   106.4081     8.3951     8.3472
   58.9000   105.9038     8.4522     8.3791
   59.0000   105.3995     8.4524     8.4067
   59.1000   104.8305     8.4842     8.4187
   59.2000   104.0977     8.5125     8.4667
   59.3000   103.8064     8.5242     8.4671
   59.4000   103.3822     8.5731     8.4674
   59.5000   102.8779     8.5734     8.4986
   59.6000   102.4814     8.5736     8.5278
   59.7000   102.2855     8.6047     8.5281
   59.8000   102.2840     8.6346     8.5285
   59.9000   101.9835     8.6349     8.5289
   60.0000   102.4602     8.6352     8.5292
   60.1000   103.0525     8.6354     8.5594
   60.2000   103.6448     8.6357     8.5900
   60.3000   104.2680     8.6360     8.5904
   60.4000   105.0474     8.6362     8.5907
   60.5000   105.5433     8.6365     8.5911
   60.6000   106.2458     8.6368     8.5915
   60.7000   106.8649     8.6864     8.5918
   60.8000   107.3730     8.6982     8.5922
   60.9000   107.8440     8.6985     8.6008
   61.0000   108.1146     8.6988     8.6534
   61.1000   108.3545     8.6991     8.6538
   61.2000   108.6097     8.6994     8.6542
   61.3000   108.7321     8.6996     8.6545
   61.4000   108.7344     8.6999     8.6549
   61.5000   108.7366     8.7002     8.6553
   61.6000   108.7392     8.7004     8.6556
   61.7000   108.7412     8.7007     8.6560
   61.8000   108.9196     8.7010     8.6564
   61.9000   109.0511     8.7013     8.6567
   62.0000   109.1247     8.7015     8.6571
   62.1000   109.3611     8.7018     8.6574
   62.2000   109.3637     8.7021     8.6578
   62.3000   109.5850     8.7024     8.6582
   62.4000   109.8402     8.7027     8.6585
   62.5000   110.0954     8.6943     8.6589
   62.6000   110.2886     8.6851     8.6593
   62.7000   110.3005     8.6759     8.6596
   62.8000   110.5989     8.6667     8.6600
   62.9000   110.8109     8.6575     8.6604
   63.0000   111.0662     8.6483     8.6607
   63.1000   111.3214     8.6436     8.6611
   63.2000   111.5237     8.6439     8.6615
   63.3000   111.5265     8.6407     8.6584
   63.4000   111.7817     8.5840     8.6016
   63.5000   112.0369     8.5842     8.6020
   63.6000   112.2921     8.5845     8.6354
   63.7000   112.4511     8.5847     8.6633
   63.8000   112.4534     8.5726     8.6636
   63.9000   112.4558     8.5252     8.6685
   64.0000   112.4580     8.5255     8.7869
   64.1000   112.4603     8.5257     8.9616
   64.2000   112.4626     8.5260     9.1734
   64.3000   112.4649     8.5050     9.3901
   64.4000   112.4326     8.4668     9.6376
   64.5000   112.1643     8.4671     9.9773
   64.6000   112.1664     8.4674    10.2570
   64.7000   111.9860     8.4676    10.4051
   64.8000   111.7354     8.4379    10.6658
   64.9000   111.4847     8.4089    10.9549
   65.0000   111.2341     8.4092    11.1866
   65.1000   110.9567     8.4094    11.3186
   65.2000   110.7328     8.3610    11.5182
   65.3000   110.4822     8.3511    11.6678
   65.4000   110.2316     8.3513    11.8459
   65.5000   109.9122     8.3516    12.0552
   65.6000   109.4086     8.3433    12.2552
   65.7000   108.8332     8.2937    12.4033
   65.8000   108.6183     8.2939    12.6167
   65.9000   108.2033     8.2942    12.7251
   66.0000   107.6998     8.2673    12.8423
   66.1000   107.2557     8.2366    12.9390
   66.2000   106.9980     8.2369    12.9396
   66.3000   106.4042     8.2372    12.9402
   66.4000   106.1985     8.1921    12.7987
   66.5000   105.9478     8.1800    12.6511
   66.6000   105.6972     8.1803    12.5050
   66.7000   105.4965     8.1647    12.3369
   66.8000   105.4993     8.1235    12.1234
   66.9000   105.2506     8.1238    11.8977
   67.0000   105.1985     8.1240    11.6456
   67.1000   105.3468     8.0903    11.2845
   67.2000   105.6957     8.0677    10.9293
   67.3000   106.2451     8.0679    10.6155
   67.4000   107.0398     8.0633    10.3044
   67.5000   107.5254     8.0120     9.9153
   67.6000   108.2229     8.0122     9.6603
   67.7000   108.8471     8.0125     9.4212
   67.8000   109.2707     8.0127     9.1788
   67.9000   109.5580     7.9997     8.9153
   68.0000   110.1071     7.9571     8.6630
   68.1000   110.3417     7.9574     8.4391
   68.2000   110.5969     7.9576     8.3116
   68.3000   110.8522     7.9269     8.1997
   68.4000   111.0321     7.9024     8.1050
   68.5000   111.0343     7.9027     8.0114
   68.6000   111.0369     7.9029     7.9214
   68.7000   110.8155     7.9032     7.8690
   68.8000   110.7359     7.8643     7.8303
   68.9000   110.6196     7.8483     7.7852
   69.0000   110.4351     7.8486     7.7802
   69.1000   110.4237     7.8380     7.8152
   69.2000   110.1347     7.7941     7.8155
   69.3000   110.1366     7.7944     7.8159
   69.4000   109.9771     7.7946     7.8162
   69.5000   109.7265     7.7949     7.8165
