~VERSION INFORMATION
 VERS.                2.0:   CWLS LOG ASCII STANDARD - VERSION 2.0
 WRAP.                 NO:   ONE LINE PER DEPTH STEP
~WELL INFORMATION
#MNEM.UNIT      DATA TYPE    INFORMATION
#----------   ------------   ------------------------------
 STRT.F           30.0000:   START DEPTH
 STOP.F          637.0000:   STOP DEPTH
 STEP.F            0.5000:   STEP LENGTH
 NULL.          -999.2500:   NO VALUE
 COMP.    FENIX & SCISSON:   COMPANY
 WELL.        NPR #82-S-3:   WELL
 FLD .             TEAPOT:   FIELD
 LOC .       S3 T38N R78W:   LOCATION
 CNTY.            NATRONA:   COUNTY
 STAT.            WYOMING:   STATE
 CTRY. UNITED STATES OF AMERICA:   COUNTRY
 SRVC.              Welex:   SERVICE COMPANY
 DATE.        08-MAY-1977:   LOGDATE
 API .       490251035100:   API NUMBER
~CURVE INFORMATION
#MNEM.UNIT       API CODE    CURVE DESCRIPTION
#----------   ------------   ------------------------------
 DEPT.F                  :   
 SPR .MV     07 010 01 00:   SPONTANEOUS POTENTIAL FROM RES.
 ILD .OHMM   07 120 46 00:   INDUCTION LOG DEEP
 ILM .OHMM   07 120 44 00:   INDUCTION LOG MEDIUM
 SGRD.OHMM   07 220 05 00:   SHALLOW GUARD RESISTIVITY
 GRD .GAPI   45 310 01 00:   GAMMA RAY FROM DENSITY LOG
 CALD.IN     45 280 60 00:   CALIPER FROM DENSITY LOG
 CORR.G/C3   45 356 01 00:   DENSITY CORRECTION
 RHOB.G/C3   45 350 01 00:   BULK DENSITY
 DPHI.DEC    45 890 12 00:   DENSITY POROSITY SANDSTONE
~PARAMETER INFORMATION
#MNEM.UNIT          VALUE    DESCRIPTION
#----------   ------------   ------------------------------
 PD  .                 GL:   PERMANENT DATUM
 EPD .F              5100:   ELEVATION PERMANENT DATUM
 LMF .                 GL:   LOG MEASURED FROM
 DMF .                 GL:   DRILLING MEASURED FROM
 EGL .F              5100:   GROUND LEVEL
 DATE.        08-MAY-1977:   RUN DATE
 RUN .                  1:   RUN NUMBER
 DD  .F               635:   DEPTH DRILLER
 DL  .F               640:   DEPTH LOGGER
 BLI .F               638:   BOTTOM LOG INTERVAL
 TLI .F                30:   TOP LOG INTERVAL
 CS  .IN            8.625:   CASING SIZE
 CBD .F                40:   CASING BOTTOM DRILLER
 CBL .F                38:   CASING BOTTOM LOGGER
 BS  .IN            7.875:   BIT SIZE
 BSD .F               635:   BIT SIZE AT DEPTH
 DFT .            KCL MUD:   DRILLING FLUID TYPE
 DFD .                8.8:   DRILLING FLUID DENSITY
 DFV .                 32:   DRILLING FLUID VISCOSITY
 DFPH.                7.5:   DRILLING FLUID PH
 MSS .           FLOWLINE:   MUD SAMPLE SOURCE
 RMS .OHMM            .25:   RESISTIVITY MUD SAMPLE
 MST .F                80:   MUD SAMPLE TEMPERATURE
 RMF .OHMM            .22:   RESISTIVITY MUD FILTRATE SAMPLE
 MFST.F                80:   MUD FILTRATE SAMPLE TEMPERATURE
 RMC .OHMM            .31:   RESISTIVITY MUD CAKE
 MCST.F                80:   MUD CAKE SAMPLE TEMPERATURE
 MFSS.               MEAS:   MUD FILTRATE SAMPLE SOURCE
 MCSS.               MEAS:   MUD CAKE SAMPLE SOURCE
 RMB .OHMM            .23:   RESISTIVITY MUD AT BHT
 BHT .F                87:   BOTTOM HOLE TEMPERATURE
 TCS .HRS            0130:   TIME CURCULATED STOPPED
 MRT .F                87:   MAXIMUM RECORDED TEMPERATURE
 LUN .               8611:   LOGGING UNIT NUMBER
 LUL .             CASPER:   LOGGING UNIT LOCATION
 ENGI.            C. DOAK:   RECORDING ENGINEER
 WITN.            R. LYON:   WITNESSED BY
 CLNT.            A2DTECH:   CLIENT CODE
 ORIG.           5" PRINT:   ORIGIN OF DATA
 UWI .       490251035100:   UNIQUE WELL ID
 DICO. A2D Technologies, Inc.:   DIGITIZING COMPANY
~OTHER INFORMATION
~A   DEPT      SPR        ILD        ILM       SGRD         GRD      CALD        CORR        RHOB     DPHI   
# ...
  103.0000   -46.0739     7.4664     9.9004    11.3185   111.3815     7.8933     0.0273     2.4140     0.1543
  103.5000   -46.3565     7.4192     9.8372    11.0920   109.9053     7.8943     0.0274     2.4163     0.1543
  104.0000   -46.4911     7.4244     9.6407    11.1035   109.1730     7.8954     0.0274     2.4268     0.1500
  104.5000   -46.7737     7.4798     9.6454    11.3349   108.5896     7.8964     0.0275     2.4380     0.1411
  105.0000   -47.0557     7.5878     9.6500    11.4188   107.5598     7.8974     0.0290     2.4426     0.1393
  105.5000   -47.1908     7.6445     9.7214    11.1136   105.6371     7.8985     0.0309     2.4456     0.1371
  106.0000   -47.4734     7.7016     9.9293    10.5224   105.9466     7.8998     0.0352     2.4546     0.1298
  106.5000   -47.6106     7.8667    10.2116    11.3569   106.4181     7.9008     0.0352     2.4696     0.1218
  107.0000   -47.7452     8.0355    10.5746    12.0066   104.9286     7.9018     0.0368     2.4801     0.1146
  107.5000   -47.8797     8.1514    10.4350    14.4700   104.9455     7.9029     0.0413     2.4869     0.1116
  108.0000   -48.0143     8.2691    10.2959    12.7875   106.1608     7.9039     0.0429     2.4854     0.1120
  108.5000   -48.2968     8.4464    10.5173    12.1070   108.4058     7.9049     0.0370     2.4728     0.1170
  109.0000   -48.7239     8.6276    11.1185    12.5379   109.7769     7.9208     0.0355     2.4519     0.1265
  109.5000   -48.8618     8.6920    11.4347    12.8061   111.5849     7.9219     0.0296     2.4303     0.1426
  110.0000   -48.9963     8.5778    11.2837    13.2616   113.0754     7.9229     0.0236     2.4034     0.1602
  110.5000   -49.1275     8.5225    10.9070    13.4523   111.9359     7.9388     0.0237     2.4027     0.1619
  111.0000   -49.1142     8.4686    10.7629    13.8351   110.9757     7.9547     0.0208     2.4012     0.1633
  111.5000   -49.2521     8.3000    10.4755    13.1897   110.6928     7.9854     0.0178     2.3923     0.1682
  112.0000   -49.3833     8.1910    10.2520    12.8356   110.7047     7.9865     0.0134     2.3825     0.1729
  112.5000   -49.5178     8.0834    10.0486    12.3229   110.7165     7.9875     0.0120     2.3737     0.1795
  113.0000   -49.6557     7.9235     9.8492    11.8293   110.8772     7.9886     0.0091     2.3686     0.1812
  113.5000   -49.7903     7.7657     9.5956    11.5117   113.5676     7.9745     0.0091     2.3687     0.1815
  114.0000   -49.7736     7.5588     9.4621    11.3610   115.8115     7.9758     0.0122     2.3710     0.1812
  114.5000   -49.9115     7.4083     9.3383    11.2108   117.6091     7.9768     0.0137     2.3734     0.1802
  115.0000   -49.8948     7.2598     9.3484    11.1392   117.3233     7.9778     0.0153     2.3780     0.1743
  115.5000   -50.0293     7.2139     9.3530    10.9920   116.2935     7.9789     0.0183     2.3856     0.1698
  116.0000   -50.1639     7.2189     9.3591    10.8467   116.7517     7.9799     0.0214     2.3965     0.1659
  116.5000   -50.1505     7.3737     9.4918    11.2326   118.1029     7.9809     0.0244     2.4055     0.1590
  117.0000   -50.1372     7.6364     9.5621    11.2380   118.2605     7.9820     0.0275     2.4160     0.1518
  117.5000   -50.1238     7.8210     9.6328    11.6377   117.6771     7.9830     0.0290     2.4258     0.1464
  118.0000   -49.9625     8.0874     9.7712    12.2190   119.4777     7.9841     0.0321     2.4408     0.1374
  118.5000   -49.8012     8.3172     9.9116    12.3932   117.2573     7.9702     0.0367     2.4580     0.1311
  119.0000   -49.7878     8.6127    10.0539    11.8165   115.3347     7.9713     0.0367     2.4827     0.1171
  119.5000   -49.6265     8.8574    10.4833    11.9040   114.1531     7.9723     0.0368     2.4894     0.1120
  120.0000   -49.6132     9.0382    11.0065    15.2646   113.1262     7.9582     0.0398     2.4895     0.1105
  120.5000   -49.4519     9.1056    11.1114    25.6122   110.0130     7.9595     0.0429     2.4992     0.1081
  121.0000   -49.4385     9.0480    10.5711    16.2574   107.9415     7.9606     0.0444     2.5038     0.1036
  121.5000   -49.1293     9.0531    10.3599    12.5167   105.4206     7.9616     0.0445     2.4919     0.1050
  122.0000   -49.1159     9.0581    10.2938    12.0970   111.5366     7.9626     0.0401     2.4702     0.1170
  122.5000   -48.9546     8.9999    10.1578    13.0563   119.5842     7.9637     0.0326     2.4419     0.1367
  123.0000   -48.7933     8.8817    10.0918    12.6216   121.3817     7.9647     0.0297     2.4322     0.1448
  123.5000   -48.9312     8.7060     9.8901    12.2827   120.2031     7.9657     0.0268     2.4293     0.1468
  124.0000   -48.9171     8.5917     9.8270    12.6338   117.9828     7.9668     0.0253     2.4256     0.1483
  124.5000   -48.9039     8.4776     9.9009    12.2946   118.8875     7.9678     0.0254     2.4241     0.1507
  125.0000   -49.0631     8.4241     9.9057    12.5592   120.2386     7.9688     0.0269     2.4227     0.1513
  125.5000   -49.3215     8.3134     9.9105    12.7397   122.0361     7.9699     0.0270     2.4220     0.1519
  126.0000   -49.3077     8.2609     9.9153    12.5713   124.7265     7.9709     0.0286     2.4206     0.1524
  126.5000   -49.2944     8.2666     9.9201    12.1512   122.8039     7.9719     0.0286     2.4191     0.1527
  127.0000   -49.2811     8.2133     9.9250    11.9083   121.1788     7.9730     0.0287     2.4177     0.1533
  127.5000   -49.2677     8.2189     9.8604    11.5900   120.7440     7.9592     0.0287     2.4170     0.1536
  128.0000   -49.4026     8.1110     9.6646    11.3569   120.6071     7.9602     0.0288     2.4140     0.1569
  128.5000   -49.3890     8.0597     9.5369    11.6815   120.6191     7.9612     0.0304     2.4096     0.1583
  129.0000   -49.3708     8.0642     9.3464    12.0955   120.6309     7.9623     0.0319     2.4141     0.1559
  129.5000   -49.2145     8.0122     9.6786    11.8537   119.7371     7.9633     0.0335     2.4239     0.1517
  130.0000   -49.2012     8.0720    10.0227    11.9429   117.3611     7.9643     0.0350     2.4299     0.1466
  130.5000   -49.1878     8.0210     9.9587    11.7041   117.2438     7.9654     0.0351     2.4359     0.1427
  131.0000   -49.1744     8.0266    10.1716    11.5494   119.1936     7.9664     0.0337     2.4419     0.1394
  131.5000   -49.0131     8.0310    10.4608    11.3954   122.5169     7.9674     0.0322     2.4420     0.1394
  132.0000   -48.9998     8.0351    10.5382    11.4812   123.3810     7.9833     0.0308     2.4405     0.1400
  132.5000   -48.9864     7.9841    10.3991    11.8896   120.4563     7.9844     0.0293     2.4420     0.1400
  133.0000   -48.8251     7.9888    10.1901    11.9776   116.2643     7.9854     0.0294     2.4443     0.1394
  133.5000   -48.8117     7.9932    10.1262    12.1498   116.1243     7.9864     0.0295     2.4459     0.1379
  134.0000   -48.6504     8.0529    10.0604    12.1557   116.1391     7.9875     0.0310     2.4407     0.1405
  134.5000   -48.4891     8.0573    10.2061    12.1615   116.5974     7.9885     0.0326     2.4377     0.1414
  135.0000   -48.3278     8.0618    10.2111    12.1674   119.2878     7.9896     0.0326     2.4400     0.1387
  135.5000   -48.1665     8.0662     9.9384    11.9241   120.0437     7.9907     0.0342     2.4483     0.1354
  136.0000   -48.1532     8.1265     9.8737    11.5257   119.7579     7.9919     0.0373     2.4595     0.1300
  136.5000   -48.1398     8.1872    10.2259    11.7722   118.8769     7.9929     0.0388     2.4663     0.1250
  137.0000   -48.1264     8.1917    10.3006    12.2753   120.8232     7.9940     0.0419     2.4723     0.1205
  137.5000   -48.1131     8.2529    10.3175    12.4518   122.9184     7.9950     0.0449     2.4776     0.1186
  138.0000   -48.2510     8.3146    10.5259    12.3722   122.3350     7.9960     0.0465     2.4672     0.1236
  138.5000   -48.2343     8.3192    10.6770    11.9588   121.7516     7.9971     0.0420     2.4530     0.1330
  139.0000   -48.3688     8.3238    10.6820    12.4699   119.9777     7.9981     0.0391     2.4411     0.1402
