~VERSION INFORMATION
 VERS.                2.0:   CWLS LOG ASCII STANDARD - VERSION 2.0
 WRAP.                 NO:   ONE LINE PER DEPTH STEP
~WELL INFORMATION
#MNEM.UNIT      DATA TYPE    INFORMATION
#----------   ------------   ------------------------------
 STRT.F            0.0000:   START DEPTH
 STOP.F         1027.0000:   STOP DEPTH
 STEP.F            0.1000:   STEP LENGTH
 NULL.          -999.2500:   NO VALUE
 COMP.       F D SERV INC:   COMPANY
 WELL.   77-1 X 27 #77-27:   WELL
 FLD .             TEAPOT:   FIELD
 LOC .      S27 T39N R78W:   LOCATION
 CNTY.            NATRONA:   COUNTY
 STAT.            WYOMING:   STATE
 CTRY. UNITED STATES OF AMERICA:   COUNTRY
 SRVC.      Western Atlas:   SERVICE COMPANY
 DATE.        04-NOV-1991:   LOGDATE
 API .       490252248600:   API NUMBER
~CURVE INFORMATION
#MNEM.UNIT       API CODE    CURVE DESCRIPTION
#----------   ------------   ------------------------------
 DEPT.F                  :   
 GRR .GAPI   07 310 01 00:   GAMMA RAY
 RILD.OHMM   07 120 46 00:   INDUCTION LOG DEEP RESISTIVITY
 RFOC.OHMM   07 220 04 00:   RESISTIVITY FOCUSED LOG
 RILM.OHMM   07 120 44 00:   INDUCTION LOG MEDIUM RESISTIVITY
 SPR .MV     07 010 01 00:   SPONTANEOUS POTENTIAL
~PARAMETER INFORMATION
#MNEM.UNIT          VALUE    DESCRIPTION
#----------   ------------   ------------------------------
 PD  .                 GL:   PERMANENT DATUM
 EPD .F              5077:   ELEVATION PERMANENT DATUM
 LMF .                 KB:   LOG MEASURED FROM
 DAPD.F                10:   FEET ABOVE PERMANENT DATUM
 DMF .                 KB:   DRILLING MEASURED FROM
 EKB .F              5087:   KELLING BUSHING
 EDF .F              5086:   DRILLING FLOOR
 EGL .F              5077:   GROUND LEVEL
 DATE.        04-NOV-1991:   RUN DATE
 RUN .                  1:   RUN NUMBER
 DD  .F              1030:   DEPTH DRILLER
 DL  .F              1030:   DEPTH LOGGER
 BLI .F              1027:   BOTTOM LOG INTERVAL
 CS  .IN            9.625:   CASING SIZE
 CBD .F                50:   CASING BOTTOM DRILLER
 CBL .F                52:   CASING BOTTOM LOGGER
 BS  .IN             8.75:   BIT SIZE
 BSD .F              1030:   BIT SIZE AT DEPTH
 DFT .          KCL WATER:   DRILLING FLUID TYPE
 MSS .           FLOWLINE:   MUD SAMPLE SOURCE
 RMS .OHMM            .24:   RESISTIVITY MUD SAMPLE
 MST .F                72:   MUD SAMPLE TEMPERATURE
 RMB .OHMM            .19:   RESISTIVITY MUD AT BHT
 BHT .F                90:   BOTTOM HOLE TEMPERATURE
 TCS .HRS               2:   TIME CURCULATED STOPPED
 MRT .F                90:   MAXIMUM RECORDED TEMPERATURE
 LUN .            HL-6274:   LOGGING UNIT NUMBER
 LUL .             CASPER:   LOGGING UNIT LOCATION
 ENGI.             RAUTIO:   RECORDING ENGINEER
 WITN.             STRONG:   WITNESSED BY
 CLNT.            A2DTECH:   CLIENT CODE
 ORIG.           5" PRINT:   ORIGIN OF DATA
 UWI .       490252248600:   UNIQUE WELL ID
 DICO. A2D Technologies, Inc.:   DIGITIZING COMPANY
~OTHER INFORMATION
~A    DEPT      GRR      RILD       RFOC       RILM        SPR   
# ...
  756.4000   121.4012     4.4511     5.5437     4.3412   -28.6849
  756.5000   121.5262     4.4363     5.4887     4.2919   -28.6841
  756.6000   121.7123     4.4312     5.4469     4.2358   -28.6832
  756.7000   121.8570     4.4055     5.3890     4.2357   -28.6823
  756.8000   121.8593     4.4055     5.2976     4.2356   -28.6814
  756.9000   121.8615     4.4054     5.2075     4.2356   -28.6805
  757.0000   121.8638     4.4054     5.0905     4.2355   -28.6796
  757.1000   121.8660     4.4053     4.8458     4.2355   -28.5888
  757.2000   121.8683     4.4052     4.5633     4.2591   -28.4651
  757.3000   121.8274     4.4052     4.3358     4.2834   -28.3775
  757.4000   121.4239     4.4051     4.2266     4.3078   -28.3766
  757.5000   120.9319     4.4219     4.2007     4.3324   -28.3756
  757.6000   120.0109     4.4357     4.2227     4.3571   -28.3749
  757.7000   118.9932     4.4356     4.2469     4.3847   -28.2954
  757.8000   118.2039     4.4359     4.2830     4.4069   -28.2234
  757.9000   117.8333     4.4612     4.3320     4.4151   -28.1976
  758.0000   116.9163     4.4866     4.3829     4.4381   -28.0718
  758.1000   115.9992     4.5121     4.4712     4.4767   -28.0710
  758.2000   115.0821     4.5378     4.5354     4.4771   -28.0701
  758.3000   114.2923     4.5636     4.6136     4.5077   -28.0020
  758.4000   113.7659     4.5917     4.7039     4.5492   -27.9186
  758.5000   113.3647     4.6401     4.8121     4.5859   -27.9177
  758.6000   112.8690     4.6744     4.9272     4.6218   -27.9167
  758.7000   112.3199     4.7141     5.0644     4.6747   -27.9159
  758.8000   111.8551     4.7679     5.2334     4.7318   -27.8323
  758.9000   111.5334     4.8224     5.4320     4.7824   -27.7644
  759.0000   111.3518     4.8870     5.6424     4.8372   -27.7635
  759.1000   111.1702     4.9334     5.8380     4.8787   -27.7626
  759.2000   111.2808     4.9898     6.0668     4.9144   -27.7617
  759.3000   111.4669     5.0469     6.2203     4.9706   -27.7608
  759.4000   111.7177     5.1096     6.3760     5.0364   -27.6886
  759.5000   112.1592     5.2014     6.4900     5.0852   -27.6093
  759.6000   113.1649     5.2583     6.5643     5.1434   -27.6084
  759.7000   113.6681     5.3410     6.6393     5.2146   -27.6074
  759.8000   114.3483     5.4167     6.6773     5.2985   -27.6066
  759.9000   114.9146     5.4692     6.6854     5.3607   -27.6057
  760.0000   115.3293     5.5029     6.7071     5.4205   -27.6048
  760.1000   115.8915     5.5745     6.7319     5.5065   -27.6039
  760.2000   116.9959     5.6019     6.7319     5.6014   -27.6030
  760.3000   117.5869     5.6546     6.7319     5.6873   -27.6019
  760.4000   118.2179     5.7053     6.7319     5.7490   -27.6012
  760.5000   118.7717     5.7446     6.7319     5.7855   -27.6003
  760.6000   119.2500     5.8109     6.7319     5.8443   -27.5994
  760.7000   119.2524     5.8437     6.7219     5.8887   -27.5768
  760.8000   119.2545     5.8770     6.6854     5.9376   -27.4479
  760.9000   119.2567     5.9104     6.6854     5.9975   -27.4470
  761.0000   119.2590     5.9554     6.6854     6.0317   -27.4461
  761.1000   119.2612     6.0195     6.6854     6.0661   -27.4452
  761.2000   119.2635     6.0573     6.6854     6.0729   -27.4814
  761.3000   119.2662     6.0883     6.6854     6.0930   -27.5932
  761.4000   119.2680     6.1229     6.6854     6.1278   -27.5921
  761.5000   119.2702     6.1578     6.6854     6.1576   -27.5913
  761.6000   119.3395     6.1844     6.6854     6.1575   -27.5904
  761.7000   119.5256     6.1843     6.6854     6.1901   -27.5895
  761.8000   119.7262     6.1842     6.6854     6.2002   -27.5886
  761.9000   120.0672     6.2125     6.6854     6.2176   -27.5877
  762.0000   120.5658     6.2271     6.6854     6.2432   -27.5868
  762.1000   121.1196     6.2400     6.6854     6.2431   -27.5859
  762.2000   121.6734     6.2702     6.7103     6.2430   -27.5850
  762.3000   122.2269     6.2701     6.7319     6.2430   -27.5841
  762.4000   122.8837     6.3033     6.7319     6.2429   -27.5832
  762.5000   123.1849     6.3136     6.7319     6.2428   -27.5822
  762.6000   123.5548     6.3313     6.7319     6.2494   -27.5814
  762.7000   123.7882     6.3574     6.7319     6.2861   -27.5805
  762.8000   123.7904     6.3593     6.7319     6.2860   -27.5796
  762.9000   123.7928     6.4014     6.7319     6.3130   -27.5787
  763.0000   123.7949     6.4319     6.7319     6.3296   -27.5778
  763.1000   123.5373     6.4458     6.7319     6.3295   -27.5768
  763.2000   122.9935     6.4457     6.7319     6.3331   -27.5760
  763.3000   122.2603     6.4456     6.7319     6.3734   -27.5751
  763.4000   121.5272     6.4455     6.7503     6.3733   -27.5743
  763.5000   120.6628     6.4809     6.7888     6.3732   -27.5734
  763.6000   119.7595     6.4902     6.8276     6.3732   -27.5724
  763.7000   118.7687     6.5096     6.8734     6.3815   -27.5716
  763.8000   117.8518     6.5352     6.9058     6.4174   -27.5707
  763.9000   117.0212     6.5351     6.9453     6.4173   -27.5698
  764.0000   116.6319     6.5350     6.9695     6.4172   -27.5689
  764.1000   116.4621     6.5674     6.9763     6.4171   -27.5680
  764.2000   116.2805     6.5803     7.0180     6.4170   -27.5669
  764.3000   116.0989     6.5802     7.0563     6.4169   -27.5662
  764.4000   116.0167     6.5882     7.0668     6.4168   -27.5653
  764.5000   116.2028     6.6258     7.0668     6.4507   -27.6138
  764.6000   116.4210     6.6257     7.0668     6.4613   -27.7133
  764.7000   116.5750     6.6257     7.0668     6.4613   -27.7122
  764.8000   116.8724     6.6467     7.0668     6.4713   -27.7114
  764.9000   117.2424     6.6846     7.0668     6.5061   -27.7105
  765.0000   117.6123     6.7179     7.0668     6.4610   -27.7096
  765.1000   118.0039     6.7178     7.0668     6.4609   -27.7087
  765.2000   118.3520     6.7177     7.0668     6.4608   -27.7078
  765.3000   118.4573     6.7176     7.0668     6.4607   -27.7068
  765.4000   118.6428     6.7175     7.0668     6.4606   -27.7060
  765.5000   118.9618     6.7270     7.0668     6.4605   -27.6247
  765.6000   119.1479     6.7641     7.0668     6.4605   -27.5545
  765.7000   119.3649     6.7640     7.0668     6.4604   -27.5536
  765.8000   119.5201     6.7328     7.0668     6.4603   -27.5527
  765.9000   119.7061     6.7171     7.0668     6.4486   -27.5518
  766.0000   119.8922     6.7170     7.0668     6.4154   -27.5509
  766.1000   120.0783     6.7110     7.0391     6.4153   -27.5500
  766.2000   120.2741     6.6704     7.0180     6.4152   -27.5701
  766.3000   120.2762     6.6703     7.0180     6.4151   -27.6307
  766.4000   120.5454     6.6702     7.0164     6.4151   -27.6969
  766.5000   120.7298     6.6512     6.9695     6.3985   -27.8074
  766.6000   120.8362     6.6239     6.9695     6.3264   -27.8449
  766.7000   121.1947     6.6238     6.9695     6.3264   -27.9016
  766.8000   121.4105     6.6237     6.9695     6.2695   -27.9621
  766.9000   121.5669     6.6236     6.9628     6.2186   -27.8422
  767.0000   121.8667     6.6235     6.9213     6.1957   -27.8411
  767.1000   122.2365     6.6234     6.9213     6.1907   -27.7405
  767.2000   122.6065     6.6163     6.9213     6.1527   -27.6898
  767.3000   122.9934     6.5775     6.9010     6.1526   -27.6889
  767.4000   123.3464     6.5774     6.8734     6.1525   -27.6880
  767.5000   123.7163     6.5773     6.8734     6.1524   -27.6871
  767.6000   124.1801     6.5772     6.8734     6.1524   -27.6862
  767.7000   124.6274     6.5771     6.8398     6.1541   -27.6853
  767.8000   124.8007     6.5770     6.8259     6.1950   -27.6228
  767.9000   124.3544     6.5769     6.8093     6.1950   -27.5338
  768.0000   124.0450     6.5769     6.7788     6.2167   -27.5249
  768.1000   123.7945     6.5768     6.7788     6.2379   -27.3822
  768.2000   123.4644     6.5767     6.7788     6.2443   -27.3814
  768.3000   122.9153     6.5683     6.7788     6.2812   -27.3034
  768.4000   122.3444     6.5310     6.7573     6.3158   -27.1796
  768.5000   121.6400     6.5309     6.7319     6.3518   -27.0793
