~VERSION INFORMATION
 VERS.                2.0:   CWLS LOG ASCII STANDARD - VERSION 2.0
 WRAP.                 NO:   ONE LINE PER DEPTH STEP
~WELL INFORMATION
#MNEM.UNIT      DATA TYPE    INFORMATION
#----------   ------------   ------------------------------
 STRT.F            0.0000:   START DEPTH
 STOP.F          717.5000:   STOP DEPTH
 STEP.F            0.5000:   STEP LENGTH
 NULL.          -999.2500:   NO VALUE
 COMP. LAWRENCE/ALLISON INC:   COMPANY
 WELL. NPR 3 #27-64-SX-11-WP:   WELL
 FLD .             TEAPOT:   FIELD
 LOC .      S11 T38N R78W:   LOCATION
 CNTY.            NATRONA:   COUNTY
 STAT.            WYOMING:   STATE
 CTRY. UNITED STATES OF AMERICA:   COUNTRY
 SRVC.      Dresser Atlas:   SERVICE COMPANY
 DATE.        15-SEP-1984:   LOGDATE
 API .       490251097500:   API NUMBER
~CURVE INFORMATION
#MNEM.UNIT       API CODE    CURVE DESCRIPTION
#----------   ------------   ------------------------------
 DEPT.F                  :   
 CALD.IN     45 280 60 00:   CALIPER FROM DENSITY LOG
 CNC .DEC    42 890 03 00:   COMPENSATED NEUTRON POROSITY SANDSTONE
 CORR.G/C3   45 356 01 00:   DENSITY CORRECTION
 DEN .G/C3   45 350 01 00:   BULK DENSTIY
 PORD.DEC    45 890 12 00:   POROSITY DENSITY SANDSTONE
 GRR .GAPI   07 310 01 00:   GAMMA RAY FROM RESISTIVITY
 RFOC.OHMM   07 220 01 00:   RESISTIVITY FOCUSED LOG
 RILD.OHMM   07 120 46 00:   RESISTIVITY INDUCTION LOG DEEP
 RILM.OHMM   07 120 44 00:   RESITIVITY INDUCTION LOG MEDIUM
 SPR .MV     07 010 01 00:   SPONTANEOUS POTENTIAL FROM RES.
~PARAMETER INFORMATION
#MNEM.UNIT          VALUE    DESCRIPTION
#----------   ------------   ------------------------------
 PD  .                 GL:   PERMANENT DATUM
 EPD .F              5198:   ELEVATION PERMANENT DATUM
 LMF .                 GL:   LOG MEASURED FROM
 DMF .                 GL:   DRILLING MEASURED FROM
 EGL .F              5198:   GROUND LEVEL
 DATE.        15-SEP-1984:   RUN DATE
 RUN .                  1:   RUN NUMBER
 DD  .F               736:   DEPTH DRILLER
 DL  .F               722:   DEPTH LOGGER
 BLI .F               704:   BOTTOM LOG INTERVAL
 TLI .F                42:   TOP LOG INTERVAL
 CS  .IN            8.625:   CASING SIZE
 CBD .F                42:   CASING BOTTOM DRILLER
 CBL .F                42:   CASING BOTTOM LOGGER
 BS  .IN            7.875:   BIT SIZE
 BSD .F               736:   BIT SIZE AT DEPTH
 DFT .          KCL WATER:   DRILLING FLUID TYPE
 MSS .           FLOWLINE:   MUD SAMPLE SOURCE
 RMS .OHMM           0.22:   RESISTIVITY MUD SAMPLE
 MST .F                70:   MUD SAMPLE TEMPERATURE
 RMB .OHMM           0.17:   RESISTIVITY MUD AT BHT
 BHT .F                90:   BOTTOM HOLE TEMPERATURE
 TCS .HRS               5:   TIME CURCULATED STOPPED
 MRT .F                90:   MAXIMUM RECORDED TEMPERATURE
 LUN .               6274:   LOGGING UNIT NUMBER
 LUL .               GLTE:   LOGGING UNIT LOCATION
 ENGI.             RAUTIO:   RECORDING ENGINEER
 WITN.            JOHNSON:   WITNESSED BY
 CLNT.            A2DTECH:   CLIENT CODE
 ORIG.         2.5" PRINT:   ORIGIN OF DATA
 UWI .       490251097500:   UNIQUE WELL ID
 DICO. A2D Technologies, Inc.:   DIGITIZING COMPANY
~OTHER INFORMATION
~A    DEPT    CALD        CNC       CORR        DEN       PORD         GRR      RFOC       RILD       RILM        SPR   
# ...
  636.5000     7.7235     0.2245    -0.0034     2.4515     0.1324    75.7998     9.9846     9.6072     9.5956   -15.6376
  637.0000     7.7216     0.2268     0.0024     2.4530     0.1312    75.5996     9.8390     9.4278     9.3872   -15.9540
  637.5000     7.7197     0.2334     0.0028     2.4544     0.1313    76.9925     9.8289     9.0772     9.2409   -16.3215
  638.0000     7.7178     0.2264     0.0096     2.4554     0.1307    78.1219     9.6863     8.8239     8.9926   -16.7298
  638.5000     7.7155     0.2234     0.0217     2.4559     0.1302    78.0562     9.5450     8.6681     8.7400   -17.2095
  639.0000     7.7136     0.2235     0.0362     2.4588     0.1286    76.8035     9.5348     8.3302     8.4966   -17.2308
  639.5000     7.7117     0.2271     0.0491     2.4625     0.1233    76.7494     9.3969     8.1019     8.2256   -17.6588
  640.0000     7.7099     0.2318     0.0457     2.4697     0.1204    79.4476     9.2598     7.7681     7.8095   -18.4650
  640.5000     7.7080     0.2425     0.0219     2.4785     0.1191    81.3481     9.2495     7.5056     7.4887   -19.0773
  641.0000     7.7062     0.2547     0.0099     2.4784     0.1191    83.0692     9.1158     7.1393     7.1206   -19.4753
  641.5000     7.7043     0.2574     0.0097     2.4783     0.1221    82.1411     8.9832     6.8349     6.5161   -20.3122
  642.0000     7.7024     0.2470     0.0125     2.4752     0.1263    79.3571     8.7244     6.2981     6.1632   -21.2203
  642.5000     7.7004     0.2442     0.0123     2.4647     0.1269    78.7381     7.3979     5.6378     5.9003   -21.8836
  643.0000     7.6985     0.2528     0.0181     2.4631     0.1258    82.3948     6.0556     5.2597     5.5256   -22.5878
  643.5000     7.6966     0.2688     0.0179     2.4660     0.1235    89.8698     5.4701     5.0259     5.2852   -23.3633
  644.0000     7.6947     0.2824     0.0209     2.4657     0.1249    94.4143     5.2337     4.9680     5.2808   -23.3846
  644.5000     7.6928     0.3026     0.0235     2.4567     0.1364    95.0621     5.7060     5.1015     5.2997   -23.1913
  645.0000     7.7204     0.3059     0.0233     2.4310     0.1540    93.8166     7.9102     5.2491     5.6436   -22.2520
  645.5000     7.7185     0.2997     0.0232     2.4157     0.1592    80.5592     9.2877     5.5971     6.3792   -21.6808
  646.0000     7.7162     0.2601     0.0230     2.4169     0.1428    80.0720     9.4085     6.3325     7.4083   -20.9546
  646.5000     7.7144     0.2441     0.0228     2.4374     0.1295    79.4263     9.3994     7.2786     8.6063   -20.5444
  647.0000     7.7125     0.2356     0.0226     2.4663     0.1202    78.0652     9.3904     8.1688     9.2091   -20.2722
  647.5000     7.7404     0.2324     0.0224     2.4814     0.1167    77.5296     9.3807     8.7716     9.4761   -20.2959
  648.0000     7.7384     0.2366     0.0223     2.4835     0.1126    77.4621     9.3724     9.0073     9.5797   -20.1815
  648.5000     7.7365     0.2400     0.0191     2.4855     0.1120    77.4080     9.3634     9.0307     9.5677   -20.0473
  649.0000     7.7346     0.2405     0.0040     2.4794     0.1144    78.7632     9.4837     9.2369     9.6995   -19.4786
  649.5000     7.7327     0.2403    -0.0258     2.4734     0.1219    79.0562     9.6056     9.3566     9.9148   -19.3945
  650.0000     7.7308     0.2444    -0.0379     2.4644     0.1292    78.9941     9.5963     9.4978    10.2165   -18.9349
  650.5000     7.7288     0.2468    -0.0321     2.4554     0.1326    80.4113     9.7196     9.7293    10.3490   -18.3672
  651.0000     7.7269     0.2480    -0.0145     2.4523     0.1336    84.7762     9.8444     9.8525    10.5213   -18.3905
  651.5000     7.7250     0.2480     0.0033     2.4552     0.1336    85.3139    10.0031     9.9891    10.7608   -17.8225
  652.0000     7.7231     0.2432     0.0149     2.4611     0.1321    85.8516    10.1734    10.2477    10.9008   -17.5517
  652.5000     7.7212     0.2365     0.0147     2.4642     0.1284    83.7133    10.3701    10.5184    11.1939   -17.2764
  653.0000     7.7192     0.2310     0.0132     2.4684     0.1260    80.9828    10.6681    10.6540    11.2573   -17.1637
  653.5000     7.7170     0.2277     0.0067     2.4695     0.1243    80.9260    10.9999    10.8315    11.4820   -16.7337
  654.0000     7.7151     0.2252    -0.0068     2.4694     0.1249    81.1006    11.2279    11.0765    11.4714   -16.7574
  654.5000     7.7133     0.2234    -0.0187     2.4646     0.1267    83.7523    11.2173    11.2193    11.6201   -16.4814
  655.0000     7.7114     0.2246    -0.0159     2.4589     0.1293    85.4734    11.4136    11.3640    11.7672   -16.5123
  655.5000     7.7095     0.2276    -0.0052     2.4587     0.1317    81.5058    11.5072    11.3514    11.7559   -16.5329
  656.0000     7.7077     0.2300     0.0075     2.4670     0.1310    80.6046    11.6547    11.3386    11.7446   -16.2576
  656.5000     7.7058     0.2271     0.0043     2.4732     0.1261    79.9588    11.8059    11.4984    11.7315   -16.2885
  657.0000     7.7038     0.2218    -0.0018     2.4761     0.1220    78.1243    11.7935    11.6329    11.7217   -16.3091
  657.5000     7.7076     0.2238    -0.0109     2.4774     0.1202    78.0621    11.9450    11.6174    11.8736   -16.3314
  658.0000     7.7298     0.2300    -0.0170     2.4744     0.1199    78.5917    12.0991    11.7672    11.8611   -16.3550
  658.5000     7.7277     0.2346    -0.0172     2.4668     0.1188    78.5323    12.0868    11.8029    11.8489   -16.3811
  659.0000     7.7557     0.2369    -0.0173     2.4608     0.1230    79.0700    12.0739    11.9051    11.8591   -16.4024
  659.5000     7.7534     0.2382    -0.0084     2.4562     0.1301    77.8055    12.0636    11.7310    11.9924   -16.4260
  660.0000     7.7515     0.2295    -0.0054     2.4623     0.1296    77.1598    12.0520    11.8052    11.9774   -16.4497
  660.5000     7.7492     0.2197    -0.0030     2.4682     0.1271    77.0976    12.0386    11.8684    11.9672   -16.4737
  661.0000     7.7473     0.2144    -0.0040     2.4707     0.1225    77.0247    11.7028    11.8562    11.9558   -16.4970
  661.5000     7.7455     0.2127    -0.0113     2.4654     0.1240    78.7458    11.6919    11.6828    11.9425   -16.5252
  662.0000     7.7436     0.2127    -0.0196     2.4587     0.1310    78.8047    11.7668    11.5106    11.7702   -16.5444
  662.5000     7.7417     0.2139    -0.0202     2.4494     0.1369    79.2160    11.9943    11.4936    11.5991   -16.5680
  663.0000     7.7399     0.2177    -0.0097     2.4465     0.1372    79.1484    11.9827    11.3319    11.5858   -16.5917
  663.5000     7.7380     0.2221     0.0048     2.4501     0.1311    79.0917    11.9712    11.1644    11.5761   -16.6178
  664.0000     7.7361     0.2268     0.0165     2.4644     0.1264    79.2663    11.7954    11.3084    11.5657   -16.6391
  664.5000     7.7342     0.2293     0.0164     2.4728     0.1217    79.5592    11.6247    11.2970    11.5546   -16.6627
  665.0000     7.7322     0.2301     0.0162     2.4756     0.1205    79.4970    11.4031    11.1296    11.2303   -16.6864
  665.5000     7.7303     0.2276     0.0160     2.4755     0.1206    80.0347    10.9808    10.8190    10.9173   -16.7104
  666.0000     7.7284     0.2236     0.0158     2.4754     0.1230    80.5562    10.8221    10.6614    10.7036   -16.7337
  666.5000     7.7265     0.2219     0.0127     2.4753     0.1229    84.0417    10.6646    10.5055    10.6003   -16.7619
  667.0000     7.7246     0.2207     0.0095     2.4782     0.1215    87.5379    10.4327    10.2098    10.3051   -16.7824
  667.5000     7.7226     0.2220     0.0094     2.4780     0.1191    88.3580    10.3552    10.0536    10.1160   -16.8047
  668.0000     7.7204     0.2262     0.0087     2.4779     0.1184    88.5917    10.3460     9.9144    10.0055   -17.1243
  668.5000     7.7185     0.2285     0.0053     2.4778     0.1191    88.5296    10.1951     9.6350     9.8611   -17.4462
  669.0000     7.7166     0.2293     0.0020     2.4762     0.1208    88.4675    10.0454     9.6264     9.7180   -17.4871
  669.5000     7.7148     0.2320    -0.0032     2.4746     0.1215    88.3972    10.0368     9.3566     9.7087   -18.0828
