~VERSION INFORMATION
 VERS.                2.0:   CWLS LOG ASCII STANDARD - VERSION 2.0
 WRAP.                 NO:   ONE LINE PER DEPTH STEP
~WELL INFORMATION
#MNEM.UNIT      DATA TYPE    INFORMATION
#----------   ------------   ------------------------------
 STRT.F           32.0000:   START DEPTH
 STOP.F          456.0000:   STOP DEPTH
 STEP.F            0.5000:   STEP LENGTH
 NULL.          -999.2500:   NO VALUE
 COMP. LAWRENCE/ALLISON INC:   COMPANY
 WELL.    52-62 SX #10-10:   WELL
 FLD .             TEAPOT:   FIELD
 LOC .      S10 T38N R78W:   LOCATION
 CNTY.            NATRONA:   COUNTY
 STAT.            WYOMING:   STATE
 CTRY. UNITED STATES OF AMERICA:   COUNTRY
 SRVC.           Gearhart:   SERVICE COMPANY
 DATE.        06-AUG-1987:   LOGDATE
 API .       490251116500:   API NUMBER
~CURVE INFORMATION
#MNEM.UNIT       API CODE    CURVE DESCRIPTION
#----------   ------------   ------------------------------
 DEPT.F                  :   
 GRR .GAPI   07 310 01 00:   GAMMA RAY
 RILD.OHMM   07 120 46 00:   INDUCTION LOG DEEP RESISTIVITY
 RILM.OHMM   07 120 44 00:   INDUCTION LOG MEDIUM RESISTIVITY
 RLL .OHMM   07 220 00 00:   LATEROLOG RESISTIVITY
~PARAMETER INFORMATION
#MNEM.UNIT          VALUE    DESCRIPTION
#----------   ------------   ------------------------------
 PD  .                 GL:   PERMANENT DATUM
 EPD .F              5173:   ELEVATION PERMANENT DATUM
 LMF .                 KB:   LOG MEASURED FROM
 DAPD.F                 8:   FEET ABOVE PERMANENT DATUM
 DMF .                 KB:   DRILLING MEASURED FROM
 EKB .F              5181:   KELLING BUSHING
 EDF .F              5180:   DRILLING FLOOR
 EGL .F              5173:   GROUND LEVEL
 DATE.        06-AUG-1987:   RUN DATE
 RUN .                  1:   RUN NUMBER
 DD  .F               455:   DEPTH DRILLER
 DL  .F               456:   DEPTH LOGGER
 BLI .F               448:   BOTTOM LOG INTERVAL
 TLI .F                30:   TOP LOG INTERVAL
 CS  .IN            8.625:   CASING SIZE
 CBD .F                48:   CASING BOTTOM DRILLER
 CBL .F                48:   CASING BOTTOM LOGGER
 BS  .IN            7.875:   BIT SIZE
 BSD .F               455:   BIT SIZE AT DEPTH
 DFT .          OIL/WATER:   DRILLING FLUID TYPE
 DFD .               10.2:   DRILLING FLUID DENSITY
 DFV .                 40:   DRILLING FLUID VISCOSITY
 MSS .           MUD TANK:   MUD SAMPLE SOURCE
 RMS .OHMM            .22:   RESISTIVITY MUD SAMPLE
 MST .F                70:   MUD SAMPLE TEMPERATURE
 RMF .OHMM            .17:   RESISTIVITY MUD FILTRATE SAMPLE
 MFST.F                70:   MUD FILTRATE SAMPLE TEMPERATURE
 RMC .OHMM            .30:   RESISTIVITY MUD CAKE
 MCST.F                70:   MUD CAKE SAMPLE TEMPERATURE
 MFSS.              CHART:   MUD FILTRATE SAMPLE SOURCE
 TCS .HRS            1600:   TIME CURCULATED STOPPED
 TLAB.HRS            1807:   TIME LOGGER AT BOTTOM
 LUN .               7597:   LOGGING UNIT NUMBER
 LUL .           GILLETTE:   LOGGING UNIT LOCATION
 ENGI.         WEATHERMON:   RECORDING ENGINEER
 WITN.              FIVAS:   WITNESSED BY
 CLNT.            A2DTECH:   CLIENT CODE
 ORIG.           5" PRINT:   ORIGIN OF DATA
 UWI .       490251116500:   UNIQUE WELL ID
 DICO. A2D Technologies, Inc.:   DIGITIZING COMPANY
~OTHER INFORMATION
~A   DEPT       GRR      RILD       RILM        RLL   
   32.0000    66.0653  -999.2500  -999.2500  -999.2500
   32.5000    70.9934  -999.2500  -999.2500  -999.2500
   33.0000    72.2345  -999.2500  -999.2500  -999.2500
   33.5000    72.5625  -999.2500  -999.2500  -999.2500
   34.0000    71.6727  -999.2500  -999.2500  -999.2500
   34.5000    70.4786  -999.2500  -999.2500  -999.2500
   35.0000    70.5124  -999.2500  -999.2500  -999.2500
   35.5000    71.7491  -999.2500  -999.2500  -999.2500
   36.0000    74.8168  -999.2500  -999.2500  -999.2500
   36.5000    77.8844  -999.2500  -999.2500  -999.2500
   37.0000    78.5168  -999.2500  -999.2500  -999.2500
   37.5000    76.4094  -999.2500  -999.2500  -999.2500
   38.0000    74.3020  -999.2500  -999.2500  -999.2500
   38.5000    75.2501  -999.2500  -999.2500  -999.2500
   39.0000    78.3123  -999.2500  -999.2500  -999.2500
   39.5000    78.6402  -999.2500  -999.2500  -999.2500
   40.0000    78.0490  -999.2500  -999.2500  -999.2500
   40.5000    82.0358  -999.2500  -999.2500  -999.2500
   41.0000    86.3211  -999.2500  -999.2500  -999.2500
   41.5000    86.3446  -999.2500  -999.2500  -999.2500
   42.0000    85.1385  -999.2500  -999.2500  -999.2500
   42.5000    86.0931  -999.2500  -999.2500  -999.2500
   43.0000    89.1607  -999.2500  -999.2500  -999.2500
   43.5000    90.4019  -999.2500  -999.2500  -999.2500
   44.0000    89.8107  -999.2500  -999.2500  -999.2500
   44.5000    89.5298  -999.2500  -999.2500  -999.2500
   45.0000    90.4724  -999.2500  -999.2500  -999.2500
   45.5000    92.3359  -999.2500  -999.2500  -999.2500
   46.0000    93.2651  -999.2500  -999.2500  -999.2500
   46.5000    93.5930  -999.2500  -999.2500  -999.2500
   47.0000    93.6165  -999.2500  -999.2500  -999.2500
   47.5000    93.6400  -999.2500  -999.2500  -999.2500
   48.0000    93.3532  -999.2500  -999.2500  -999.2500
   48.5000    92.4694  -999.2500  -999.2500  -999.2500
   49.0000    87.8701   224.1174  -999.2500  -999.2500
   49.5000    82.4766    30.6985  -999.2500  -999.2500
   50.0000    79.1516    12.3196  1991.8223  -999.2500
   50.5000    80.3908    10.1381  1600.5377  -999.2500
   51.0000    82.2408    10.5748   624.2394  -999.2500
   51.5000    85.0928    13.6255   462.6201  -999.2500
   52.0000    94.4702    11.7788   396.5003  -999.2500
   52.5000   104.2350     3.9610   347.8039  -999.2500
   53.0000   110.6512     3.3518    21.2738  -999.2500
   53.5000   117.6762     2.8962     6.1690  -999.2500
   54.0000   119.8306     3.9101     3.9483  -999.2500
   54.5000   119.2453     7.3258     4.4478  -999.2500
   55.0000   117.7169    13.0715     5.3347  -999.2500
   55.5000   115.9497    15.0340     5.9672  -999.2500
   56.0000   114.4511    11.3913     6.8636  -999.2500
   56.5000   113.5555     8.1452     7.8398  -999.2500
   57.0000   116.6290     8.0344     8.0649  -999.2500
   57.5000   120.6099     8.0940     7.5771  -999.2500
   58.0000   123.6776     8.2105     7.2193  -999.2500
   58.5000   123.0299     8.4455     6.9262  -999.2500
   59.0000   120.3819     8.8093     6.8329  -999.2500
   59.5000   119.1819     9.3178     6.8836  -999.2500
   60.0000   119.8201     9.4519     7.3848  -999.2500
   60.5000   119.2348     9.3249     7.7576  -999.2500
   61.0000   118.9480     9.0715     8.1492  -999.2500
   61.5000   118.6728     8.9482     8.3250  -999.2500
   62.0000   118.0558     9.1412     8.5045  -999.2500
   62.5000   117.2038     9.4029     8.6275  -999.2500
   63.0000   116.6185     9.8079     8.8136  -999.2500
   63.5000   116.0332    10.3019     9.0038  -999.2500
   64.0000   114.2302    10.6730     9.2632  -999.2500
   64.5000   110.2963    10.8246     9.3972  -999.2500
   65.0000   109.4064    10.9049     9.5331  -999.2500
   65.5000   111.3242    11.2167     9.7387  -999.2500
   66.0000   113.1125    11.6186    10.0184  -999.2500
   66.5000   110.7007    11.9512    10.3783  -999.2500
   67.0000   107.6800    12.2935    10.9022  -999.2500
   67.5000   107.0888    12.6464    11.1375  -999.2500
   68.0000   107.4226    13.0085    11.2211  1991.8223
   68.5000   108.9682    13.1956    11.3834  1991.8223
   69.0000   109.2968    13.2924    11.7923  1991.8223
   69.5000   107.1946    13.3900    11.9629  1716.0875
   70.0000   104.4784    13.4882    11.8019  1392.5731
   70.5000   102.3710    13.4928    11.8067  1069.0586
   71.0000   101.1769    13.4036    11.8115   731.7946
   71.5000   100.8950    13.4083    11.8258   372.8920
   72.0000   101.2239    13.3195    11.9050    95.7507
   72.5000   101.8569    13.2314    11.9932    75.5356
   73.0000   103.1033    13.0537    11.9135    72.9587
   73.5000   104.9533    12.8762    11.7543    76.1061
   74.0000   107.1077    12.6150    11.6773    80.5004
   74.5000   107.4356    12.4445    11.4401    83.3833
   75.0000   108.0679    12.2764    11.0523    85.7684
   75.5000   108.3959    12.1952    10.6685    81.6990
   76.0000   108.7238    12.2003    10.3891    81.7267
   76.5000   102.6649    12.1197    10.5394    80.6151
   77.0000    98.7310    12.1238    10.6918    76.2559
   77.5000    97.8354    12.1279    10.8465    73.1469
   78.0000   100.6045    12.2169    11.0034    73.6794
   78.5000   102.4545    12.0516    11.0849    72.6773
   79.0000   102.1736    11.9720    11.1671    65.9265
   79.5000   100.6383    11.8864    11.0939    61.0688
   80.0000   100.3942    11.5707    10.8696    70.7377
   80.5000   101.3368    11.4933    10.7973    70.2645
   81.0000   102.5780    11.3379    10.8028    67.8674
   81.5000   103.2044    11.1847    10.6574    77.5226
   82.0000   102.0162    11.0345    10.4409    81.4281
   82.5000   101.4307    10.9606    10.2287    80.3205
   83.0000   101.4551    10.8890    10.0911    75.4486
   83.5000   103.3102    10.7419    10.0953    71.8688
   84.0000   104.5514    10.7457    10.1710    72.8993
   84.5000   104.2705    10.6754    10.1034    63.8633
   85.0000   101.2499    10.6790    10.1085    49.3359
   85.5000    97.6204    10.6826    10.1126    43.2177
   86.0000    99.1660    10.6111    10.1167    32.9236
   86.5000   104.5236    10.4686    10.0504    26.3380
   87.0000   106.8234    10.3994     9.9819    22.4362
   87.5000   103.5042    10.1168     9.7137    21.0753
   88.0000   100.7880    10.0499     9.5164    21.2288
   88.5000    98.0718     9.9834     9.3230    20.6510
   89.0000    98.3997     9.9877     9.2629    19.6712
   89.5000   101.7718     9.9910     9.2013    19.2686
   90.0000   105.7534     9.9250     9.2060    18.3544
   90.5000   105.1732     9.8585     9.2097    17.4836
   91.0000   102.4570     9.9317     9.2135    16.3088
   91.5000    98.5231    10.0046     9.2181    15.9750
   92.0000    95.8069    10.0781     9.2219    15.6395
   92.5000    93.3951    10.0823     9.2256    14.8030
   93.0000    92.1990    10.0857     9.2940    14.1006
   93.5000    94.3593    10.0181     9.4284    13.8120
   94.0000    98.3402    10.0224     9.4322    13.5294
   94.5000   101.1034     9.9553     9.4360    13.1594
   95.0000   100.8219     9.7533     9.3742    13.4425
   95.5000    99.9328     9.5547     9.3128    13.5404
   96.0000   100.8754     9.3575     9.2528    13.5441
   96.5000   106.0740     9.1593     9.1922    13.3451
   97.0000   111.2725     8.7975     8.9428    12.8160
   97.5000   111.9048     8.6175     8.5200    12.1230
   98.0000   111.0151     8.5018     8.0607    11.3084
   98.5000   110.1248     8.4449     7.6261    10.9992
   99.0000   111.3952     8.3890     7.5762    11.2358
   99.5000   112.3033     8.3926     7.6866    11.2389
  100.0000   103.5047     8.3371     7.7435    11.5603
  100.5000   101.3973     8.3984     7.8009    11.9946
  101.0000   101.7252     8.4618     7.8587    12.4924
  101.5000   105.4017     8.5245     7.9724    12.5842
  102.0000   108.1649     8.5876     8.0877    12.8632
  102.5000   107.8548     8.6511     8.1476    12.5884
  103.0000   107.2633     8.6546     7.9786    11.9970
  103.5000   107.3110     8.6582     7.9820    11.7523
  104.0000   107.9120     8.6625     7.9847    11.5115
  104.5000   106.7119     8.7266     7.9873    11.1992
