~VERSION INFORMATION
 VERS.                2.0:   CWLS LOG ASCII STANDARD - VERSION 2.0
 WRAP.                 NO:   ONE LINE PER DEPTH STEP
~WELL INFORMATION
#MNEM.UNIT      DATA TYPE    INFORMATION
#----------   ------------   ------------------------------
 STRT.F           30.0000:   START DEPTH
 STOP.F          759.0000:   STOP DEPTH
 STEP.F            0.5000:   STEP LENGTH
 NULL.          -999.2500:   NO VALUE
 COMP. FENIX & SCISSON INC:   COMPANY
 WELL.    NPR ##3 15-S-14:   WELL
 FLD .             TEAPOT:   FIELD
 LOC .      S14 T38N R78W:   LOCATION
 CNTY.            NATRONA:   COUNTY
 STAT.            WYOMING:   STATE
 CTRY. UNITED STATES OF AMERICA:   COUNTRY
 SRVC.              Welex:   SERVICE COMPANY
 DATE.        23-FEB-1977:   LOGDATE
 API .       490251027600:   API NUMBER
~CURVE INFORMATION
#MNEM.UNIT       API CODE    CURVE DESCRIPTION
#----------   ------------   ------------------------------
 DEPT.F                  :   
 GURD.OHMM   07 220 05 00:   SHALLOW SHORT GUARD RESISTIVITY
 ILD .OHMM   07 120 46 00:   INDUCTION LOG DEEP
 ILM .OHMM   07 120 44 00:   INDUCTION LOG MEDIUM
 SPR .MV     07 010 01 00:   SPONTANEOUS POTENTIAL
 CALD.IN     45 280 60 00:   CALIPER FROM DENSITY LOG
 CORR.G/C3   45 356 01 00:   DENSITY CORRECTION
 DPHI.DEC    45 890 12 00:   DENSITY POROSITY SANDSTONE
 GRD .GAPI   45 310 01 00:   GAMMA RAY FROM DENSITY LOG
 RHOB.G/C3   45 350 01 00:   BULK DENSITY
~PARAMETER INFORMATION
#MNEM.UNIT          VALUE    DESCRIPTION
#----------   ------------   ------------------------------
 PD  .                 GL:   PERMANENT DATUM
 EPD .F            5229.2:   ELEVATION PERMANENT DATUM
 LMF .                 GL:   LOG MEASURED FROM
 DMF .                 GL:   DRILLING MEASURED FROM
 EGL .F            5229.2:   GROUND LEVEL
 DATE.        23-FEB-1977:   RUN DATE
 RUN .                  1:   RUN NUMBER
 DD  .F               764:   DEPTH DRILLER
 DL  .F               762:   DEPTH LOGGER
 BLI .F               760:   BOTTOM LOG INTERVAL
 TLI .F                40:   TOP LOG INTERVAL
 CS  .IN            8.625:   CASING SIZE
 CBD .F                40:   CASING BOTTOM DRILLER
 CBL .F                40:   CASING BOTTOM LOGGER
 BS  .IN            7.875:   BIT SIZE
 BSD .F               764:   BIT SIZE AT DEPTH
 DFT .           CHEM/GEL:   DRILLING FLUID TYPE
 DFD .                9.4:   DRILLING FLUID DENSITY
 DFV .                 50:   DRILLING FLUID VISCOSITY
 DFPH.               11.0:   DRILLING FLUID PH
 DFL .               12.2:   DRILLING FLUID LOSS
 MSS .           FLOWLINE:   MUD SAMPLE SOURCE
 RMS .OHMM           0.23:   RESISTIVITY MUD SAMPLE
 MST .F                38:   MUD SAMPLE TEMPERATURE
 RMF .OHMM           0.15:   RESISTIVITY MUD FILTRATE SAMPLE
 MFST.F                38:   MUD FILTRATE SAMPLE TEMPERATURE
 RMC .OHMM           0.54:   RESISTIVITY MUD CAKE
 MCST.F                38:   MUD CAKE SAMPLE TEMPERATURE
 MFSS.               MEAS:   MUD FILTRATE SAMPLE SOURCE
 MCSS.               MEAS:   MUD CAKE SAMPLE SOURCE
 RMB .OHMM           .148:   RESISTIVITY MUD AT BHT
 BHT .F                59:   BOTTOM HOLE TEMPERATURE
 TCS .HRS               2:   TIME CURCULATED STOPPED
 MRT .F                59:   MAXIMUM RECORDED TEMPERATURE
 LUN .               8611:   LOGGING UNIT NUMBER
 LUL .           GILLETTE:   LOGGING UNIT LOCATION
 ENGI.             C.DOAK:   RECORDING ENGINEER
 WITN.         STUEBINGER:   WITNESSED BY
 CLNT.            A2DTECH:   CLIENT CODE
 ORIG.           5" PRINT:   ORIGIN OF DATA
 UWI .       490251027600:   UNIQUE WELL ID
 DICO. A2D Technologies, Inc.:   DIGITIZING COMPANY
~OTHER INFORMATION
~A   DEPT     GURD        ILD        ILM        SPR         CALD      CORR      DPHI         GRD        RHOB 
# ...
  431.5000    10.1191     7.2420     9.2497   -47.9494     8.2466     0.1108     0.1065   114.5396     2.4839
  432.0000    10.1913     7.1932     9.2516   -47.9523     8.2609     0.1123     0.1005   111.0403     2.4749
  432.5000    10.2640     7.0956     9.3176   -47.9553     8.2601     0.1123     0.0993   111.4873     2.4760
  433.0000    10.2661     6.9514     9.3195   -47.9582     8.2594     0.1123     0.1002   112.8411     2.4833
  433.5000    10.2682     6.7166     9.2572   -47.9612     8.2736     0.1123     0.1014   112.4509     2.4839
  434.0000    10.2703     6.5347     9.2591   -47.9648     8.2727     0.1123     0.1002   109.6888     2.4846
  434.5000    10.1314     6.2274     9.2610   -48.1169     8.2872     0.1123     0.1038   107.5947     2.4839
  435.0000     9.9943     5.8938     9.2586   -48.2691     8.2862     0.1123     0.1092   106.3974     2.4822
  435.5000     9.5830     5.5781     9.1913   -48.4572     8.3007     0.1108     0.1104   108.3391     2.4787
  436.0000     8.9692     5.3158     8.8908   -48.7224     8.3149     0.1063     0.1163   109.9819     2.4712
  436.5000     7.2278     5.1366     7.9619   -48.8749     8.3140     0.1018     0.1263   107.8877     2.4577
  437.0000     5.4836     5.0317     7.5352   -48.8778     8.3284     0.0988     0.1359   109.3810     2.4292
  437.5000     5.2255     4.9978     7.4845   -48.8807     8.3275     0.0973     0.1373   108.3332     2.3895
  438.0000     6.9385     5.0333     7.6432   -48.7344     8.3268     0.0973     0.1331   105.9401     2.3760
  438.5000     8.2485     5.0688     7.8590   -48.5129     8.3412     0.0988     0.1373   103.2481     2.3903
  439.0000     8.7795     5.1046     8.1369   -48.2109     8.3403     0.1003     0.1361   100.5560     2.3978
  439.5000     8.8421     5.2844     8.3090   -47.9701     8.3396     0.1018     0.1280    98.4619     2.4125
  440.0000     8.9670     5.4707     8.6028   -47.7013     8.3538     0.1048     0.1151    98.7593     2.4457
  440.5000     9.4132     5.7026     8.6654   -47.2572     8.3531     0.1078     0.1061   100.8903     2.4689
  441.0000     9.6821     5.8630     8.8541   -47.1101     8.3373     0.1078     0.1013   102.3637     2.4772
  441.5000     9.7481     5.9864     9.0351   -46.9638     8.3364     0.1078     0.1001   102.4919     2.4809
  442.0000     9.7505     6.1548     9.1627   -46.8175     8.3358     0.1084     0.1055   104.2837     2.4801
  442.5000     9.7525     6.2843     9.2281   -46.8211     8.3350     0.1093     0.1040   107.1223     2.4764
  443.0000     9.7545     6.3778     9.3584   -46.8240     8.3192     0.1093     0.1007   107.8686     2.4757
  443.5000     9.7565     6.5069     9.4252   -46.7834     8.3337     0.1093     0.0997   106.0730     2.4839
  444.0000     9.8261     6.5982     9.5582   -46.6806     8.3327     0.1093     0.1022   105.3242     2.4764
  444.5000     9.9649     6.6447     9.6932   -46.5699     8.3320     0.1078     0.1073   105.2930     2.4644
  445.0000    10.1056     6.7380     9.7624   -46.3880     8.3313     0.1078     0.1057   105.6202     2.4704
  445.5000    10.3193     6.8325     9.8321   -46.3746     8.3305     0.1063     0.1027   108.1598     2.4764
  446.0000    10.3214     6.8807     9.9709   -46.2446     8.3298     0.1033     0.1066   111.7458     2.4703
  446.5000    10.2524     6.8817    10.0463   -46.2184     8.3141     0.0988     0.1159   108.9043     2.4642
  447.0000    10.3257     6.9302    10.1840   -46.1011     8.3133     0.0943     0.1198   108.4544     2.4577
  447.5000    10.3282     6.9312    10.2571   -46.1048     8.2976     0.0883     0.1228   107.4066     2.4487
  448.0000    10.3303     6.9321    10.2592   -46.1077     8.2969     0.0853     0.1261   105.4519     2.4404
  448.5000    10.3324     6.9331    10.2613   -46.1106     8.2961     0.0838     0.1255   106.0084     2.4390
  449.0000    10.3345     6.9820    10.2633   -46.1136     8.2802     0.0853     0.1213   111.1387     2.4532
  449.5000    10.3681     7.0315    10.3366   -46.2657     8.2795     0.0883     0.1165   113.9773     2.4712
  450.0000    10.4205     7.0811    10.3801   -46.2686     8.2787     0.0913     0.1117   111.1358     2.4824
  450.5000    10.4729     7.1311    10.4285   -46.2724     8.2780     0.0944     0.1013   109.7890     2.4891
  451.0000    10.5253     7.1373    10.4770   -46.3107     8.2766     0.0988     0.0958   109.9370     2.4899
  451.5000    10.5777     7.1470    10.5254   -46.3491     8.2739     0.1018     0.0973   110.9819     2.4854
  452.0000    10.6254     7.1567    10.6313   -46.3875     8.2711     0.1003     0.1030   112.3257     2.4801
  452.5000    10.6983     7.1664    10.5588   -46.4258     8.2684     0.0973     0.1042   117.7054     2.4764
  453.0000    10.9215     7.1761    10.5595   -46.4642     8.2656     0.0958     0.1003   115.3123     2.4765
  453.5000    10.6967     7.1300    10.4153   -46.5025     8.2629     0.0958     0.0988   110.4702     2.4837
  454.0000    10.1910     7.1300    10.3443   -46.5409     8.2602     0.0958     0.0964   106.0782     2.4929
  454.5000    10.0504     7.0810    10.2030   -46.7164     8.2597     0.0961     0.0946   103.8385     2.4944
  455.0000    10.1194     7.0810    10.1334   -46.7164     8.2593     0.0968     0.0984   106.7066     2.4801
  455.5000    10.1187     7.0810    10.0643   -46.8657     8.2589     0.0976     0.1083   113.7106     2.4652
  456.0000    10.1180     7.0810     9.9902   -47.0149     8.2735     0.0983     0.1053   117.1515     2.4629
  456.5000    10.1172     7.0323     9.9276   -47.1642     8.2730     0.0990     0.1031   119.3965     2.4772
  457.0000    10.1165     7.0323     9.9972   -47.3134     8.2725     0.0998     0.1065   117.3068     2.4779
  457.5000    10.1861     6.9359     9.9979   -47.6119     8.2872     0.1005     0.1101   118.2066     2.4682
  458.0000     9.9763     6.8409     9.9297   -47.9164     8.2866     0.1011     0.1090   117.9106     2.4644
  458.5000     9.5706     6.6547     9.7267   -48.3801     8.2862     0.1040     0.1026   116.7177     2.4779
  459.0000     8.9310     6.4735     9.3323   -48.8060     8.2708     0.1055     0.1020   116.7206     2.4906
  459.5000     8.4502     6.2110     8.7703   -49.2537     8.2703     0.1099     0.0990   116.4246     2.4883
  460.0000     8.1065     5.9592     8.4730   -49.7015     8.2699     0.1145     0.0945   115.3812     2.4829
  460.5000     7.8849     5.6666     8.1859   -50.4478     8.2694     0.1188     0.0984   110.5635     2.4764
  461.0000     7.6139     5.1554     7.9084   -51.3433     8.2689     0.1203     0.1050   111.9241     2.4712
  461.5000     7.2921     4.6486     7.5247   -52.2388     8.2684     0.1202     0.1062   114.4938     2.4682
  462.0000     6.8658     4.0495     7.0584   -52.8358     8.2680     0.1187     0.1055   115.3936     2.4689
  462.5000     6.5411     3.6262     6.4293   -53.5821     8.2826     0.1216     0.1139   115.6955     2.4622
  463.0000     6.1890     3.3612     6.0005   -54.0458     8.2821     0.1231     0.1193   115.3995     2.4509
  463.5000     5.7356     3.1372     5.4476   -54.6269     8.2817     0.1245     0.1307   114.0571     2.4358
  464.0000     5.1350     2.9892     4.9456   -55.0746     8.2860     0.1245     0.1364   111.5189     2.4190
  464.5000     4.3802     2.8483     4.4899   -55.2239     8.2959     0.1260     0.1435   106.5891     2.4013
  465.0000     3.5354     2.7140     4.1330   -55.3731     8.2953     0.1244     0.1609   102.8551     2.3833
  465.5000     3.0577     2.5665     3.9653   -55.5224     8.3099     0.1244     0.1752   102.2601     2.3638
  466.0000     2.9333     2.4812     3.9657   -55.2239     8.3094     0.1213     0.1956   104.3558     2.3458
  466.5000     3.5231     2.4641     4.1625   -54.6269     8.3240     0.1153     0.2091   106.9248     2.3226
  467.0000     6.3152     2.5157     4.4030   -53.7314     8.3235     0.1107     0.2157   104.1873     2.2961
  467.5000     4.7898     2.6584     4.6917   -52.8159     8.3231     0.1045     0.2178   101.5252     2.2836
