~VERSION INFORMATION
 VERS.                2.0:   CWLS LOG ASCII STANDARD - VERSION 2.0
 WRAP.                 NO:   ONE LINE PER DEPTH STEP
~WELL INFORMATION
#MNEM.UNIT      DATA TYPE    INFORMATION
#----------   ------------   ------------------------------
 STRT.F          520.5000:   START DEPTH
 STOP.F         3119.5000:   STOP DEPTH
 STEP.F            0.5000:   STEP LENGTH
 NULL.          -999.2500:   NO VALUE
 COMP.   FLUOR DANIEL INC:   COMPANY
 WELL. NAVAL PETROLEUM RESERVE 3 X-10 #52-10:   WELL
 FLD .            WILDCAT:   FIELD
 LOC .      S10 T38N R78W:   LOCATION
 CNTY.            NATRONA:   COUNTY
 STAT.            WYOMING:   STATE
 CTRY. UNITED STATES OF AMERICA:   COUNTRY
 SRVC.            Unknown:   SERVICE COMPANY
 DATE.        16-AUG-1995:   LOGDATE
 API .       490252275200:   API NUMBER
~CURVE INFORMATION
#MNEM.UNIT       API CODE    CURVE DESCRIPTION
#----------   ------------   ------------------------------
 DEPT.F                  :   
 ROP .MIN/FT 91 810 01 00:   RAT OF DRILLING PENETRATION
 TGAS.UNITS  91 830 01 00:   TOTAL GAS FROM HOTWIRE
~PARAMETER INFORMATION
#MNEM.UNIT          VALUE    DESCRIPTION
#----------   ------------   ------------------------------
 EKB .F              5206:   KELLING BUSHING
 EGL .F              5196:   GROUND LEVEL
 DATE.            8-16-95:   RUN DATE
 DD  .F              3120:   DEPTH DRILLER
 CS  .IN            9.625:   CASING SIZE
 CBD .F               508:   CASING BOTTOM DRILLER
 BS  .IN             8.75:   BIT SIZE
 BSD .F              3120:   BIT SIZE AT DEPTH
 ENGI.               HUSK:   RECORDING ENGINEER
 WITN.              TOWER:   WITNESSED BY
 CLNT.            A2DTECH:   CLIENT CODE
 ORIG.           5" PRINT:   ORIGIN OF DATA
 UWI .       490252275200:   UNIQUE WELL ID
 DICO. A2D Technologies, Inc.:   DIGITIZING COMPANY
~OTHER INFORMATION
~A   DEPT        ROP     TGAS   
# ...
 1492.5000     0.3953    31.4137
 1493.0000     0.3954    31.3998
 1493.5000     0.3955    31.3858
 1494.0000     0.3957    31.3718
 1494.5000     0.3958    31.3578
 1495.0000     0.3959    31.3439
 1495.5000     0.3961    31.3299
 1496.0000     0.3962    31.3159
 1496.5000     0.3963    31.3020
 1497.0000     0.3965    31.2880
 1497.5000     0.3966    31.2740
 1498.0000     0.3967    31.2600
 1498.5000     0.3968    31.2461
 1499.0000     0.3970    31.2321
 1499.5000     0.3971    31.2181
 1500.0000     0.3973    31.2030
 1500.5000     0.3974    31.2111
 1501.0000     0.3975    31.2198
 1501.5000     0.3977    31.2286
 1502.0000     0.3978    31.2374
 1502.5000     0.3979    31.2461
 1503.0000     0.3980    31.2549
 1503.5000     0.4088    31.2637
 1504.0000     0.4089    31.2724
 1504.5000     0.4090    31.2812
 1505.0000     0.4092    31.2900
 1505.5000     0.4093    31.2987
 1506.0000     0.4200    31.3075
 1506.5000     0.4202    31.3163
 1507.0000     0.4203    31.3251
 1507.5000     0.4204    31.3338
 1508.0000     0.4206    31.3426
 1508.5000     0.4207    31.3514
 1509.0000     0.4208    31.3601
 1509.5000     0.4209    31.3689
 1510.0000     0.4211    31.3777
 1510.5000     0.4212    31.3864
 1511.0000     0.4214    31.3952
 1511.5000     0.4109    31.4040
 1512.0000     0.4110    31.4127
 1512.5000     0.4112    31.4215
 1513.0000     0.4113    31.4303
 1513.5000     0.4008    31.4391
 1514.0000     0.4010    31.4478
 1514.5000     0.3905    31.4566
 1515.0000     0.3906    31.4654
 1515.5000     0.3908    31.4741
 1516.0000     0.3909    31.4829
 1516.5000     0.3910    31.4917
 1517.0000     0.3912    31.5004
 1517.5000     0.3913    31.5092
 1518.0000     0.3914    31.5180
 1518.5000     0.3916    31.5267
 1519.0000     0.4023    31.5355
 1519.5000     0.4130    31.5443
 1520.0000     0.4131    31.5530
 1520.5000     0.4017    31.5618
 1521.0000     0.4116    31.5706
 1521.5000     0.4106    31.5794
 1522.0000     0.4099    31.5881
 1522.5000     0.4091    31.5969
 1523.0000     0.4083    31.6057
 1523.5000     0.4075    31.6144
 1524.0000     0.4068    31.6232
 1524.5000     0.4166    31.6320
 1525.0000     0.4158    31.6407
 1525.5000     0.4149    31.6495
 1526.0000     0.4141    31.6583
 1526.5000     0.4133    31.6670
 1527.0000     0.4125    31.6758
 1527.5000     0.4118    31.6846
 1528.0000     0.4110    31.6934
 1528.5000     0.4102    31.7021
 1529.0000     0.4094    31.7109
 1529.5000     0.3979    31.7197
 1530.0000     0.4079    31.7284
 1530.5000     0.4069    31.7372
 1531.0000     0.4062    31.7460
 1531.5000     0.4054    31.7547
 1532.0000     0.4046    31.7635
 1532.5000     0.4039    31.7723
 1533.0000     0.4031    31.7810
 1533.5000     0.4023    31.7898
 1534.0000     0.4013    31.7986
 1534.5000     0.4006    31.8073
 1535.0000     0.3998    31.8161
 1535.5000     0.3990    31.8249
 1536.0000     0.3983    31.8337
 1536.5000     0.3975    31.8424
 1537.0000     0.3967    31.8512
 1537.5000     0.3959    31.8600
 1538.0000     0.3950    31.8687
 1538.5000     0.3942    31.8775
 1539.0000     0.3934    31.8863
 1539.5000     0.3927    31.8950
 1540.0000     0.3919    31.9038
 1540.5000     0.3911    31.9126
 1541.0000     0.3903    31.9213
 1541.5000     0.3896    31.9301
 1542.0000     0.3888    31.9389
 1542.5000     0.3878    31.9477
 1543.0000     0.3871    31.9564
 1543.5000     0.3863    31.9652
 1544.0000     0.3855    31.9740
 1544.5000     0.3742    31.9827
 1545.0000     0.3734    31.9915
 1545.5000     0.3620    32.0003
 1546.0000     0.3612    32.0090
 1546.5000     0.3603    32.0178
 1547.0000     0.3701    32.0266
 1547.5000     0.3693    32.0353
 1548.0000     0.3793    32.0441
 1548.5000     0.3892    32.0529
 1549.0000     0.3990    32.0616
 1549.5000     0.3980    32.0704
 1550.0000     0.3972    32.0792
 1550.5000     0.3965    32.0880
 1551.0000     0.3849    32.0967
 1551.5000     0.3841    32.1055
 1552.0000     0.3834    32.1143
 1552.5000     0.3826    32.1230
 1553.0000     0.3818    32.1318
 1553.5000     0.3811    32.1406
 1554.0000     0.3803    32.1493
 1554.5000     0.3795    32.1581
 1555.0000     0.3787    32.1669
 1555.5000     0.3672    32.1756
 1556.0000     0.3664    32.1844
 1556.5000     0.3656    32.1932
 1557.0000     0.3755    32.2020
 1557.5000     0.3747    32.2107
 1558.0000     0.3739    32.2195
 1558.5000     0.3731    32.2283
 1559.0000     0.3830    32.2370
 1559.5000     0.3926    32.2458
 1560.0000     0.4131    32.2546
 1560.5000     0.4131    32.2633
 1561.0000     0.4131    32.2721
 1561.5000     0.4131    32.2809
 1562.0000     0.4126    32.2896
 1562.5000     0.4025    32.2984
 1563.0000     0.4025    32.3072
 1563.5000     0.4025    32.3160
 1564.0000     0.3919    32.3247
 1564.5000     0.3919    32.3335
 1565.0000     0.3919    32.3423
 1565.5000     0.3919    32.3510
 1566.0000     0.3919    32.3598
 1566.5000     0.3919    32.3686
 1567.0000     0.3919    32.3773
 1567.5000     0.4025    32.3861
 1568.0000     0.4025    32.3949
 1568.5000     0.4025    32.4036
 1569.0000     0.4025    32.4124
 1569.5000     0.4131    32.4212
 1570.0000     0.4131    32.4299
 1570.5000     0.4131    32.4387
 1571.0000     0.4131    32.4475
 1571.5000     0.4131    32.4563
 1572.0000     0.4131    32.4650
 1572.5000     0.4131    32.4738
 1573.0000     0.4237    32.4826
 1573.5000     0.4237    32.4913
 1574.0000     0.4237    32.5001
 1574.5000     0.4343    32.5089
 1575.0000     0.4449    32.5176
 1575.5000     0.4449    32.5264
 1576.0000     0.4449    32.5352
 1576.5000     0.4449    32.5439
 1577.0000     0.4449    32.5527
 1577.5000     0.4343    32.5615
 1578.0000     0.4343    32.5703
 1578.5000     0.4343    32.5790
 1579.0000     0.4343    32.5878
 1579.5000     0.4237    32.5966
 1580.0000     0.3602    32.6053
 1580.5000     0.3390    32.6100
 1581.0000     0.3390    32.6121
 1581.5000     0.3390    32.6141
 1582.0000     0.3390    32.6162
 1582.5000     0.3390    32.6183
 1583.0000     0.3496    32.6203
 1583.5000     0.3496    32.6224
 1584.0000     0.3496    32.6244
 1584.5000     0.3602    32.6265
 1585.0000     0.3602    32.6286
 1585.5000     0.3708    32.6306
 1586.0000     0.3708    32.6327
 1586.5000     0.3708    32.6348
 1587.0000     0.3708    32.6368
 1587.5000     0.3708    32.6389
 1588.0000     0.3708    32.6409
 1588.5000     0.3708    32.6430
 1589.0000     0.3708    32.6451
 1589.5000     0.3708    32.6471
 1590.0000     0.3708    32.6492
 1590.5000     0.3708    32.6512
 1591.0000     0.3708    32.6533
 1591.5000     0.3708    32.6554
 1592.0000     0.3708    32.6574
 1592.5000     0.3708    32.6595
 1593.0000     0.3708    32.6616
 1593.5000     0.3708    32.6636
 1594.0000     0.3708    32.6657
 1594.5000     0.3708    32.6677
 1595.0000     0.3708    32.6698
 1595.5000     0.3708    32.6719
 1596.0000     0.3708    32.6739
 1596.5000     0.3708    32.6760
 1597.0000     0.3708    32.6780
 1597.5000     0.3708    32.6801
 1598.0000     0.3708    32.6822
 1598.5000     0.3708    32.6842
 1599.0000     0.3708    32.6863
 1599.5000     0.3708    32.6884
 1600.0000     0.3708    32.6908
 1600.5000     0.4021    32.6836
 1601.0000     0.4015    32.6751
 1601.5000     0.4010    32.6665
 1602.0000     0.4004    32.6580
 1602.5000     0.3998    32.6494
 1603.0000     0.3993    32.6409
 1603.5000     0.3988    32.6324
 1604.0000     0.3982    32.6238
 1604.5000     0.3977    32.6153
 1605.0000     0.3972    32.6068
 1605.5000     0.3967    32.5982
 1606.0000     0.3962    32.5897
 1606.5000     0.3851    32.5811
 1607.0000     0.3952    32.5726
 1607.5000     0.3945    32.5641
 1608.0000     0.4047    32.5555
 1608.5000     0.4041    32.5470
 1609.0000     0.4036    32.5384
 1609.5000     0.4138    32.5299
 1610.0000     0.4131    32.5214
 1610.5000     0.4232    32.5128
 1611.0000     0.4227    32.5043
 1611.5000     0.4220    32.4957
 1612.0000     0.4323    32.4872
 1612.5000     0.4316    32.4787
 1613.0000     0.4311    32.4701
 1613.5000     0.4306    32.4616
