~VERSION INFORMATION
 VERS.                2.0:   CWLS LOG ASCII STANDARD - VERSION 2.0
 WRAP.                 NO:   ONE LINE PER DEPTH STEP
~WELL INFORMATION
#MNEM.UNIT      DATA TYPE    INFORMATION
#----------   ------------   ------------------------------
 STRT.F           50.0000:   START DEPTH
 STOP.F          854.0000:   STOP DEPTH
 STEP.F            0.5000:   STEP LENGTH
 NULL.          -999.2500:   NO VALUE
 COMP. FENIX & SCISSON INC:   COMPANY
 WELL.    45 SX 11 #45-11:   WELL
 FLD .             TEAPOT:   FIELD
 LOC .      S11 T38N R78W:   LOCATION
 CNTY.            NATRONA:   COUNTY
 STAT.            WYOMING:   STATE
 CTRY. UNITED STATES OF AMERICA:   COUNTRY
 SRVC.           BIRDWELL:   SERVICE COMPANY
 DATE.        01-MAR-1978:   LOGDATE
 API .       490251058600:   API NUMBER
~CURVE INFORMATION
#MNEM.UNIT       API CODE    CURVE DESCRIPTION
#----------   ------------   ------------------------------
 DEPT.F                  :   
 CALD.IN     45 280 60 00:   CALIPER
 CORR.G/C3   45 356 01 00:   DENSITY CORRECTION
 RHOB.G/C3   45 350 01 00:   BULK DENSITY
 DPOR.DEC    45 890 12 00:   DENSITY POROSITY SANDSTONE
 GRD .GAPI   45 310 01 00:   GAMMA RAY FROM DENSITY LOG
 SPR .MV     05 010 01 00:   SPONTANEOUS POTENTIAL FROM RES.
 SN  .OHMM   05 040 16 00:   SHORT NORMAL 16"
 ILD .OHMM   05 120 46 00:   INDUCTION LOG DEEP
~PARAMETER INFORMATION
#MNEM.UNIT          VALUE    DESCRIPTION
#----------   ------------   ------------------------------
 PD  .                 GL:   PERMANENT DATUM
 EPD .F              5186:   ELEVATION PERMANENT DATUM
 LMF .                 KB:   LOG MEASURED FROM
 DAPD.F                 4:   FEET ABOVE PERMANENT DATUM
 DMF .                 KB:   DRILLING MEASURED FROM
 EKB .F              5190:   KELLING BUSHING
 EGL .F              5186:   GROUND LEVEL
 DATE.           3-1-1978:   RUN DATE
 RUN .                  1:   RUN NUMBER
 DD  .F               848:   DEPTH DRILLER
 DL  .F               856:   DEPTH LOGGER
 BLI .F               851:   BOTTOM LOG INTERVAL
 TLI .F                50:   TOP LOG INTERVAL
 CS  .IN            8.625:   CASING SIZE
 CBD .F                40:   CASING BOTTOM DRILLER
 CBL .F                40:   CASING BOTTOM LOGGER
 BS  .IN            7.875:   BIT SIZE
 BSD .F               848:   BIT SIZE AT DEPTH
 DFT .          LIGNOSULF:   DRILLING FLUID TYPE
 DFD .                8.5:   DRILLING FLUID DENSITY
 DFV .                 30:   DRILLING FLUID VISCOSITY
 DFPH.               11.5:   DRILLING FLUID PH
 MSS .                PIT:   MUD SAMPLE SOURCE
 RMS .OHMM              2:   RESISTIVITY MUD SAMPLE
 MST .F                59:   MUD SAMPLE TEMPERATURE
 RMF .OHMM            1.8:   RESISTIVITY MUD FILTRATE SAMPLE
 MFST.F                60:   MUD FILTRATE SAMPLE TEMPERATURE
 RMC .OHMM            2.2:   RESISTIVITY MUD CAKE
 MCST.F                60:   MUD CAKE SAMPLE TEMPERATURE
 MFSS.               MEAS:   MUD FILTRATE SAMPLE SOURCE
 MCSS.               MEAS:   MUD CAKE SAMPLE SOURCE
 RMB .OHMM           1.69:   RESISTIVITY MUD AT BHT
 BHT .F                70:   BOTTOM HOLE TEMPERATURE
 TCS .HRS               3:   TIME CURCULATED STOPPED
 MRT .F                70:   MAXIMUM RECORDED TEMPERATURE
 LUN .               2959:   LOGGING UNIT NUMBER
 LUL .               CASP:   LOGGING UNIT LOCATION
 ENGI.            POINTER:   RECORDING ENGINEER
 WITN.         HARRINGTON:   WITNESSED BY
 CLNT.            A2DTECH:   CLIENT CODE
 ORIG.       2", 5" PRINT:   ORIGIN OF DATA
 UWI .       490251058600:   UNIQUE WELL ID
 DICO. A2D Technologies, Inc.:   DIGITIZING COMPANY
~OTHER INFORMATION
~A   DEPT       CALD      CORR      RHOB       DPOR        GRD        SPR         SN        ILD   
# ...
  819.5000     7.9731     0.0460     2.4866     0.1181   118.8372   -24.0816     7.7776     7.4038
  820.0000     7.9742     0.0499     2.4680     0.1275   118.6928   -24.0175     7.6570     7.4255
  820.5000     7.9753     0.0539     2.4464     0.1369   118.5489   -23.9531     7.5383     6.9886
  821.0000     7.9764     0.0534     2.4278     0.1428   118.4055   -23.8890     7.4255     6.6957
  821.5000     7.9775     0.0515     2.4189     0.1360   118.2631   -23.8433     7.1645     6.4151
  822.0000     7.9786     0.0496     2.4116     0.1277   118.2978   -23.9336     6.9212     6.1462
  822.5000     7.9797     0.0477     2.4434     0.1195   118.6364   -24.0235     6.6862     6.1077
  823.0000     7.9808     0.0458     2.4554     0.1125   120.1232   -24.1143     6.5187     6.2290
  823.5000     7.9819     0.0439     2.4669     0.1113   121.0275   -24.1891     6.7818     6.3271
  824.0000     7.9830     0.0424     2.4670     0.1083   120.9514   -24.4527     6.9972     6.5374
  824.5000     7.9841     0.0424     2.4690     0.1057   119.2941   -24.3277     7.4652     7.0550
  825.0000     7.9852     0.0429     2.4761     0.1048   118.1692   -24.0455     7.9993     7.3890
  825.5000     7.9866     0.0445     2.4781     0.1056   118.2815   -24.0804     8.5716     7.6377
  826.0000     7.9887     0.0422     2.4757     0.1065   118.5325   -24.1992     9.1383     7.8947
  826.5000     7.9907     0.0410     2.4789     0.1073   118.7922   -24.2254     9.3697     8.1027
  827.0000     7.9928     0.0419     2.4784     0.1053   119.0646   -24.4565     9.6070     8.1926
  827.5000     7.9949     0.0424     2.4798     0.1032   118.8439   -24.3736     9.8161     8.2835
  828.0000     7.9969     0.0415     2.4832     0.1020   115.2711   -24.2737     9.7847     8.3802
  828.5000     7.9990     0.0389     2.4824     0.1024   115.2382   -24.1714     9.7514     8.3681
  829.0000     8.0010     0.0364     2.4808     0.1039   117.4148   -24.0673     9.7182     8.3544
  829.5000     8.0031     0.0337     2.4819     0.1074   117.0617   -24.0392     9.6851     8.3410
  830.0000     8.0051     0.0302     2.4812     0.1110   115.0947   -24.0855     9.6521     8.3277
  830.5000     8.0031     0.0302     2.4740     0.1146   113.7993   -24.1315     9.6193     8.3145
  831.0000     7.9977     0.0301     2.4669     0.1166   114.0770   -24.1772     9.5865     8.3013
  831.5000     7.9923     0.0333     2.4602     0.1174   114.3257   -24.2227     9.5539     8.2881
  832.0000     7.9868     0.0373     2.4589     0.1191   114.5485   -24.2682     9.5214     8.2750
  832.5000     7.9814     0.0392     2.4584     0.1216   114.0237   -24.3137     9.4890     8.2618
  833.0000     7.9759     0.0410     2.4549     0.1242   113.8028   -24.3593     9.4574     8.2487
  833.5000     7.9704     0.0420     2.4497     0.1246   114.0050   -24.4048     9.4122     8.2357
  834.0000     7.9661     0.0389     2.4488     0.1230   114.1830   -24.4477     9.3680     8.2177
  834.5000     7.9749     0.0360     2.4543     0.1208   112.8318   -24.4749     9.3242     8.1822
  835.0000     7.9836     0.0333     2.4567     0.1187   111.3547   -24.5025     9.2806     8.1476
  835.5000     7.9923     0.0305     2.4595     0.1178   109.8933   -24.5302     9.2372     8.1124
  836.0000     8.0009     0.0277     2.4637     0.1212   110.3980   -24.5579     9.1962     8.0783
  836.5000     8.0095     0.0247     2.4563     0.1250   111.8780   -24.5856     9.0258     7.8430
  837.0000     8.0182     0.0262     2.4479     0.1258   113.8462   -24.6136     8.8679     7.5877
  837.5000     8.0258     0.0245     2.4481     0.1270   115.4056   -24.6426     8.7135     7.3407
  838.0000     8.0159     0.0201     2.4484     0.1307   115.2527   -24.5924     8.5611     7.1428
  838.5000     8.0057     0.0247     2.4413     0.1416   116.5201   -24.5303     8.3164     6.9899
  839.0000     7.9955     0.0275     2.4304     0.1452   119.0675   -24.4680     7.8723     6.8403
  839.5000     7.9863     0.0225     2.4190     0.1493   116.8299   -24.4059     7.4548     6.6938
  840.0000     7.9916     0.0204     2.4163     0.1573   112.7962   -24.3437     7.0523     6.5505
  840.5000     7.9975     0.0279     2.4082     0.1722   111.4893   -24.2825     6.6870     6.2729
  841.0000     8.0032     0.0283     2.3810     0.1880   115.7918   -24.2386     6.2096     5.7652
  841.5000     8.0090     0.0282     2.3478     0.2072   120.0361   -24.2395     5.7687     5.2986
  842.0000     8.0147     0.0367     2.3147     0.2334   119.2435   -24.2393     5.3596     4.8697
  842.5000     8.0206     0.0526     2.2816     0.2596   118.9251   -24.2393     4.8620     4.4055
  843.0000     8.0258     0.0689     2.2485     0.2732   119.7941   -24.2393     4.2429     3.8812
  843.5000     8.0122     0.0768     2.2138     0.2624   118.8549   -24.2393     3.7026     3.4193
  844.0000     7.9978     0.0595     2.2088     0.2300   117.6036   -24.2393     3.2311     3.0108
  844.5000     7.9855     0.0367     2.2455     0.1768   118.3528   -24.2391     2.8748     2.7933
  845.0000     7.9900     0.0394     2.3186     0.1443   118.5252   -24.2379     2.9431     2.7944
  845.5000     7.9975     0.0398     2.4281     0.1260   115.8416   -24.2394     3.0292     2.8578
  846.0000     8.0049     0.0348     2.4240     0.1237   114.7883   -24.3449     3.2192     2.9011
  846.5000     8.0124     0.0326     2.4717     0.1214   119.3461   -24.9045     3.7980     3.0593
  847.0000     8.0199     0.0349     2.4729     0.1208   121.0915   -25.4504     4.4808     3.3751
  847.5000     8.0260     0.0372     2.4627     0.1200   120.9844   -25.8853     5.2865     3.8180
  848.0000     8.0214     0.0395     2.4557     0.1194   120.1569   -25.9430     6.0212     4.7341
  848.5000     8.0170     0.0419     2.4587     0.1186   118.6490   -26.0068     6.5851     5.5638
  849.0000     8.0126     0.0400     2.4585     0.1174   117.7321   -26.0620     7.0976     6.1750
  849.5000     8.0082     0.0410     2.4584     0.1043   116.8327   -26.0141     7.3709     6.4412
  850.0000     8.0113     0.0459     2.4803     0.1000   116.3738   -25.9657     7.6548     6.5963
  850.5000     8.0217     0.0465     2.4666     0.1023  -999.2500   -25.9187     7.9252     6.6301
  851.0000     8.0320     0.0465     2.4732     0.1051  -999.2500   -25.8777     8.1495     6.7232
  851.5000     8.0425     0.0463     2.4797     0.1060  -999.2500  -999.2500  -999.2500  -999.2500
  852.0000     8.0437     0.0522     2.4800     0.1069  -999.2500  -999.2500  -999.2500  -999.2500
  852.5000     8.0392     0.0512     2.4759     0.1097  -999.2500  -999.2500  -999.2500  -999.2500
  853.0000     8.0345     0.0446     2.4713     0.1125  -999.2500  -999.2500  -999.2500  -999.2500
  853.5000     8.0299     0.0445     2.4677     0.1145  -999.2500  -999.2500  -999.2500  -999.2500
  854.0000     8.0252     0.0492     2.4686     0.1215  -999.2500  -999.2500  -999.2500  -999.2500
