~VERSION INFORMATION
 VERS.                2.0:   CWLS LOG ASCII STANDARD - VERSION 2.0
 WRAP.                 NO:   ONE LINE PER DEPTH STEP
~WELL INFORMATION
#MNEM.UNIT      DATA TYPE    INFORMATION
#----------   ------------   ------------------------------
 STRT.F           30.0000:   START DEPTH
 STOP.F         1358.0000:   STOP DEPTH
 STEP.F            0.5000:   STEP LENGTH
 NULL.          -999.2500:   NO VALUE
 COMP. FENIX & SCISSON INC:   COMPANY
 WELL.      3 SX14 #85-14:   WELL
 FLD .             TEAPOT:   FIELD
 LOC .      S14 T38N R78W:   LOCATION
 CNTY.            NATRONA:   COUNTY
 STAT.            WYOMING:   STATE
 CTRY. UNITED STATES OF AMERICA:   COUNTRY
 SRVC.              Welex:   SERVICE COMPANY
 DATE.        10-FEB-1977:   LOGDATE
 API .       490251027500:   API NUMBER
~CURVE INFORMATION
#MNEM.UNIT       API CODE    CURVE DESCRIPTION
#----------   ------------   ------------------------------
 DEPT.F                  :   
 ILM .OHMM   07 120 44 00:   INDUCTION LOG MEDIUM
 ILD .OHMM   07 120 46 00:   INDUCTION LOG DEEP
 CALD.IN     45 280 60 00:   CALIPER
 GRD .GAPI   45 310 01 00:   GAMMA RAY FROM DENSITY LOG
 RHOB.G/C3   45 350 01 00:   BULK DENSITY
 DPHI.DEC    45 890 12 00:   DENSITY POROSITY SANDSTONE
 CORR.G/C3   45 356 01 00:   DENSITY CORRECTION
~PARAMETER INFORMATION
#MNEM.UNIT          VALUE    DESCRIPTION
#----------   ------------   ------------------------------
 PD  .                 GL:   PERMANENT DATUM
 EPD .F              5345:   ELEVATION PERMANENT DATUM
 LMF .                 GL:   LOG MEASURED FROM
 DMF .                 GL:   DRILLING MEASURED FROM
 EGL .F              5345:   GROUND LEVEL
 DATE.          2-10-1977:   RUN DATE
 RUN .                  1:   RUN NUMBER
 DD  .F              1362:   DEPTH DRILLER
 DL  .F              1361:   DEPTH LOGGER
 BLI .F              1359:   BOTTOM LOG INTERVAL
 TLI .F                43:   TOP LOG INTERVAL
 CS  .IN            8.625:   CASING SIZE
 CBD .F                43:   CASING BOTTOM DRILLER
 CBL .F                43:   CASING BOTTOM LOGGER
 BS  .IN            7.875:   BIT SIZE
 BSD .F              1362:   BIT SIZE AT DEPTH
 DFT .           AIR MIST:   DRILLING FLUID TYPE
 TCS .HRS               4:   TIME CURCULATED STOPPED
 MRT .F               104:   MAXIMUM RECORDED TEMPERATURE
 LUN .               8611:   LOGGING UNIT NUMBER
 LUL .           GILLETTE:   LOGGING UNIT LOCATION
 ENGI.               DOAK:   RECORDING ENGINEER
 WITN. PETTINGILL/STUEBINGER:   WITNESSED BY
 CLNT.            A2DTECH:   CLIENT CODE
 ORIG.       2", 5" PRINT:   ORIGIN OF DATA
 UWI .       490251027500:   UNIQUE WELL ID
 DICO. A2D Technologies, Inc.:   DIGITIZING COMPANY
~OTHER INFORMATION
~A   DEPT      ILM        ILD         CALD      GRD         RHOB     DPHI        CORR  
# ...
  348.5000     7.6815     7.2030     8.3122   108.4221     2.4785     0.1169     0.0380
  349.0000     7.8016     7.2250     8.3029   108.7383     2.4776     0.1179     0.0373
  349.5000     7.8903     7.2477     8.2869   109.0943     2.4767     0.1188     0.0365
  350.0000     7.9801     7.2706     8.2825   109.0073     2.4714     0.1209     0.0365
  350.5000     8.0709     7.2937     8.2829   108.5235     2.4656     0.1241     0.0368
  351.0000     8.1626     7.3169     8.2831   107.9920     2.4596     0.1259     0.0371
  351.5000     8.2555     7.4039     8.2831   107.4742     2.4570     0.1269     0.0375
  352.0000     8.3494     7.3679     8.2830   106.6135     2.4556     0.1280     0.0378
  352.5000     8.4444     7.3059     8.2827   105.3951     2.4542     0.1291     0.0381
  353.0000     8.4997     7.2443     8.2999   104.1764     2.4528     0.1301     0.0384
  353.5000     8.1809     7.1832     8.3240   102.9559     2.4519     0.1312     0.0387
  354.0000     7.9640     7.1227     8.3482   101.7346     2.4525     0.1311     0.0390
  354.5000     7.7529     7.0627     8.3662   100.5942     2.4531     0.1297     0.0393
  355.0000     7.6111     7.0031     8.3657   101.2535     2.4537     0.1284     0.0396
  355.5000     7.5414     6.9441     8.3656   102.1938     2.4544     0.1272     0.0399
  356.0000     7.5414     6.8856     8.3534   103.1484     2.4546     0.1309     0.0402
  356.5000     7.5414     6.8149     8.3276   104.9257     2.4475     0.1343     0.0406
  357.0000     7.5414     6.8157     8.3019   106.6529     2.4407     0.1377     0.0409
  357.5000     7.5414     6.8364     8.2761   108.3729     2.4379     0.1396     0.0412
  358.0000     7.5414     6.8571     8.2493   110.0819     2.4401     0.1383     0.0415
  358.5000     7.5414     6.8780     8.2419   110.8157     2.4423     0.1370     0.0418
  359.0000     7.5414     6.8989     8.2416   111.1152     2.4429     0.1355     0.0421
  359.5000     7.5413     6.9200     8.2380   111.6375     2.4419     0.1366     0.0424
  360.0000     7.5323     6.9424     8.2337   112.2830     2.4409     0.1378     0.0427
  360.5000     7.4643     6.9422     8.2294   112.9266     2.4423     0.1370     0.0430
  361.0000     7.3971     6.8133     8.2251   113.3739     2.4459     0.1342     0.0433
  361.5000     7.3305     6.7197     8.2211   112.8154     2.4508     0.1315     0.0437
  362.0000     7.2645     6.6274     8.2251   111.9458     2.4558     0.1287     0.0440
  362.5000     7.2023     6.5364     8.2299   111.0912     2.4608     0.1259     0.0443
  363.0000     7.1364     6.4466     8.2347   110.2341     2.4646     0.1232     0.0446
  363.5000     7.1249     6.3318     8.2395   109.3712     2.4657     0.1218     0.0426
  364.0000     7.1118     6.4494     8.2444   108.8147     2.4625     0.1230     0.0404
  364.5000     7.0989     6.5053     8.2492   108.4110     2.4552     0.1273     0.0382
  365.0000     7.0859     6.5692     8.2540   108.0096     2.4476     0.1315     0.0360
  365.5000     7.0729     6.5435     8.2587   107.6085     2.4416     0.1357     0.0338
  366.0000     7.0600     6.4987     8.2625   107.2069     2.4360     0.1400     0.0317
  366.5000     7.0471     6.4541     8.2625   106.8045     2.4309     0.1442     0.0295
  367.0000     7.0342     6.4098     8.2622   106.4058     2.4279     0.1460     0.0273
  367.5000     7.0213     6.3659     8.2603   106.0056     2.4258     0.1467     0.0251
  368.0000     7.0084     6.3223     8.2830   105.7408     2.4276     0.1460     0.0229
  368.5000     6.9956     6.2789     8.2827   106.7365     2.4313     0.1437     0.0219
  369.0000     6.9828     6.2358     8.2831   107.8816     2.4350     0.1414     0.0220
  369.5000     6.9700     6.1594     8.2831   109.0605     2.4360     0.1391     0.0221
  370.0000     6.9572     6.1565     8.2832   108.9666     2.4371     0.1390     0.0223
  370.5000     6.9444     6.1487     8.2802   108.1485     2.4348     0.1399     0.0224
  371.0000     6.9429     6.1409     8.2768   108.2465     2.4325     0.1407     0.0226
  371.5000     6.8931     6.1331     8.2734   109.2332     2.4313     0.1416     0.0227
  372.0000     6.8344     6.1253     8.2699   110.2173     2.4300     0.1425     0.0228
  372.5000     6.8155     6.1175     8.2665   111.2024     2.4315     0.1427     0.0230
  373.0000     6.8288     6.1098     8.2635   112.1994     2.4332     0.1430     0.0231
  373.5000     6.8412     6.1030     8.2472   112.1694     2.4333     0.1432     0.0233
  374.0000     6.8537     6.1392     8.2285   111.5885     2.4301     0.1434     0.0234
  374.5000     6.8661     6.1715     8.2098   112.5003     2.4280     0.1436     0.0235
  375.0000     6.8785     6.2164     8.1913   113.4543     2.4307     0.1424     0.0237
  375.5000     6.9421     6.2009     8.1958   114.2515     2.4333     0.1408     0.0238
  376.0000     6.9410     6.1756     8.2373   113.8778     2.4347     0.1420     0.0249
  376.5000     6.8916     6.1504     8.2610   113.2255     2.4327     0.1431     0.0264
  377.0000     6.8432     6.1253     8.2563   112.5643     2.4313     0.1442     0.0279
  377.5000     6.7952     6.1030     8.2521   111.8991     2.4367     0.1402     0.0293
  378.0000     6.7477     6.1241     8.2478   111.2335     2.4419     0.1357     0.0308
  378.5000     6.7004     6.0856     8.2435   110.5673     2.4471     0.1317     0.0323
  379.0000     6.6535     6.0473     8.2424   109.9138     2.4511     0.1316     0.0338
  379.5000     6.6069     6.0093     8.2434   109.8403     2.4482     0.1314     0.0352
  380.0000     6.5607     5.9715     8.2444   111.5128     2.4411     0.1339     0.0367
  380.5000     6.5147     5.9340     8.2455   113.5567     2.4339     0.1390     0.0329
  381.0000     6.4691     5.8967     8.2465   115.1402     2.4268     0.1441     0.0302
  381.5000     6.4238     5.8596     8.2476   116.1294     2.4197     0.1492     0.0275
  382.0000     6.3789     5.8228     8.2486   116.1510     2.4125     0.1543     0.0247
  382.5000     6.3342     5.7862     8.2496   115.5179     2.4063     0.1560     0.0219
  383.0000     6.2899     5.7498     8.2507   114.7259     2.4096     0.1562     0.0191
  383.5000     6.2458     5.7136     8.2517   113.9220     2.4123     0.1537     0.0177
  384.0000     6.2021     5.6777     8.2528   113.6370     2.4118     0.1527     0.0176
  384.5000     6.1594     5.6420     8.2538   114.3394     2.4093     0.1548     0.0177
  385.0000     6.0620     5.6065     8.2548   115.0273     2.4107     0.1549     0.0160
  385.5000     5.9677     5.5713     8.2559   115.7085     2.4121     0.1542     0.0137
  386.0000     5.8749     5.4043     8.2569   116.2821     2.4136     0.1528     0.0114
  386.5000     5.7836     5.2226     8.2580   116.0543     2.4184     0.1497     0.0095
  387.0000     5.6936     5.1206     8.2590   115.6299     2.4273     0.1458     0.0134
  387.5000     5.6051     5.0478     8.2600   114.0276     2.4357     0.1401     0.0172
  388.0000     5.5179     4.9772     8.2611   112.4012     2.4409     0.1351     0.0210
  388.5000     5.4650     4.8938     8.2622   110.7553     2.4453     0.1371     0.0249
  389.0000     5.5448     4.9335     8.2631   111.5089     2.4407     0.1389     0.0248
  389.5000     5.6127     5.0002     8.2654   112.5835     2.4363     0.1409     0.0233
  390.0000     5.6814     5.0679     8.2675   113.6579     2.4348     0.1409     0.0217
  390.5000     5.7510     5.1364     8.2697   114.7293     2.4416     0.1375     0.0201
  391.0000     5.8215     5.2059     8.2719   115.8128     2.4482     0.1337     0.0216
  391.5000     5.8928     5.2763     8.2741   116.5502     2.4547     0.1299     0.0242
  392.0000     5.9650     5.3477     8.2763   117.1923     2.4613     0.1261     0.0269
  392.5000     6.0380     5.4200     8.2785   117.8306     2.4678     0.1223     0.0295
  393.0000     6.1120     5.4933     8.2807   118.4681     2.4744     0.1186     0.0322
  393.5000     6.1868     5.5676     8.2831   119.1141     2.4811     0.1151     0.0348
