~VERSION INFORMATION
 VERS.                2.0:   CWLS LOG ASCII STANDARD - VERSION 2.0
 WRAP.                 NO:   ONE LINE PER DEPTH STEP
~WELL INFORMATION
#MNEM.UNIT      DATA TYPE    INFORMATION
#----------   ------------   ------------------------------
 STRT.F           30.0000:   START DEPTH
 STOP.F          759.0000:   STOP DEPTH
 STEP.F            0.5000:   STEP LENGTH
 NULL.          -999.2500:   NO VALUE
 COMP. FENIX & SCISSON INC:   COMPANY
 WELL.    NPR ##3 15-S-14:   WELL
 FLD .             TEAPOT:   FIELD
 LOC .      S14 T38N R78W:   LOCATION
 CNTY.            NATRONA:   COUNTY
 STAT.            WYOMING:   STATE
 CTRY. UNITED STATES OF AMERICA:   COUNTRY
 SRVC.              Welex:   SERVICE COMPANY
 DATE.        23-FEB-1977:   LOGDATE
 API .       490251027600:   API NUMBER
~CURVE INFORMATION
#MNEM.UNIT       API CODE    CURVE DESCRIPTION
#----------   ------------   ------------------------------
 DEPT.F                  :   
 GURD.OHMM   07 220 05 00:   SHALLOW SHORT GUARD RESISTIVITY
 ILD .OHMM   07 120 46 00:   INDUCTION LOG DEEP
 ILM .OHMM   07 120 44 00:   INDUCTION LOG MEDIUM
 SPR .MV     07 010 01 00:   SPONTANEOUS POTENTIAL
 CALD.IN     45 280 60 00:   CALIPER FROM DENSITY LOG
 CORR.G/C3   45 356 01 00:   DENSITY CORRECTION
 DPHI.DEC    45 890 12 00:   DENSITY POROSITY SANDSTONE
 GRD .GAPI   45 310 01 00:   GAMMA RAY FROM DENSITY LOG
 RHOB.G/C3   45 350 01 00:   BULK DENSITY
~PARAMETER INFORMATION
#MNEM.UNIT          VALUE    DESCRIPTION
#----------   ------------   ------------------------------
 PD  .                 GL:   PERMANENT DATUM
 EPD .F            5229.2:   ELEVATION PERMANENT DATUM
 LMF .                 GL:   LOG MEASURED FROM
 DMF .                 GL:   DRILLING MEASURED FROM
 EGL .F            5229.2:   GROUND LEVEL
 DATE.        23-FEB-1977:   RUN DATE
 RUN .                  1:   RUN NUMBER
 DD  .F               764:   DEPTH DRILLER
 DL  .F               762:   DEPTH LOGGER
 BLI .F               760:   BOTTOM LOG INTERVAL
 TLI .F                40:   TOP LOG INTERVAL
 CS  .IN            8.625:   CASING SIZE
 CBD .F                40:   CASING BOTTOM DRILLER
 CBL .F                40:   CASING BOTTOM LOGGER
 BS  .IN            7.875:   BIT SIZE
 BSD .F               764:   BIT SIZE AT DEPTH
 DFT .           CHEM/GEL:   DRILLING FLUID TYPE
 DFD .                9.4:   DRILLING FLUID DENSITY
 DFV .                 50:   DRILLING FLUID VISCOSITY
 DFPH.               11.0:   DRILLING FLUID PH
 DFL .               12.2:   DRILLING FLUID LOSS
 MSS .           FLOWLINE:   MUD SAMPLE SOURCE
 RMS .OHMM           0.23:   RESISTIVITY MUD SAMPLE
 MST .F                38:   MUD SAMPLE TEMPERATURE
 RMF .OHMM           0.15:   RESISTIVITY MUD FILTRATE SAMPLE
 MFST.F                38:   MUD FILTRATE SAMPLE TEMPERATURE
 RMC .OHMM           0.54:   RESISTIVITY MUD CAKE
 MCST.F                38:   MUD CAKE SAMPLE TEMPERATURE
 MFSS.               MEAS:   MUD FILTRATE SAMPLE SOURCE
 MCSS.               MEAS:   MUD CAKE SAMPLE SOURCE
 RMB .OHMM           .148:   RESISTIVITY MUD AT BHT
 BHT .F                59:   BOTTOM HOLE TEMPERATURE
 TCS .HRS               2:   TIME CURCULATED STOPPED
 MRT .F                59:   MAXIMUM RECORDED TEMPERATURE
 LUN .               8611:   LOGGING UNIT NUMBER
 LUL .           GILLETTE:   LOGGING UNIT LOCATION
 ENGI.             C.DOAK:   RECORDING ENGINEER
 WITN.         STUEBINGER:   WITNESSED BY
 CLNT.            A2DTECH:   CLIENT CODE
 ORIG.           5" PRINT:   ORIGIN OF DATA
 UWI .       490251027600:   UNIQUE WELL ID
 DICO. A2D Technologies, Inc.:   DIGITIZING COMPANY
~OTHER INFORMATION
~A   DEPT     GURD        ILD        ILM        SPR         CALD      CORR      DPHI         GRD        RHOB 
# ...
  687.0000    14.5787    10.3487    13.4185   -40.5916     7.9946     0.1131     0.1130    99.1793     2.4670
  687.5000    14.5797    10.3487    13.5127   -40.7467     7.9940     0.1130     0.1142   100.3740     2.4611
  688.0000    14.4802    10.2776    13.6071   -41.0511     8.0084     0.1130     0.1111    98.5747     2.4596
  688.5000    14.3815    10.1368    13.3289   -41.2062     8.0077     0.1130     0.1067    96.6256     2.4671
  689.0000    14.2835    10.0671    13.2381   -41.3613     8.0072     0.1129     0.1050    96.4730     2.4753
  689.5000    14.2845     9.9291    13.3308   -41.5164     8.0065     0.1129     0.1080    96.7695     2.4753
  690.0000    14.1871     9.8608    13.4242   -41.8308     8.0059     0.1114     0.1122    96.1277     2.4713
  690.5000    14.0903     9.7257    13.5182   -42.1472     8.0054     0.1098     0.1161    94.0683     2.4544
  691.0000    13.9943     9.6588    13.2418   -42.5802     8.0048     0.1098     0.1110    90.4725     2.4642
  691.5000    13.8988     9.5265    12.9709   -42.8846     8.0042     0.1083     0.1053    87.7750     2.4732
  692.0000    13.7093     9.4610    12.8824   -43.0397     8.0036     0.1098     0.1047    86.2751     2.4754
  692.5000    13.4289     9.3959    13.0629   -43.1948     8.0030     0.1097     0.1047    95.7033     2.4757
  693.0000    13.1543     9.2672    13.3374   -43.4992     8.0023     0.1097     0.1041    98.9938     2.4762
  693.5000    12.8853     9.0773    13.6175   -43.8035     8.0017     0.1112     0.1035   100.1892     2.4768
  694.0000    12.5349     8.5899    13.1452   -44.1079     8.0011     0.1126     0.1029    98.5388     2.4774
  694.5000    12.2786     8.0728    12.5266   -44.4122     8.0157     0.1126     0.1056    98.6856     2.4762
  695.0000    12.1107     7.6393    11.2245   -44.7166     8.0000     0.1123     0.1098    99.1518     2.4709
  695.5000    11.8633     7.1758    11.3031   -45.3195     7.9994     0.1110     0.1131    99.7515     2.4642
  696.0000    11.6207     6.6862    11.4612   -45.7772     7.9838     0.1095     0.1101   100.6222     2.4695
  696.5000    11.3047     6.1960    11.1496   -46.5413     7.9832     0.1110     0.1047   102.1163     2.4868
  697.0000    10.9216     5.7175    10.1925   -47.2788     7.9676     0.1125     0.1018   103.4607     2.4838
  697.5000    10.3302     5.4105     9.3821   -47.8817     7.9670     0.1139     0.0991   104.6553     2.4778
  698.0000     9.2879     5.1200     9.0016   -48.1860     7.9663     0.1139     0.1096   106.5985     2.4704
  698.5000     8.2127     4.9464     9.5800   -48.0412     7.9807     0.1139     0.1159   110.1884     2.4614
  699.0000     7.8409     4.8786    10.0553   -47.6007     8.0101     0.1153     0.1186   114.0777     2.4517
  699.5000     7.9507     4.9124     9.2150   -47.1573     8.0095     0.1153     0.1239   119.9131     2.4404
  700.0000    10.1265     5.1200     8.1177   -46.5677     8.0089     0.1138     0.1335   123.3533     2.4240
  700.5000    12.2889     5.4105     8.6360   -45.8272     8.0084     0.1137     0.1377   124.7116     2.4006
  701.0000    12.7278     5.7638     9.3800   -45.2361     8.0078     0.1127     0.1291   123.7958     2.4330
  701.5000    12.7835     6.1954     9.9104   -44.7942     8.0072     0.1138     0.1108   116.1582     2.4529
  702.0000    12.8392     6.6271    10.4824   -44.4290     8.0020     0.1150     0.0910   111.0654     2.4861
  702.5000    12.8949     7.0587    11.2161   -44.1351     7.9968     0.1162     0.0893   109.2661     2.4966
  703.0000    12.9506     7.5346    12.0153   -43.8412     7.9915     0.1174     0.0869   108.8140     2.5048
  703.5000    12.9738     7.9621    12.6947   -43.5473     7.9863     0.1185     0.0842   108.6614     2.5130
  704.0000    13.1521     8.4140    13.0478   -43.2535     7.9810     0.1210     0.0836   108.6585     2.5152
  704.5000    13.4262     8.8303    13.4090   -42.9596     7.9758     0.1225     0.0864   109.5538     2.5092
  705.0000    13.5175     9.1402    13.0399   -42.6657     7.9715     0.1195     0.0872   111.7964     2.5010
  705.5000    12.9664     9.4651    12.5070   -42.3719     7.9857     0.1149     0.0809   114.1967     2.4995
  706.0000    12.3525     9.6695    12.2471   -42.0780     8.0000     0.1149     0.0776   114.0000     2.5062
  706.5000    12.6969     9.9291    12.9406   -41.7841     8.0142     0.1209     0.0797   112.6851     2.5182
  707.0000    13.5097    10.1368    13.2071   -41.4902     8.0285     0.1238     0.0809   111.2515     2.5204
  707.5000    13.8928    10.2776    12.4927   -41.1964     8.0447     0.1268     0.0821   112.4651     2.5181
  708.0000    14.0778    10.4204    11.9821   -41.0448     8.0570     0.1253     0.0854   112.7308     2.5121
  708.5000    14.3702    10.4925    12.4860   -40.8955     8.0713     0.1237     0.0890   112.2729     2.5031
  709.0000    14.6692    10.6383    13.1920   -40.8955     8.0703     0.1192     0.0960   115.8546     2.4918
  709.5000    14.9744    10.6383    13.8420   -40.8955     8.0696     0.1147     0.1008   117.4946     2.4834
  710.0000    15.1813    10.7120    14.4240   -40.7463     8.0539     0.1109     0.1023   111.9446     2.4767
  710.5000    15.3899    10.7120    14.9270   -40.7463     8.0531     0.1063     0.1003   109.8400     2.4731
  711.0000    15.4950    10.7861    15.3412   -40.7463     8.0524     0.1026     0.0970   109.9830     2.4768
  711.5000    15.5999    10.8608    15.7669   -40.7463     8.0516     0.1035     0.0913   110.1238     2.4925
  712.0000    15.7059    10.9360    15.9981   -40.7463     8.0359     0.1086     0.0835   107.1187     2.5157
  712.5000    15.8126    11.0879    16.2000   -40.7463     8.0503     0.1130     0.0805   103.9661     2.5187
  713.0000    15.9201    11.2420    16.3079   -40.7463     8.0494     0.1190     0.0809   101.8615     2.5150
  713.5000    16.0283    11.3982    16.4154   -40.7463     8.0487     0.1234     0.0830   102.6011     2.5060
  714.0000    16.3613    11.5565    16.4110   -40.7463     8.0630     0.1249     0.0830   103.9395     2.5022
  714.5000    16.5867    11.6365    16.2936   -40.7463     8.0622     0.1264     0.0824   102.5834     2.5067
  715.0000    16.8153    11.6365    15.9551   -40.8955     8.0764     0.1263     0.0821   100.9278     2.5112
  715.5000    17.0475    11.6365    15.3030   -40.7463     8.0757     0.1248     0.0800   100.3201     2.5104
  716.0000    17.4016    11.5565    14.7794   -40.7463     8.0600     0.1233     0.0776   102.5567     2.5164
  716.5000    17.6420    11.4771    15.6401   -40.7463     8.0592     0.1233     0.0758   104.7934     2.5246
  717.0000    17.6390    11.3982    16.6114   -40.7463     8.0585     0.1232     0.0762   106.2915     2.5261
  717.5000    17.5152    11.3198    16.4926   -40.7463     8.0576     0.1232     0.0790   107.1708     2.5246
  718.0000    16.5649    11.3198    15.6015   -40.7463     8.0568     0.1217     0.0825   104.9859     2.5230
  718.5000    15.4371    11.3198    14.8608   -40.7463     8.0711     0.1201     0.0846   103.3553     2.5203
  719.0000    14.8322    11.3982    14.7545   -40.7463     8.0853     0.1196     0.0858   103.9983     2.5141
  719.5000    14.6272    11.3982    14.8538   -40.7327     8.0846     0.1171     0.0819   106.5343     2.5069
  720.0000    15.3494    11.3982    14.6450   -40.5970     8.0839     0.1156     0.0810   108.4716     2.4983
  720.5000    16.1079    11.3198    13.8537   -40.5970     8.0831     0.1140     0.0822   105.9178     2.5102
  721.0000    16.5571    11.1601    13.1046   -40.5970     8.0674     0.1125     0.0798   101.2682     2.5132
  721.5000    16.3276    10.9998    13.6875   -40.5970     8.0666     0.1140     0.0754    99.1635     2.5117
  722.0000    15.6625    10.8608    14.8318   -40.7463     8.0509     0.1154     0.0703    98.2587     2.5222
  722.5000    15.6461    10.7120    15.5626   -40.7463     8.0502     0.1184     0.0676   100.0440     2.5416
  723.0000    16.5481    10.6383    15.7760   -40.8274     8.0345     0.1229     0.0700   101.6818     2.5349
