~VERSION INFORMATION
 VERS.                2.0:   CWLS LOG ASCII STANDARD - VERSION 2.0
 WRAP.                 NO:   ONE LINE PER DEPTH STEP
~WELL INFORMATION
#MNEM.UNIT      DATA TYPE    INFORMATION
#----------   ------------   ------------------------------
 STRT.F           84.0000:   START DEPTH
 STOP.F          849.5000:   STOP DEPTH
 STEP.F            0.5000:   STEP LENGTH
 NULL.          -999.2500:   NO VALUE
 COMP. U S NAVY/INTEX OIL CO:   COMPANY
 WELL.     NPR 3 #81-S-34:   WELL
 FLD .        TEAPOT DOME:   FIELD
 LOC .      S34 T39N R78W:   LOCATION
 CNTY.            NATRONA:   COUNTY
 STAT.            WYOMING:   STATE
 CTRY. UNITED STATES OF AMERICA:   COUNTRY
 SRVC.       Schlumberger:   SERVICE COMPANY
 DATE.        29-JUL-1963:   LOGDATE
 API .       490250656700:   API NUMBER
~CURVE INFORMATION
#MNEM.UNIT       API CODE    CURVE DESCRIPTION
#----------   ------------   ------------------------------
 DEPT.F                  :   
 CALS.IN     60 280 50 00:   CALIPER FROM SONIC LOG
 DT  .US/F   60 520 33 00:   INTERVAL TRANSIT TIME
 SPR .MV     05 010 01 00:   SPONTANEOUS POTENTIAL FROM RES.
 ILD .OHMM   05 120 46 00:   INDUCTION LOG DEEP
 ASN .OHMM   05 041 16 00:   AMPLIFIED SHORT NORMAL 16"
 CILD.MMHO   05 110 46 00:   CONDUCTIVITY INDUCTION LOG DEEP
 GR  .GAPI   30 310 01 00:   GAMMA RAY FROM RES.
~PARAMETER INFORMATION
#MNEM.UNIT          VALUE    DESCRIPTION
#----------   ------------   ------------------------------
 PD  .                 GL:   PERMANENT DATUM
 EPD .F              5067:   ELEVATION PERMANENT DATUM
 LMF .                 KB:   LOG MEASURED FROM
 DAPD.F                 5:   FEET ABOVE PERMANENT DATUM
 DMF .                 KB:   DRILLING MEASURED FROM
 EKB .F              5072:   KELLING BUSHING
 EGL .F              5067:   GROUND LEVEL
 DATE.          7-29-1963:   RUN DATE
 RUN .                  1:   RUN NUMBER
 DD  .F               850:   DEPTH DRILLER
 DL  .F               850:   DEPTH LOGGER
 BLI .F               849:   BOTTOM LOG INTERVAL
 TLI .F                90:   TOP LOG INTERVAL
 CS  .IN            8.625:   CASING SIZE
 CBD .F                10:   CASING BOTTOM DRILLER
 BS  .IN            7.875:   BIT SIZE
 BSD .F               850:   BIT SIZE AT DEPTH
 DFT .            GEL-OIL:   DRILLING FLUID TYPE
 DFD .                9.4:   DRILLING FLUID DENSITY
 DFV .                 40:   DRILLING FLUID VISCOSITY
 DFPH.                  9:   DRILLING FLUID PH
 DFL .                8.4:   DRILLING FLUID LOSS
 MSS .           FLOWLINE:   MUD SAMPLE SOURCE
 RMS .OHMM           3.08:   RESISTIVITY MUD SAMPLE
 MST .F                79:   MUD SAMPLE TEMPERATURE
 RMF .OHMM           2.39:   RESISTIVITY MUD FILTRATE SAMPLE
 MFST.F                79:   MUD FILTRATE SAMPLE TEMPERATURE
 RMC .OHMM           3.29:   RESISTIVITY MUD CAKE
 MCST.F                79:   MUD CAKE SAMPLE TEMPERATURE
 MFSS.                 MP:   MUD FILTRATE SAMPLE SOURCE
 MCSS.                 MP:   MUD CAKE SAMPLE SOURCE
 TCS .HRS               1:   TIME CURCULATED STOPPED
 LUN .               4507:   LOGGING UNIT NUMBER
 LUL .              CSPR.:   LOGGING UNIT LOCATION
 ENGI.             KNOBEL:   RECORDING ENGINEER
 WITN.          JORGENSON:   WITNESSED BY
 CLNT.            A2DTECH:   CLIENT CODE
 ORIG.           5" PRINT:   ORIGIN OF DATA
 UWI .       490250656700:   UNIQUE WELL ID
 DICO. A2D Technologies, Inc.:   DIGITIZING COMPANY
~OTHER INFORMATION
~A   DEPT     CALS         DT        SPR        ILD        ASN       CILD         GR   
# ...
  630.0000     7.8184    98.9325   -27.0839     6.6442     7.8499   156.5115  -999.2500
  630.5000     7.9137    99.3647   -26.9593     6.5469     7.8393   158.6951  -999.2500
  631.0000     7.9353    99.7962   -26.8356     6.4309     7.7475   160.4513  -999.2500
  631.5000     7.9245   100.2305   -26.7117     6.3137     7.5858   162.4552  -999.2500
  632.0000     7.9151   100.6647   -26.5879     6.1723     7.4243   166.1396  -999.2500
  632.5000     7.8980   101.2403   -26.4640     5.9213     7.2782   174.8754  -999.2500
  633.0000     7.8674   101.9203   -26.3402     5.6743     7.1367   184.5407  -999.2500
  633.5000     7.8368   102.6037   -26.2163     5.4296     6.9957   193.8494  -999.2500
  634.0000     7.8170   103.4548   -26.0923     5.2723     6.8601   202.0014  -999.2500
  634.5000     7.8231   104.5979   -25.9690     5.0445     6.5364   208.8808  -999.2500
  635.0000     7.8582   106.1255   -25.8461     4.9780     6.3081   209.1250  -999.2500
  635.5000     7.8931   105.4364   -25.8585     4.9709     6.1181   206.4873  -999.2500
  636.0000     7.9270   104.7789   -26.0070     5.0508     6.0964   203.8797  -999.2500
  636.5000     7.9547   104.4475   -26.1550     5.1732     6.1924   201.3598  -999.2500
  637.0000     7.9259   103.5319   -26.3037     5.2623     6.2952   196.3770  -999.2500
  637.5000     7.8929   101.5438   -26.4699     5.5322     6.6112   191.6128  -999.2500
  638.0000     7.8759    99.8875   -26.7104     5.8263     7.0427   179.2784  -999.2500
  638.5000     7.9042   100.1494   -26.8220     6.1251     7.3132   170.2646  -999.2500
  639.0000     7.9389    99.6431   -26.6933     6.2514     7.4815   164.1882  -999.2500
  639.5000     7.9739    99.1079   -26.4233     6.3540     7.5691   160.7113    68.6644
  640.0000     7.9909    98.9582   -26.4611     6.4696     7.6737   157.9498    71.1191
  640.5000     7.9289    99.4488   -26.6839     6.5826     7.7780   155.5677    74.0117
  641.0000     7.8545    99.7328   -27.0200     6.6845     7.8927   153.7494    72.4749
  641.5000     7.7806   100.0168   -27.0382     6.7758     8.0054   152.5848    70.5600
  642.0000     7.7059   100.1118   -26.9694     6.8668     8.0951   151.1217    69.9154
  642.5000     7.6841    99.8278   -26.6839     6.9582     8.1594   149.5092    71.1720
  643.0000     7.7026    99.9701   -26.6578     7.0492     8.2215   148.0125    70.7300
  643.5000     7.7212   100.3843   -26.7105     7.0609     8.3236   147.1934    71.9344
  644.0000     7.7387   100.5309   -26.7647     7.0597     8.4292   146.4291    70.1131
  644.5000     7.7216    98.6242   -26.8128     7.0568     8.5418   145.6649    72.4334
  645.0000     7.6953    96.1053   -27.2045     7.1129     8.6648   144.9006    74.3748
  645.5000     7.6687    99.4428   -27.6318     7.2672     8.7770   144.1364    79.8323
  646.0000     7.6161    99.4871   -27.8668     7.2913     8.7120   143.3721    80.3998
  646.5000     7.5506    99.0664   -28.0890     7.3064     8.7331   142.6079    77.9486
  647.0000     7.5020    98.4466   -28.2840     7.3219     8.8276   141.8436    77.9030
  647.5000     7.5675    98.6238   -28.0882     7.3378     8.8889   141.0794    72.5687
  648.0000     7.6410    98.7737   -27.9013     7.3537     8.9508   140.5735    71.4850
  648.5000     7.6633    98.2384   -27.7087     7.3696     9.0049   140.3356    68.6496
  649.0000     7.6305    97.7590   -27.6640     7.3854     8.9863   140.0976    70.6767
  649.5000     7.5965    98.2275   -27.6710     7.4013     8.9693   139.8596    72.3958
  650.0000     7.5887    98.9542   -27.3355     7.4172     8.8706   139.6216    72.1887
  650.5000     7.7706    98.1059   -26.9718     7.4331     8.7656   139.3837    71.2336
  651.0000     7.8329    97.2610   -26.6068     7.4491     8.6601   139.1457    66.7887
  651.5000     7.8550    97.7573   -26.2477     7.4648     8.5337   138.9077    69.8489
  652.0000     7.8731    98.3062   -25.9632     7.4783     8.4032   138.6869    74.7675
  652.5000     7.8291    98.8551   -25.8872     7.4139     8.2548   140.7312    77.8999
  653.0000     7.7739    99.4522   -25.8059     7.2836     8.1107   143.8467    73.5136
  653.5000     7.7780   101.2160   -25.7255     7.1527     7.9671   146.9427    74.4285
  654.0000     7.8551   102.5398   -25.6451     6.9537     7.8201   150.0333    76.1642
  654.5000     7.9333   101.2450   -25.5646     6.5247     7.6021   155.6968    79.1054
  655.0000     7.9452   101.9931   -25.4842     6.1119     7.3000   167.3640    81.1459
  655.5000     7.9271   103.4347   -25.4037     5.6932     7.0017   179.0312    74.2274
  656.0000     7.9081   104.3027   -25.3232     5.2432     6.6709   197.4808    73.5981
  656.5000     7.8891   104.9442   -25.2424     4.7328     6.2062   219.2112    74.6886
  657.0000     7.8704   107.0354   -25.1597     4.2291     5.7625   243.3989    75.4002
  657.5000     7.8554   109.6732   -25.1024     3.7244     5.3161   279.2085    74.1612
  658.0000     7.8977   112.5000   -25.0447     3.2188     4.8689   317.5942    72.0683
  658.5000     7.9585   117.5501   -24.9861     2.6911     4.4280   358.6885    71.1944
  659.0000     7.9705   121.4044   -24.8753     2.5450     4.0385   400.2027    69.1774
  659.5000     7.8677   123.0535   -24.6517     2.5031     3.7750   427.7080    66.0995
  660.0000     7.8647   123.5558   -24.4297     2.4657     3.5929   451.3598    63.3137
  660.5000     7.9231   119.7709   -24.2078     2.4266     3.4167   461.4465    60.9720
  661.0000     7.9695   121.3645   -23.9856     2.3862     3.2370   468.0962    71.9695
  661.5000     7.9473   118.7780   -23.7640     2.3668     3.1103   455.8055    75.2439
  662.0000     7.9159   112.6213   -23.5515     2.6383     3.1154   431.2238    75.5114
  662.5000     7.8959   110.2593   -23.2961     2.9019     3.5390   392.5645    80.0230
  663.0000     7.9156   109.1158   -23.3501     3.1692     4.0887   339.8274    78.3980
  663.5000     7.9389   107.9402   -23.4225     3.5538     4.4676   292.3640    76.0467
  664.0000     7.9624   103.0378   -23.5253     4.0809     4.8026   258.2287    76.3721
  664.5000     7.9861   103.7921   -23.7789     4.6026     5.3887   227.1967    79.5000
  665.0000     7.9853   104.7937   -24.0329     5.1241     5.9476   199.2678    87.0264
  665.5000     7.9720   103.7351   -24.2866     5.6502     6.4134   181.4854    83.5561
  666.0000     7.9584   104.5721   -24.5403     5.9767     6.6227   174.0760    84.0223
  666.5000     7.9449   105.2885   -24.7933     6.1225     6.6939   170.8383    78.7076
  667.0000     7.9312   105.3287   -25.0485     6.2263     6.7299   170.4647    79.1589
  667.5000     7.9174   104.4323   -25.1548     6.2240     6.7404   170.0912    74.6008
  668.0000     7.9170   105.6275   -25.1570     6.2214     6.7240   170.3452    76.9211
  668.5000     7.9653   104.8999   -25.1599     6.1685     6.6835   170.8682    78.6083
  669.0000     8.0148   104.1514   -25.0258     6.1049     6.7710   172.0137    82.3684
  669.5000     8.0376   103.2590   -24.8576     5.8326     6.8663   177.4149    82.7438
  670.0000     8.0321   102.2610   -24.6886     5.4580     6.9556   189.6387    82.8442
  670.5000     8.0090   102.1414   -24.5200     5.0887     6.8478   200.9575    85.3425
  671.0000     7.9943   104.3526   -24.3509     4.7175     6.6608   215.5974    86.9569
  671.5000     7.9942   107.7560   -24.1841     4.3325     6.3349   233.6123    88.6848
  672.0000     7.9880   109.6467   -23.8321     4.1481     5.9240   244.7372    90.1960
  672.5000     7.9783   109.7374   -23.3608     4.0221     5.4693   252.9093    84.8324
  673.0000     7.9689   110.0976   -23.0208     3.8972     5.1996   261.0813    83.4834
  673.5000     7.9587   111.5946   -22.9087     3.7719     5.1038   267.7824    79.7215
  674.0000     7.9765   112.2012   -22.9769     3.6429     4.9325   271.7050    75.9804
  674.5000     7.9681   108.3564   -23.2763     3.7253     4.8768   264.9059    75.4476
  675.0000     7.9513   106.5737   -23.5373     3.9579     5.2407   254.0720    76.7240
