~VERSION INFORMATION
 VERS.                2.0:   CWLS LOG ASCII STANDARD - VERSION 2.0
 WRAP.                 NO:   ONE LINE PER DEPTH STEP
~WELL INFORMATION
#MNEM.UNIT      DATA TYPE    INFORMATION
#----------   ------------   ------------------------------
 STRT.F           50.0000:   START DEPTH
 STOP.F         1020.0000:   STOP DEPTH
 STEP.F            0.5000:   STEP LENGTH
 NULL.          -999.2500:   NO VALUE
 COMP. LAWRENCE/ALLISON INC:   COMPANY
 WELL.      28 STX #14-14:   WELL
 FLD .             TEAPOT:   FIELD
 LOC .      S14 T38N R78W:   LOCATION
 CNTY.            NATRONA:   COUNTY
 STAT.            WYOMING:   STATE
 CTRY. UNITED STATES OF AMERICA:   COUNTRY
 SRVC.            Unknown:   SERVICE COMPANY
 DATE.        22-OCT-1984:   LOGDATE
 API .       490251099000:   API NUMBER
~CURVE INFORMATION
#MNEM.UNIT       API CODE    CURVE DESCRIPTION
#----------   ------------   ------------------------------
 DEPT.F                  :   
 SPR .MV     07 010 01 00:   SPONTANEOUS POTENTIAL
 RILD.OHMM   07 120 46 00:   INDUCTION LOG DEEP RESISTIVITY
 RILM.OHMM   07 120 44 00:   INDUCTION LOG MEDIUM RESISTIVITY
 RFOC.OHMM   07 220 04 00:   RESISTIVITY FOCUSED LOG
 GRD .GAPI   45 310 01 00:   GAMMA RAY FROM DENSITY LOG
 CALD.IN     45 280 60 00:   CALIPER
 DEN .G/C3   45 350 01 00:   COMPENSATED BULK DENSTIY
 CORR.G/C3   45 356 01 00:   DENSITY CORRECTION
 PORD.DEC    45 890 12 00:   POROSITY DENSITY SANDSTONE
 CNC .DEC    42 890 03 00:   NEUTRON POROSITY SANDSTONE
 AC  .US/F   60 520 00 00:   ACOUSTIC SONIC
~PARAMETER INFORMATION
#MNEM.UNIT          VALUE    DESCRIPTION
#----------   ------------   ------------------------------
 PD  .                 GL:   PERMANENT DATUM
 EPD .F              5257:   ELEVATION PERMANENT DATUM
 LMF .                 KB:   LOG MEASURED FROM
 DAPD.F                12:   FEET ABOVE PERMANENT DATUM
 DMF .                 KB:   DRILLING MEASURED FROM
 EKB .F              5269:   KELLING BUSHING
 EGL .F              5257:   GROUND LEVEL
 DATE.           10-22-84:   RUN DATE
 RUN .                  1:   RUN NUMBER
 DD  .F              1020:   DEPTH DRILLER
 DL  .F              1019:   DEPTH LOGGER
 BLI .F              1017:   BOTTOM LOG INTERVAL
 TLI .F                52:   TOP LOG INTERVAL
 CS  .IN               16:   CASING SIZE
 CBD .F                40:   CASING BOTTOM DRILLER
 CBL .F                52:   CASING BOTTOM LOGGER
 BS  .IN            12.25:   BIT SIZE
 BSD .F              1020:   BIT SIZE AT DEPTH
 DFT .          GEL/WATER:   DRILLING FLUID TYPE
 DFD .                9.1:   DRILLING FLUID DENSITY
 DFV .                 35:   DRILLING FLUID VISCOSITY
 MSS .           FLOWLINE:   MUD SAMPLE SOURCE
 RMS .OHMM           2.04:   RESISTIVITY MUD SAMPLE
 MST .F                76:   MUD SAMPLE TEMPERATURE
 RMF .OHMM           1.53:   RESISTIVITY MUD FILTRATE SAMPLE
 MFST.F                76:   MUD FILTRATE SAMPLE TEMPERATURE
 RMC .OHMM           2.55:   RESISTIVITY MUD CAKE
 MCST.F                76:   MUD CAKE SAMPLE TEMPERATURE
 MFSS.               CALC:   MUD FILTRATE SAMPLE SOURCE
 MCSS.               CALC:   MUD CAKE SAMPLE SOURCE
 TCS .HRS               3:   TIME CURCULATED STOPPED
 MRT .F               100:   MAXIMUM RECORDED TEMPERATURE
 LUN .            HL 6307:   LOGGING UNIT NUMBER
 LUL .           GILLETTE:   LOGGING UNIT LOCATION
 ENGI.          CROSSBERG:   RECORDING ENGINEER
 WITN.            JOHNSON:   WITNESSED BY
 CLNT.            A2DTECH:   CLIENT CODE
 ORIG.       2", 5" PRINT:   ORIGIN OF DATA
 UWI .       490251099000:   UNIQUE WELL ID
 DICO. A2D Technologies, Inc.:   DIGITIZING COMPANY
~OTHER INFORMATION
~A   DEPT      SPR       RILD       RILM       RFOC        GRD        CALD       DEN       CORR       PORD          CNC       AC   
   50.0000  -999.2500  -999.2500  -999.2500  -999.2500   325.9921    13.4702  -999.2500  -999.2500  -999.2500     0.4091  -999.2500
   50.5000  -999.2500  -999.2500  -999.2500   211.2991   327.7635    13.4702  -999.2500  -999.2500  -999.2500     0.4091  -999.2500
   51.0000  -999.2500  -999.2500  -999.2500    96.2408   356.8047    13.4702  -999.2500  -999.2500     0.4275     0.4091  -999.2500
   51.5000  -999.2500  -999.2500  -999.2500    43.8350   382.0828    13.4702  -999.2500     0.3774     0.4275     0.4091  -999.2500
   52.0000   -10.8350  -999.2500  -999.2500    25.3107   398.4211    13.4699  -999.2500     0.3796     0.4275     0.4283  -999.2500
   52.5000   -10.8350  -999.2500  -999.2500    23.0625   399.2119    13.4827  -999.2500     0.3819     0.4762     0.4767  -999.2500
   53.0000    -9.8410  -999.2500  -999.2500    37.3710   398.9263    13.4954  -999.2500     0.3951     0.6986     0.6886  -999.2500
   53.5000    -9.4433  -999.2500  -999.2500    62.2363   398.6434    13.5050  -999.2500    -0.1765     0.6648     0.6562  -999.2500
   54.0000   -11.2458  -999.2500  1483.6046    36.6161   363.1958    13.8116  -999.2500     0.0265     0.6020     0.5961  -999.2500
   54.5000   -12.9867  -999.2500   315.3684    19.5456   209.9079    14.3686  -999.2500     0.1599     0.5392     0.5359  -999.2500
   55.0000   -14.7090  -999.2500     9.1254    19.3668   127.9444    14.9404  -999.2500     0.1729     0.4764     0.5017  -999.2500
   55.5000   -16.4315     2.7338     4.2006    44.1504   111.3832    15.3737  -999.2500     0.1652     0.4239     0.4745  -999.2500
   56.0000   -18.7193     2.0185     3.3670    82.4489   104.7014    15.6557  -999.2500     0.1654     0.4231     0.4463  -999.2500
   56.5000   -21.4426     2.0185     4.2838   134.6206   100.0065    15.7741  -999.2500     0.1712     0.4231     0.4263  -999.2500
   57.0000   -24.5557     3.2151     5.1872    77.4407    96.5638    15.8664  -999.2500     0.1770     0.4255     0.4263  -999.2500
   57.5000   -29.1275     5.1080     7.3481    79.9409    93.3078    15.9584  -999.2500     0.1828     0.4604     0.4362  -999.2500
   58.0000   -33.7842     8.1152    10.3949   158.9885    89.4467    15.9742  -999.2500     0.1940     0.5109     0.4487  -999.2500
   58.5000   -40.2589    12.1189    14.0390   862.6880    85.3258    15.9785  -999.2500     0.2103     0.5305     0.4939  -999.2500
   59.0000   -47.9840     9.4579    14.0390  1951.5814    81.1404    15.9847  -999.2500     0.2268     0.5293     0.5208  -999.2500
   59.5000   -55.7525     8.8557    10.3690   287.9353    76.9396    15.9952  -999.2500     0.2431     0.5395     0.5098  -999.2500
   60.0000   -63.5038     8.2896     9.7222    38.5400    65.9659    15.9211  -999.2500     0.2351     0.6424     0.4964  -999.2500
   60.5000   -71.2066     7.9368     9.1946     9.8443    51.5467    14.7037  -999.2500     0.1483     0.6986     0.5837  -999.2500
   61.0000   -73.2379     8.6070     9.6108     7.5355    42.5127    13.4950  -999.2500     0.0636     0.6986     0.7003  -999.2500
   61.5000   -75.1959     9.3769     9.9898     6.0088    38.5607    13.3181  -999.2500     0.0074     0.6981     0.6991  -999.2500
   62.0000   -75.7056    10.0875     9.9980     6.5585    38.2695    14.4929  -999.2500     0.0453     0.6616     0.6614  -999.2500
   62.5000   -75.7955    10.0878     8.1951     7.3632    47.1137    15.1827  -999.2500     0.0923     0.6080     0.6012  -999.2500
   63.0000   -75.7215     9.4435     7.1637     8.3978    56.0073    15.2868  -999.2500     0.0980     0.5545     0.5416  -999.2500
   63.5000   -74.7791     8.8958     6.2620     8.1649    64.8645    14.2156  -999.2500     0.0690     0.4969     0.4820  -999.2500
   64.0000   -73.7156     8.3805     5.5993     7.7804    73.6617    12.9400  -999.2500     0.0307     0.4387     0.4469  -999.2500
   64.5000   -72.6418     8.0712     5.5993     7.4112    80.4740    12.4629  -999.2500     0.0605     0.3847     0.4243  -999.2500
   65.0000   -70.6515     7.9105     5.5993     6.9814    80.1654    12.3783  -999.2500     0.1183     0.4887     0.4079  -999.2500
   65.5000   -67.5524     7.7528     5.6461     7.0515    72.9522    12.1022  -999.2500     0.1771     0.5662     0.4085  -999.2500
   66.0000   -64.4583     7.3060     5.7559     7.3638    68.1788    12.0558  -999.2500     0.1755     0.6023     0.4290  -999.2500
   66.5000   -61.3596     6.4288     5.6954     7.9023    68.9789    12.0367  -999.2500     0.1686     0.5783     0.4483  -999.2500
   67.0000   -58.5821     6.0823     5.6333     8.4823    71.2340    11.9158  -999.2500     0.1837     0.5526     0.4540  -999.2500
   67.5000   -58.7130     6.4386     5.5724     8.8652    73.4632    11.7920  -999.2500     0.1992     0.5344     0.4373  -999.2500
   68.0000   -58.8940     6.7614     5.5118     8.5371    75.5101    11.6672  -999.2500     0.2008     0.5593     0.4269  -999.2500
   68.5000   -59.0627     7.1806     5.3762     8.2855    74.4336    11.6783  -999.2500     0.1743     0.5946     0.4488  -999.2500
   69.0000   -59.2300     7.1807     5.2223     7.9417    72.9985    12.1527  -999.2500     0.1484     0.6295     0.4719  -999.2500
   69.5000   -59.3967     6.9127     5.0726     8.0333    66.3280    13.3682  -999.2500     0.1223     0.6465     0.4886  -999.2500
   70.0000   -59.5632     6.5811     4.9270     8.1912    59.8097    13.8070  -999.2500     0.1152     0.6326     0.5054  -999.2500
   70.5000   -59.7296     6.2679     4.7853     8.3904    60.1939    12.7247  -999.2500     0.1361     0.6176     0.5221  -999.2500
   71.0000   -59.8981     6.0703     4.6573     7.9100    62.3769    12.6019  -999.2500     0.1563     0.6109     0.5316  -999.2500
   71.5000   -60.0662     6.0394     4.6577     7.3358    64.1254    12.9311  -999.2500     0.1505     0.6248     0.5108  -999.2500
   72.0000   -60.4719     6.0085     4.6590     7.1110    64.4725    13.1699  -999.2500     0.1414     0.6346     0.4733  -999.2500
   72.5000   -61.0685     5.9714     4.7372     7.5107    66.9649    13.1673  -999.2500     0.1433     0.6329     0.4357  -999.2500
   73.0000   -61.6670     6.0823     4.8177     7.8647    68.3438    12.8841  -999.2500     0.1554     0.6262     0.4231  -999.2500
   73.5000   -62.2676     6.2210     4.8996     8.2376    68.0054    12.8979  -999.2500     0.1674     0.6055     0.4391  -999.2500
   74.0000   -62.8713     6.3979     4.9828     8.2376    67.6061    13.0441  -999.2500     0.1631     0.5677     0.4403   130.3130
   74.5000   -63.2270     6.5810     5.0675     8.1430    72.0377    12.9058  -999.2500     0.1157     0.4459     0.4177   121.0878
   75.0000   -63.4082     6.7696     5.1536     7.9096    77.4278    12.7579     2.0994     0.0688     0.3227     0.4059   121.0878
   75.5000   -63.4975     6.9632     5.2407     7.6828    80.5064    12.6564     2.2613     0.0509     0.2487     0.4110   127.4483
   76.0000   -63.3747     7.2342     5.3295     7.4626    79.7401    12.5708     2.3031     0.0877     0.2221     0.4155   131.9890
   76.5000   -62.8246     7.1926     5.4582     7.3773    79.2010    12.3956     2.2876     0.1190     0.2398     0.4146   136.5569
   77.0000   -62.0090     7.1103     5.5998     7.5155    79.4823    12.1572     2.2669     0.1501     0.2521     0.3847   137.4551
   77.5000   -61.1910     7.0289     5.7456     7.8277    79.7417    12.0626     2.2496     0.1720     0.2566     0.3718   137.0316
   78.0000   -60.3719     6.9176     5.9557     8.2478    79.9953    12.0907     2.2583     0.1767     0.2423     0.3703   134.8111
   78.5000   -59.5519     7.0504     6.4156     8.6900    77.1619    12.1152     2.3007     0.1821     0.2252     0.4043   129.8074
   79.0000   -58.7310     7.4721     6.9111     8.9935    72.4529    12.0771     2.3333     0.1991     0.2106     0.3956   124.8036
   79.5000   -57.9727     8.0993     7.1822     9.2020    67.7423    12.0477     2.3456     0.2171     0.1992     0.3635   119.7999
   80.0000   -57.7686     8.7790     6.9151     9.4164    64.5598    12.2260     2.3598     0.2355     0.1878     0.3010   115.6986
