~VERSION INFORMATION
 VERS.                2.0:   CWLS LOG ASCII STANDARD - VERSION 2.0
 WRAP.                 NO:   ONE LINE PER DEPTH STEP
~WELL INFORMATION
#MNEM.UNIT      DATA TYPE    INFORMATION
#----------   ------------   ------------------------------
 STRT.F            0.0000:   START DEPTH
 STOP.F          701.0000:   STOP DEPTH
 STEP.F            0.5000:   STEP LENGTH
 NULL.          -999.2500:   NO VALUE
 COMP. U S NAVY-INTEX OIL:   COMPANY
 WELL. RES 3 TEAPOT DOM #22-S-2:   WELL
 FLD .             TEAPOT:   FIELD
 LOC .       S2 T38N R78W:   LOCATION
 CNTY.            NATRONA:   COUNTY
 STAT.            WYOMING:   STATE
 CTRY. UNITED STATES OF AMERICA:   COUNTRY
 SRVC.      NL McCullough:   SERVICE COMPANY
 DATE.        23-AUG-1961:   LOGDATE
 API .       490250647200:   API NUMBER
~CURVE INFORMATION
#MNEM.UNIT       API CODE    CURVE DESCRIPTION
#----------   ------------   ------------------------------
 DEPT.F                  :   
 GRN .GAPI   35 310 01 00:   GAMMA RAY
 NEUT.NAPI   35 330 01 00:   NEUTRON
~PARAMETER INFORMATION
#MNEM.UNIT          VALUE    DESCRIPTION
#----------   ------------   ------------------------------
 PD  .                 GL:   PERMANENT DATUM
 EPD .F              5115:   ELEVATION PERMANENT DATUM
 LMF .                 KB:   LOG MEASURED FROM
 DAPD.F                 6:   FEET ABOVE PERMANENT DATUM
 DMF .                 KB:   DRILLING MEASURED FROM
 EKB .F              5121:   KELLING BUSHING
 EGL .F              5115:   GROUND LEVEL
 DATE.          8-23-1961:   RUN DATE
 RUN .                  1:   RUN NUMBER
 DL  .F               676:   DEPTH LOGGER
 BLI .F               674:   BOTTOM LOG INTERVAL
 TLI .F               450:   TOP LOG INTERVAL
 DFT .                OIL:   DRILLING FLUID TYPE
 TCS .HRS              30:   TIME CURCULATED STOPPED
 ENGI.            JACKSON:   RECORDING ENGINEER
 WITN.             HUDSON:   WITNESSED BY
 CLNT.            A2DTECH:   CLIENT CODE
 ORIG.           5" PRINT:   ORIGIN OF DATA
 UWI .       490250647200:   UNIQUE WELL ID
 DICO. A2D Technologies, Inc.:   DIGITIZING COMPANY
~OTHER INFORMATION
~A    DEPT       GRN     NEUT   
    0.0000     3.7144  -999.2500
    0.5000     3.7144  -999.2500
    1.0000     3.7144  -999.2500
    1.5000     3.7144  -999.2500
    2.0000     3.7144  -999.2500
    2.5000     3.7144  -999.2500
    3.0000     3.9555  -999.2500
    3.5000     4.0690  -999.2500
    4.0000     4.2739  -999.2500
    4.5000     4.5718  -999.2500
    5.0000     4.9158  -999.2500
    5.5000     5.2565  -999.2500
    6.0000     5.5948  -999.2500
    6.5000     5.9342  -999.2500
    7.0000     6.2801  -999.2500
    7.5000     6.6032  -999.2500
    8.0000     6.9673  -999.2500
    8.5000     7.0205  -999.2500
    9.0000     7.0793  -999.2500
    9.5000     7.1275  -999.2500
   10.0000     7.1973  -999.2500
   10.5000     7.2721  -999.2500
   11.0000     7.3468  -999.2500
   11.5000     7.4225  -999.2500
   12.0000     7.4898  -999.2500
   12.5000     7.5446  -999.2500
   13.0000     7.5978  -999.2500
   13.5000     7.6478  -999.2500
   14.0000     7.6826  -999.2500
   14.5000     7.6147  -999.2500
   15.0000     7.5542  -999.2500
   15.5000     7.4881  -999.2500
   16.0000     7.4872  -999.2500
   16.5000     7.5299  -999.2500
   17.0000     7.4329  -999.2500
   17.5000     7.3490  -999.2500
   18.0000     7.2651  -999.2500
   18.5000     7.1782  -999.2500
   19.0000     7.0882  -999.2500
   19.5000     7.0477  -999.2500
   20.0000     7.0658  -999.2500
   20.5000     7.0767  -999.2500
   21.0000     7.0877  -999.2500
   21.5000     7.1070  -999.2500
   22.0000     7.0525  -999.2500
   22.5000     6.9439  -999.2500
   23.0000     6.8387  -999.2500
   23.5000     6.8068  -999.2500
   24.0000     6.8139  -999.2500
   24.5000     6.8193  -999.2500
   25.0000     6.8239  -999.2500
   25.5000     6.7997  -999.2500
   26.0000     6.7674  -999.2500
   26.5000     6.7289  -999.2500
   27.0000     6.7798  -999.2500
   27.5000     6.8348  -999.2500
   28.0000     6.8977  -999.2500
   28.5000     6.7598  -999.2500
   29.0000     6.6019  -999.2500
   29.5000     6.4379  -999.2500
   30.0000     6.2760  -999.2500
   30.5000     6.1163  -999.2500
   31.0000     5.9666  -999.2500
   31.5000     5.9313  -999.2500
   32.0000     5.8957  -999.2500
   32.5000     5.8687  -999.2500
   33.0000     5.8477  -999.2500
   33.5000     5.9278  -999.2500
   34.0000     5.9977  -999.2500
   34.5000     6.0739  -999.2500
   35.0000     6.1464  -999.2500
   35.5000     6.2197  -999.2500
   36.0000     6.2990  -999.2500
   36.5000     6.3594  -999.2500
   37.0000     6.3886  -999.2500
   37.5000     6.4256  -999.2500
   38.0000     6.4483  -999.2500
   38.5000     6.4293  -999.2500
   39.0000     6.3903  -999.2500
   39.5000     6.3526  -999.2500
   40.0000     6.3140  -999.2500
   40.5000     6.2757  -999.2500
   41.0000     6.2376  -999.2500
   41.5000     6.1993  -999.2500
   42.0000     6.1713  -999.2500
   42.5000     6.1508  -999.2500
   43.0000     6.1304  -999.2500
   43.5000     6.1098  -999.2500
   44.0000     6.0890  -999.2500
   44.5000     6.0689  -999.2500
   45.0000     6.0232  -999.2500
   45.5000     5.9693  -999.2500
   46.0000     5.9061  -999.2500
   46.5000     5.8316  -999.2500
   47.0000     5.7388  -999.2500
   47.5000     5.6491  -999.2500
   48.0000     5.5586  -999.2500
   48.5000     5.4613  -999.2500
   49.0000     5.3233  -999.2500
   49.5000     5.1736  -999.2500
   50.0000     5.0241  -999.2500
   50.5000     4.8748  -999.2500
   51.0000     4.7259  -999.2500
   51.5000     4.5760  -999.2500
   52.0000     4.4264  -999.2500
   52.5000     4.2971  -999.2500
   53.0000     4.2460  -999.2500
   53.5000     4.1995  -999.2500
   54.0000     4.1555  -999.2500
   54.5000     4.1101  -999.2500
   55.0000     4.0507  -999.2500
   55.5000     3.9478  -999.2500
   56.0000     3.8392  -999.2500
   56.5000     3.7456   212.3795
   57.0000     3.6783   206.3180
   57.5000     3.6047   201.9597
   58.0000     3.5294   197.6014
   58.5000     3.4574   193.2431
   59.0000     3.3842   188.8848
   59.5000     3.3049   184.5265
   60.0000     3.2895   181.5195
   60.5000     3.3408   184.3954
   61.0000     3.3854   203.0366
   61.5000     3.4296   220.5089
   62.0000     3.4771   238.4129
   62.5000     3.4948   257.3951
   63.0000     3.4934   271.2104
   63.5000     3.4934   277.9285
   64.0000     3.4937   285.6935
   64.5000     3.4934   293.4444
   65.0000     3.4928   302.6059
   65.5000     3.4941   314.1371
   66.0000     3.4945   325.4164
   66.5000     3.5642   336.7320
   67.0000     3.6537   348.7492
   67.5000     3.7436   353.2227
   68.0000     3.8323   350.5751
   68.5000     3.9217   348.5688
   69.0000     4.0112   346.6913
   69.5000     4.0996   344.5024
   70.0000     4.1897   342.4255
   70.5000     4.2796   340.8695
   71.0000     4.3993   334.8562
   71.5000     4.5171   325.8747
   72.0000     4.6318   317.3683
   72.5000     4.7469   308.9524
   73.0000     4.8610   300.5995
   73.5000     4.9764   291.9623
   74.0000     5.0919   292.5630
   74.5000     5.1822   297.4741
   75.0000     5.1959   301.8499
   75.5000     5.2110   306.3934
   76.0000     5.2242   297.4568
   76.5000     5.2378   283.7188
   77.0000     5.2513   270.0448
   77.5000     5.2774   256.5600
   78.0000     5.3234   242.9458
   78.5000     5.3700   229.3985
   79.0000     5.4172   215.5585
   79.5000     5.4512   202.3256
   80.0000     5.4749   187.8674
   80.5000     5.4400   178.4462
   81.0000     5.3465   169.5918
   81.5000     5.2529   160.0947
   82.0000     5.2328   175.9250
   82.5000     5.2659   195.1480
   83.0000     5.2950   245.7023
   83.5000     5.3218   296.4995
   84.0000     5.3522   298.0485
   84.5000     5.3362   298.2654
   85.0000     5.2977   296.3697
   85.5000     5.2644   295.5865
   86.0000     5.2238   294.7283
   86.5000     5.2610   293.8643
   87.0000     5.3125   298.3338
   87.5000     5.3635   301.9358
   88.0000     5.4172   304.9166
   88.5000     5.4269   296.0842
   89.0000     5.4361   288.3716
   89.5000     5.4430   279.9785
   90.0000     5.4510   271.8191
   90.5000     5.4586   264.9602
   91.0000     5.4669   262.4489
   91.5000     5.4736   259.7310
   92.0000     5.4785   256.9861
   92.5000     5.4462   259.1958
   93.0000     5.4163   273.2078
   93.5000     5.3853   287.0442
   94.0000     5.3539   300.8444
   94.5000     5.3223   314.8174
   95.0000     5.3148   329.6288
   95.5000     5.3708   339.1353
   96.0000     5.4278   340.4307
   96.5000     5.4859   341.8192
   97.0000     5.5283   340.5395
   97.5000     5.5420   337.0015
   98.0000     5.4553   333.0512
   98.5000     5.3128   334.9381
   99.0000     5.2833   342.7638
   99.5000     5.2422   349.8804
  100.0000     5.1992   358.8145
  100.5000     5.1547   342.6028
  101.0000     5.1708   296.2691
  101.5000     5.2441   277.2674
  102.0000     5.3134   277.6583
  102.5000     5.3801   276.3570
  103.0000     5.4476   271.5593
  103.5000     5.5330   265.1060
  104.0000     5.4909   259.4132
  104.5000     5.3924   251.8843
  105.0000     5.3015   240.1083
  105.5000     5.2136   245.1106
  106.0000     5.1229   274.6721
  106.5000     5.0837   275.0035
  107.0000     5.1187   281.2137
  107.5000     5.1727   276.9499
  108.0000     5.2278   271.5499
  108.5000     5.2778   266.4432
  109.0000     5.3353   261.2541
  109.5000     5.2987   256.2069
  110.0000     5.2528   250.5703
  110.5000     5.2034   245.8686
  111.0000     5.1556   242.7647
  111.5000     5.1084   260.8250
  112.0000     5.0601   276.7994
  112.5000     5.0341   295.4625
  113.0000     5.0081   320.0988
  113.5000     4.9806   346.8340
  114.0000     4.9608   366.8698
  114.5000     4.9670   425.0778
  115.0000     5.1027   409.8195
  115.5000     5.2302   393.5937
  116.0000     5.3647   372.9130
  116.5000     5.4956   355.0378
  117.0000     5.6280   336.4631
  117.5000     5.7609   317.7463
  118.0000     5.8691   298.9088
  118.5000     5.8989   288.6980
  119.0000     5.9324   284.9534
  119.5000     5.9645   280.8243
  120.0000     5.9349   276.6231
  120.5000     5.7617   272.5541
  121.0000     5.5814   268.3719
