~VERSION INFORMATION
 VERS.                2.0:   CWLS LOG ASCII STANDARD - VERSION 2.0
 WRAP.                 NO:   ONE LINE PER DEPTH STEP
~WELL INFORMATION
#MNEM.UNIT      DATA TYPE    INFORMATION
#----------   ------------   ------------------------------
 STRT.F          217.0000:   START DEPTH
 STOP.F         3170.0000:   STOP DEPTH
 STEP.F            0.5000:   STEP LENGTH
 NULL.          -999.2500:   NO VALUE
 COMP. FENIX & SCISSON INC:   COMPANY
 WELL.    51 TX 33 #51-33:   WELL
 FLD .             TEAPOT:   FIELD
 LOC .      S33 T39N R78W:   LOCATION
 CNTY.            NATRONA:   COUNTY
 STAT.            WYOMING:   STATE
 CTRY. UNITED STATES OF AMERICA:   COUNTRY
 SRVC.            Unknown:   SERVICE COMPANY
 DATE.        02-APR-1978:   LOGDATE
 API .       490251068600:   API NUMBER
~CURVE INFORMATION
#MNEM.UNIT       API CODE    CURVE DESCRIPTION
#----------   ------------   ------------------------------
 DEPT.F                  :   
 TGAS.UNITS  91 830 01 00:   TOTAL GAS FROM HOTWIRE
 ROP .MIN/FT 91 810 01 00:   RATE OF DRILLING PENETRATION
~PARAMETER INFORMATION
#MNEM.UNIT          VALUE    DESCRIPTION
#----------   ------------   ------------------------------
 DATE.         2-APR-1978:   RUN DATE
 RUN .                  1:   RUN NUMBER
 BLI .F              3150:   BOTTOM LOG INTERVAL
 TLI .F               250:   TOP LOG INTERVAL
 DFT .       CHEMICAL GEL:   DRILLING FLUID TYPE
 ENGI.            R. CABS:   RECORDING ENGINEER
 CLNT.            A2DTECH:   CLIENT CODE
 ORIG.           5" PRINT:   ORIGIN OF DATA
 UWI .       490251068600:   UNIQUE WELL ID
 DICO. A2D Technologies, Inc.:   DIGITIZING COMPANY
~OTHER INFORMATION
~A   DEPT       TGAS      ROP   
# ...
 2647.0000     4.1688     6.6193
 2647.5000     4.1697     6.6205
 2648.0000     4.1705     6.1640
 2648.5000     4.1714     6.1410
 2649.0000     3.9983     6.0940
 2649.5000     3.8252     6.0952
 2650.0000     3.8115     7.0120
 2650.5000     3.7399     7.0120
 2651.0000     3.8279     7.0120
 2651.5000     3.8288     6.9880
 2652.0000     3.8296     6.9880
 2652.5000     3.9174     6.9880
 2653.0000     4.0052     6.9880
 2653.5000     4.0061     7.0120
 2654.0000     4.0941     6.5301
 2654.5000     4.1819     6.5301
 2655.0000     4.1827     6.5301
 2655.5000     4.1835     6.5060
 2656.0000     4.3583     6.9157
 2656.5000     4.3591     6.9157
 2657.0000     4.5339     6.8916
 2657.5000     4.5349     6.8675
 2658.0000     4.6227     7.3976
 2658.5000     4.7105     7.3976
 2659.0000     4.7114     7.3735
 2659.5000     4.7992     7.3976
 2660.0000     4.8870     7.3976
 2660.5000     4.8878     5.8621
 2661.0000     4.8889     5.8818
 2661.5000     4.9767     5.8818
 2662.0000     4.9775     5.8621
 2662.5000     4.9783     7.4940
 2663.0000     4.9792     7.4940
 2663.5000     4.9800     7.4940
 2664.0000     4.9774     6.7952
 2664.5000     4.8947     6.0964
 2665.0000     4.9828     6.0964
 2665.5000     5.0660     6.1205
 2666.0000     5.0667     6.0964
 2666.5000     5.0675     5.3596
 2667.0000     5.0683     5.1133
 2667.5000     5.1511     5.1133
 2668.0000     5.2445     5.0936
 2668.5000     5.7213     5.0936
 2669.0000     6.7790     5.0936
 2669.5000     9.2188     5.0936
 2670.0000    17.2942     5.0936
 2670.5000    50.8989     5.4680
 2671.0000    21.9899     5.4483
 2671.5000    10.2905     5.4483
 2672.0000     6.5400     5.6453
 2672.5000     5.4026     5.6453
 2673.0000     5.2405     5.6453
 2673.5000     5.0787     5.6453
 2674.0000     4.9983     5.6650
 2674.5000     4.9122     4.5419
 2675.0000     4.9130     4.5616
 2675.5000     5.0010     4.5616
 2676.0000     5.0831     3.3333
 2676.5000     5.2464     3.3333
 2677.0000     5.4911     3.3333
 2677.5000     5.8984     3.3333
 2678.0000     6.0618     3.3333
 2678.5000     6.2295     3.3008
 2679.0000     6.3075     3.3008
 2679.5000     6.2268     3.3008
 2680.0000     5.9023     5.5271
 2680.5000     5.7405     5.5665
 2681.0000     5.7415     5.5665
 2681.5000     5.8236     5.5665
 2682.0000     5.8260     3.3659
 2682.5000     5.9065     3.3333
 2683.0000     5.9888     3.3333
 2683.5000     5.9895     3.3008
 2684.0000     6.0716     4.0788
 2684.5000     6.0724     4.0690
 2685.0000     5.9919     4.0690
 2685.5000     5.9114     4.0690
 2686.0000     5.9122     5.3300
 2686.5000     5.8319     5.3498
 2687.0000     5.7511     5.3300
 2687.5000     5.5893     5.3300
 2688.0000     5.5088     3.2358
 2688.5000     5.3472     3.2358
 2689.0000     5.2667     3.2358
 2689.5000     5.1862     3.2358
 2690.0000     5.1056     6.0241
 2690.5000     5.0251     6.0241
 2691.0000     5.0261     6.0241
 2691.5000     4.9416     6.0482
 2692.0000     4.9427     6.0482
 2692.5000     4.9435     7.0120
 2693.0000     4.9443     7.0361
 2693.5000     4.9454     7.0843
 2694.0000     4.9462     5.5862
 2694.5000     4.9471     5.5862
 2695.0000     4.9479     5.5665
 2695.5000     5.0334     5.5665
 2696.0000     5.0342     6.0723
 2696.5000     5.1163     6.0723
 2697.0000     5.1171     6.0723
 2697.5000     5.2805     6.0723
 2698.0000     5.4439     5.6453
 2698.5000     5.6888     5.6453
 2699.0000     5.8522     5.6650
 2699.5000     5.8529     5.6650
 2700.0000     5.9350     6.0481
 2700.5000     5.9358     6.0223
 2701.0000     5.9366     6.0207
 2701.5000     5.9374     5.9959
 2702.0000     5.9384     5.9748
 2702.5000     6.0205     5.9735
 2703.0000     5.9397     5.9721
 2703.5000     5.9407     5.9708
 2704.0000     5.9415     5.9889
 2704.5000     5.6984     5.9875
 2705.0000     5.5325     6.0071
 2705.5000     5.3748     6.0055
 2706.0000     5.4570     6.0279
 2706.5000     5.4578     6.0263
 2707.0000     5.4586     6.0487
 2707.5000     5.4594     6.0712
 2708.0000     5.3789     5.6234
 2708.5000     5.2156     5.6219
 2709.0000     5.0422     5.6205
 2709.5000     4.7123     5.6190
 2710.0000     4.4523     5.7556
 2710.5000     4.1923     6.9043
 2711.0000     3.9320     6.9026
 2711.5000     3.5852     6.9010
 2712.0000     3.2383     7.8873
 2712.5000     2.8913     7.9097
 2713.0000     2.5445     7.9322
 2713.5000     2.1975     7.9303
 2714.0000     2.0244     7.1214
 2714.5000     1.8514     6.3847
 2715.0000     1.6438     6.3830
 2715.5000     1.5588     6.3814
 2716.0000     1.4743     7.2231
 2716.5000     1.3905     7.2456
 2717.0000     1.3061     7.2439
 2717.5000     1.3087     7.2423
 2718.0000     1.3118     7.2406
 2718.5000     1.3143     6.0822
 2719.0000     1.3168     6.0562
 2719.5000     1.3193     6.0546
 2720.0000     1.2349     6.0047
 2720.5000     1.2374     6.0031
 2721.0000     1.1530     5.9815
 2721.5000     1.2431     5.9801
 2722.0000     1.3326     5.9591
 2722.5000     1.2482     5.9577
 2723.0000     1.2507     5.9760
 2723.5000     1.2532     5.9746
 2724.0000     1.3427     5.9731
 2724.5000     1.5191     5.9717
 2725.0000     1.5363     5.9901
 2725.5000     1.6987     5.9887
 2726.0000     1.7882     5.1204
 2726.5000     1.8777     5.0402
 2727.0000     1.9671     5.0192
 2727.5000     1.9697     5.0179
 2728.0000     1.9722     6.4116
 2728.5000     2.0617     6.4340
 2729.0000     2.0648     6.4321
 2729.5000     2.2412     6.4305
 2730.0000     2.2438     5.6216
 2730.5000     2.2463     5.6203
 2731.0000     2.2488     5.6189
 2731.5000     2.4253     5.6373
 2732.0000     2.4278     5.6360
 2732.5000     2.6048     5.6346
 2733.0000     2.6074     5.6430
 2733.5000     2.6099     5.7104
 2734.0000     2.6124     5.8076
 2734.5000     2.7019     5.9245
 2735.0000     2.7914     6.0265
 2735.5000     2.9710     6.2176
 2736.0000     3.2464     6.4569
 2736.5000     3.4952     6.4794
 2737.0000     3.4977     6.4777
 2737.5000     3.5003     6.5000
 2738.0000     3.4152     6.4983
 2738.5000     3.3314     4.5144
 2739.0000     3.3339     4.4933
 2739.5000     3.3365     4.4920
 2740.0000     3.2520     4.4512
 2740.5000     3.2552     5.9671
 2741.0000     3.1701     5.9461
 2741.5000     3.2602     5.9250
 2742.0000     3.2627     6.5091
 2742.5000     3.2652     6.5434
 2743.0000     3.1808     6.5538
 2743.5000     3.1840     6.5760
 2744.0000     3.1865     5.9968
 2744.5000     3.1890     5.9954
 2745.0000     3.1915     5.9744
 2745.5000     3.1941     5.9533
 2746.0000     3.1096     5.4988
 2746.5000     3.0252     5.4777
 2747.0000     2.9408     5.4567
 2747.5000     2.8563     5.4453
 2748.0000     2.7719     5.9373
 2748.5000     2.6875     6.4387
 2749.0000     2.6906     6.4370
 2749.5000     2.6931     6.4354
 2750.0000     2.6957     6.4096
 2750.5000     2.6983     5.9998
 2751.0000     2.7013     5.9995
 2751.5000     2.7038     5.9993
 2752.0000     2.7064     5.9991
 2752.5000     2.7089     5.0702
 2753.0000     2.7114     5.0700
 2753.5000     2.7139     5.0697
 2754.0000     2.6295     5.4029
 2754.5000     2.6327     5.4741
 2755.0000     2.5482     5.4738
 2755.5000     2.5507     5.4735
 2756.0000     2.5533     5.4733
 2756.5000     2.5558     5.4732
 2757.0000     2.5583     5.4967
 2757.5000     2.5609     5.4964
 2758.0000     2.5640     4.0438
 2758.5000     2.6535     3.9786
 2759.0000     2.7429     3.9419
 2759.5000     2.6366     3.9234
 2760.0000     2.5144     3.9233
 2760.5000     2.4386     3.9049
 2761.0000     2.4438     3.8864
 2761.5000     2.4480     3.8679
 2762.0000     2.4522     6.2595
 2762.5000     2.4565     6.2296
 2763.0000     2.3737     6.1997
 2763.5000     2.2909     6.2092
 2764.0000     2.2962     6.3325
 2764.5000     2.3004     6.4951
 2765.0000     2.2166     6.6578
 2765.5000     2.2218     6.8501
 2766.0000     2.2261     7.0275
 2766.5000     2.2313     7.0865
 2767.0000     2.2355     7.1158
 2767.5000     2.2397     7.1452
 2768.0000     2.2439     5.8723
