~VERSION INFORMATION
 VERS.                2.0:   CWLS LOG ASCII STANDARD - VERSION 2.0
 WRAP.                 NO:   ONE LINE PER DEPTH STEP
~WELL INFORMATION
#MNEM.UNIT      DATA TYPE    INFORMATION
#----------   ------------   ------------------------------
 STRT.F           36.0000:   START DEPTH
 STOP.F         3160.0000:   STOP DEPTH
 STEP.F            0.5000:   STEP LENGTH
 NULL.          -999.2500:   NO VALUE
 COMP.    FENIX & SCISSON:   COMPANY
 WELL.        NPR-3 #28-3:   WELL
 FLD .             TEAPOT:   FIELD
 LOC .       S3 T38N R78W:   LOCATION
 CNTY.            NATRONA:   COUNTY
 STAT.            WYOMING:   STATE
 CTRY. UNITED STATES OF AMERICA:   COUNTRY
 SRVC.            Unknown:   SERVICE COMPANY
 DATE.        01-JUL-1978:   LOGDATE
 API .       490251066500:   API NUMBER
~CURVE INFORMATION
#MNEM.UNIT       API CODE    CURVE DESCRIPTION
#----------   ------------   ------------------------------
 DEPT.F                  :   
 ILD .OHMM   05 120 46 00:   INDUCTION LOG DEEP
 SN  .OHMM   05 040 16 00:   SHORT NORMAL 16"
 SPR .MV     05 010 01 00:   SPONTANEOUS POTENTIAL FROM RES.
 CALD.IN     45 280 60 00:   CALIPER FROM DENSITY LOG
 CORR.G/C3   45 356 01 00:   DENSITY CORRECTION
 DPHI.DEC    45 890 12 00:   DENSITY POROSITY SANDSTONE
 GRD .GAPI   45 310 01 00:   GAMMA RAY FROM DENSITY LOG
 RHOB.G/C3   45 350 01 00:   BULK DENSITY
 GR  .GAPI   30 310 01 00:   GAMMA RAY
~PARAMETER INFORMATION
#MNEM.UNIT          VALUE    DESCRIPTION
#----------   ------------   ------------------------------
 PD  .                 GL:   PERMANENT DATUM
 EPD .F              5264:   ELEVATION PERMANENT DATUM
 LMF .                 KB:   LOG MEASURED FROM
 DAPD.F                 4:   FEET ABOVE PERMANENT DATUM
 DMF .                 KB:   DRILLING MEASURED FROM
 EKB .F              5268:   KELLING BUSHING
 EGL .F              5264:   GROUND LEVEL
 DATE.        01-JUL-1978:   RUN DATE
 RUN .                  1:   RUN NUMBER
 DD  .F               630:   DEPTH DRILLER
 DL  .F               636:   DEPTH LOGGER
 BLI .F               630:   BOTTOM LOG INTERVAL
 TLI .F                50:   TOP LOG INTERVAL
 CS  .IN            8.625:   CASING SIZE
 CBD .F                40:   CASING BOTTOM DRILLER
 BS  .IN            7.875:   BIT SIZE
 BSD .F               630:   BIT SIZE AT DEPTH
 DFT .                KCL:   DRILLING FLUID TYPE
 DFD .                8.6:   DRILLING FLUID DENSITY
 DFV .                 32:   DRILLING FLUID VISCOSITY
 DFPH.                9.5:   DRILLING FLUID PH
 MSS .           FLOWLINE:   MUD SAMPLE SOURCE
 BHT .F                74:   BOTTOM HOLE TEMPERATURE
 TCS .HRS               1:   TIME CURCULATED STOPPED
 MRT .F                74:   MAXIMUM RECORDED TEMPERATURE
 LUN .               2958:   LOGGING UNIT NUMBER
 LUL .               CASP:   LOGGING UNIT LOCATION
 ENGI.             MILLER:   RECORDING ENGINEER
 WITN.           MCGINLEY:   WITNESSED BY
 CLNT.            A2DTECH:   CLIENT CODE
 ORIG.        2" 5" PRINT:   ORIGIN OF DATA
 UWI .       490251066500:   UNIQUE WELL ID
 DICO. A2D Technologies, Inc.:   DIGITIZING COMPANY
~OTHER INFORMATION
~A   DEPT      ILD         SN        SPR       CALD       CORR       DPHI         GRD      RHOB         GR   
# ...
  474.0000    17.7325    13.0364   -26.7141     7.3667     0.0088     0.1941    63.0953     2.3598  -999.2500
  474.5000    17.8507    13.0338   -26.7213     7.3979     0.0044     0.1946    62.9512     2.3576  -999.2500
  475.0000    17.9698    12.9409   -26.7270     7.4291     0.0030     0.1907    63.2592     2.3607  -999.2500
  475.5000    18.0884    12.9384   -26.7327     7.4304     0.0075     0.1895    63.5654     2.3659  -999.2500
  476.0000    18.3341    13.0255   -26.8900     7.4317     0.0106     0.1985    64.4695     2.3585  -999.2500
  476.5000    18.4575    12.9333   -27.0458     7.4333     0.0121     0.2050    64.3272     2.3443  -999.2500
  477.0000    18.7082    12.9307   -27.0515     7.4346     0.0137     0.2089    63.5888     2.3369  -999.2500
  477.5000    18.8332    12.9275   -27.2074     7.4206     0.0137     0.2041    62.3984     2.3347  -999.2500
  478.0000    18.9586    12.9250   -27.3634     7.4222     0.0138     0.1993    62.4075     2.3504  -999.2500
  478.5000    18.9523    12.9224   -27.5205     7.4083     0.0124     0.1957    64.2084     2.3564  -999.2500
  479.0000    19.0800    12.9199   -27.6764     7.3800     0.0094     0.1966    65.4114     2.3595  -999.2500
  479.5000    19.0737    12.8284   -27.8322     7.3963     0.0050     0.1960    64.8208     2.3580  -999.2500
  480.0000    18.9374    12.6492   -27.9881     7.5025     0.0036     0.1956    63.4729     2.3543  -999.2500
  480.5000    18.5439    12.5597   -28.2943     7.5486     0.0036     0.1984    63.1910     2.3536  -999.2500
  481.0000    18.2835    12.4707   -28.3012     7.5649     0.0037     0.2010    65.4421     2.3499  -999.2500
  481.5000    18.0278    12.4683   -28.4571     7.5662     0.0038     0.2007    67.9905     2.3485  -999.2500
  482.0000    17.8990    12.4658   -28.6129     7.5675     0.0038     0.2018    69.6419     2.3478  -999.2500
  482.5000    17.7711    12.4628   -28.6186     7.5837     0.0039     0.2024    69.7986     2.3456  -999.2500
  483.0000    17.5225    12.5467   -28.7759     7.5851     0.0041     0.2003    68.7595     2.3456  -999.2500
  483.5000    17.3962    12.5442   -28.9318     7.5864     0.0055     0.1946    67.8630     2.3539  -999.2500
  484.0000    17.2719    12.5418   -28.9375     7.5880     0.0085     0.1898    68.3273     2.3636  -999.2500
  484.5000    17.1484    12.6262   -28.9432     7.5893     0.0101     0.1949    69.5304     2.3629  -999.2500
  485.0000    16.9086    12.6231   -28.9489     7.5906     0.0116     0.1941    70.1355     2.3607  -999.2500
  485.5000    16.6602    12.6206   -28.9560     7.6068     0.0132     0.1910    70.2922     2.3615  -999.2500
  486.0000    16.2124    12.6181   -28.9617     7.6081     0.0147     0.1954    70.2994     2.3630  -999.2500
  486.5000    15.9857    12.6157   -28.9674     7.6094     0.0163     0.2011    70.3066     2.3556  -999.2500
  487.0000    15.8715    12.6126   -29.1233     7.6108     0.0164     0.1972    69.7120     2.3489  -999.2500
  487.5000    15.9774    12.6101   -29.1417     7.6124     0.0164     0.1987    69.1253     2.3520  -999.2500
  488.0000    15.9730    12.6076   -29.4364     7.6137     0.0150     0.1974    69.2838     2.3542  -999.2500
  488.5000    15.9678    12.6051   -29.5923     7.5997     0.0121     0.1938    69.1397     2.3603  -999.2500
  489.0000    15.8537    12.6026   -29.5980     7.6013     0.0091     0.1870    67.8034     2.3693  -999.2500
  489.5000    15.7404    12.5995   -29.6037     7.5873     0.0062     0.1855    66.3159     2.3723  -999.2500
  490.0000    15.6858    12.5970   -29.6296     7.5591     0.0048     0.1962    65.5755     2.3544  -999.2500
  490.5000    15.6237    12.5946   -29.7667     7.5444     0.0063     0.2006    65.7335     2.3470  -999.2500
  491.0000    15.5111    12.6795   -29.7724     7.5022     0.0064     0.1935    66.8301     2.3554  -999.2500
  491.5000    15.5071    12.7648   -29.6265     7.4288     0.0064     0.1937    68.5887     2.3642  -999.2500
  492.0000    15.5030    12.9399   -29.6337     7.3105     0.0065     0.1883    68.8949     2.3673  -999.2500
  492.5000    15.4989    13.0270   -29.6408     7.2520     0.0066     0.1874    69.0516     2.3710  -999.2500
  493.0000    15.4947    13.2050   -29.7967     7.2231     0.0066     0.1859    69.5073     2.3733  -999.2500
  493.5000    15.4714    13.2024   -30.1027     7.1799     0.0037     0.1811    69.8134     2.3771  -999.2500
  494.0000    15.3790    13.2913   -30.1084     7.1816    -0.0007     0.1726    68.7743     2.3853  -999.2500
  494.5000    15.3750    13.3802   -30.2643     7.2298    -0.0022     0.1635    65.7733     2.4003  -999.2500
  495.0000    15.4775    13.3776   -30.2714     7.3186    -0.0006     0.1617    65.6497     2.4153  -999.2500
  495.5000    15.9060    13.3749   -30.2771     7.4245     0.0055     0.1769    65.2103     2.4011  -999.2500
  496.0000    16.3475    13.4650   -30.2828     7.5155     0.0115     0.1649    63.2744     2.3818  -999.2500
  496.5000    16.6855    13.4617   -30.2885     7.5766    -0.0004     0.1583    60.2920     2.4072  -999.2500
  497.0000    16.7978    13.4590   -30.4444     7.6078    -0.0003     0.1523    58.0571     2.4259  -999.2500
  497.5000    16.9088    13.4564   -30.4515     7.6241     0.0027     0.1281    58.2138     2.4334  -999.2500
  498.0000    16.7868    13.3611   -30.6073     7.6404     0.0072     0.1386    60.3458     2.4663  -999.2500
  498.5000    16.4381    13.3585   -30.6130     7.6419     0.0162     0.1427    61.2178     2.4544  -999.2500
  499.0000    16.0966    13.3552   -30.4685     7.6134     0.0193     0.1344    57.6394     2.4492  -999.2500
  499.5000    15.9816    12.8991   -30.4745     7.5844     0.0119     0.1311    56.0023     2.4627  -999.2500
  500.0000    15.7578    12.5450   -30.6302     7.5860     0.0119     0.1654    55.4099     2.4358  -999.2500
  500.5000    15.6456    11.9496   -30.6395     7.5724     0.0106     0.1630    56.7735     2.4105  -999.2500
  501.0000    15.6419    11.5400   -30.7967     7.5742     0.0137     0.1606    61.7220     2.4158  -999.2500
  501.5000    15.4227    11.4576   -30.8038     7.5757     0.0123     0.1677    64.9242     2.4121  -999.2500
  502.0000    15.2075    11.4546   -30.8109     7.5771     0.0109     0.1680    64.4481     2.4061  -999.2500
  502.5000    14.7895    11.3728   -30.9699     7.5786     0.0080     0.1692    64.1610     2.4010  -999.2500
  503.0000    14.4827    11.3582   -31.1272     7.5651     0.0051     0.1659    64.9282     2.4003  -999.2500
  503.5000    14.1822    11.2101   -31.2844     7.5665     0.0038     0.1605    67.4851     2.4070  -999.2500
  504.0000    14.0804    11.2072   -31.4416     7.5683     0.0039     0.1596    69.8925     2.4145  -999.2500
  504.5000    13.9802    11.2043   -31.4489     7.5697     0.0040     0.1634    68.3937     2.4131  -999.2500
  505.0000    13.8807    11.1241   -31.4576     7.5712     0.0056     0.1653    68.4333     2.4101  -999.2500
  505.5000    13.8774    11.1206   -31.4647     7.5726     0.0057     0.1685    68.2956     2.4072  -999.2500
  506.0000    13.8741    11.1948   -31.6219     7.5740     0.0073     0.1652    68.3154     2.4065  -999.2500
  506.5000    13.8701    11.1919   -31.6290     7.5755     0.0059     0.1658    67.5838     2.4073  -999.2500
  507.0000    13.8668    11.1889   -31.4859     7.5770     0.0061     0.1631    66.2543     2.4096  -999.2500
  507.5000    13.8636    11.1853   -31.6449     7.5634     0.0062     0.1613    63.6246     2.4141  -999.2500
  508.0000    13.8603    11.1824   -31.6520     7.5652     0.0063     0.1578    61.5026     2.4171  -999.2500
  508.5000    13.8570    11.1795   -31.6592     7.5514     0.0064     0.1541    66.7541     2.4187  -999.2500
  509.0000    13.8530    11.1765   -31.8181     7.5532     0.0065     0.1564    68.7131     2.4194  -999.2500
  509.5000    13.7543    11.1730   -31.8252     7.5546     0.0064     0.1531    69.3228     2.4210  -999.2500
  510.0000    13.7511    11.1701   -31.8323     7.5411     0.0037     0.1484    67.8478     2.4270  -999.2500
