~VERSION INFORMATION
 VERS.                2.0:   CWLS LOG ASCII STANDARD - VERSION 2.0
 WRAP.                 NO:   ONE LINE PER DEPTH STEP
~WELL INFORMATION
#MNEM.UNIT      DATA TYPE    INFORMATION
#----------   ------------   ------------------------------
 STRT.F           34.0000:   START DEPTH
 STOP.F          534.0000:   STOP DEPTH
 STEP.F            0.5000:   STEP LENGTH
 NULL.          -999.2500:   NO VALUE
 COMP.    FENIX & SCISSON:   COMPANY
 WELL.      33 SX 3 #33-3:   WELL
 FLD .             TEAPOT:   FIELD
 LOC .       S3 T38N R78W:   LOCATION
 CNTY.            NATRONA:   COUNTY
 STAT.            WYOMING:   STATE
 CTRY. UNITED STATES OF AMERICA:   COUNTRY
 SRVC.       Schlumberger:   SERVICE COMPANY
 DATE.        23-FEB-1977:   LOGDATE
 API .       490251028500:   API NUMBER
~CURVE INFORMATION
#MNEM.UNIT       API CODE    CURVE DESCRIPTION
#----------   ------------   ------------------------------
 DEPT.F                  :   
 SPR .MV     07 010 01 00:   SPONTANEOUS POTENTIAL
 LL8 .OHMM   07 220 08 00:   LATEROLOG-8 RES.
 ILD .OHMM   07 120 46 00:   INDUCTION LOG DEEP
 ILM .OHMM   07 120 44 00:   INDUCTION LOG MEDIUM
 CALD.IN     45 280 60 00:   CALIPER
 GRD .GAPI   45 310 01 00:   GAMMA RAY FROM DENSITY LOG
 RHOB.G/C3   45 350 01 00:   BULK DENSITY
 DPOR.DEC    45 890 12 00:   DENSITY POROSITY SANDSTONE
 CORR.G/C3   45 356 01 00:   DENSITY CORRECTION
~PARAMETER INFORMATION
#MNEM.UNIT          VALUE    DESCRIPTION
#----------   ------------   ------------------------------
 PD  .                 GL:   PERMANENT DATUM
 EPD .F              5170:   ELEVATION PERMANENT DATUM
 LMF .                 KB:   LOG MEASURED FROM
 DAPD.F                 5:   FEET ABOVE PERMANENT DATUM
 DMF .                 KB:   DRILLING MEASURED FROM
 EKB .F              5175:   KELLING BUSHING
 EGL .F              5170:   GROUND LEVEL
 DATE.            2-23-77:   RUN DATE
 RUN .                  1:   RUN NUMBER
 DD  .F               550:   DEPTH DRILLER
 DL  .F               535:   DEPTH LOGGER
 BLI .F               525:   BOTTOM LOG INTERVAL
 TLI .F                47:   TOP LOG INTERVAL
 CS  .IN            8.625:   CASING SIZE
 CBD .F                40:   CASING BOTTOM DRILLER
 CBL .F                47:   CASING BOTTOM LOGGER
 BS  .IN            7.875:   BIT SIZE
 BSD .F               550:   BIT SIZE AT DEPTH
 DFT .                KCL:   DRILLING FLUID TYPE
 DFD .                  9:   DRILLING FLUID DENSITY
 DFV .                 36:   DRILLING FLUID VISCOSITY
 MSS .            MUDTANK:   MUD SAMPLE SOURCE
 RMS .OHMM           .255:   RESISTIVITY MUD SAMPLE
 MST .F                74:   MUD SAMPLE TEMPERATURE
 RMF .OHMM           .246:   RESISTIVITY MUD FILTRATE SAMPLE
 MFST.F                74:   MUD FILTRATE SAMPLE TEMPERATURE
 RMC .OHMM            .38:   RESISTIVITY MUD CAKE
 MCST.F                74:   MUD CAKE SAMPLE TEMPERATURE
 MFSS.                  M:   MUD FILTRATE SAMPLE SOURCE
 MCSS.                  C:   MUD CAKE SAMPLE SOURCE
 RMB .OHMM            .34:   RESISTIVITY MUD AT BHT
 BHT .F                55:   BOTTOM HOLE TEMPERATURE
 TCS .HRS            0600:   TIME CURCULATED STOPPED
 TLAB.HRS            0730:   TIME LOGGER AT BOTTOM
 MRT .F                55:   MAXIMUM RECORDED TEMPERATURE
 LUN .               5642:   LOGGING UNIT NUMBER
 LUL .               CSPR:   LOGGING UNIT LOCATION
 ENGI.                FIX:   RECORDING ENGINEER
 WITN.         STUEBINGER:   WITNESSED BY
 CLNT.            A2DTECH:   CLIENT CODE
 ORIG.       2", 5" PRINT:   ORIGIN OF DATA
 UWI .       490251028500:   UNIQUE WELL ID
 DICO. A2D Technologies, Inc.:   DIGITIZING COMPANY
~OTHER INFORMATION
~A   DEPT      SPR        LL8        ILD        ILM       CALD         GRD      RHOB       DPOR       CORR   
# ...
  399.0000   -20.0663    23.5055    19.4877    25.8305     8.4479    80.4835     2.3863     0.1613     0.0674
  399.5000   -20.5295    22.7324    19.4451    25.2448     8.4395    79.6143     2.3548     0.1700     0.0564
  400.0000   -20.9770    21.9134    19.4026    24.6724     8.4355    78.7454     2.3324     0.1961     0.0114
  400.5000   -21.4248    21.6147    19.3643    24.3895     8.4443    77.8832     2.3482     0.1922     0.0162
  401.0000   -21.8718    21.1829    19.0884    24.0624     8.4540    76.9925     2.3443     0.1837     0.0194
  401.5000   -22.1923    20.7597    18.6967    23.7103     8.4636    78.1589     2.3399     0.1901     0.0098
  402.0000   -22.4955    20.3449    18.3130    23.3633     8.4778    80.9768     2.3585     0.1808     0.0141
  402.5000   -22.7979    19.9384    17.9372    23.0214     8.4919    81.0194     2.3817     0.1675     0.0412
  403.0000   -23.1006    19.5438    17.5691    22.6844     8.4894    80.7448     2.4074     0.1542     0.0283
  403.5000   -23.4148    19.9112    17.2086    22.3524     8.4860    81.4347     2.4329     0.1409     0.0382
  404.0000   -23.0558    20.3213    16.8554    22.1877     8.4825    81.8420     2.4522     0.1310     0.0509
  404.5000   -22.2190    20.6566    16.5096    21.7392     8.4790    79.8186     2.4527     0.1290     0.0212
  405.0000   -20.8482    19.4718    16.1708    20.5597     8.4756    78.1935     2.4489     0.1268     0.0415
  405.5000   -20.4275    17.7651    15.8389    19.4436     8.4736    77.7938     2.4263     0.1380     0.0244
  406.0000   -20.3849    16.8499    15.5139    18.3887     8.4718    76.3287     2.3999     0.1557     0.0231
  406.5000   -19.5888    16.8685    15.1955    17.3930     8.4700    74.6891     2.3836     0.1656     0.0205
  407.0000   -18.8936    16.6200    14.8837    16.4508     8.4682    73.7258     2.3758     0.1733     0.0144
  407.5000   -18.7337    16.4244    14.5812    15.8061     8.4664    74.7647     2.3807     0.1581     0.0280
  408.0000   -18.5529    16.2320    14.2708    15.6207     8.4646    75.6035     2.3905     0.1625     0.0247
  408.5000   -18.7023    16.0416    14.2903    15.3943     8.4628    76.4296     2.4003     0.1532     0.0241
  409.0000   -18.8941    15.8535    14.0024    15.1713     8.4610    77.6150     2.4101     0.1458     0.0281
  409.5000   -19.2387    15.6677    13.8665    14.9515     8.4592    79.0058     2.4188     0.1435     0.0233
  410.0000   -19.9231    15.5017    13.7399    14.8173     8.4574    79.0068     2.4164     0.1453     0.0281
  410.5000   -20.7068    15.4173    13.6144    14.6812     8.4556    77.7874     2.4117     0.1489     0.0224
  411.0000   -20.9686    15.3334    13.4901    14.6705     8.4553    76.5672     2.4237     0.1406     0.0173
  411.5000   -21.2103    15.2499    13.3669    14.6518     8.4553    76.9137     2.4402     0.1288     0.0341
  412.0000   -21.4553    15.1668    13.2449    14.6332     8.4553    78.3270     2.4522     0.1240     0.0492
  412.5000   -21.7013    15.0842    13.1239    14.6145     8.4553    79.6799     2.4501     0.1256     0.0493
  413.0000   -21.9475    15.0021    13.0041    14.5959     8.4553    79.3425     2.4481     0.1276     0.0266
  413.5000   -22.1788    14.9204    12.8854    14.5773     8.4553    78.3395     2.4468     0.1240     0.0334
  414.0000   -22.3783    14.8173    12.7677    14.5588     8.4553    77.7300     2.4536     0.1240     0.0430
  414.5000   -22.5712    14.8587    12.6511    14.5402     8.4553    77.9265     2.4649     0.1188     0.0402
  415.0000   -22.6281    14.9156    12.5495    14.5217     8.4553    79.0962     2.4470     0.1188     0.0478
  415.5000   -22.0950    14.9728    12.5495    14.5033     8.4553    80.9411     2.4048     0.1208     0.0137
  416.0000   -21.5335    15.0301    12.5900    14.4848     8.4553    82.4777     2.4272     0.1245     0.0236
  416.5000   -21.7098    15.0877    12.6345    14.4663     8.4553    81.9264     2.4452     0.1279     0.0324
  417.0000   -22.1186    15.1454    12.6790    14.4479     8.4553    81.4223     2.4311     0.1292     0.0225
  417.5000   -22.5162    15.2034    12.7240    14.4295     8.4553    80.9367     2.4194     0.1284     0.0133
  418.0000   -22.7285    15.2617    12.7693    14.4111     8.4553    80.5290     2.4084     0.1276     0.0182
  418.5000   -22.9314    15.3201    12.7830    14.3928     8.4553    82.4112     2.4078     0.1282     0.0220
  419.0000   -23.1346    15.3745    12.7577    14.3745     8.4553    85.0799     2.4284     0.1273     0.0174
  419.5000   -23.3377    14.9547    12.7040    14.3562     8.4552    87.7873     2.4531     0.1250     0.0238
  420.0000   -23.5416    14.9177    12.6505    14.3379     8.4553    88.6555     2.4224     0.1255     0.0196
  420.5000   -23.8158    14.8749    12.5973    14.3197     8.4588    88.4309     2.4139     0.1262     0.0187
  421.0000   -24.4002    14.8324    12.5442    14.3018     8.4627    89.2206     2.4251     0.1260     0.0258
  421.5000   -25.0126    14.7899    12.4915    14.2839     8.4665    88.7341     2.4400     0.1209     0.0329
  422.0000   -25.6122    14.7476    12.4389    14.2433     8.4703    86.8243     2.4543     0.1152     0.0391
  422.5000   -25.9308    14.7053    12.3865    14.0886     8.4742    84.3686     2.4635     0.1124     0.0407
  423.0000   -26.0073    14.6812    12.3344    13.9356     8.4725    85.9510     2.4290     0.1254     0.0206
  423.5000   -26.0824    14.5586    12.2825    13.7842     8.4507    89.6531     2.4418     0.1336     0.0119
  424.0000   -26.1563    14.4109    12.2308    13.6345     8.4286    91.5174     2.4588     0.1225     0.0202
  424.5000   -26.2304    14.2648    12.1793    13.4864     8.4067    92.4324     2.4756     0.1124     0.0251
  425.0000   -26.3047    14.1201    12.1280    13.3400     8.3957    92.4707     2.4835     0.0972     0.0468
  425.5000   -26.3789    13.9769    12.0770    13.1946     8.3956    93.1566     2.4735     0.1013     0.0351
  426.0000   -26.4531    13.8904    12.0262    13.0511     8.3989    92.5654     2.4634     0.1095     0.0244
  426.5000   -26.5273    13.7627    11.9756    13.0210     8.4036    92.0803     2.4622     0.1124     0.0276
  427.0000   -26.6002    13.8775    11.9252    13.0214     8.4083    92.9804     2.4729     0.1038     0.0180
  427.5000   -26.6754    14.0779    11.8735    13.1385     8.4130    93.6793     2.4869     0.0943     0.0368
  428.0000   -27.1411    14.2811    11.8610    13.2596     8.4178    92.2923     2.5010     0.0874     0.0556
  428.5000   -27.6706    14.4127    11.8271    13.3869     8.4225    90.6413     2.5093     0.0869     0.0567
  429.0000   -28.2013    14.3285    11.7932    13.3869     8.4272    90.4227     2.4882     0.0941     0.0402
  429.5000   -28.7313    14.2412    11.7594    13.3796     8.4319    90.9285     2.4710     0.1046     0.0265
  430.0000   -29.2630    14.1543    11.7259    13.3584     8.4355    92.0981     2.4582     0.1140     0.0163
  430.5000   -29.6665    14.0680    11.6922    13.3373     8.4345    91.4683     2.4597     0.1140     0.0217
  431.0000   -29.9964    13.9823    11.6563    13.3162     8.4334    89.3739     2.4664     0.1098     0.0239
  431.5000   -30.1283    13.8904    11.6413    13.2949     8.4324    89.2443     2.4672     0.1104     0.0152
  432.0000   -30.2142    13.8024    11.5199    13.2735     8.4313    89.3944     2.4517     0.1120     0.0103
  432.5000   -30.2992    13.6347    11.3998    13.1597     8.4302    87.6620     2.4686     0.1067     0.0192
  433.0000   -30.3846    13.4689    11.2809    12.9604     8.4292    85.9278     2.4784     0.0980     0.0319
  433.5000   -30.5065    13.3052    11.1632    12.7640     8.4281    84.6680     2.4650     0.1102     0.0409
  434.0000   -30.8032    13.1434    11.0468    12.5703     8.4270    85.8051     2.4518     0.1122     0.0374
  434.5000   -31.1020    12.9836    10.9316    12.3796     8.4260    88.4327     2.4511     0.1121     0.0261
  435.0000   -31.4002    12.8258    10.8176    12.1918     8.4249    88.6985     2.4454     0.1175     0.0208
