~VERSION INFORMATION
 VERS.                2.0:   CWLS LOG ASCII STANDARD - VERSION 2.0
 WRAP.                 NO:   ONE LINE PER DEPTH STEP
~WELL INFORMATION
#MNEM.UNIT      DATA TYPE    INFORMATION
#----------   ------------   ------------------------------
 STRT.F          103.0000:   START DEPTH
 STOP.F          898.0000:   STOP DEPTH
 STEP.F            0.5000:   STEP LENGTH
 NULL.          -999.2500:   NO VALUE
 COMP. LAWRENCE/ALLISON INC:   COMPANY
 WELL. NPR 3 32-66 SX #2-2:   WELL
 FLD .             TEAPOT:   FIELD
 LOC .       S2 T38N R78W:   LOCATION
 CNTY.            NATRONA:   COUNTY
 STAT.            WYOMING:   STATE
 CTRY. UNITED STATES OF AMERICA:   COUNTRY
 SRVC.      Dresser Atlas:   SERVICE COMPANY
 DATE.        30-JAN-1986:   LOGDATE
 API .       490251106900:   API NUMBER
~CURVE INFORMATION
#MNEM.UNIT       API CODE    CURVE DESCRIPTION
#----------   ------------   ------------------------------
 DEPT.F                  :   
 RILD.OHMM   07 120 46 00:   INDUCTION LOG DEEP RESISTIVITY
 RILM.OHMM   07 120 44 00:   INDUCTION LOG MEDIUM RESISTIVITY
 CALD.IN     45 280 60 00:   CALIPER FROM DENSITY
 GRD .GAPI   45 310 01 00:   GAMMA RAY FROM DENSITY LOG
 CORR.G/C3   45 356 01 00:   DENSITY CORRECTION
 PORD.DEC    45 890 10 00:   POROSITY DENSITY LIMESTONE
 DEN .G/C3   45 350 01 00:   COMPENSATED BULK DENSITY
~PARAMETER INFORMATION
#MNEM.UNIT          VALUE    DESCRIPTION
#----------   ------------   ------------------------------
 PD  .                 GL:   PERMANENT DATUM
 EPD .F              5136:   ELEVATION PERMANENT DATUM
 LMF .                 GL:   LOG MEASURED FROM
 DMF .                 GL:   DRILLING MEASURED FROM
 EGL .F              5136:   GROUND LEVEL
 DATE.        30-JAN-1986:   RUN DATE
 RUN .                  1:   RUN NUMBER
 DD  .F               885:   DEPTH DRILLER
 DL  .F               902:   DEPTH LOGGER
 BLI .F               894:   BOTTOM LOG INTERVAL
 CS  .IN            8.625:   CASING SIZE
 CBD .F               130:   CASING BOTTOM DRILLER
 CBL .F               126:   CASING BOTTOM LOGGER
 BS  .IN             6.25:   BIT SIZE
 BSD .F               885:   BIT SIZE AT DEPTH
 DFT .                AIR:   DRILLING FLUID TYPE
 LUN .            HL-6264:   LOGGING UNIT NUMBER
 LUL .           GILLETTE:   LOGGING UNIT LOCATION
 ENGI.     P. M. FAHLSING:   RECORDING ENGINEER
 WITN.        LINDA FIVAS:   WITNESSED BY
 CLNT.            A2DTECH:   CLIENT CODE
 ORIG.           5" PRINT:   ORIGIN OF DATA
 UWI .       490251106900:   UNIQUE WELL ID
 DICO. A2D Technologies, Inc.:   DIGITIZING COMPANY
 R1  . POROSITY WITH LIMESTONE:   REMARKS 1
~OTHER INFORMATION
~A   DEPT     RILD       RILM       CALD        GRD       CORR       PORD        DEN   
# ...
  285.0000    16.6315    16.7548     7.1898   142.3724     0.0458     0.1926     2.3516
  285.5000    15.7617    15.7617     7.1901   144.2231     0.0338     0.2031     2.3418
  286.0000    15.0357    15.0357     7.1904   145.0929     0.0263     0.2001     2.3448
  286.5000    14.6403    14.7420     7.1907   142.6096     0.0339     0.1983     2.3471
  287.0000    14.4541    14.4541     7.1910   139.8858     0.0430     0.2010     2.3419
  287.5000    14.4693    14.4693     7.1913   137.2122     0.0566     0.2037     2.3381
  288.0000    14.3808    14.2853     7.1916   135.2188     0.0687     0.2010     2.3442
  288.5000    14.3997    14.3003     7.1919   133.4281     0.0899     0.1973     2.3488
  289.0000    14.5150    14.3153     7.1922   132.2359     0.0930     0.1934     2.3526
  289.5000    14.6312    14.5303     7.1925   131.6420     0.0807     0.1904     2.3564
  290.0000    14.7484    14.5455     7.1928   133.4549     0.0685     0.1880     2.3617
  290.5000    14.7639    14.6620     7.1931   135.8663     0.0791     0.1855     2.3671
  291.0000    14.6774    14.6774     7.1934   138.2776     0.0871     0.1846     2.3709
  291.5000    14.5876    14.4908     7.1937   136.7850     0.0811     0.1858     2.3626
  292.0000    14.4059    14.2078     7.1940   132.2895     0.0676     0.1940     2.3490
  292.5000    14.0271    13.7387     7.1792   129.8938     0.0616     0.2012     2.3399
  293.0000    13.0119    12.9221     7.1645   129.6024     0.0601     0.2051     2.3347
  293.5000    11.6594    12.2385     7.1346   129.6136     0.0526     0.2063     2.3309
  294.0000    10.6668    11.4317     7.1199   129.9228     0.0511     0.2060     2.3340
  294.5000    10.0059    10.5499     7.1051   134.1360     0.0512     0.2042     2.3431
  295.0000     9.2791     9.6061     7.0904   141.6524     0.0528     0.1957     2.3582
  295.5000     8.4972     8.7914     7.0756   147.9676     0.0483     0.1824     2.3832
  296.0000     7.7234     7.8332     7.0759   151.8805     0.0423     0.1631     2.4113
  296.5000     6.8821     7.0266     7.0762   154.5921     0.0393     0.1510     2.4287
  297.0000     6.4731     6.5181     7.0765   156.4028     0.0439     0.1474     2.4340
  297.5000     6.2594     6.3467     7.0768   157.6130     0.0243     0.1480     2.4318
  298.0000     6.1798     6.2225     7.0772   159.4237     0.0138     0.1510     2.4280
  298.5000     6.1863     6.1859     7.0775   160.0333     0.0123     0.1534     2.4250
  299.0000     6.2358     6.2358     7.0778   160.6428     0.0184     0.1528     2.4251
  299.5000     6.2857     6.3294     7.0781   160.6517     0.0456     0.1469     2.4324
  300.0000     6.4110     6.4089     7.0784   157.3573     0.0728     0.1413     2.4463
  300.5000     6.6039     6.5643     7.0792   154.0702     0.0899     0.1425     2.4440
  301.0000     6.7068     6.5240     7.0801   152.2796     0.0910     0.1443     2.4410
  301.5000     6.7587     6.4840     7.0962   151.6938     0.0910     0.1455     2.4388
  302.0000     6.7639     6.3998     7.1122   151.7125     0.1094     0.1461     2.4373
  302.5000     6.7692     6.3594     7.1131   152.3280     0.1122     0.1461     2.4358
  303.0000     6.7744     6.3204     7.1140   152.9435     0.1031     0.1443     2.4388
  303.5000     6.7797     6.2817     7.1149   152.9583     0.0880     0.1404     2.4494
  304.0000     6.7849     6.2866     7.1005   153.5738     0.0790     0.1358     2.4540
  304.5000     6.8374     6.3352     7.0712   153.5887     0.0850     0.1376     2.4510
  305.0000     6.8902     6.4285     7.0724   153.9039     0.0971     0.1421     2.4434
  305.5000     6.9424     6.5686     7.0431   152.6875     0.1002     0.1491     2.4291
  306.0000     6.9477     6.7117     7.0440   148.4686     0.0972     0.1527     2.4253
  306.5000     6.9530     6.7636     7.0449   145.2399     0.0866     0.1497     2.4298
  307.0000     6.9583     6.8633     7.0458   146.4965     0.0881     0.1484     2.4314
  307.5000     6.9637     6.9163     7.0467   147.6727     0.0912     0.1478     2.4329
  308.0000     6.9211     6.8740     7.0476   147.3904     0.0836     0.1478     2.4322
  308.5000     6.7372     6.7847     7.0485   143.5013     0.0761     0.1487     2.4322
  309.0000     6.4680     6.6416     7.0494   141.7107     0.0550     0.1496     2.4314
  309.5000     6.2962     6.5138     7.0654   143.2308     0.0354     0.1499     2.4269
  310.0000     6.3011     6.3884     7.0663   145.6481     0.0701     0.1489     2.4292
  310.5000     6.3060     6.3491     7.0672   145.6630     0.0852     0.1439     2.4390
  311.0000     6.3547     6.3542     7.0681   145.9782     0.0898     0.1341     2.4497
  311.5000     6.4039     6.4033     7.0690   147.4946     0.1154     0.1294     2.4603
  312.0000     6.4982     6.4528     7.0701   149.6116     0.1094     0.1302     2.4641
  312.5000     6.5474     6.5479     7.0559   152.0289     0.0943     0.1345     2.4558
  313.0000     6.6899     6.6906     7.0718   151.7435     0.0672     0.1429     2.4421
  313.5000     6.7893     6.8363     7.0727   150.5572     0.0765     0.1483     2.4346
  314.0000     6.8408     6.8892     7.0584   149.9715     0.0921     0.1450     2.4361
  314.5000     6.8462     6.9425     7.0595   149.6823     0.0989     0.1429     2.4377
  315.0000     6.8515     6.9468     7.0604   149.0966     0.0763     0.1429     2.4399
  315.5000     6.8568     6.9520     7.0613   146.1122     0.0552     0.1438     2.4392
  316.0000     6.8621     6.9573     7.0622   145.5228     0.0492     0.1504     2.4347
  316.5000     6.9152     6.9628     7.0781   149.7456     0.0582     0.1525     2.4271
  317.0000     6.9686     6.9682     7.0637   154.2650     0.0749     0.1525     2.4241
  317.5000     7.0713     7.0221     7.0648   157.5832     0.0885     0.1489     2.4302
  318.0000     7.1260     7.0764     7.0657   155.7963     0.0945     0.1440     2.4378
  318.5000     7.2812     7.1806     7.0666   151.0064     0.0930     0.1416     2.4393
  319.0000     7.3983     7.3371     7.0675   148.0180     0.0825     0.1398     2.4393
  319.5000     7.5555     7.5490     7.0685   146.8320     0.0885     0.1380     2.4411
  320.0000     7.7661     7.8211     7.0694   145.3454     0.0946     0.1367     2.4492
  320.5000     7.8804     7.8816     7.0702   140.8359     0.0946     0.1376     2.4499
  321.0000     7.8320     7.7777     7.0711   137.8078     0.0901     0.1377     2.4492
  321.5000     7.7301     7.7257     7.0720   137.9732     0.0931     0.1355     2.4515
  322.0000     7.6300     7.6296     7.0880   141.5815     0.1037     0.1307     2.4666
  322.5000     7.4789     7.4786     7.0889   143.3183     0.1143     0.1246     2.4742
  323.0000     7.2300     7.3815     7.0898   143.3363     0.1128     0.1195     2.4803
  323.5000     7.1361     7.2842     7.0907   142.1500     0.1083     0.1168     2.4833
  324.0000     7.0420     7.1413     7.0915   141.8646     0.0917     0.1186     2.4833
  324.5000     6.9988     7.0486     7.0774   142.1798     0.0736     0.1207     2.4758
  325.0000     7.0056     7.0040     7.0783   143.3959     0.0766     0.1222     2.4728
  325.5000     6.9613     7.0109     7.0794   146.4138     0.0858     0.1228     2.4743
  326.0000     6.9670     6.9679     7.0803   145.2275     0.0950     0.1240     2.4736
  326.5000     6.9723     6.9733     7.0812   143.4406     0.1074     0.1267     2.4683
  327.0000     6.9776     6.9776     7.0821   142.2542     0.1219     0.1258     2.4698
  327.5000     6.9830     6.9829     7.0830   142.2691     0.1174     0.1245     2.4744
  328.0000     6.9884     6.9882     7.0839   142.2840     0.1099     0.1254     2.4774
  328.5000     6.9453     6.9454     7.0848   142.5992     0.0948     0.1330     2.4653
  329.0000     6.9509     6.9508     7.0706   142.3101     0.0722     0.1468     2.4288
  329.5000     6.9563     6.9562     7.0715   144.1305     0.0616     0.1532     2.4177
  330.0000     6.9617     6.9617     7.0573   148.3496     0.0768     0.1510     2.4329
