~VERSION INFORMATION
 VERS.                2.0:   CWLS LOG ASCII STANDARD - VERSION 2.0
 WRAP.                 NO:   ONE LINE PER DEPTH STEP
~WELL INFORMATION
#MNEM.UNIT      DATA TYPE    INFORMATION
#----------   ------------   ------------------------------
 STRT.F           14.0000:   START DEPTH
 STOP.F          432.0000:   STOP DEPTH
 STEP.F            0.5000:   STEP LENGTH
 NULL.          -999.2500:   NO VALUE
 COMP.    FENIX & SCISSON:   COMPANY
 WELL.   NPR-3 #63SX10-10:   WELL
 FLD .             TEAPOT:   FIELD
 LOC .      S10 T38N R78W:   LOCATION
 CNTY.            NATRONA:   COUNTY
 STAT.            WYOMING:   STATE
 CTRY. UNITED STATES OF AMERICA:   COUNTRY
 SRVC.           BIRDWELL:   SERVICE COMPANY
 DATE.        10-FEB-1978:   LOGDATE
 API .       490251066800:   API NUMBER
~CURVE INFORMATION
#MNEM.UNIT       API CODE    CURVE DESCRIPTION
#----------   ------------   ------------------------------
 DEPT.F                  :   
 CALD.IN     45 280 60 00:   CALIPER FROM DENSITY LOG
 CORR.G/C3   45 356 01 00:   DENSITY CORRECTION
 DPHI.DEC    45 890 12 00:   DENSITY POROSITY SANDSTONE
 GRD .GAPI   45 310 01 00:   GAMMA RAY FROM DENSITY LOG
 RHOB.G/C3   45 350 01 00:   BULK DENSITY
 ILD .OHMM   05 120 46 00:   INDUCTION LOG DEEP
 SN  .OHMM   05 040 16 00:   SHORT NORMAL 16"
 SPR .MV     05 010 01 00:   SPONTANEOUS POTENTIAL FROM RES.
~PARAMETER INFORMATION
#MNEM.UNIT          VALUE    DESCRIPTION
#----------   ------------   ------------------------------
 PD  .                 GL:   PERMANENT DATUM
 EPD .F              5186:   ELEVATION PERMANENT DATUM
 LMF .                 KB:   LOG MEASURED FROM
 DAPD.F                 4:   FEET ABOVE PERMANENT DATUM
 DMF .                 KB:   DRILLING MEASURED FROM
 EKB .F              5190:   KELLING BUSHING
 EGL .F              5186:   GROUND LEVEL
 DATE.        10-FEB-1978:   RUN DATE
 RUN .                  1:   RUN NUMBER
 DD  .F               429:   DEPTH DRILLER
 DL  .F               432:   DEPTH LOGGER
 BLI .F               424:   BOTTOM LOG INTERVAL
 TLI .F                20:   TOP LOG INTERVAL
 CS  .IN            8.625:   CASING SIZE
 CBD .F                29:   CASING BOTTOM DRILLER
 CBL .F                29:   CASING BOTTOM LOGGER
 BS  .IN            7.875:   BIT SIZE
 BSD .F               429:   BIT SIZE AT DEPTH
 DFT .    LIGNO SULF/FULL:   DRILLING FLUID TYPE
 DFD .                8.6:   DRILLING FLUID DENSITY
 DFV .                 34:   DRILLING FLUID VISCOSITY
 DFPH.                9.8:   DRILLING FLUID PH
 DFL .                5.6:   DRILLING FLUID LOSS
 MSS .           FLOWLINE:   MUD SAMPLE SOURCE
 RMS .OHMM            1.2:   RESISTIVITY MUD SAMPLE
 MST .F                62:   MUD SAMPLE TEMPERATURE
 RMF .OHMM            1.4:   RESISTIVITY MUD FILTRATE SAMPLE
 MFST.F                62:   MUD FILTRATE SAMPLE TEMPERATURE
 RMC .OHMM            1.0:   RESISTIVITY MUD CAKE
 MCST.F                62:   MUD CAKE SAMPLE TEMPERATURE
 MFSS.               MEAS:   MUD FILTRATE SAMPLE SOURCE
 RMB .OHMM            1.2:   RESISTIVITY MUD AT BHT
 BHT .F                62:   BOTTOM HOLE TEMPERATURE
 TCS .HRS               4:   TIME CURCULATED STOPPED
 MRT .F                62:   MAXIMUM RECORDED TEMPERATURE
 LUN .               2958:   LOGGING UNIT NUMBER
 LUL .                CAS:   LOGGING UNIT LOCATION
 ENGI.            POINTER:   RECORDING ENGINEER
 WITN.          MC GINLEY:   WITNESSED BY
 CLNT.            A2DTECH:   CLIENT CODE
 ORIG.           5" PRINT:   ORIGIN OF DATA
 UWI .       490251066800:   UNIQUE WELL ID
 DICO. A2D Technologies, Inc.:   DIGITIZING COMPANY
~OTHER INFORMATION
~A   DEPT     CALD       CORR       DPHI         GRD      RHOB        ILD         SN        SPR   
# ...
   54.5000     7.8453     0.2693     0.1111    87.4508     2.4616     8.8754    10.1285   -46.7247
   55.0000     7.7845     0.2664     0.1132    91.0902     2.4609     8.8760    10.0600   -46.7397
   55.5000     7.7107     0.2632     0.1135    93.3680     2.4617     8.8153     9.9922   -46.7546
   56.0000     7.6357     0.2515     0.1111    94.1330     2.4655     8.8159     9.9938   -46.4623
   56.5000     7.5758     0.2335     0.1087    88.2435     2.4700     8.7557     9.9951   -46.1738
   57.0000     7.5311     0.1915     0.1075    85.6801     2.4715     8.6960     9.9272   -45.5855
   57.5000     7.5167     0.1556     0.1075    84.1758     2.4738     8.5770     9.8603   -45.4450
   58.0000     7.5173     0.1451     0.1003    83.2446     2.4829     8.5776     9.8619   -45.3119
   58.5000     7.5027     0.1407     0.0924    80.1103     2.5016     8.6379     9.8632   -45.3269
   59.0000     7.5034     0.1344     0.0943    79.6628     2.4972     8.6984     9.8645   -45.1901
   59.5000     7.5040     0.1183     0.0987    84.0608     2.4904     8.7594     9.9343   -45.2051
   60.0000     7.5046     0.1063     0.1020    89.6369     2.4800     8.8208    10.0049   -45.3718
   60.5000     7.5062     0.0944     0.1032    91.7955     2.4748     8.9445    10.0062   -45.5505
   61.0000     7.5209     0.0884     0.1290    92.1067     2.4500     9.0072    10.0770   -45.7014
   61.5000     7.5366     0.0870     0.1278    92.5690     2.4441     9.0703    10.0842   -45.7014
   62.0000     7.5523     0.0945     0.1242    91.9746     2.4471     9.1973    10.2914   -45.7014
   62.5000     7.5983     0.1084     0.1120    89.1087     2.4614     9.3262    10.3642   -45.7014
   63.0000     7.6442     0.1202     0.1034    82.7632     2.4764     9.5225    10.5100   -45.7014
   63.5000     7.7052     0.1202     0.1037    80.8050     2.4824     9.6558    10.6579   -45.7014
   64.0000     7.7663     0.1233     0.1046    84.5978     2.4810     9.8590    10.8832   -45.7014
   64.5000     7.7970     0.1264     0.1049    88.3885     2.4802    10.0735    10.9602   -45.7014
   65.0000     7.8127     0.1294     0.1049    88.5462     2.4795    10.3498    11.1916   -45.8522
   65.5000     7.8456     0.1370     0.1025    85.5311     2.4796    10.4948    11.3556   -45.8522
   66.0000     7.8593     0.1447     0.1012    82.2135     2.4796    10.7156    11.5890   -46.1538
   66.5000     7.8750     0.1491     0.1004    81.0117     2.4819    10.9436    11.9158   -46.3047
   67.0000     7.9057     0.1492     0.1003    82.5331     2.4864    11.2491    12.0834   -46.4555
   67.5000     7.9216     0.1493     0.1009    83.9032     2.4887    11.3280    12.2605   -46.7572
   68.0000     7.9221     0.1508     0.1006    79.5266     2.4879    11.5663    12.5994   -46.9080
   68.5000     7.9378     0.1494     0.1012    77.5663     2.4872    11.8097    12.6885   -46.3047
   69.0000     7.9384     0.1494     0.1018    77.5769     2.4858    12.1422    12.8670   -45.8522
   69.5000     7.9390     0.1495     0.1030    77.4342     2.4820    12.3122    12.9656   -45.7014
   70.0000     7.9396     0.1496     0.1048    76.3858     2.4783    12.3985    13.2320   -45.7014
   70.5000     7.9402     0.1496     0.1063    75.9384     2.4761    12.5721    13.1425   -45.7014
   71.0000     7.9409     0.1512     0.1062    75.9490     2.4739    12.5730    12.9635   -45.2489
   71.5000     7.9415     0.1512     0.1071    76.5739     2.4724    12.5740    12.9652   -44.4947
   72.0000     7.9420     0.1513     0.1080    77.6324     2.4724    12.4879    12.8775   -44.0422
   72.5000     7.9426     0.1529     0.1077    78.2460     2.4717    12.4025    12.8796   -44.0623
   73.0000     7.9281     0.1544     0.1074    78.4059     2.4703    12.3979    12.7042   -44.4947
   73.5000     7.9137     0.1560     0.1092    78.8780     2.4680    12.3188    12.6986   -44.6455
   74.0000     7.8840     0.1545     0.1107    79.0302     2.4658    12.2347    12.6199   -45.0980
   74.5000     7.8686     0.1531     0.1110    76.3156     2.4628    12.0675    12.6219   -45.0980
   75.0000     7.8249     0.1516     0.1122    72.0881     2.4614    11.9851    12.5365   -45.2489
   75.5000     7.7951     0.1502     0.1136    71.4915     2.4591    11.9032    12.5382   -45.3997
   76.0000     7.7505     0.1473     0.1148    74.0740     2.4569    11.9042    12.3674   -45.3997
   76.5000     7.7059     0.1398     0.1157    75.7467     2.4540    11.9050    12.2838   -45.3997
   77.0000     7.6762     0.1264     0.1160    78.4784     2.4532    11.9057    12.2006   -45.3776
   77.5000     7.6464     0.1039     0.1160    78.0963     2.4540    11.9067    12.1185   -45.2489
   78.0000     7.6320     0.0799     0.1106    74.8667     2.4563    11.9902    12.2046   -45.0980
   78.5000     7.6327     0.0620     0.0977    72.7572     2.4661    12.2425    12.2910   -44.9472
   79.0000     7.6333     0.0621     0.0905    70.4965     2.4744    12.3283    12.4639   -44.6455
   79.5000     7.6490     0.0621     0.0883    68.6465     2.4841    12.3291    12.5521   -44.4947
   80.0000     7.6798     0.0637     0.0889    67.9417     2.4942    12.3301    12.5541   -44.4947
   80.5000     7.6956     0.0682     0.0901    70.2223     2.4992    12.1614    12.4691   -44.4947
   81.0000     7.7112     0.0743     0.0919    74.0130     2.4947    11.9951    12.4708   -44.6455
   81.5000     7.7420     0.0849     0.1000    76.2908     2.4813    11.9104    12.3010   -45.0980
   82.0000     7.7578     0.1020     0.0916    78.8997     2.4970    11.5889    12.2181   -45.0980
   82.5000     7.7886     0.1255     0.0937    79.4849     2.4978    11.4303    12.0514   -44.6455
   83.0000     7.8194     0.1451     0.0967    78.4365     2.4956    11.3521    11.8873   -44.3439
   83.5000     7.8350     0.1722     0.0996    77.6886     2.4925    11.2747    11.6450   -43.8914
   84.0000     7.8660     0.2098     0.0888    76.3782     2.4897    11.0439    11.4864   -43.7406
   84.5000     7.8967     0.2369     0.0612    72.8667     2.5032    10.9683    11.4087   -43.5897
   85.0000     7.9275     0.2550     0.0564    69.2444     2.5325    10.8183    11.4105   -43.4389
   85.5000     7.9432     0.2610     0.0684    66.9836     2.5483    10.7445    11.4913   -43.2881
   86.0000     7.9590     0.2611     0.0849    66.3870     2.5355    10.5878    11.4931   -43.2881
   86.5000     7.9747     0.2641     0.1191    70.6336     2.4891    10.4526    11.4154   -43.2881
   87.0000     7.9903     0.2732     0.1200    73.8192     2.4352    10.3812    11.3377   -43.4389
   87.5000     7.9911     0.2778     0.1212    76.5509     2.3984    10.3103    11.1773   -43.8914
   88.0000     7.9765     0.2778     0.1385    74.4435     2.3969    10.2400    10.9557   -44.1931
   88.5000     7.9318     0.2719     0.1448    71.7289     2.3977    10.2409    10.7321   -44.6455
   89.0000     7.8266     0.2625     0.1526    69.6194     2.3999    10.2415    10.5859   -45.0980
   89.5000     7.6309     0.2330     0.1547    69.9305     2.4007    10.2422    10.4418   -45.0980
   90.0000     7.5257     0.1970     0.1448    72.2105     2.4038    10.2429    10.3711   -44.6455
   90.5000     7.4657     0.1775     0.1430    73.1267     2.4128    10.2436    10.3728   -44.1931
   91.0000     7.4211     0.1566     0.1439    73.1353     2.4121    10.1737    10.3742   -43.7386
   91.5000     7.4063     0.1326     0.1451    72.9925     2.4098    10.1744    10.3756   -43.2881
   92.0000     7.3770     0.1056     0.1427    72.6985     2.4091    10.1049    10.3772   -43.2881
   92.5000     7.3777     0.0843     0.1417    73.1630     2.4139     9.9668    10.3786   -43.2881
   93.0000     7.4085     0.0562     0.1426    73.6254     2.4159     9.8986    10.4520   -43.1373
   93.5000     7.4544     0.0443     0.1453    74.2390     2.4115     9.8310    10.4534   -42.6848
   94.0000     7.4853     0.0428     0.1487    74.5523     2.4040     9.6966    10.4551   -42.5339
   94.5000     7.5312     0.0474     0.1390    74.7121     2.4123     9.6973    10.3843   -42.6848
