~VERSION INFORMATION
 VERS.                2.0:   CWLS LOG ASCII STANDARD - VERSION 2.0
 WRAP.                 NO:   ONE LINE PER DEPTH STEP
~WELL INFORMATION
#MNEM.UNIT      DATA TYPE    INFORMATION
#----------   ------------   ------------------------------
 STRT.F         1500.0000:   START DEPTH
 STOP.F         3480.0000:   STOP DEPTH
 STEP.F            0.5000:   STEP LENGTH
 NULL.          -999.2500:   NO VALUE
 COMP. FLUOR DANIEL (NOPSR). INC.:   COMPANY
 WELL.   22-STX-26 #22-26:   WELL
 FLD .             NPR #3:   FIELD
 LOC .      S26 T38N R78W:   LOCATION
 CNTY.            NATRONA:   COUNTY
 STAT.            WYOMING:   STATE
 CTRY. UNITED STATES OF AMERICA:   COUNTRY
 SRVC.            Unknown:   SERVICE COMPANY
 DATE.        14-JUN-1995:   LOGDATE
 API .       490252272400:   API NUMBER
~CURVE INFORMATION
#MNEM.UNIT       API CODE    CURVE DESCRIPTION
#----------   ------------   ------------------------------
 DEPT.F                  :   
 ROP .MIN/FT 91 810 01 00:   RATE OF DRILLING PENETRATION
 TGAS.UNITS  91 830 01 00:   TOTAL GAS FROM HOTWIRE
~PARAMETER INFORMATION
#MNEM.UNIT          VALUE    DESCRIPTION
#----------   ------------   ------------------------------
 EKB .F              5348:   KELLING BUSHING
 EGL .F              5338:   GROUND LEVEL
 DATE.            6-14-95:   RUN DATE
 DD  .F              3480:   DEPTH DRILLER
 BLI .F              3480:   BOTTOM LOG INTERVAL
 TLI .F              1500:   TOP LOG INTERVAL
 CS  .IN            9.625:   CASING SIZE
 CBD .F                87:   CASING BOTTOM DRILLER
 ENGI.               HUSK:   RECORDING ENGINEER
 WITN.              TOWER:   WITNESSED BY
 CLNT.            A2DTECH:   CLIENT CODE
 ORIG.           5" PRINT:   ORIGIN OF DATA
 UWI .       490252272400:   UNIQUE WELL ID
 DICO. A2D Technologies, Inc.:   DIGITIZING COMPANY
~OTHER INFORMATION
~A  DEPT         ROP       TGAS 
# ...
 3201.0000     0.6617    10.2579
 3201.5000     0.6624    10.2590
 3202.0000     0.6630    10.2601
 3202.5000     0.6636    10.2611
 3203.0000     0.6643    10.2622
 3203.5000     0.6649    10.2632
 3204.0000     0.7778    10.2643
 3204.5000     0.7781    10.2653
 3205.0000     0.7783    10.2664
 3205.5000     0.7786    10.2675
 3206.0000     0.7789    10.2685
 3206.5000     0.6847    10.2696
 3207.0000     0.6851    10.2706
 3207.5000     0.6853    10.2717
 3208.0000     0.6856    10.2728
 3208.5000     0.6858    10.2738
 3209.0000     0.6861    10.2749
 3209.5000     0.6863    10.2759
 3210.0000     0.6866    10.2770
 3210.5000     0.6868    10.2781
 3211.0000     0.6871    10.2791
 3211.5000     0.6874    10.2802
 3212.0000     0.6877    10.2812
 3212.5000     0.6879    10.2823
 3213.0000     0.6882    10.2834
 3213.5000     0.6884    10.2844
 3214.0000     0.6887    10.2855
 3214.5000     0.6890    10.2865
 3215.0000     0.6893    10.2876
 3215.5000     0.6895    10.2886
 3216.0000     0.6898    10.2897
 3216.5000     0.6900    10.2908
 3217.0000     0.6903    10.2918
 3217.5000     0.6906    10.2929
 3218.0000     0.8166    10.2939
 3218.5000     0.8169    10.2950
 3219.0000     0.8082    10.2961
 3219.5000     0.8131    10.2971
 3220.0000     0.6709    10.2982
 3220.5000     0.6701    10.2992
 3221.0000     0.6693    10.3003
 3221.5000     0.6685    10.3014
 3222.0000     0.6677    10.3024
 3222.5000     0.6670    10.3035
 3223.0000     0.6662    10.3045
 3223.5000     0.6654    10.3056
 3224.0000     0.6646    10.3066
 3224.5000     0.6638    10.3077
 3225.0000     0.6631    10.3088
 3225.5000     0.6623    10.3098
 3226.0000     0.6615    10.3109
 3226.5000     0.6607    10.3119
 3227.0000     0.6599    10.3130
 3227.5000     0.6592    10.3141
 3228.0000     0.6584    10.3151
 3228.5000     0.6576    10.3162
 3229.0000     0.6568    10.3172
 3229.5000     0.6560    10.3183
 3230.0000     0.6552    10.3194
 3230.5000     0.8232    10.3204
 3231.0000     0.8234    10.3215
 3231.5000     0.8237    10.3225
 3232.0000     0.8239    10.3236
 3232.5000     0.8242    10.3247
 3233.0000     0.8245    10.3257
 3233.5000     0.8247    10.3268
 3234.0000     0.8250    10.3278
 3234.5000     1.0034    10.3289
 3235.0000     1.0037    10.3299
 3235.5000     1.0040    10.3310
 3236.0000     1.0042    10.3321
 3236.5000     0.6690    10.3331
 3237.0000     0.6693    10.3342
 3237.5000     0.6696    10.3352
 3238.0000     0.6698    10.3363
 3238.5000     0.6701    10.3374
 3239.0000     0.6704    10.3384
 3239.5000     0.6706    10.3395
 3240.0000     0.6709    10.3405
 3240.5000     0.6712    10.3416
 3241.0000     0.6713    10.3427
 3241.5000     0.6713    10.3437
 3242.0000     0.6714    10.3448
 3242.5000     0.6714    10.3458
 3243.0000     0.6714    10.3469
 3243.5000     0.6715    10.3480
 3244.0000     0.6715    10.3490
 3244.5000     0.6715    10.3501
 3245.0000     0.6716    10.3511
 3245.5000     0.6716    10.3522
 3246.0000     0.6716    10.3532
 3246.5000     0.6717    10.3543
 3247.0000     0.6717    10.3554
 3247.5000     0.6717    10.3564
 3248.0000     0.6718    10.3575
 3248.5000     0.6718    10.3585
 3249.0000     0.6718    10.3596
 3249.5000     0.6719    10.3607
 3250.0000     0.6719    10.3617
 3250.5000     0.6719    10.3628
 3251.0000     0.6720    10.3638
 3251.5000     0.6720    10.3649
 3252.0000     0.6720    10.3660
 3252.5000     0.6721    10.3670
 3253.0000     0.6721    10.3681
 3253.5000     0.6721    10.3691
 3254.0000     0.6722    10.3702
 3254.5000     0.6722    10.3713
 3255.0000     0.6722    10.3723
 3255.5000     0.6723    10.3734
 3256.0000     0.6723    10.3744
 3256.5000     0.6723    10.3755
 3257.0000     0.6724    10.3765
 3257.5000     0.6724    10.3776
 3258.0000     0.6724    10.3787
 3258.5000     0.6725    10.3797
 3259.0000     0.6725    10.3808
 3259.5000     0.6725    10.3818
 3260.0000     0.6726    10.3829
 3260.5000     0.6726    10.3840
 3261.0000     0.6726    10.3850
 3261.5000     0.6727    10.3861
 3262.0000     0.6727    10.3871
 3262.5000     0.6727    10.3882
 3263.0000     0.6728    10.3893
 3263.5000     0.6728    10.3903
 3264.0000     0.7883    10.3914
 3264.5000     0.7885    10.3924
 3265.0000     0.7888    10.3935
 3265.5000     0.7890    10.3946
 3266.0000     0.6426    10.3956
 3266.5000     0.6429    10.3967
 3267.0000     0.6431    10.3977
 3267.5000     0.6433    10.3988
 3268.0000     0.6436    10.3998
 3268.5000     0.6439    10.4009
 3269.0000     0.6441    10.4020
 3269.5000     0.6444    10.4030
 3270.0000     0.6447    10.4041
 3270.5000     0.6449    10.4051
 3271.0000     0.6452    10.4062
 3271.5000     0.6454    10.4073
 3272.0000     0.6457    10.4083
 3272.5000     0.6460    10.4094
 3273.0000     0.6462    10.4104
 3273.5000     0.6465    10.4115
 3274.0000     0.6468    10.4126
 3274.5000     0.6470    10.4136
 3275.0000     0.6473    10.4147
 3275.5000     0.6475    10.4157
 3276.0000     0.6478    10.4168
 3276.5000     0.6481    10.4178
 3277.0000     0.6483    10.4189
 3277.5000     0.6486    10.4200
 3278.0000     0.6488    10.4210
 3278.5000     0.6491    10.4221
 3279.0000     0.6494    10.4231
 3279.5000     0.6496    10.4242
 3280.0000     0.6499    10.4253
 3280.5000     0.6502    10.4263
 3281.0000     0.6504    10.4274
 3281.5000     0.6507    10.4284
 3282.0000     0.6509    10.4295
 3282.5000     0.6512    10.4306
 3283.0000     0.6515    10.4316
 3283.5000     0.6517    10.4327
 3284.0000     0.8197    10.4337
 3284.5000     0.8200    10.4348
 3285.0000     0.8203    10.4359
 3285.5000     0.8205    10.4369
 3286.0000     0.8208    10.4380
 3286.5000     0.8211    10.4390
 3287.0000     0.8213    10.4401
 3287.5000     0.8216    10.4411
 3288.0000     0.6436    10.4422
 3288.5000     0.6439    10.4433
 3289.0000     0.6442    10.4443
 3289.5000     0.6444    10.4454
 3290.0000     0.6447    10.4464
 3290.5000     0.6450    10.4475
 3291.0000     0.6452    10.4486
 3291.5000     0.6455    10.4496
 3292.0000     0.6457    10.4507
 3292.5000     0.6460    10.4517
 3293.0000     0.6462    10.4528
 3293.5000     0.6465    10.4539
 3294.0000     0.6468    10.4549
 3294.5000     0.6470    10.4560
 3295.0000     0.6473    10.4570
 3295.5000     0.6476    10.4581
 3296.0000     0.6478    10.4592
 3296.5000     0.6481    10.4602
 3297.0000     0.6484    10.4613
 3297.5000     0.6486    10.4623
 3298.0000     0.7852    10.4634
 3298.5000     0.7854    10.4644
 3299.0000     0.7857    10.4655
 3299.5000     0.7860    10.4666
 3300.0000     0.7862    10.4676
 3300.5000     0.9542    10.4649
 3301.0000     0.9439    10.4596
 3301.5000     0.9442    10.4544
 3302.0000     0.9445    10.4491
 3302.5000     0.6616    10.4439
 3303.0000     0.6620    10.4386
 3303.5000     0.6517    10.4334
 3304.0000     0.6520    10.4281
 3304.5000     0.6523    10.4229
 3305.0000     0.6526    10.4176
 3305.5000     0.6528    10.4124
 3306.0000     0.5851    10.4071
 3306.5000     0.5076    10.4019
 3307.0000     0.5085    10.3966
 3307.5000     0.5094    10.3914
 3308.0000     0.5103    10.3861
 3308.5000     0.5112    10.3809
 3309.0000     0.5121    10.3756
 3309.5000     0.5130    10.3704
 3310.0000     0.5140    10.3651
 3310.5000     0.5149    10.3599
 3311.0000     0.5158    10.3546
 3311.5000     0.5167    10.3494
 3312.0000     0.5176    10.3441
 3312.5000     0.5185    10.3389
 3313.0000     0.5194    10.3336
 3313.5000     0.5203    10.3284
 3314.0000     0.5212    10.3231
 3314.5000     0.5221    10.3179
 3315.0000     0.5230    10.3126
 3315.5000     0.5239    10.3074
 3316.0000     0.5248    10.3021
 3316.5000     0.5257    10.2969
 3317.0000     0.5267    10.2916
 3317.5000     0.5276    10.2864
 3318.0000     0.5285    10.2811
 3318.5000     0.5294    10.2759
 3319.0000     0.5303    10.2706
 3319.5000     0.5312    10.2654
 3320.0000     0.5321    10.2601
 3320.5000     0.5330    10.2549
 3321.0000     0.5339    10.2496
 3321.5000     0.5348    10.2444
 3322.0000     0.5357    10.2391
