~VERSION INFORMATION
 VERS.                2.0:   CWLS LOG ASCII STANDARD - VERSION 2.0
 WRAP.                 NO:   ONE LINE PER DEPTH STEP
~WELL INFORMATION
#MNEM.UNIT      DATA TYPE    INFORMATION
#----------   ------------   ------------------------------
 STRT.F            0.0000:   START DEPTH
 STOP.F          752.0000:   STOP DEPTH
 STEP.F            0.1000:   STEP LENGTH
 NULL.          -999.2500:   NO VALUE
 COMP. BROWN JOHN E&C INC:   COMPANY
 WELL. N P R 3 STX-34 #53-1-34:   WELL
 FLD .             TEAPOT:   FIELD
 LOC .      S34 T39N R78W:   LOCATION
 CNTY.            NATRONA:   COUNTY
 STAT.            WYOMING:   STATE
 CTRY. UNITED STATES OF AMERICA:   COUNTRY
 SRVC.     Atlas Wireline:   SERVICE COMPANY
 DATE.        29-OCT-1991:   LOGDATE
 API .       490252248700:   API NUMBER
~CURVE INFORMATION
#MNEM.UNIT       API CODE    CURVE DESCRIPTION
#----------   ------------   ------------------------------
 DEPT.F                  :   
 GRR .GAPI   07 310 01 00:   GAMMA RAY
 RILD.OHMM   07 120 46 00:   INDUCTION LOG DEEP RESISTIVITY
 RILM.OHMM   07 120 44 00:   RESITIVITY LONG MEDIUM
~PARAMETER INFORMATION
#MNEM.UNIT          VALUE    DESCRIPTION
#----------   ------------   ------------------------------
 PD  .                 GL:   PERMANENT DATUM
 EPD .F              5067:   ELEVATION PERMANENT DATUM
 LMF .                 KB:   LOG MEASURED FROM
 DAPD.F                10:   FEET ABOVE PERMANENT DATUM
 DMF .                 KB:   DRILLING MEASURED FROM
 EKB .F              5077:   KELLING BUSHING
 EGL .F              5067:   GROUND LEVEL
 DATE.        29-OCT-1991:   RUN DATE
 RUN .                  1:   RUN NUMBER
 DD  .F               760:   DEPTH DRILLER
 DL  .F               760:   DEPTH LOGGER
 BLI .F               758:   BOTTOM LOG INTERVAL
 TLI .F                 0:   TOP LOG INTERVAL
 CS  .IN            9.625:   CASING SIZE
 CBD .F                52:   CASING BOTTOM DRILLER
 CBL .F                52:   CASING BOTTOM LOGGER
 BS  .IN             8.75:   BIT SIZE
 BSD .F               760:   BIT SIZE AT DEPTH
 DFT .        AIR DRILLED:   DRILLING FLUID TYPE
 MRT .F               154:   MAXIMUM RECORDED TEMPERATURE
 LUN .            HL 6307:   LOGGING UNIT NUMBER
 LUL .             CASPER:   LOGGING UNIT LOCATION
 ENGI.          RASMUSSEN:   RECORDING ENGINEER
 WITN.        GARY STRONG:   WITNESSED BY
 CLNT.            A2DTECH:   CLIENT CODE
 ORIG.           5" PRINT:   ORIGIN OF DATA
 UWI .       490252248700:   UNIQUE WELL ID
 DICO. A2D Technologies, Inc.:   DIGITIZING COMPANY
~OTHER INFORMATION
~A    DEPT      GRR      RILD       RILM   
# ...
  546.0000    93.5961    23.2344    23.5337
  546.1000    95.3617    23.2344    23.6706
  546.2000    96.2779    23.2344    23.7317
  546.3000    96.6828    23.2344    23.7317
  546.4000    96.9755    23.2617    23.7317
  546.5000    97.4916    23.3970    23.7317
  546.6000    97.4899    23.3970    23.7317
  546.7000    97.2967    23.2907    23.8332
  546.8000    97.1837    23.2344    23.8248
  546.9000    97.0940    23.1842    23.7317
  547.0000    96.8411    23.0505    23.7317
  547.1000    96.5730    22.9127    23.7317
  547.2000    96.1000    22.9127    23.6062
  547.3000    95.7803    22.7141    23.4698
  547.4000    95.5276    22.5240    23.3341
  547.5000    95.1944    22.3942    23.1993
  547.6000    94.6615    22.2652    23.0651
  547.7000    93.8389    22.1277    22.9174
  547.8000    93.1522    21.8919    22.7995
  547.9000    92.2208    21.7306    22.5781
  548.0000    90.9650    21.5416    22.3179
  548.1000    89.5313    21.3316    22.0604
  548.2000    88.2750    21.1965    21.8059
  548.3000    86.8688    20.9272    21.5215
  548.4000    85.9830    20.7124    21.3065
  548.5000    85.1468    20.5557    21.0611
  548.6000    84.7455    20.3809    20.8734
  548.7000    84.8100    20.1466    20.7226
  548.8000    85.1022    19.9150    20.4892
  548.9000    86.2527    19.6544    20.3522
  549.0000    87.1062    19.4602    20.1546
  549.1000    88.4325    19.2367    19.9224
  549.2000    89.9367    19.0157    19.6928
  549.3000    91.4407    18.7714    19.4913
  549.4000    92.9223    18.4482    19.3759
  549.5000    93.8060    18.0769    19.1125
  549.6000    94.4243    17.9053    18.9324
  549.7000    95.0203    17.6997    18.7142
  549.8000    95.5203    17.4963    18.5421
  549.9000    96.0205    17.3049    18.4132
  550.0000    96.5204    17.1530    18.2008
  550.1000    95.6033    17.0011    17.9913
  550.2000    94.6862    16.8492    17.7841
  550.3000    93.7691    16.6973    17.6391
  550.4000    93.2849    16.5454    17.4982
  550.5000    93.4947    16.3935    17.2785
  550.6000    93.4947    16.2417    16.9732
  550.7000    93.4947    16.0719    16.7826
  550.8000    93.8659    15.8883    16.5893
  550.9000    94.2331    15.7183    16.3981
  551.0000    94.4831    15.6214    16.2091
  551.1000    94.7331    15.5395    16.0365
  551.2000    95.0076    15.3880    15.9393
  551.3000    95.4594    15.2559    15.8517
  551.4000    95.7862    15.1942    15.7601
  551.5000    96.1574    15.1878    15.6691
  551.6000    96.5890    15.0900    15.5785
  551.7000    96.8710    15.0905    15.4885
  551.8000    97.7307    15.0912    15.3924
  551.9000    98.1583    15.0918    15.3924
  552.0000    98.6586    15.0924    15.3282
  552.1000    99.3766    15.0959    15.2853
  552.2000   100.3207    15.1994    15.2576
  552.3000   101.0756    15.1999    15.1790
  552.4000   102.2693    15.2006    15.1790
  552.5000   103.2776    15.1660    15.1790
  552.6000   103.9314    15.0961    15.1790
  552.7000   104.0847    15.2025    15.1790
  552.8000   104.0847    15.2031    15.1790
  552.9000   104.0847    15.2037    15.1790
  553.0000   104.0847    15.2044    15.1790
  553.1000   104.0847    15.2050    15.1790
  553.2000   104.0847    15.2057    15.1790
  553.3000   104.0847    15.2063    15.1790
  553.4000   104.0524    15.2069    15.1790
  553.5000   103.7822    15.2076    15.1790
  553.6000   103.7822    15.2082    15.1790
  553.7000   103.7822    15.2088    15.1790
  553.8000   103.7822    15.2095    15.4067
  553.9000   103.7095    15.2102    15.4069
  554.0000   103.4594    15.2888    15.4071
  554.1000   103.1770    15.3178    15.4074
  554.2000   102.9591    15.3184    15.4076
  554.3000   102.3781    15.3191    15.4605
  554.4000   101.7409    15.3197    15.5158
  554.5000   101.1802    15.3205    15.5160
  554.6000   100.4379    15.3210    15.5162
  554.7000    99.8487    15.3216    15.5164
  554.8000    99.4371    15.3595    15.5835
  554.9000    99.0903    15.4301    15.6254
  555.0000    98.8402    15.4308    15.6257
  555.1000    98.5901    15.5207    15.6360
  555.2000    98.3359    15.5400    15.7355
  555.3000    98.3359    15.5407    15.7356
  555.4000    98.3359    15.5414    15.7984
  555.5000    98.3359    15.5565    15.8462
  555.6000    98.2471    15.6514    15.8707
  555.7000    97.9970    15.6521    15.9575
  555.8000    97.7307    15.7199    15.9578
  555.9000    97.2628    15.7629    16.0355
  556.0000    96.7625    15.7929    16.0698
  556.1000    96.2622    15.8745    16.1089
  556.2000    95.7618    15.8752    16.2020
  556.3000    95.2618    15.9588    16.2962
  556.4000    94.7050    15.9876    16.2964
  556.5000    94.2614    16.0330    16.2966
  556.6000    93.5915    16.1008    16.2968
  556.7000    93.0751    16.1074    16.3310
  556.8000    92.8896    16.2149    16.4113
  556.9000    92.8774    16.2155    16.4116
  557.0000    92.5870    16.2161    16.4118
  557.1000    92.3772    16.2168    16.4120
  557.2000    92.1271    16.2387    16.4609
  557.3000    91.8769    16.3332    16.5273
  557.4000    91.6268    16.4467    16.5275
  557.5000    91.3767    16.4473    16.5278
  557.6000    91.1266    16.4480    16.5280
  557.7000    90.6788    16.4487    16.5282
  557.8000    90.1786    16.4663    16.5719
  557.9000    89.6783    16.5652    16.6443
  558.0000    89.1781    16.5658    16.6477
  558.1000    88.6536    16.5665    16.7613
  558.2000    88.4154    16.5672    16.7615
  558.3000    88.1654    16.5679    16.7617
  558.4000    88.1815    16.5686    16.7619
  558.5000    88.4316    16.5693    16.7801
  558.6000    88.7102    16.6581    16.8797
  558.7000    89.2587    16.6866    16.8799
  558.8000    89.4847    16.6873    16.8802
  558.9000    89.5613    16.6880    16.8804
  559.0000    89.8032    16.6887    16.8806
  559.1000    90.3036    16.6895    16.8809
  559.2000    90.8039    16.6901    16.8811
  559.3000    91.3767    16.6908    16.9707
  559.4000    91.8043    16.6915    16.9310
  559.5000    92.6276    16.6922    16.8818
  559.6000    93.7372    16.6929    16.8820
  559.7000    94.9873    16.6937    16.8823
  559.8000    96.2259    16.6943    16.8826
  559.9000    96.8230    16.6950    16.8828
  560.0000    97.2265    16.6957    16.8830
  560.1000    97.5775    16.6778    16.8412
  560.2000    97.9244    16.5811    16.7662
  560.3000    98.4245    16.5818    16.7664
  560.4000    98.9410    16.5825    16.7666
  560.5000    99.1831    16.5832    16.7669
  560.6000    99.8126    16.5839    16.7671
  560.7000   100.4257    16.5846    16.7673
  560.8000   100.9259    16.5853    16.7676
  560.9000   101.3616    16.4968    16.7678
  561.0000   101.3616    16.4714    16.7680
  561.1000   101.1316    16.4721    16.6970
  561.2000   100.8815    16.4728    16.6520
  561.3000   100.7564    16.4735    16.6218
  561.4000   100.6838    16.4742    16.5367
  561.5000   100.4336    16.4748    16.5370
  561.6000   100.1513    16.4755    16.5372
  561.7000    99.9335    16.4762    16.5374
  561.8000    99.5180    16.4769    16.4929
  561.9000    99.0176    16.4730    16.4230
  562.0000    98.4566    16.3639    16.4232
  562.1000    97.7144    16.3645    16.4235
  562.2000    97.1256    16.3356    16.4237
  562.3000    96.7142    16.2893    16.4239
  562.4000    95.9073    16.2528    16.4241
  562.5000    94.9065    16.2535    16.4244
  562.6000    93.9545    16.2542    16.4246
  562.7000    93.1921    16.1811    16.4248
  562.8000    92.2077    16.1426    16.3517
  562.9000    91.5945    16.1433    16.3112
  563.0000    91.3767    16.1439    16.2782
  563.1000    91.3767    16.1446    16.1853
  563.2000    91.3767    16.0571    16.0860
  563.3000    91.3767    16.0338    16.0862
  563.4000    91.6108    16.0345    16.0200
  563.5000    91.6793    16.0351    15.9749
  563.6000    91.8083    16.0254    15.9751
  563.7000    92.0584    15.9251    15.9675
  563.8000    92.4052    15.8431    15.8646
  563.9000    93.7973    15.8157    15.8648
  564.0000    94.4632    15.8164    15.8650
  564.1000    95.0440    15.7921    15.8242
