~VERSION INFORMATION
 VERS.                2.0:   CWLS LOG ASCII STANDARD - VERSION 2.0
 WRAP.                 NO:   ONE LINE PER DEPTH STEP
~WELL INFORMATION
#MNEM.UNIT      DATA TYPE    INFORMATION
#----------   ------------   ------------------------------
 STRT.F           28.0000:   START DEPTH
 STOP.F          463.0000:   STOP DEPTH
 STEP.F            0.5000:   STEP LENGTH
 NULL.          -999.2500:   NO VALUE
 COMP.    FENIX & SCISSON:   COMPANY
 WELL.  NPR-3 #74 S 10-10:   WELL
 FLD .        TEAPOT DOME:   FIELD
 LOC .      S10 T38N R78W:   LOCATION
 CNTY.            NATRONA:   COUNTY
 STAT.            WYOMING:   STATE
 CTRY. UNITED STATES OF AMERICA:   COUNTRY
 SRVC.           BIRDWELL:   SERVICE COMPANY
 DATE.        12-FEB-1978:   LOGDATE
 API .       490251057000:   API NUMBER
~CURVE INFORMATION
#MNEM.UNIT       API CODE    CURVE DESCRIPTION
#----------   ------------   ------------------------------
 DEPT.F                  :   
 ILD .OHMM   05 120 46 00:   INDUCTION LOG DEEP
 SN  .OHMM   05 040 16 00:   SHORT NORMAL 16"
 SPR .MV     05 010 01 00:   SPONTANEOUS POTENTIAL FROM RES.
 CALD.IN     45 280 60 00:   CALIPER FROM DENSITY LOG
 CORR.G/C3   45 356 01 00:   DENSITY CORRECTION
 DPHI.DEC    45 890 12 00:   DENSITY POROSITY SANDSTONE
 GRD .GAPI   45 310 01 00:   GAMMA RAY FROM DENSITY LOG
 RHOB.G/C3   45 350 01 00:   BULK DENSITY
~PARAMETER INFORMATION
#MNEM.UNIT          VALUE    DESCRIPTION
#----------   ------------   ------------------------------
 PD  .                 GL:   PERMANENT DATUM
 EPD .F              5183:   ELEVATION PERMANENT DATUM
 LMF .                 KB:   LOG MEASURED FROM
 DAPD.F                 4:   FEET ABOVE PERMANENT DATUM
 DMF .                 KB:   DRILLING MEASURED FROM
 EKB .F              5187:   KELLING BUSHING
 EGL .F              5183:   GROUND LEVEL
 DATE.        12-FEB-1978:   RUN DATE
 RUN .                  1:   RUN NUMBER
 DD  .F               465:   DEPTH DRILLER
 DL  .F               465:   DEPTH LOGGER
 BLI .F               463:   BOTTOM LOG INTERVAL
 TLI .F                40:   TOP LOG INTERVAL
 CS  .IN            8.625:   CASING SIZE
 CBD .F                39:   CASING BOTTOM DRILLER
 BS  .IN            7.875:   BIT SIZE
 BSD .F               465:   BIT SIZE AT DEPTH
 DFT .         LIGNO-SULF:   DRILLING FLUID TYPE
 DFD .                8.8:   DRILLING FLUID DENSITY
 DFV .                 34:   DRILLING FLUID VISCOSITY
 DFPH.                 10:   DRILLING FLUID PH
 DFL .                4.0:   DRILLING FLUID LOSS
 MSS .                PIT:   MUD SAMPLE SOURCE
 RMS .OHMM            1.3:   RESISTIVITY MUD SAMPLE
 MST .F                62:   MUD SAMPLE TEMPERATURE
 RMF .OHMM            1.4:   RESISTIVITY MUD FILTRATE SAMPLE
 MFST.F                62:   MUD FILTRATE SAMPLE TEMPERATURE
 MCST.F                62:   MUD CAKE SAMPLE TEMPERATURE
 MFSS.               MEAS:   MUD FILTRATE SAMPLE SOURCE
 RMB .OHMM            1.3:   RESISTIVITY MUD AT BHT
 BHT .F                62:   BOTTOM HOLE TEMPERATURE
 TCS .HRS               2:   TIME CURCULATED STOPPED
 MRT .F                70:   MAXIMUM RECORDED TEMPERATURE
 LUN .               2953:   LOGGING UNIT NUMBER
 LUL .             CASPER:   LOGGING UNIT LOCATION
 ENGI.            POINTER:   RECORDING ENGINEER
 WITN.          MC GINLEY:   WITNESSED BY
 CLNT.            A2DTECH:   CLIENT CODE
 ORIG.           5" PRINT:   ORIGIN OF DATA
 UWI .       490251057000:   UNIQUE WELL ID
 DICO. A2D Technologies, Inc.:   DIGITIZING COMPANY
~OTHER INFORMATION
~A   DEPT      ILD         SN        SPR       CALD       CORR       DPHI         GRD      RHOB   
# ...
  352.0000    37.0291    36.5966   -32.0870     7.7934     0.2601     0.1985    58.5024     2.3439
  352.5000    35.5291    35.1121   -32.0738     7.7785     0.2495     0.2117    60.7595     2.3287
  353.0000    34.5645    34.1334   -32.0607     7.7787     0.2359     0.2225    62.7159     2.3159
  353.5000    33.6262    33.1896   -32.0475     7.7638     0.2224     0.2402    64.2211     2.3083
  354.0000    32.7133    32.1062   -32.0344     7.7790     0.2608     0.2384    65.2752     2.2773
  354.5000    32.0409    31.2341   -32.1733     7.7942     0.2724     0.2183    65.1263     2.2674
  355.0000    31.3709    30.3857   -32.1569     7.8093     0.2751     0.2093    63.6992     2.3014
  355.5000    30.9654    29.5604   -32.1437     7.8095     0.2736     0.1890    60.3614     2.3075
  356.0000    30.7562    28.9561   -31.8329     7.8096     0.2706     0.1617    59.8676     2.3181
  356.5000    30.5484    28.3671   -31.5222     7.7947     0.2509     0.1360    61.8243     2.4008
  357.0000    30.5536    27.9821   -31.3561     7.7949     0.1348     0.2183    63.9310     2.4518
  357.5000    30.5578    27.7930   -31.1979     7.7650     0.1363     0.2197    66.3385     2.3531
  358.0000    30.3503    27.6077   -31.1845     7.7201     0.1770     0.1933    66.1896     2.3044
  358.5000    30.1452    27.4226   -31.0198     7.7052     0.1966     0.1624    66.0404     2.3293
  359.0000    29.9416    27.4283   -30.7091     7.7805     0.1860     0.1552    66.1926     2.3520
  359.5000    29.9467    27.4340   -30.6959     7.8257     0.1634     0.1774    66.6452     2.3829
  360.0000    29.5394    27.8488   -30.6828     7.8108     0.1513     0.1813    67.3985     2.4109
  360.5000    29.3398    28.2186   -30.5208     7.7959     0.0804     0.1804    67.8512     2.3942
  361.0000    28.9368    28.2244   -30.6598     7.7660     0.0562     0.1792    67.8496     2.3655
  361.5000    28.5283    28.2301   -30.6433     7.7662     0.0381     0.1885    67.4030     2.3708
  362.0000    28.3206    28.0393   -30.9311     7.8114     0.0366     0.2035    66.7248     2.3587
  362.5000    27.9696    27.8512   -31.0640     7.8566     0.0351     0.2050    65.7518     2.3322
  363.0000    27.9734    27.8583   -31.0503     7.8868     0.0335     0.2037    66.3551     2.3269
  363.5000    27.9772    27.8640   -30.8883     7.9020     0.0320     0.1990    67.5596     2.3284
  364.0000    27.7882    27.6757   -30.7183     7.8871     0.0305     0.1947    68.3130     2.3352
  364.5000    27.4103    27.3014   -30.5452     7.8722     0.0305     0.1926    67.5626     2.3405
  365.0000    26.8512    26.9307   -30.1015     7.8724     0.0305     0.1788    64.1054     2.3435
  365.5000    26.4860    26.1993   -29.9396     7.9326     0.0320     0.1785    58.3926     2.3581
  366.0000    25.7670    25.8414   -29.9264     7.9778     0.0319     0.1770    57.7922     2.3663
  366.5000    25.2413    25.3017   -29.7645     8.0080     0.0289     0.1785    63.9594     2.3699
  367.0000    24.5561    24.4320   -29.6025     8.0231     0.0289     0.1764    66.9684     2.3706
  367.5000    23.8868    23.9601   -29.2917     8.0383     0.0289     0.1692    67.7268     2.3736
  368.0000    23.2112    23.3105   -29.1298     8.0384     0.0334     0.1707    68.2306     2.3827
  368.5000    22.2735    22.6773   -28.9678     8.0536     0.0364     0.1701    73.7939     2.3857
  369.0000    21.3969    21.9089   -28.8058     8.0538     0.0379     0.1638    77.6514     2.3857
  369.5000    20.8160    21.3138   -28.6439     8.0689     0.0364     0.1572    78.4048     2.3887
  370.0000    20.3914    20.8781   -28.7795     8.0851     0.0379     0.1566    77.2032     2.4023
  370.5000    20.2530    20.4524   -29.2128     8.0842     0.0394     0.1578    71.7912     2.4068
  371.0000    19.9782    20.0364   -29.1875     8.0694     0.0424     0.1596    69.0859     2.4045
  371.5000    19.8425    19.7642   -29.0372     8.0545     0.0454     0.1596    67.7336     2.4007
  372.0000    19.8459    19.2275   -28.8725     8.0396     0.0484     0.1566    70.4422     2.4015
  372.5000    19.7112    18.9666   -28.8593     8.0248     0.0483     0.1572    71.1952     2.4052
  373.0000    19.3098    18.8393   -28.9983     8.0249     0.0498     0.1581    69.3925     2.4067
  373.5000    18.9159    18.8433   -29.1339     8.0251     0.0513     0.1584    66.8376     2.4052
  374.0000    18.7881    18.7168   -29.1175     8.0403     0.0528     0.1568    66.9915     2.4029
  374.5000    18.6612    18.5912   -29.1043     8.0554     0.0528     0.1528    67.7699     2.4046
  375.0000    18.5351    18.4668   -29.0912     8.0556     0.0525     0.1509    68.8471     2.4131
  375.5000    18.4099    18.3435   -29.0780     8.0557     0.0482     0.1548    70.0018     2.4180
  376.0000    18.2855    18.3473   -29.0649     8.0408     0.0407     0.1593    68.9506     2.4157
  376.5000    18.1619    18.2233   -29.0517     8.0260     0.0377     0.1527    66.9968     2.4096
  377.0000    18.0392    18.2279   -29.0386     8.0111     0.0467     0.1512    66.5476     2.4051
  377.5000    17.6719    18.2316   -29.0253     7.9962     0.0603     0.1497    65.7972     2.4134
  378.0000    17.5519    17.9842   -29.0119     8.0114     0.0648     0.1479    66.4001     2.4179
  378.5000    17.3132    17.7399   -28.8497     8.0116     0.0647     0.1476    67.3039     2.4194
  379.0000    17.1962    17.3783   -28.5362     8.0117     0.0662     0.1422    68.0572     2.4209
  379.5000    17.0805    17.2617   -28.2255     7.9968     0.0677     0.1362    68.2091     2.4292
  380.0000    16.7322    16.9020   -27.7679     7.9970     0.0677     0.1404    68.6617     2.4382
  380.5000    16.5047    16.5490   -27.4551     7.9972     0.0677     0.1392    69.1203     2.4413
  381.0000    16.3931    16.2280   -27.1443     7.9973     0.0677     0.1368    70.6195     2.4337
  381.5000    16.2824    16.0077   -26.9824     7.9975     0.0692     0.1311    70.7714     2.4352
  382.0000    15.9503    15.9003   -26.9692     7.9976     0.0722     0.1242    70.7732     2.4435
  382.5000    15.7339    15.9036   -27.1082     8.0128     0.0737     0.1175    70.7747     2.4518
  383.0000    15.4130    15.6869   -27.0917     8.0129     0.0768     0.1130    71.5280     2.4662
  383.5000    15.2028    15.4740   -27.0786     8.0131     0.0782     0.1142    72.4318     2.4722
  384.0000    15.1001    15.1592   -27.0654     8.0132     0.0782     0.1356    71.6814     2.4637
  384.5000    15.2075    15.0567   -27.0521     8.0284     0.0797     0.1296    69.4272     2.4585
  385.0000    15.2095    15.0606   -27.0387     8.0436     0.0872     0.1197    66.4212     2.4517
  385.5000    15.1068    15.0637   -27.0227     8.0287     0.0977     0.1260    67.6256     2.4426
  386.0000    15.0047    15.0667   -27.0095     8.0288     0.1037     0.1332    72.8903     2.4615
  386.5000    15.0067    15.0698   -26.9964     8.0290     0.1067     0.1260    76.0497     2.4449
  387.0000    15.0088    15.0730   -26.9832     8.0291     0.1113     0.1155    74.0841     2.4615
  387.5000    15.0109    15.0761   -26.8213     8.0443     0.1158     0.1200    70.1754     2.4698
  388.0000    14.8067    15.0798   -26.6593     8.0445     0.1173     0.1170    70.0390     2.4622
  388.5000    14.7066    14.9779   -26.4974     8.0446     0.1157     0.1104    70.4920     2.4758
  389.0000    14.6073    14.9817   -26.3354     8.0447     0.1127     0.1125    73.2003     2.4856
  389.5000    14.6097    14.8805   -26.3222     8.0449     0.1097     0.1230    75.7581     2.4886
  390.0000    14.5105    14.7806   -26.1603     8.0300     0.1066     0.1308    76.0603     2.4803
  390.5000    14.5130    14.6822   -25.8495     8.0302     0.1111     0.1272    76.0618     2.4576
  391.0000    14.5150    14.5837   -25.6875     8.0153     0.1217     0.1248    75.0107     2.4485
  391.5000    14.5169    14.4851   -25.8358     8.0155     0.1293     0.1353    72.4557     2.4530
  392.0000    14.4184    14.4888   -26.1077     8.0156     0.1402     0.1298    72.1561     2.4514
