~VERSION INFORMATION
 VERS.                2.0:   CWLS LOG ASCII STANDARD - VERSION 2.0
 WRAP.                 NO:   ONE LINE PER DEPTH STEP
~WELL INFORMATION
#MNEM.UNIT      DATA TYPE    INFORMATION
#----------   ------------   ------------------------------
 STRT.F           70.0000:   START DEPTH
 STOP.F          865.0000:   STOP DEPTH
 STEP.F            0.5000:   STEP LENGTH
 NULL.          -999.2500:   NO VALUE
 COMP. U S NAVY/INTEX OIL CO:   COMPANY
 WELL.   54S 11 NPR #3-11:   WELL
 FLD .             TEAPOT:   FIELD
 LOC .      S11 T38N R78W:   LOCATION
 CNTY.            NATRONA:   COUNTY
 STAT.            WYOMING:   STATE
 CTRY. UNITED STATES OF AMERICA:   COUNTRY
 SRVC.         Lane Wells:   SERVICE COMPANY
 DATE.        11-MAR-1960:   LOGDATE
 API .       490250634900:   API NUMBER
~CURVE INFORMATION
#MNEM.UNIT       API CODE    CURVE DESCRIPTION
#----------   ------------   ------------------------------
 DEPT.F                  :   
 SPR .MV     05 010 01 00:   SPONTANEOUS POTENTIAL FROM RES.
 ASN .OHMM   05 041 16 00:   AMPLIFIED SHORT NORMAL 16"
 ILD .OHMM   05 120 46 00:   INDUCTION LOG DEEP
 CILD.MMHO   05 110 46 00:   CONDUCTIVITY INDUCTION LOG DEEP
~PARAMETER INFORMATION
#MNEM.UNIT          VALUE    DESCRIPTION
#----------   ------------   ------------------------------
 PD  .                 GL:   PERMANENT DATUM
 EPD .F              5198:   ELEVATION PERMANENT DATUM
 LMF .                 KB:   LOG MEASURED FROM
 DAPD.F                 5:   FEET ABOVE PERMANENT DATUM
 DMF .                 KB:   DRILLING MEASURED FROM
 EKB .F              5203:   KELLING BUSHING
 EGL .F              5198:   GROUND LEVEL
 DATE.            3-11-60:   RUN DATE
 RUN .                  1:   RUN NUMBER
 DD  .F               870:   DEPTH DRILLER
 DL  .F               867:   DEPTH LOGGER
 BLI .F               865:   BOTTOM LOG INTERVAL
 TLI .F                70:   TOP LOG INTERVAL
 CS  .IN            8.625:   CASING SIZE
 CBD .F                12:   CASING BOTTOM DRILLER
 BS  .IN            7.875:   BIT SIZE
 BSD .F               870:   BIT SIZE AT DEPTH
 DFT .   GEL/OIL EMULSION:   DRILLING FLUID TYPE
 DFD .                9.2:   DRILLING FLUID DENSITY
 DFV .                 36:   DRILLING FLUID VISCOSITY
 DFPH.                7.5:   DRILLING FLUID PH
 DFL .                4.4:   DRILLING FLUID LOSS
 MSS .                PIT:   MUD SAMPLE SOURCE
 RMS .OHMM            6.8:   RESISTIVITY MUD SAMPLE
 MST .F                54:   MUD SAMPLE TEMPERATURE
 RMF .OHMM            4.2:   RESISTIVITY MUD FILTRATE SAMPLE
 MFST.F                69:   MUD FILTRATE SAMPLE TEMPERATURE
 RMC .OHMM            5.1:   RESISTIVITY MUD CAKE
 MCST.F                69:   MUD CAKE SAMPLE TEMPERATURE
 MFSS.              PRESS:   MUD FILTRATE SAMPLE SOURCE
 MCSS.              PRESS:   MUD CAKE SAMPLE SOURCE
 RMB .OHMM            5.2:   RESISTIVITY MUD AT BHT
 BHT .F                70:   BOTTOM HOLE TEMPERATURE
 TCS .HRS              .5:   TIME CURCULATED STOPPED
 MRT .F                70:   MAXIMUM RECORDED TEMPERATURE
 LUN .             L-4474:   LOGGING UNIT NUMBER
 LUL .             CASPER:   LOGGING UNIT LOCATION
 ENGI.      GRIGGS/NELSON:   RECORDING ENGINEER
 WITN.   JORGENSEN/HUDSON:   WITNESSED BY
 CLNT.            A2DTECH:   CLIENT CODE
 ORIG.       2", 5" PRINT:   ORIGIN OF DATA
 UWI .       490250634900:   UNIQUE WELL ID
 DICO. A2D Technologies, Inc.:   DIGITIZING COMPANY
~OTHER INFORMATION
~A   DEPT       SPR         ASN        ILD      CILD  
   70.0000    -4.1058     9.9347     4.3965   278.4080
   70.5000    -4.1058     9.9347     4.3965   286.0394
   71.0000    -4.1058     9.9347     4.3058   286.4453
   71.5000    -4.1058     9.9347     4.2859   286.7699
   72.0000    -4.1056     9.9347     4.2590   287.1758
   72.5000    -4.1040     9.9331     4.2336   287.5817
   73.0000    -4.1788     9.9357     4.2232   287.9875
   73.5000    -4.2706    10.0202     4.2583   288.3934
   74.0000    -4.3632     8.5950     4.2915   288.7992
   74.5000    -4.4571     9.0287     4.3248   289.2050
   75.0000    -4.4352     9.2944     4.3583   288.3699
   75.5000    -4.3921     9.4622     4.3928   287.2741
   76.0000    -4.3485     8.9167     4.3546   286.1783
   76.5000    -4.3051     8.3098     4.3048   285.0825
   77.0000    -4.2618     7.7115     4.2547   283.9867
   77.5000    -4.2184     7.3250     4.2049   286.3441
   78.0000    -4.1750     7.4728     4.1550   289.2278
   78.5000    -4.1329     7.6319     4.1052   292.1115
   79.0000    -4.1533     7.3226     4.0553   294.9952
   79.5000    -4.2773     6.9502     4.0054   297.8789
   80.0000    -4.3997     6.5765     3.9555   300.7626
   80.5000    -4.5226     6.2044     3.9053   303.6476
   81.0000    -4.6453     5.8341     3.8551   306.5300
   81.5000    -4.7675     5.6317     3.8685   309.4137
   82.0000    -4.8362     5.7370     3.9067   310.7388
   82.5000    -4.8356     5.9506     3.9443   310.1385
   83.0000    -4.8350     6.1605     3.9820   309.5477
   83.5000    -4.8389     6.2604     4.0196   307.7477
   84.0000    -4.9695     5.8529     4.0573   304.7307
   84.5000    -5.1082     5.5655     4.0949   301.6794
   85.0000    -5.2463     5.2867     4.1325   298.6336
   85.5000    -5.3843     5.2344     4.1702   295.5897
   86.0000    -5.5224     5.1916     4.2078   292.5458
   86.5000    -5.6606     5.1905     4.2454   289.5019
   87.0000    -5.7995     5.2342     4.2831   286.4494
   87.5000    -5.9261     5.2857     4.3207   283.4289
   88.0000    -5.8773     5.3335     4.3583   281.7094
   88.5000    -5.8235     5.2998     4.3960   281.1837
   89.0000    -5.7718     5.2378     4.4336   280.6358
   89.5000    -5.5975     5.1755     4.4715   280.0880
   90.0000    -5.3347     5.1136     4.4869   279.5400
   90.5000    -5.0711     5.0506     4.4871   278.9921
   91.0000    -4.8572     5.0703     4.4873   278.4442
   91.5000    -5.0379     5.1443     4.4747   277.8963
   92.0000    -5.1627     5.0763     4.4546   277.3484
   92.5000    -4.7924     4.9266     4.4343   276.8005
   93.0000    -4.4224     4.7313     4.4139   277.2766
   93.5000    -4.0539     4.9003     4.3936   278.3588
   94.0000    -3.6861     5.1325     4.3733   279.4411
   94.5000    -3.3136     5.0658     4.3530   280.5234
   95.0000    -3.2195     5.0042     4.3327   281.6057
   95.5000    -3.2539     4.9429     4.3124   282.6879
   96.0000    -3.2910     4.8831     4.2921   283.7702
   96.5000    -3.3279     4.7713     4.2717   284.8525
   97.0000    -3.3665     4.6416     4.2513   285.9348
   97.5000    -3.3985     4.5391     4.2311   287.0170
   98.0000    -3.5238     4.5663     4.2175   288.0997
   98.5000    -3.6467     4.5909     4.2322   289.1833
   99.0000    -3.7695     4.6054     4.2464   290.2644
   99.5000    -3.8923     4.5814     4.2605   291.0868
  100.0000    -4.0148     4.5582     4.2746   290.5392
  100.5000    -4.1182     4.5357     4.2887   289.8030
  101.0000    -4.1642     4.5389     4.3024   289.0676
  101.5000    -4.2103     4.6269     4.3370   288.3297
  102.0000    -4.2554     4.7115     4.3765   287.6037
  102.5000    -4.2852     4.7973     4.4160   286.1159
  103.0000    -4.4285     4.7685     4.4556   284.4777
  103.5000    -4.6008     4.7561     4.4952   282.8395
  104.0000    -4.7737     4.8122     4.5351   281.1849
  104.5000    -4.9462     4.8665     4.5754   280.6683
  105.0000    -5.1190     4.8754     4.5557   281.7611
  105.5000    -5.2916     4.8155     4.5009   282.8722
  106.0000    -5.4608     4.7561     4.4466   283.9794
  106.5000    -5.4461     4.7120     4.3923   285.0852
  107.0000    -5.1415     4.6678     4.3381   285.6530
  107.5000    -4.8411     4.6016     4.2838   287.8537
  108.0000    -4.5397     4.5124     4.2295   290.0652
  108.5000    -4.2386     4.4300     4.1750   292.2767
  109.0000    -3.9376     4.4280     4.1252   294.4883
  109.5000    -3.6365     4.4284     4.1242   296.6998
  110.0000    -3.3354     4.4285     4.1245   298.9113
  110.5000    -3.0343     4.4283     4.1246   301.1229
  111.0000    -2.7332     4.4440     4.1243   300.4658
  111.5000    -2.4320     4.4684     4.1416   298.0808
  112.0000    -2.1301     4.4928     4.1677   295.6971
  112.5000    -1.8266     4.5175     4.1941   293.3109
  113.0000    -1.5652     4.5510     4.2205   290.9259
  113.5000    -1.8001     4.6257     4.2468   288.5409
  114.0000    -2.0384     4.6997     4.2732   286.1559
  114.5000    -2.2742     4.7764     4.2995   283.7709
  115.0000    -2.5089     4.7457     4.3259   282.0305
  115.5000    -2.7481     4.6878     4.3523   282.2915
  116.0000    -2.7244     4.6444     4.3786   282.6266
  116.5000    -2.5690     4.6721     4.4050   282.9616
  117.0000    -2.4103     4.7042     4.4313   283.2968
  117.5000    -2.2517     4.7365     4.4577   283.6336
  118.0000    -2.0933     4.7678     4.4840   283.8876
  118.5000    -1.9347     4.8117     4.5104   284.0105
  119.0000    -1.7696     4.8552     4.5368   284.1334
  119.5000    -1.7763     4.8528     4.5626   284.2562
  120.0000    -1.8338     4.7835     4.5563   284.3791
  120.5000    -1.8927     4.7148     4.5067   284.5020
  121.0000    -1.9511     4.6487     4.4577   284.6248
  121.5000    -2.0095     4.6670     4.4084   284.7477
  122.0000    -2.0678     4.6898     4.3592   284.8705
  122.5000    -2.1260     4.6686     4.3099   284.9934
  123.0000    -2.1842     4.6092     4.2604   285.1163
  123.5000    -2.2434     4.5598     4.2173   285.2391
  124.0000    -2.3724     4.6411     4.2517   285.3620
  124.5000    -2.6456     4.7239     4.2867   285.4849
  125.0000    -2.9166     4.7427     4.3214   285.6077
  125.5000    -3.1876     4.7242     4.3560   284.5951
  126.0000    -3.4586     4.7518     4.3906   282.9196
  126.5000    -3.7299     4.8017     4.4253   281.2443
  127.0000    -4.0030     4.8525     4.4598   279.5688
  127.5000    -4.2762     4.9053     4.4878   277.8935
  128.0000    -4.2689     4.9173     4.4872   275.7636
  128.5000    -4.2440     4.9171     4.4870   272.0777
  129.0000    -4.2205     4.9512     4.4860   268.7118
  129.5000    -4.1974     5.0188     4.5344   266.2545
  130.0000    -4.1743     5.0823     4.5957   263.2771
  130.5000    -4.1511     5.2762     4.6574   260.1583
  131.0000    -4.1280     5.4971     4.7189   257.0395
  131.5000    -4.1059     5.7189     4.7807   253.9206
  132.0000    -4.1640     5.9409     4.8428   250.8018
  132.5000    -4.2708     6.1599     4.8259   247.6830
  133.0000    -4.3778     6.1321     4.7981   246.5880
  133.5000    -4.4848     5.9925     4.7702   248.5538
  134.0000    -4.5918     5.8541     4.7426   250.5196
  134.5000    -4.6988     5.7157     4.7149   252.4854
  135.0000    -4.8057     5.5779     4.6872   254.4512
  135.5000    -4.9127     5.4393     4.6596   256.4170
  136.0000    -5.0197     5.3568     4.6318   258.3828
  136.5000    -5.1267     5.3258     4.6039   260.2955
  137.0000    -5.2336     5.2985     4.5791   259.7131
  137.5000    -5.3406     5.3055     4.5988   259.1461
  138.0000    -5.4476     5.3121     4.6196   258.5790
  138.5000    -5.5545     5.3996     4.6402   258.0147
  139.0000    -5.6615     5.5401     4.6606   257.4549
  139.5000    -5.7685     5.6815     4.6894   256.8629
  140.0000    -5.8754     5.8229     4.7228   254.1887
  140.5000    -5.9823     5.9642     4.7563   250.2307
  141.0000    -6.0896     6.1055     4.7899   246.2989
  141.5000    -6.2166     6.2467     4.8234   242.3666
  142.0000    -6.3496     6.3880     4.8570   238.4350
  142.5000    -6.4826     6.5293     4.8905   234.5033
