~VERSION INFORMATION
 VERS.                2.0:   CWLS LOG ASCII STANDARD - VERSION 2.0
 WRAP.                 NO:   ONE LINE PER DEPTH STEP
~WELL INFORMATION
#MNEM.UNIT      DATA TYPE    INFORMATION
#----------   ------------   ------------------------------
 STRT.F           38.0000:   START DEPTH
 STOP.F          637.0000:   STOP DEPTH
 STEP.F            0.5000:   STEP LENGTH
 NULL.          -999.2500:   NO VALUE
 COMP. FENIX & SCISSON INC:   COMPANY
 WELL.    NPR ##3 57-S-34:   WELL
 FLD .             TEAPOT:   FIELD
 LOC .      S34 T39N R78W:   LOCATION
 CNTY.            NATRONA:   COUNTY
 STAT.            WYOMING:   STATE
 CTRY. UNITED STATES OF AMERICA:   COUNTRY
 SRVC.              Welex:   SERVICE COMPANY
 DATE.        12-MAR-1977:   LOGDATE
 API .       490251030600:   API NUMBER
~CURVE INFORMATION
#MNEM.UNIT       API CODE    CURVE DESCRIPTION
#----------   ------------   ------------------------------
 DEPT.F                  :   
 SPR .MV     07 010 01 00:   SPONTANEOUS POTENTIAL
 ILM .OHMM   07 120 44 00:   INDUCTION LOG MEDIUM
 ILD .OHMM   07 120 46 00:   INDUCTION LOG DEEP
 SGRD.OHMM   07 221 05 00:   SHALLOW SHORT GUARD RESISTIVITY
 CALD.IN     45 280 60 00:   CALIPER FROM DENSITY LOG
 GRD .GAPI   45 310 01 00:   GAMMA RAY FROM DENSITY LOG
 CORR.G/C3   45 356 01 00:   DENSITY CORRECTION
 DPHI.DEC    45 890 12 00:   DENSITY POROSITY SANDSTONE
 RHOB.G/C3   45 350 01 00:   BULK DENSITY
~PARAMETER INFORMATION
#MNEM.UNIT          VALUE    DESCRIPTION
#----------   ------------   ------------------------------
 PD  .                 GL:   PERMANENT DATUM
 EPD .F              5107:   ELEVATION PERMANENT DATUM
 LMF .                 GL:   LOG MEASURED FROM
 DMF .                 GL:   DRILLING MEASURED FROM
 EGL .F              5107:   GROUND LEVEL
 DATE.          3-12-1977:   RUN DATE
 RUN .                  1:   RUN NUMBER
 DD  .F               650:   DEPTH DRILLER
 DL  .F               637:   DEPTH LOGGER
 BLI .F               636:   BOTTOM LOG INTERVAL
 TLI .F                46:   TOP LOG INTERVAL
 CS  .IN            8.625:   CASING SIZE
 CBD .F                45:   CASING BOTTOM DRILLER
 CBL .F                46:   CASING BOTTOM LOGGER
 BS  .IN            7.875:   BIT SIZE
 BSD .F               650:   BIT SIZE AT DEPTH
 DFT .            KCL MUD:   DRILLING FLUID TYPE
 DFD .                8.9:   DRILLING FLUID DENSITY
 DFV .                 35:   DRILLING FLUID VISCOSITY
 MSS .            MUD PIT:   MUD SAMPLE SOURCE
 RMS .OHMM            .53:   RESISTIVITY MUD SAMPLE
 MST .F                68:   MUD SAMPLE TEMPERATURE
 RMF .OHMM            .41:   RESISTIVITY MUD FILTRATE SAMPLE
 MFST.F                69:   MUD FILTRATE SAMPLE TEMPERATURE
 RMC .OHMM            .62:   RESISTIVITY MUD CAKE
 MCST.F                65:   MUD CAKE SAMPLE TEMPERATURE
 MFSS.           MEASURED:   MUD FILTRATE SAMPLE SOURCE
 MCSS.           MEASURED:   MUD CAKE SAMPLE SOURCE
 RMB .OHMM            .60:   RESISTIVITY MUD AT BHT
 BHT .F                60:   BOTTOM HOLE TEMPERATURE
 TCS .HRS               1:   TIME CURCULATED STOPPED
 MRT .F                60:   MAXIMUM RECORDED TEMPERATURE
 LUN .               0716:   LOGGING UNIT NUMBER
 LUL .             VERNAL:   LOGGING UNIT LOCATION
 ENGI.        E. CALLAHAN:   RECORDING ENGINEER
 WITN.         STUEBUNGER:   WITNESSED BY
 CLNT.            A2DTECH:   CLIENT CODE
 ORIG.           5" PRINT:   ORIGIN OF DATA
 UWI .       490251030600:   UNIQUE WELL ID
 DICO. A2D Technologies, Inc.:   DIGITIZING COMPANY
~OTHER INFORMATION
~A   DEPT      SPR        ILM        ILD       SGRD       CALD        GRD       CORR       DPHI       RHOB   
# ...
  184.0000   -36.5800     8.9394     8.0281    10.4613     8.0378   122.5943     0.0494     0.0959     2.4896
  184.5000   -36.4363     8.9376     8.0254    10.6771     8.0375   119.8033     0.0447     0.0932     2.4904
  185.0000   -36.4435     8.9359     8.0227    10.8980     8.0371   123.3591     0.0539     0.0944     2.4902
  185.5000   -36.2984     8.9341     8.0200    11.1242     8.0368   124.1321     0.0600     0.1031     2.4857
  186.0000   -36.3056     9.0566     7.9621    10.9678     8.0365   124.7431     0.0599     0.1013     2.4732
  186.5000   -36.1604     9.1808     7.9594    10.7397     8.0362   123.6125     0.0644     0.1004     2.4770
  187.0000   -36.0172     9.1785     7.9561    10.8114     8.0513   119.1601     0.0721     0.1016     2.4786
  187.5000   -36.0239     9.1134     7.9534    11.0350     8.0355   126.4310     0.0751     0.1010     2.4816
  188.0000   -35.8802     8.9247     7.8960    10.7304     8.0352   129.8320     0.0766     0.0939     2.5009
  188.5000   -35.8874     8.8004     7.8389    10.4349     8.0349   129.2083     0.0687     0.0880     2.5032
  189.0000   -35.7423     8.7381     7.7822    10.3603     8.0346   126.7280     0.0686     0.1004     2.5008
  189.5000   -35.5986     8.7363     7.7260    10.3575     8.0343   129.0443     0.0685     0.1026     2.4760
  190.0000   -35.4548     8.7952     7.6137    10.4273     8.0340   129.5041     0.0684     0.1036     2.4737
  190.5000   -35.4621     8.8544     7.5616    10.4961     8.0493   130.7379     0.0683     0.0998     2.4752
  191.0000   -35.4679     8.7912     7.4552    10.4932     8.0489   131.6621     0.0713     0.0968     2.4775
  191.5000   -35.4750     8.7289     7.3502    10.4175     8.0486   133.2055     0.0805     0.0928     2.4921
  192.0000   -35.6303     8.6671     7.2971    10.2009     8.0638   133.9750     0.0975     0.0807     2.5184
  192.5000   -35.6360     8.6057     7.1944     9.9888     8.0635   136.2924     0.0927     0.0820     2.5130
  193.0000   -35.6418     8.4859     7.0932     9.6468     8.0631   139.5386     0.0802     0.0906     2.4959
  193.5000   -35.7971     8.3598     6.9888     9.2523     8.0628   140.1532     0.0786     0.0916     2.4951
  194.0000   -35.8028     8.0259     6.8943     8.8128     8.0625   140.3075     0.0785     0.0857     2.5020
  194.5000   -35.6591     7.8597     6.8445     8.6295     8.0616   136.4020     0.0784     0.0795     2.5105
  195.0000   -35.6663     7.6439     6.7950     8.6267     8.0464   131.8266     0.0799     0.0842     2.5074
  195.5000   -35.5212     7.5898     6.7928     8.6244     8.0461   129.6084     0.0782     0.0963     2.5019
  196.0000   -35.2294     7.5882     6.7905     8.8639     8.0458   132.0796     0.0750     0.0976     2.4910
  196.5000   -34.9362     7.7456     6.7882     8.9849     8.0455   130.0626     0.0610     0.1010     2.4855
  197.0000   -34.7925     7.8594     6.7859     9.1082     8.0451   125.7237     0.0640     0.1069     2.4856
  197.5000   -34.6487     7.9595     6.8308     9.2960     8.0448   124.1711     0.0608     0.0973     2.4887
  198.0000   -34.5051     8.0131     6.9237     9.4290     8.0445   120.9158     0.0484     0.0908     2.4918
  198.5000   -34.3614     8.1230     7.0173     9.5516     8.0442   120.1372     0.0452     0.0899     2.4962
  199.0000   -34.3686     8.1776     7.1133     9.6153     8.0595   119.9778     0.0466     0.0899     2.4993
  199.5000   -34.3744     8.2323     7.1103     9.6121     8.0591   120.1280     0.0543     0.0905     2.5000
  200.0000   -34.5939     8.2877     7.1573     9.5439     8.0788   120.2784     0.0542     0.0927     2.4954
  200.5000   -34.9865     8.3694     7.1548     9.6045     8.0898   120.2753     0.0572     0.0946     2.4992
  201.0000   -34.8424     8.3977     7.1523     9.5339     8.0588   120.1175     0.0386     0.1014     2.4889
  201.5000   -34.4029     8.3942     7.1996     9.5295     8.0588   119.9596     0.0371     0.1030     2.4734
  202.0000   -34.2588     8.3336     7.1966     9.5911     8.0588   121.6594     0.0417     0.1014     2.4667
  202.5000   -34.2677     8.2734     7.2448     9.5865     8.0588   120.8823     0.0478     0.0993     2.4691
  203.0000   -34.7384     8.2700     7.1918     9.5811     8.0588   119.4860     0.0571     0.0993     2.4787
  203.5000   -35.0312     8.2673     7.1894     9.6442     8.0588   118.8637     0.0478     0.0974     2.4863
  204.0000   -35.4868     8.3225     7.1870     9.7066     8.0588   119.4799     0.0323     0.0980     2.4876
  204.5000   -35.6434     8.3191     7.2345     9.7694     8.0588   122.2673     0.0245     0.1011     2.4806
  205.0000   -35.6505     8.3741     7.2824     9.8316     8.0588   122.7245     0.0198     0.1039     2.4736
  205.5000   -35.6577     8.3712     7.2793     9.9014     8.0588   122.1022     0.0229     0.1002     2.4813
  206.0000   -35.6666     8.3677     7.3280     9.9591     8.0588   121.9443     0.0225     0.0990     2.4883
  206.5000   -35.6737     8.3649     7.3765     9.8847     8.0588   121.9412     0.0135     0.1133     2.4728
  207.0000   -35.6809     8.3622     7.3734     9.8801     8.0588   122.0923     0.0186     0.1204     2.4558
  207.5000   -35.6880     8.3594     7.3709     9.8755     8.0743   122.0892     0.0246     0.1167     2.4519
  208.0000   -35.6952     8.3566     7.3171     9.8709     8.0743   122.0862     0.0351     0.1077     2.4720
  208.5000   -35.7025     8.2963     7.3146     9.7982     8.0743   122.7023     0.0428     0.1061     2.4797
  209.0000   -35.5600     8.2934     7.3636     9.7926     8.0588   119.9128     0.0350     0.1151     2.4627
  209.5000   -35.4177     8.2739     7.3605     9.6537     8.0588   116.9686     0.0412     0.1136     2.4697
  210.0000   -35.4266     8.2501     7.3581     9.5166     8.0588   116.1915     0.0536     0.1046     2.4836
  210.5000   -35.2840     8.2844     7.3556     9.5122     8.0433   116.1885     0.0613     0.0932     2.4967
  211.0000   -35.2915     8.3390     7.3526     9.5078     8.0433   116.6498     0.0519     0.1015     2.4836
  211.5000   -35.3004     8.3362     7.3501     9.5034     8.0399   117.8851     0.0566     0.1003     2.4751
  212.0000   -35.1562     8.4501     7.2970     9.4978     8.0360   119.4301     0.0674     0.0953     2.4913
  212.5000   -35.0157     8.4466     7.2946     9.4934     8.0321   120.6654     0.0642     0.0907     2.4944
  213.0000   -34.7221     8.3278     7.2922     9.4890     8.0279   120.1979     0.0596     0.0926     2.4944
  213.5000   -34.2826     8.2672     7.2395     9.4846     8.0279   120.1949     0.0611     0.0951     2.4944
  214.0000   -33.8216     8.2075     7.2370     9.4802     8.0279   123.2878     0.0672     0.0904     2.4959
  214.5000   -32.8039     8.1490     7.1842     9.4758     8.0433   124.0588     0.0703     0.0879     2.5021
  215.0000   -32.2132     8.2027     7.1818     9.4713     8.0433   123.4364     0.0656     0.0917     2.5029
  215.5000   -31.0245     8.1429     7.1794     9.4658     8.0433   123.7430     0.0718     0.0873     2.5021
  216.0000   -29.2379     8.0841     7.1770     9.4614     8.0279   124.6687     0.0702     0.0877     2.5021
  216.5000   -27.3019     8.1375     7.1746     9.4570     8.0279   124.8204     0.0717     0.0876     2.5021
  217.0000   -30.8982     8.1905     7.1227     9.4526     8.0279   124.5077     0.0671     0.0892     2.5021
  217.5000   -33.8949     8.1877     7.1198     9.4482     8.0279   124.6595     0.0639     0.0991     2.5005
  218.0000   -34.0515     8.2425     7.1675     9.4435     8.0433   125.3086     0.0639     0.0970     2.4850
  218.5000   -34.0587     8.2390     7.1645     9.5049     8.0433   125.7370     0.0670     0.0933     2.4840
  219.0000   -33.9164     8.1796     7.1127     9.5664     8.0433   125.7626     0.0762     0.0904     2.4951
  219.5000   -33.7740     8.1205     7.0613     9.6283     8.0433   126.6589     0.0715     0.0970     2.4982
  220.0000   -33.6317     8.0613     7.0102     9.6906     8.0433   129.2874     0.0669     0.1031     2.4920
