~VERSION INFORMATION
 VERS.                2.0:   CWLS LOG ASCII STANDARD - VERSION 2.0
 WRAP.                 NO:   ONE LINE PER DEPTH STEP
~WELL INFORMATION
#MNEM.UNIT      DATA TYPE    INFORMATION
#----------   ------------   ------------------------------
 STRT.F           34.0000:   START DEPTH
 STOP.F          614.0000:   STOP DEPTH
 STEP.F            0.5000:   STEP LENGTH
 NULL.          -999.2500:   NO VALUE
 COMP. FENIX & SCISSON INC:   COMPANY
 WELL.      71-SX-3 #71-3:   WELL
 FLD .             TEAPOT:   FIELD
 LOC .       S3 T38N R78W:   LOCATION
 CNTY.            NATRONA:   COUNTY
 STAT.            WYOMING:   STATE
 CTRY. UNITED STATES OF AMERICA:   COUNTRY
 SRVC.              Welex:   SERVICE COMPANY
 DATE.        10-MAR-1977:   LOGDATE
 API .       490251028900:   API NUMBER
~CURVE INFORMATION
#MNEM.UNIT       API CODE    CURVE DESCRIPTION
#----------   ------------   ------------------------------
 DEPT.F                  :   
 CALD.IN     45 280 60 00:   CALIPER
 GRD .GAPI   45 310 01 00:   GAMMA RAY FROM DENSITY LOG
 RHOB.G/C3   45 350 01 00:   BULK DENSITY
 DPHI.DEC    45 890 12 00:   DENSITY POROSITY SANDSTONE
 CORR.G/C3   45 356 01 00:   DENSITY CORRECTION
 SGRD.OHMM   07 220 05 00:   SHALLOW RESISTIVITY
 ILD .OHMM   07 120 46 00:   INDUCTION LOG DEEP
 ILM .OHMM   07 120 44 00:   INDUCTION LOG MEDIUM
 SPR .MV     07 010 01 00:   SPONTANEOUS POTENTIAL
~PARAMETER INFORMATION
#MNEM.UNIT          VALUE    DESCRIPTION
#----------   ------------   ------------------------------
 PD  .                 GL:   PERMANENT DATUM
 EPD .F              5117:   ELEVATION PERMANENT DATUM
 LMF .                 GL:   LOG MEASURED FROM
 DMF .                 GL:   DRILLING MEASURED FROM
 EGL .F              5117:   GROUND LEVEL
 DATE.          3-10-1977:   RUN DATE
 RUN .                  1:   RUN NUMBER
 DD  .F               630:   DEPTH DRILLER
 DL  .F               619:   DEPTH LOGGER
 BLI .F               617:   BOTTOM LOG INTERVAL
 TLI .F                34:   TOP LOG INTERVAL
 CS  .IN            8.625:   CASING SIZE
 CBD .F                40:   CASING BOTTOM DRILLER
 CBL .F                41:   CASING BOTTOM LOGGER
 BS  .IN            7.875:   BIT SIZE
 BSD .F               630:   BIT SIZE AT DEPTH
 DFT .            KCL MUD:   DRILLING FLUID TYPE
 DFD .                  9:   DRILLING FLUID DENSITY
 DFV .                 33:   DRILLING FLUID VISCOSITY
 MSS .            MUD PIT:   MUD SAMPLE SOURCE
 RMS .OHMM           2.33:   RESISTIVITY MUD SAMPLE
 MST .F                57:   MUD SAMPLE TEMPERATURE
 RMF .OHMM           1.83:   RESISTIVITY MUD FILTRATE SAMPLE
 MFST.F                57:   MUD FILTRATE SAMPLE TEMPERATURE
 RMC .OHMM           2.53:   RESISTIVITY MUD CAKE
 MCST.F                57:   MUD CAKE SAMPLE TEMPERATURE
 MFSS.           FANN KIT:   MUD FILTRATE SAMPLE SOURCE
 MCSS.           FANN KIT:   MUD CAKE SAMPLE SOURCE
 RMB .OHMM            2.1:   RESISTIVITY MUD AT BHT
 BHT .F                63:   BOTTOM HOLE TEMPERATURE
 TCS .HRS             1.5:   TIME CURCULATED STOPPED
 MRT .F                63:   MAXIMUM RECORDED TEMPERATURE
 LUN .               8611:   LOGGING UNIT NUMBER
 LUL .           GILLETTE:   LOGGING UNIT LOCATION
 ENGI.               DOAK:   RECORDING ENGINEER
 WITN.              BURKE:   WITNESSED BY
 CLNT.            A2DTECH:   CLIENT CODE
 ORIG.       2", 5" PRINT:   ORIGIN OF DATA
 UWI .       490251028900:   UNIQUE WELL ID
 DICO. A2D Technologies, Inc.:   DIGITIZING COMPANY
~OTHER INFORMATION
~A   DEPT     CALD        GRD       RHOB       DPHI       CORR       SGRD        ILD        ILM        SPR   
# ...
  508.5000     7.5318    22.2990     2.3277     0.1928     0.0610    45.9848    23.9557    25.0515   -46.0709
  509.0000     7.5141    25.7700     2.3346     0.1883     0.0615    45.1152    23.5393    24.4027   -45.8734
  509.5000     7.5616    29.2279     2.3432     0.1838     0.0611    36.8552    22.9148    23.8095   -45.6770
  510.0000     7.6104    32.6853     2.3438     0.1793     0.0565    37.7640    22.3069    23.2306   -45.5021
  510.5000     7.6590    36.1501     2.3521     0.1748     0.0518    38.2355    21.7151    22.6658   -45.3997
  511.0000     7.7075    39.6058     2.3628     0.1722     0.0507    29.9172    21.1390    22.1148   -45.2966
  511.5000     7.7566    42.2229     2.3625     0.1728     0.0520    24.6184    20.5782    21.5772   -45.1940
  512.0000     7.7702    40.3190     2.3592     0.1728     0.0533    23.7073    19.8150    21.0526   -45.1999
  512.5000     7.7657    38.4309     2.3666     0.1687     0.0546    24.5966    18.8304    20.5408   -45.3408
  513.0000     7.7609    37.5321     2.3747     0.1645     0.0558    23.5001    17.8948    20.2404   -45.4808
  513.5000     7.7561    40.1505     2.3765     0.1648     0.0541    25.1630    17.0056    19.8995   -45.6223
  514.0000     7.7547    42.7468     2.3746     0.1662     0.0523    28.2400    16.6810    19.5643   -45.7627
  514.5000     7.7574    44.3818     2.3727     0.1675     0.0506    23.2755    16.4578    19.2347   -45.8910
  515.0000     7.7600    42.7252     2.3709     0.1672     0.0484    22.6424    16.2378    18.9107   -46.2974
  515.5000     7.7627    41.1959     2.3717     0.1664     0.0461    22.3536    16.1155    18.6677   -46.7108
  516.0000     7.7653    39.6715     2.3671     0.1694     0.0437    22.0265    16.0917    18.6677   -46.8542
  516.5000     7.7680    39.0395     2.3630     0.1721     0.0427    23.7073    16.0689    18.6677   -46.9866
  517.0000     7.7707    41.4860     2.3703     0.1672     0.0471    21.8068    16.0466    18.6677   -47.1029
  517.5000     7.7733    43.9920     2.3777     0.1625     0.0513    22.3129    16.0243    18.6677   -46.9188
  518.0000     7.7760    43.5371     2.3851     0.1561     0.0555    25.9730    16.0021    18.6677   -46.7280
  518.5000     7.7786    41.9515     2.3848     0.1585     0.0575    24.4114    15.9671    18.6147   -46.5388
  519.0000     7.7813    40.3537     2.3784     0.1622     0.0559    22.4352    16.1145    18.4911   -46.3501
  519.5000     7.7839    38.7726     2.3719     0.1673     0.0542    23.0800    16.0018    18.3684   -46.1613
  520.0000     7.7866    37.9992     2.3719     0.1646     0.0526    23.7073    15.9103    18.2465   -45.9725
  520.5000     7.7892    42.6077     2.3799     0.1605     0.0510    21.6638    15.8194    18.1255   -45.7836
  521.0000     7.7913    47.1996     2.3877     0.1564     0.0494    23.0552    15.7291    18.0052   -45.5947
  521.5000     7.7644    45.2738     2.3955     0.1523     0.0479    24.8223    15.6396    17.8857   -45.4052
  522.0000     7.7119    45.1332     2.4028     0.1482     0.0479    23.2727    15.5506    17.7670   -45.3711
  522.5000     7.6591    47.2926     2.4062     0.1460     0.0479    21.5197    15.3999    17.6491   -45.5606
  523.0000     7.6067    47.5980     2.4088     0.1443     0.0478    20.1283    15.2378    17.5320   -45.7489
  523.5000     7.5897    45.3024     2.4111     0.1430     0.0503    20.2279    15.0773    17.4156   -45.9381
  524.0000     7.6365    47.2344     2.4132     0.1417     0.0531    20.4276    14.9186    17.3001   -46.1174
  524.5000     7.6822    50.1143     2.4272     0.1303     0.0558    20.8219    14.7104    17.1855   -46.0653
  525.0000     7.7283    52.0844     2.4462     0.1164     0.0586    21.4274    14.7652    17.3044   -46.0041
  525.5000     7.7722    49.6172     2.4654     0.1073     0.0614    20.9286    14.8754    17.4538   -45.9440
  526.0000     7.7719    47.2621     2.4848     0.0985     0.0641    20.2777    14.9865    17.6046   -45.8840
  526.5000     7.7698    46.7907     2.5048     0.0906     0.0669    20.7265    15.0984    17.7566   -45.8244
  527.0000     7.7678    49.1774     2.5042     0.1050     0.0699    21.3049    15.2111    17.9100   -45.7657
  527.5000     7.7659    48.8572     2.4596     0.1209     0.0627    21.8993    15.3247    18.0647   -45.7999
  528.0000     7.7640    46.0607     2.4084     0.1367     0.0527    23.7472    15.4391    18.3407   -45.9899
  528.5000     7.7621    43.5868     2.3976     0.1499     0.0464    26.1208    15.5328    19.0145   -46.1781
  529.0000     7.7602    45.8663     2.4034     0.1454     0.0432    28.2313    15.1626    18.7420   -46.3643
  529.5000     7.7583    48.2678     2.4079     0.1438     0.0401    20.3454    14.7962    18.0517   -46.5130
  530.0000     7.7564    50.6603     2.4021     0.1472     0.0428    19.6815    14.4316    17.3873   -46.4437
  530.5000     7.7545    50.0270     2.3946     0.1506     0.0460    19.1871    14.3754    16.7479   -46.3796
  531.0000     7.7537    48.8798     2.3867     0.1540     0.0492    17.8714    14.2281    16.1103   -46.3162
  531.5000     7.7547    52.6199     2.3911     0.1529     0.0510    16.9862    14.0824    16.1170   -46.2525
  532.0000     7.7557    56.9672     2.3981     0.1503     0.0530    18.2340    13.9381    16.1161   -46.1890
  532.5000     7.7566    60.6514     2.4022     0.1481     0.0524    19.5456    13.7953    16.1157   -46.1254
  533.0000     7.7576    56.9601     2.3982     0.1504     0.0499    19.2395    13.6540    16.1161   -46.0618
  533.5000     7.7586    53.2909     2.3966     0.1529     0.0473    18.4333    13.5141    15.4811   -45.9982
  534.0000     7.7595    49.8463     2.4028     0.1496     0.0447    17.6537    13.3757    14.9562   -45.9346
  534.5000     7.7605    49.7414     2.4088     0.1448     0.0421    17.0179    13.2387    14.4316   -45.8710
  535.0000     7.7614    52.0032     2.4095     0.1409     0.0395    17.3991    13.1031    14.6185   -45.8074
  535.5000     7.7624    55.7856     2.4011     0.1485     0.0387    18.1482    12.8247    14.9576   -45.7450
  536.0000     7.7634    59.7121     2.4074     0.1525     0.0409    16.8724    12.5508    15.1103   -45.6453
  536.5000     7.7643    59.4830     2.4170     0.1429     0.0430    17.5543    12.2828    15.0304   -45.5360
  537.0000     7.7653    57.1506     2.4268     0.1361     0.0432    19.1896    12.0205    14.8808   -45.4259
  537.5000     7.7662    54.7968     2.4331     0.1301     0.0413    16.3039    11.7639    14.2954   -45.3157
  538.0000     7.7672    52.4745     2.4378     0.1301     0.0394    14.1285    11.5127    13.7330   -45.2099
  538.5000     7.7682    51.3433     2.4344     0.1326     0.0375    13.3087    11.2668    13.1642   -45.2213
  539.0000     7.7691    50.4362     2.4292     0.1351     0.0356    13.6704    11.0262    12.4018   -45.5160
  539.5000     7.7701    47.9558     2.4239     0.1376     0.0337    13.5206    10.7908    11.8967   -45.7958
  540.0000     7.7710    45.4013     2.4187     0.1401     0.0318    13.4242    10.5604    11.8983   -45.8699
  540.5000     7.7720    45.8807     2.4156     0.1397     0.0300    13.3260    10.3503    11.8972   -45.6820
  541.0000     7.7730    49.5831     2.4159     0.1362     0.0314    13.2286    10.2392    11.8980   -45.5011
  541.5000     7.7739    53.2851     2.4254     0.1324     0.0349    13.1552    10.1293    11.8981   -45.3195
  542.0000     7.7749    56.9584     2.4358     0.1285     0.0383    13.0882     9.9916    11.8030   -45.1377
  542.5000     7.7758    60.7034     2.4463     0.1247     0.0417    13.0217    10.0349    11.7020   -44.9563
  543.0000     7.7768    61.4447     2.4569     0.1209     0.0452    12.9553    10.0945    11.6018   -44.7746
  543.5000     7.7778    56.0242     2.4689     0.1171     0.0487    12.8891    10.1544    11.5021   -44.5859
  544.0000     7.7787    57.1532     2.4793     0.1152     0.0518    12.8066    10.2147    11.4039   -44.6310
  544.5000     7.7797    59.2528     2.4770     0.1145     0.0510    12.8693    10.2752    11.3062   -44.7485
