~VERSION INFORMATION
 VERS.                2.0:   CWLS LOG ASCII STANDARD - VERSION 2.0
 WRAP.                 NO:   ONE LINE PER DEPTH STEP
~WELL INFORMATION
#MNEM.UNIT      DATA TYPE    INFORMATION
#----------   ------------   ------------------------------
 STRT.F            0.0000:   START DEPTH
 STOP.F          964.0000:   STOP DEPTH
 STEP.F            0.5000:   STEP LENGTH
 NULL.          -999.2500:   NO VALUE
 COMP. LAWRENCE/ALLISON INC:   COMPANY
 WELL.  NPR 3 #58-16-SX-2:   WELL
 FLD .           NPR NO.3:   FIELD
 LOC .       S2 T38N R78W:   LOCATION
 CNTY.            NATRONA:   COUNTY
 STAT.            WYOMING:   STATE
 CTRY. UNITED STATES OF AMERICA:   COUNTRY
 SRVC.           Gearhart:   SERVICE COMPANY
 DATE.        07-MAY-1987:   LOGDATE
 API .       490251113700:   API NUMBER
~CURVE INFORMATION
#MNEM.UNIT       API CODE    CURVE DESCRIPTION
#----------   ------------   ------------------------------
 DEPT.F                  :   
 GRR .GAPI   07 310 01 00:   GAMMA RAY FROM RES. LOG.
 RILD.OHMM   07 120 46 00:   INDUCTION LOG DEEP RESISTIVITY
 RILM.OHMM   07 120 44 00:   INDUCTION LOG MEDIUM RESISTIVITY
~PARAMETER INFORMATION
#MNEM.UNIT          VALUE    DESCRIPTION
#----------   ------------   ------------------------------
 PD  .                 GL:   PERMANENT DATUM
 EPD .F              5173:   ELEVATION PERMANENT DATUM
 LMF .                 GL:   LOG MEASURED FROM
 DMF .                 GL:   DRILLING MEASURED FROM
 EGL .F              5173:   GROUND LEVEL
 DATE.           5-7-1987:   RUN DATE
 RUN .                  1:   RUN NUMBER
 DD  .F               971:   DEPTH DRILLER
 DL  .F               971:   DEPTH LOGGER
 BLI .F               963:   BOTTOM LOG INTERVAL
 TLI .F                37:   TOP LOG INTERVAL
 CS  .IN            8.625:   CASING SIZE
 CBD .F                44:   CASING BOTTOM DRILLER
 CBL .F                37:   CASING BOTTOM LOGGER
 BS  .IN            7.875:   BIT SIZE
 BSD .F               971:   BIT SIZE AT DEPTH
 TCS .HRS            2100:   TIME CURCULATED STOPPED
 TLAB.HRS            2338:   TIME LOGGER AT BOTTOM
 MRT .F                80:   MAXIMUM RECORDED TEMPERATURE
 LUN .               7597:   LOGGING UNIT NUMBER
 LUL .           GILLETTE:   LOGGING UNIT LOCATION
 ENGI.         WEATHERMON:   RECORDING ENGINEER
 WITN. STRONG/TAYLOR/LOWE:   WITNESSED BY
 CLNT.            A2DTECH:   CLIENT CODE
 ORIG.           5" PRINT:   ORIGIN OF DATA
 UWI .       490251113700:   UNIQUE WELL ID
 DICO. A2D Technologies, Inc.:   DIGITIZING COMPANY
~OTHER INFORMATION
~A    DEPT      GRR      RILD       RILM   
# ...
  182.0000   122.8779     5.5679     5.1556
  182.5000   122.4272     5.9088     5.4742
  183.0000   121.9677     6.1646     5.8126
  183.5000   120.3730     6.3626     6.0376
  184.0000   118.4637     6.5520     6.1992
  184.5000   116.5292     6.7277     6.3652
  185.0000   114.9041     6.8896     6.5357
  185.5000   113.3341     7.0554     6.7203
  186.0000   111.7753     7.2369     6.8639
  186.5000   110.8338     7.2965     7.0112
  187.0000   111.8354     7.3787     7.1681
  187.5000   112.8213     7.4617     7.2347
  188.0000   112.7361     7.5159     7.3056
  188.5000   112.5980     7.4342     7.2395
  189.0000   112.4321     7.3635     7.1688
  189.5000   113.3553     7.2732     7.0240
  190.0000   118.3397     7.0851     6.8202
  190.5000   123.8104     6.9019     6.6223
  191.0000   123.7176     6.7237     6.4301
  191.5000   113.7844     6.5039     6.2528
  192.0000   107.5999     6.1123     6.1170
  192.5000   104.6254     5.7443     5.9842
  193.0000   104.8926     5.3984     5.7665
  193.5000   109.2527     5.0734     5.3887
  194.0000   113.6585     4.7679     5.0327
  194.5000   117.0978     4.4809     4.7004
  195.0000   117.3006     4.2215     4.3903
  195.5000   116.2088     4.1817     3.9692
  196.0000   115.1139     4.2029     3.6632
  196.5000   114.0129     4.2279     3.5946
  197.0000   113.8160     4.2531     3.8083
  197.5000   114.0296     4.4104     4.0221
  198.0000   113.3699     4.6436     4.2479
  198.5000   112.3576     4.8892     4.4863
  199.0000   111.3440     5.1477     4.7381
  199.5000   111.0385     5.4560     4.9606
  200.0000   110.8419     5.4426     5.1732
  200.5000   109.8455     5.8309     5.3950
  201.0000   108.4637     5.7688     5.5534
  201.5000   109.2975     5.7336     5.5346
  202.0000   111.8606     5.6985     5.5083
  202.5000   113.8237     5.6636     5.4822
  203.0000   111.2518     5.6290     5.4562
  203.5000   108.6953     5.5274     5.3404
  204.0000   106.9427     5.3021     5.1958
  204.5000   108.2625     4.8327     5.0555
  205.0000   109.9541     4.3303     4.9182
  205.5000   109.8171     3.8802     4.7851
  206.0000   108.8054     3.4760     4.2925
  206.5000   108.1437     3.1162     3.6206
  207.0000   111.3770     2.9156     3.0539
  207.5000   115.8212     2.8378     2.5758
  208.0000   119.4085     2.8701     2.4164
  208.5000   116.9611     2.9030     2.3936
  209.0000   114.4743     2.9588     2.5190
  209.5000   112.0036     3.0636     2.8113
  210.0000   109.5290     3.3626     3.1374
  210.5000   107.1720     3.6908     3.4604
  211.0000   106.7961     4.0514     3.7893
  211.5000   108.3638     4.4483     4.1074
  212.0000   109.5088     4.8252     4.3937
  212.5000   108.9539     5.0524     4.6842
  213.0000   108.4236     5.0524     4.7751
  213.5000   108.9006     5.0524     4.8632
  214.0000   109.5465     5.0524     4.9110
  214.5000   108.3383     5.0524     4.8669
  215.0000   106.8824     5.0524     4.8366
  215.5000   105.3924     5.0183     4.8064
  216.0000   103.9855     4.9004     4.7769
  216.5000   106.0029     4.7852     4.6792
  217.0000   108.5348     4.4314     4.5757
  217.5000   111.0663     4.0793     4.4744
  218.0000   110.5270     3.7551     4.2842
  218.5000   109.0101     3.4562     3.9658
  219.0000   107.4560     3.1835     3.5650
  219.5000   106.6259     2.9429     3.2047
  220.0000   106.3867     2.6813     2.8808
  220.5000   106.1643     2.7161     2.5897
  221.0000   105.8962     2.7815     2.3897
  221.5000   104.1988     2.8484     2.3048
  222.0000   102.3808     2.9195     2.4999
  222.5000   100.5581     3.1154     2.7823
  223.0000   100.2276     3.3326     3.0966
  223.5000   102.8519     3.7305     3.4464
  224.0000   105.4516     4.3163     3.8589
  224.5000   107.3989     4.9942     4.3279
  225.0000   106.1444     5.3854     4.8540
  225.5000   105.6722     5.5369     5.2471
  226.0000   105.3614     5.6595     5.2626
  226.5000   105.0530     5.6054     5.2819
  227.0000   104.7383     5.5611     5.3013
  227.5000   104.7247     5.2756     5.3207
  228.0000   105.6251     4.9575     5.3501
  228.5000   106.8671     4.6329     5.2351
  229.0000   108.1274     4.2549     4.9981
  229.5000   110.6204     3.9077     4.5318
  230.0000   114.7468     3.5889     4.0794
  230.5000   118.7862     3.3963     3.6710
  231.0000   121.9748     3.3963     3.3036
  231.5000   124.6544     3.3963     3.0596
  232.0000   124.7759     3.3963     3.0612
  232.5000   120.9367     3.4492     3.0585
  233.0000   115.6368     3.4941     3.3241
  233.5000   110.5069     3.7585     3.5138
  234.0000   109.0406     4.0173     3.7332
  234.5000   107.4634     4.2939     3.9670
  235.0000   105.8620     4.5755     4.2404
  235.5000   105.1089     4.7382     4.5514
  236.0000   106.7435     4.9119     4.7358
  236.5000   109.8169     5.1022     4.9116
  237.0000   112.5198     5.0995     4.9218
  237.5000   112.4738     5.1010     4.9337
  238.0000   110.4110     5.1004     4.9455
  238.5000   106.6734     5.1004     4.9577
  239.0000   106.1743     4.9185     4.9251
  239.5000   107.7963     4.6900     4.8827
  240.0000   109.4310     4.4722     4.7611
  240.5000   111.0430     4.2644     4.5865
  241.0000   111.9234     4.0662     4.4192
  241.5000   111.2598     3.8774     4.1470
  242.0000   109.1781     3.6621     3.8663
  242.5000   107.1105     3.6637     3.6046
  243.0000   105.1497     3.6632     3.3327
  243.5000   105.0588     3.6236     3.3408
  244.0000   106.2898     3.5308     3.3505
  244.5000   107.7646     3.4612     3.3649
  245.0000   106.8189     3.4400     3.3388
  245.5000   105.4655     3.4196     3.2817
  246.0000   105.1011     3.3993     3.2395
  246.5000   106.0340     3.3147     3.1595
  247.0000   106.9551     3.2214     3.0899
  247.5000   107.8976     3.1308     2.9005
  248.0000   109.3937     2.9192     2.7331
  248.5000   111.5793     2.7053     2.5754
  249.0000   113.7547     2.5071     2.4257
  249.5000   115.6743     2.4859     2.2901
  250.0000   115.1693     2.5659     2.1572
  250.5000   114.6458     2.6832     2.1572
  251.0000   114.1032     2.8058     2.4104
  251.5000   112.8973     2.9436     2.6246
  252.0000   110.1388     3.1692     2.8582
  252.5000   107.0644     3.4121     3.1124
  253.0000   106.2945     3.6736     3.3894
  253.5000   109.0377     3.9867     3.6916
  254.0000   109.0934     4.3842     4.0173
  254.5000   108.8686     4.3842     4.2653
  255.0000   109.9898     4.2967     4.1920
  255.5000   112.2470     4.2323     4.0994
  256.0000   113.4864     4.1689     4.0088
  256.5000   113.9413     4.1034     3.9046
  257.0000   114.3632     3.9332     3.7692
  257.5000   116.2447     3.7620     3.6182
  258.0000   118.4352     3.5982     3.4676
  258.5000   116.4360     3.4416     3.3231
  259.0000   114.1312     3.2918     3.1845
  259.5000   113.6442     3.0899     3.0519
  260.0000   116.8521     3.1126     2.9472
  260.5000   122.2905     3.1522     2.8648
  261.0000   127.7796     3.1924     2.8378
  261.5000   130.4156     3.3070     2.9232
  262.0000   127.7719     3.4823     3.1539
  262.5000   117.6648     3.6831     3.4028
  263.0000   109.3403     3.9727     3.6713
  263.5000   103.9365     4.2844     3.9610
  264.0000   103.6423     4.6206     4.2735
  264.5000   104.9439     4.9842     4.6108
  265.0000   106.6807     5.1762     4.8835
  265.5000   108.3092     5.3324     4.9699
  266.0000   108.9311     5.4927     5.0575
  266.5000   109.6495     5.6581     5.1453
  267.0000   111.4976     5.8285     5.2987
  267.5000   113.2110     6.0040     5.5388
  268.0000   112.8216     6.1640     5.7897
  268.5000   112.3723     6.3014     5.9994
  269.0000   112.0307     6.4418     6.1499
  269.5000   112.0415     6.5853     6.3041
  270.0000   112.2544     6.7321     6.4622
  270.5000   113.2330     6.9027     6.6465
  271.0000   113.9669     6.8718     6.6148
  271.5000   111.7324     6.8362     6.5784
  272.0000   109.4746     6.8008     6.5422
  272.5000   108.7332     6.7656     6.5062
