~VERSION INFORMATION
 VERS.                2.0:   CWLS LOG ASCII STANDARD - VERSION 2.0
 WRAP.                 NO:   ONE LINE PER DEPTH STEP
~WELL INFORMATION
#MNEM.UNIT      DATA TYPE    INFORMATION
#----------   ------------   ------------------------------
 STRT.F            0.0000:   START DEPTH
 STOP.F         4112.0000:   STOP DEPTH
 STEP.F            0.5000:   STEP LENGTH
 NULL.          -999.2500:   NO VALUE
 COMP. LAWRENCE-ALLISON &AS:   COMPANY
 WELL. N P R 3-76-1-SX #3-3:   WELL
 FLD .          N.P.R. #3:   FIELD
 LOC .       S3 T38N R78W:   LOCATION
 CNTY.            NATRONA:   COUNTY
 STAT.            WYOMING:   STATE
 CTRY. UNITED STATES OF AMERICA:   COUNTRY
 SRVC.      Dresser Atlas:   SERVICE COMPANY
 DATE.        04-SEP-1983:   LOGDATE
 API .       490251093100:   API NUMBER
~CURVE INFORMATION
#MNEM.UNIT       API CODE    CURVE DESCRIPTION
#----------   ------------   ------------------------------
 DEPT.F                  :   
 DEN .G/C3   45 350 01 00:   COMPENSATED BULK DENSTIY
 CORR.G/C3   45 356 01 00:   DENSITY CORRECTION
 PORD.DEC    45 890 12 00:   POROSITY DENSITY SANDSTONE
 CNC .DEC    42 890 03 00:   NEUTRON POROSITY SANDSTONE
 SPR .MV     07 010 01 00:   SPONTANEOUS POTENTIAL
 GRR .GAPI   07 310 01 00:   GAMMA RAY FROM RES. LOG.
 RFOC.OHMM   07 220 04 00:   RESISTIVITY FOCUSED LOG
 CALD.IN     45 280 60 00:   CALIPER
 AC  .US/F   60 520 00 00:   ACOUSTIC SONIC
 RILD.OHMM   07 120 46 00:   INDUCTION LOG DEEP RESISTIVITY
 RILM.OHMM   07 120 44 00:   INDUCTION LOG MEDIUM RESISTIVITY
~PARAMETER INFORMATION
#MNEM.UNIT          VALUE    DESCRIPTION
#----------   ------------   ------------------------------
 PD  .                 GL:   PERMANENT DATUM
 EPD .F              5147:   ELEVATION PERMANENT DATUM
 LMF .                 KB:   LOG MEASURED FROM
 DAPD.F                10:   FEET ABOVE PERMANENT DATUM
 DMF .                 KB:   DRILLING MEASURED FROM
 EKB .F              5157:   KELLING BUSHING
 EGL .F              5147:   GROUND LEVEL
 DATE.             9-4-83:   RUN DATE
 RUN .                  1:   RUN NUMBER
 DD  .F              4119:   DEPTH DRILLER
 DL  .F              4115:   DEPTH LOGGER
 BLI .F              4112:   BOTTOM LOG INTERVAL
 CS  .IN            9.625:   CASING SIZE
 CBD .F               491:   CASING BOTTOM DRILLER
 CBL .F               494:   CASING BOTTOM LOGGER
 BS  .IN             8.75:   BIT SIZE
 BSD .F              4119:   BIT SIZE AT DEPTH
 DFT .            KCL GEL:   DRILLING FLUID TYPE
 DFD .                8.9:   DRILLING FLUID DENSITY
 DFV .                 46:   DRILLING FLUID VISCOSITY
 DFPH.                  9:   DRILLING FLUID PH
 DFL .               13.6:   DRILLING FLUID LOSS
 MSS .            MUDTANK:   MUD SAMPLE SOURCE
 RMS .OHMM           .315:   RESISTIVITY MUD SAMPLE
 MST .F                92:   MUD SAMPLE TEMPERATURE
 RMF .OHMM            .25:   RESISTIVITY MUD FILTRATE SAMPLE
 MFST.F                84:   MUD FILTRATE SAMPLE TEMPERATURE
 RMC .OHMM             .4:   RESISTIVITY MUD CAKE
 MCST.F                92:   MUD CAKE SAMPLE TEMPERATURE
 MFSS.                  M:   MUD FILTRATE SAMPLE SOURCE
 MCSS.                  C:   MUD CAKE SAMPLE SOURCE
 RMB .OHMM            .22:   RESISTIVITY MUD AT BHT
 BHT .F               132:   BOTTOM HOLE TEMPERATURE
 TCS .HRS               4:   TIME CURCULATED STOPPED
 MRT .F               132:   MAXIMUM RECORDED TEMPERATURE
 LUN .               6274:   LOGGING UNIT NUMBER
 LUL .               GLTE:   LOGGING UNIT LOCATION
 ENGI.             RAUTIO:   RECORDING ENGINEER
 WITN.             STRONG:   WITNESSED BY
 CLNT.            A2DTECH:   CLIENT CODE
 ORIG. 1", 2", 2.5", 5" PRINT:   ORIGIN OF DATA
 UWI .       490251093100:   UNIQUE WELL ID
 DICO. A2D Technologies, Inc.:   DIGITIZING COMPANY
~OTHER INFORMATION
~A    DEPT     DEN       CORR       PORD        CNC        SPR          GRR     RFOC       CALD         AC       RILD       RILM   
# ...
 1433.5000     2.5492     0.0211     0.0591     0.2466   -49.8016   107.5599     7.0835     9.0742  -999.2500     6.6403     6.1994
 1434.0000     2.5527     0.0337     0.0570     0.2584   -49.8016   112.6243     7.0704     9.0738  -999.2500     6.6326     6.1956
 1434.5000     2.5566     0.0469     0.0549     0.2740   -49.8016   114.6308     7.0564     9.0733  -999.2500     6.6249     6.1956
 1435.0000     2.5551     0.0537     0.0551     0.2883   -49.8016   113.6201     7.0439     9.0729  -999.2500     6.6172     6.1956
 1435.5000     2.5466     0.0530     0.0578     0.2801   -49.8016   109.3179     7.1287     9.0723  -999.2500     6.6095     6.1954
 1436.0000     2.5483     0.0530     0.0604     0.2761   -49.8016   104.6727     7.2056     9.0728  -999.2500     6.6018     6.1957
 1436.5000     2.5504     0.0536     0.0603     0.2786   -49.8016   101.7286     7.2868     9.0733  -999.2500     6.5942     6.1957
 1437.0000     2.5520     0.0492     0.0585     0.2782   -49.8016   102.0071     7.2444     9.0739  -999.2500     6.5865     6.1946
 1437.5000     2.5515     0.0414     0.0567     0.2763   -49.8016   102.0194     7.1572     9.0745  -999.2500     6.5788     6.2085
 1438.0000     2.5509     0.0349     0.0566     0.2763   -49.8016   101.9463     7.0712     9.0751  -999.2500     6.5716     6.2349
 1438.5000     2.5503     0.0332     0.0576     0.2763   -49.8016   101.9818     6.9863     9.0757  -999.2500     6.5632     6.2613
 1439.0000     2.5503     0.0326     0.0586     0.2704   -49.8016   101.9727     6.9157     9.0763  -999.2500     6.5558     6.2853
 1439.5000     2.5480     0.0361     0.0586     0.2631   -49.8016   101.9820     6.9946     9.0769  -999.2500     6.5482     6.3101
 1440.0000     2.5440     0.0286     0.0586     0.2594   -49.8016   101.9889     7.0970     9.0775  -999.2500     6.5048     6.2509
 1440.5000     2.5405     0.0194     0.0619     0.2610   -49.8016   101.9264     7.2009     9.0781  -999.2500     6.4423     6.1937
 1441.0000     2.5364     0.0096     0.0647     0.2675   -49.8016   102.5728     7.3072     9.0787  -999.2500     6.3803     6.1369
 1441.5000     2.5396     0.0001     0.0675     0.2743   -49.8018   103.6117     7.1927     9.0792  -999.2500     6.3101     6.0806
 1442.0000     2.5438    -0.0030     0.0664     0.2821   -49.8017   104.6041     7.0079     9.0798  -999.2500     6.2393     6.0249
 1442.5000     2.5481     0.0020     0.0629     0.2760   -49.8019   105.5426     6.8295     9.0804  -999.2500     6.1576     5.9697
 1443.0000     2.5526     0.0076     0.0593     0.2689   -49.8027   106.5081     6.6557     9.0810  -999.2500     6.0769     5.9148
 1443.5000     2.5534     0.0134     0.0570     0.2721   -49.8012   107.0926     6.4863     9.0816  -999.2500     5.9792     5.8641
 1444.0000     2.5496     0.0187     0.0590     0.2752   -49.8023   108.0127     6.3101     9.0822  -999.2500     5.9963     5.8640
 1444.5000     2.5438     0.0245     0.0619     0.2657   -49.8079   108.9692     6.3101     9.0828  -999.2500     6.0305     5.9009
 1445.0000     2.5381     0.0186     0.0657     0.2634   -49.7235   108.3020     6.3101     9.0834  -999.2500     6.0649     5.9684
 1445.5000     2.5323     0.0112     0.0699     0.2664   -49.4992   105.9410     6.5826     9.0839  -999.2500     6.0995     6.0367
 1446.0000     2.5293     0.0140     0.0707     0.2673   -49.2806   103.6340     6.8517     9.0845  -999.2500     6.1343     6.1057
 1446.5000     2.5347     0.0241     0.0693     0.2664   -49.0628   101.2738     7.1313     9.0851  -999.2500     6.1692     6.1755
 1447.0000     2.5343     0.0337     0.0689     0.2680   -48.8420   100.3323     7.5825     9.0857  -999.2500     6.2117     6.2468
 1447.5000     2.5315     0.0406     0.0707     0.2748   -48.6209   100.4025     7.5728     9.0863  -999.2500     6.2765     6.3101
 1448.0000     2.5291     0.0408     0.0731     0.2815   -48.4068    99.9447     7.1741     9.0869  -999.2500     6.3419     6.2762
 1448.5000     2.5263     0.0334     0.0747     0.2892   -48.1833    98.1275     6.8346     9.0875  -999.2500     6.4081     6.2460
 1449.0000     2.5297     0.0252     0.0731     0.2851   -47.9453    98.7005     6.6593     9.0880  -999.2500     6.4749     6.1956
 1449.5000     2.5341     0.0262     0.0698     0.2805   -47.8764    99.4082     6.5394     9.0886  -999.2500     6.5424     6.2152
 1450.0000     2.5389     0.0419     0.0665     0.2759   -48.1273   100.2353     6.7544     9.0892  -999.2500     6.6107     6.2758
 1450.5000     2.5436     0.0555     0.0635     0.2713   -48.3586    98.9137     6.9891     9.0898  -999.2500     6.6796     6.3369
 1451.0000     2.5384     0.0340     0.0651     0.2710   -48.5895    97.1711     7.2316     9.0904  -999.2500     6.7492     6.3987
 1451.5000     2.5331     0.0167     0.0699     0.2723   -48.8233    95.8189     7.4391     9.0910  -999.2500     6.8196     6.4610
 1452.0000     2.5294    -0.0002     0.0716     0.2715   -49.0566    97.2214     7.4045     9.0916  -999.2500     6.9151     6.5455
 1452.5000     2.5283    -0.0106     0.0731     0.2648   -49.2989    98.5325     7.3750     9.0922  -999.2500     6.8950     6.5317
 1453.0000     2.5345     0.0043     0.0692     0.2498   -49.4143    95.8471     7.3455     9.0928  -999.2500     6.8646     6.4831
 1453.5000     2.5412     0.0217     0.0636     0.2530   -49.4048    93.4191     7.3162     9.0933  -999.2500     6.8344     6.4349
 1454.0000     2.5495     0.0317     0.0607     0.2601   -49.4041    93.0086     7.2772     9.0939  -999.2500     6.8043     6.3870
 1454.5000     2.5473     0.0361     0.0599     0.2663   -49.4063    95.5483     7.2332     9.0945  -999.2500     6.7744     6.3101
 1455.0000     2.5442     0.0340     0.0620     0.2684   -49.4050    98.0835     7.1730     9.0951  -999.2500     6.7446     6.3209
 1455.5000     2.5408     0.0224     0.0643     0.2707   -49.4049   100.7673     7.2002     9.0957  -999.2500     6.7149     6.3498
 1456.0000     2.5402     0.0214     0.0639     0.2698   -49.4050   101.3220     7.2440     9.0963  -999.2500     6.6664     6.3787
 1456.5000     2.5442     0.0358     0.0635     0.2615   -49.4048    99.2522     7.3056     9.0969  -999.2500     6.6761     6.4078
 1457.0000     2.5476     0.0496     0.0602     0.2533   -49.4048    97.4288     7.2668     9.0975  -999.2500     6.7031     6.4370
 1457.5000     2.5518     0.0573     0.0578     0.2500   -49.4048    95.7065     7.2029     9.0981  -999.2500     6.7303     6.4664
 1458.0000     2.5498     0.0487     0.0584     0.2506   -49.4048    95.8887     7.1397     9.0986  -999.2500     6.7576     6.4958
 1458.5000     2.5475     0.0416     0.0596     0.2489   -49.4048    96.3194     7.0429     9.0992  -999.2500     6.7850     6.5255
 1459.0000     2.5464     0.0408     0.0610     0.2510   -49.4048    96.4476     7.0894     9.0998  -999.2500     6.8125     6.5554
 1459.5000     2.5479     0.0438     0.0606     0.2557   -49.4048    96.3277     7.1934     9.1004  -999.2500     6.8402     6.5853
 1460.0000     2.5492     0.0385     0.0597     0.2567   -49.4048    97.7160     7.2989     9.1010  -999.2500     6.8680     6.6154
 1460.5000     2.5495     0.0339     0.0586     0.2554   -49.4048   100.7443     7.4406     9.1016  -999.2500     6.9090     6.6603
 1461.0000     2.5473     0.0292     0.0595     0.2582   -49.4048   103.7187     7.3609     9.1022  -999.2500     6.8958     6.6458
 1461.5000     2.5447     0.0305     0.0606     0.2643   -49.4048   105.2588     7.2427     9.1027  -999.2500     6.8316     6.5770
 1462.0000     2.5460     0.0315     0.0619     0.2699   -49.4048   102.6161     7.1262     9.1033  -999.2500     6.7681     6.5089
 1462.5000     2.5477     0.0327     0.0604     0.2720   -49.4048    98.8205     7.0436     9.1039  -999.2500     6.7053     6.4414
 1463.0000     2.5491     0.0302     0.0586     0.2745   -49.4048   100.1217     7.0432     9.1045  -999.2500     6.6430     6.3748
 1463.5000     2.5500     0.0260     0.0597     0.2771   -49.4048   102.6830     7.0429     9.1051  -999.2500     6.5813     6.3089
