~VERSION INFORMATION
 VERS.                2.0:   CWLS LOG ASCII STANDARD - VERSION 2.0
 WRAP.                 NO:   ONE LINE PER DEPTH STEP
~WELL INFORMATION
#MNEM.UNIT      DATA TYPE    INFORMATION
#----------   ------------   ------------------------------
 STRT.F         1000.5000:   START DEPTH
 STOP.F         2590.0000:   STOP DEPTH
 STEP.F            0.5000:   STEP LENGTH
 NULL.          -999.2500:   NO VALUE
 COMP. LAWRENCE/ALLISON INC:   COMPANY
 WELL.    LAWENCE #14x-10:   WELL
 FLD .               NONE:   FIELD
 LOC .      S10 T38N R78W:   LOCATION
 CNTY.            NATRONA:   COUNTY
 STAT.            WYOMING:   STATE
 CTRY. UNITED STATES OF AMERICA:   COUNTRY
 SRVC.            Unknown:   SERVICE COMPANY
 DATE.        13-SEP-1988:   LOGDATE
 API .       490251137000:   API NUMBER
~CURVE INFORMATION
#MNEM.UNIT       API CODE    CURVE DESCRIPTION
#----------   ------------   ------------------------------
 DEPT.F                  :   
 ROP .MIN/FT 91 810 01 00:   RATE OF DRILLING PENETRATION
 TGAS.UNITS  91 830 01 00:   TOTAL GAS FROM HOTWIRE
~PARAMETER INFORMATION
#MNEM.UNIT          VALUE    DESCRIPTION
#----------   ------------   ------------------------------
 EKB .F              5278:   KELLING BUSHING
 EGL .F              5268:   GROUND LEVEL
 DATE.         09-13-1988:   RUN DATE
 RUN .                  1:   RUN NUMBER
 DD  .F              2590:   DEPTH DRILLER
 BLI .F              2590:   BOTTOM LOG INTERVAL
 TLI .F              1000:   TOP LOG INTERVAL
 CS  .IN                7:   CASING SIZE
 CBD .F               991:   CASING BOTTOM DRILLER
 BSD .F              2590:   BIT SIZE AT DEPTH
 ENGI. R. HUSK D. PETERSON:   RECORDING ENGINEER
 CLNT.            A2DTECH:   CLIENT CODE
 ORIG.           5" PRINT:   ORIGIN OF DATA
 UWI .       490251137000:   UNIQUE WELL ID
 DICO. A2D Technologies, Inc.:   DIGITIZING COMPANY
~OTHER INFORMATION
~A  DEPT       ROP         TGAS 
# ...
 2458.5000     0.3872     0.6350
 2459.0000     0.3427     0.4233
 2459.5000     0.3432     0.2116
 2460.0000     0.3964     0.0000
 2460.5000     0.4357     0.3708
 2461.0000     0.4668     0.7416
 2461.5000     0.4979     1.1124
 2462.0000     0.5289     1.4832
 2462.5000     0.4882     1.8540
 2463.0000     0.4351     2.2248
 2463.5000     0.4151     2.5956
 2464.0000     0.4043     2.9664
 2464.5000     0.4017     3.3373
 2465.0000     0.4017     3.7081
 2465.5000     0.4017     4.0789
 2466.0000     0.4123     4.4497
 2466.5000     0.4228     4.8205
 2467.0000     0.4545     5.1913
 2467.5000     0.4757     5.5621
 2468.0000     0.4657     5.9329
 2468.5000     0.4546     6.3037
 2469.0000     0.4427     6.6745
 2469.5000     0.4097     7.0453
 2470.0000     0.3682     7.4161
 2470.5000     0.3488     7.7870
 2471.0000     0.3713     8.1578
 2471.5000     0.3851     8.5286
 2472.0000     0.4123     8.8994
 2472.5000     0.4103     9.2702
 2473.0000     0.3973     9.6410
 2473.5000     0.3757    10.0118
 2474.0000     0.3594    10.3826
 2474.5000     0.3623    10.7534
 2475.0000     0.3731    11.1242
 2475.5000     0.3838    11.4950
 2476.0000     0.3841    11.8658
 2476.5000     0.3625    12.2366
 2477.0000     0.3409    12.6075
 2477.5000     0.3277    12.9783
 2478.0000     0.3277    13.3491
 2478.5000     0.3277    13.7199
 2479.0000     0.3277    14.0907
 2479.5000     0.3277    14.4615
 2480.0000     0.3330    14.8148
 2480.5000     0.3371    15.0800
 2481.0000     0.3349    15.3453
 2481.5000     0.3326    15.6105
 2482.0000     0.3304    15.8758
 2482.5000     0.3277    16.1410
 2483.0000     0.3700    16.4063
 2483.5000     0.4017    16.6715
 2484.0000     0.4123    16.9368
 2484.5000     0.4228    17.2020
 2485.0000     0.4228    17.4673
 2485.5000     0.4228    17.7325
 2486.0000     0.4228    17.9978
 2486.5000     0.4228    18.2630
 2487.0000     0.4123    18.5283
 2487.5000     0.4017    18.7935
 2488.0000     0.3805    19.0588
 2488.5000     0.3700    19.3240
 2489.0000     0.3594    19.5893
 2489.5000     0.3277    19.8545
 2490.0000     0.3171    20.1197
 2490.5000     0.3172    20.3850
 2491.0000     0.3280    20.6502
 2491.5000     0.3383    20.9155
 2492.0000     0.3378    21.1765
 2492.5000     0.3251    21.1765
 2493.0000     0.2814    21.1765
 2493.5000     0.2326    21.1765
 2494.0000     0.2569    21.1765
 2494.5000     0.2901    21.1765
 2495.0000     0.3330    21.1765
 2495.5000     0.3729    21.1765
 2496.0000     0.3943    21.1765
 2496.5000     0.4175    21.1765
 2497.0000     0.4458    21.1765
 2497.5000     0.4565    21.1765
 2498.0000     0.4651    21.1765
 2498.5000     0.4628    21.1765
 2499.0000     0.4521    21.1765
 2499.5000     0.4365    21.1765
 2500.0000     0.4122    21.1765
 2500.5000     0.4117    21.0788
 2501.0000     0.4112    20.9727
 2501.5000     0.4143    20.8666
 2502.0000     0.4326    20.7605
 2502.5000     0.4605    20.6544
 2503.0000     0.4818    20.5484
 2503.5000     0.4932    20.4423
 2504.0000     0.4926    20.3362
 2504.5000     0.4696    20.2301
 2505.0000     0.4195    20.1240
 2505.5000     0.3833    20.0179
 2506.0000     0.3808    19.9118
 2506.5000     0.3981    19.8057
 2507.0000     0.4339    19.6996
 2507.5000     0.4694    19.5935
 2508.0000     0.4778    19.4874
 2508.5000     0.4525    19.3813
 2509.0000     0.4027    19.2752
 2509.5000     0.4021    19.1691
 2510.0000     0.4016    19.0630
 2510.5000     0.3905    18.9570
 2511.0000     0.3795    18.8509
 2511.5000     0.3684    18.7448
 2512.0000     0.3573    18.6387
 2512.5000     0.3568    18.5326
 2513.0000     0.3563    18.4265
 2513.5000     0.3557    18.3204
 2514.0000     0.3551    18.2143
 2514.5000     0.3546    18.1082
 2515.0000     0.3561    18.0021
 2515.5000     0.3711    17.8960
 2516.0000     0.3980    17.7899
 2516.5000     0.4024    17.6838
 2517.0000     0.3811    17.5777
 2517.5000     0.3406    17.4716
 2518.0000     0.3192    17.3656
 2518.5000     0.3144    17.2595
 2519.0000     0.3076    17.1534
 2519.5000     0.3120    17.0473
 2520.0000     0.3272    16.9412
 2520.5000     0.3473    16.6242
 2521.0000     0.3674    16.3072
 2521.5000     0.3805    15.9901
 2522.0000     0.3805    15.6731
 2522.5000     0.3805    15.3561
 2523.0000     0.3805    15.0391
 2523.5000     0.4239    14.7221
 2524.0000     0.4477    14.4051
 2524.5000     0.4023    14.0881
 2525.0000     0.3607    13.7711
 2525.5000     0.3418    13.4540
 2526.0000     0.3309    13.1370
 2526.5000     0.3355    12.8200
 2527.0000     0.3383    12.5030
 2527.5000     0.3805    12.1860
 2528.0000     0.4228    11.8690
 2528.5000     0.4228    11.5520
 2529.0000     0.3488    11.2350
 2529.5000     0.3277    10.9179
 2530.0000     0.3277    10.5882
 2530.5000     0.3277    14.8235
 2531.0000     0.3269    17.1161
 2531.5000     0.3171    26.7418
 2532.0000     0.3155    58.5648
 2532.5000     0.3046   157.3193
 2533.0000     0.2960   267.5827
 2533.5000     0.2960   309.1765
 2534.0000     0.2992   301.4992
 2534.5000     0.3137   295.9630
 2535.0000     0.3356   293.2056
 2535.5000     0.3619   290.7574
 2536.0000     0.3805   290.8235
 2536.5000     0.3857   282.5961
 2537.0000     0.3855   264.7955
 2537.5000     0.3746   242.0537
 2538.0000     0.3573   220.9433
 2538.5000     0.3488   203.4733
 2539.0000     0.3488   188.2050
 2539.5000     0.3413   175.0993
 2540.0000     0.3473   164.4709
 2540.5000     0.3596   159.6396
 2541.0000     0.3720   156.0874
 2541.5000     0.3844   154.5882
 2542.0000     0.3968   154.5882
 2542.5000     0.4122   157.7210
 2543.0000     0.4276   158.8235
 2543.5000     0.4177   158.8235
 2544.0000     0.3938   158.8235
 2544.5000     0.3762   158.8235
 2545.0000     0.3568   158.8235
 2545.5000     0.3617   158.8235
 2546.0000     0.3774   160.9412
 2546.5000     0.4083   160.9412
 2547.0000     0.4519    34.6172
 2547.5000     0.4816    34.9496
 2548.0000     0.4836    35.2465
 2548.5000     0.4786    35.5434
 2549.0000     0.4643    35.8404
 2549.5000     0.4433    36.1373
 2550.0000     0.4281    36.4343
 2550.5000     0.4129    36.7312
 2551.0000     0.4086    37.0281
 2551.5000     0.4093    37.3251
 2552.0000     0.4101    37.6220
 2552.5000     0.4110    37.9190
 2553.0000     0.4057    38.2159
 2553.5000     0.4020    38.5128
 2554.0000     0.4028    38.8098
 2554.5000     0.4035    39.1067
 2555.0000     0.4043    39.4037
 2555.5000     0.3984    39.7006
 2556.0000     0.3953    39.9976
 2556.5000     0.4032    40.2945
 2557.0000     0.4146    40.5914
 2557.5000     0.4479    40.8884
 2558.0000     0.4916    41.1853
 2558.5000     0.5577    41.4823
 2559.0000     0.6181    41.7792
 2559.5000     0.6646    42.0761
 2560.0000     0.6844    42.3515
 2560.5000     0.6491    42.3866
 2561.0000     0.5983    42.4217
 2561.5000     0.5645    42.4568
 2562.0000     0.5831    42.4919
 2562.5000     0.5968    42.5270
 2563.0000     0.6182    42.5621
 2563.5000     0.6360    42.5972
 2564.0000     0.6272    42.6323
 2564.5000     0.5836    42.6674
 2565.0000     0.5532    42.7025
 2565.5000     0.5468    42.7376
 2566.0000     0.5514    42.7727
 2566.5000     0.5724    42.8079
 2567.0000     0.6101    42.8430
 2567.5000     0.6589    42.8781
 2568.0000     0.6948    42.9132
 2568.5000     0.6912    42.9483
 2569.0000     0.6758    42.9834
 2569.5000     0.6647    43.0185
 2570.0000     0.6395    43.0536
 2570.5000     0.6068    43.0887
 2571.0000     0.5740    43.1238
 2571.5000     0.5648    43.1589
 2572.0000     0.5645    43.1940
 2572.5000     0.5726    43.2291
 2573.0000     0.5956    43.2642
 2573.5000     0.6271    43.2993
 2574.0000     0.6162    43.3344
 2574.5000     0.5526    43.3695
 2575.0000     0.4994    43.4046
 2575.5000     0.4781    43.4398
 2576.0000     0.4778    43.4749
 2576.5000     0.4881    43.5100
 2577.0000     0.4876    43.5451
 2577.5000     0.4766    43.5802
 2578.0000     0.4662    43.6153
 2578.5000     0.4649    43.6504
 2579.0000     0.4526    43.6855
 2579.5000     0.4307    43.7206
