~VERSION INFORMATION
 VERS.                2.0:   CWLS LOG ASCII STANDARD - VERSION 2.0
 WRAP.                 NO:   ONE LINE PER DEPTH STEP
~WELL INFORMATION
#MNEM.UNIT      DATA TYPE    INFORMATION
#----------   ------------   ------------------------------
 STRT.F           26.0000:   START DEPTH
 STOP.F          655.0000:   STOP DEPTH
 STEP.F            0.5000:   STEP LENGTH
 NULL.          -999.2500:   NO VALUE
 COMP. FENIX & SCISSON, INCORPORATED:   COMPANY
 WELL. RES 3 TEAPOT DOM #22S-11:   WELL
 FLD .             TEAPOT:   FIELD
 LOC .      S11 T38N R78W:   LOCATION
 CNTY.            NATRONA:   COUNTY
 STAT.            WYOMING:   STATE
 CTRY. UNITED STATES OF AMERICA:   COUNTRY
 SRVC.            Unknown:   SERVICE COMPANY
 DATE.        03-FEB-1978:   LOGDATE
 API .       490251057200:   API NUMBER
~CURVE INFORMATION
#MNEM.UNIT       API CODE    CURVE DESCRIPTION
#----------   ------------   ------------------------------
 DEPT.F                  :   
 ILD .OHMM   05 120 46 00:   INDUCTION LOG DEEP
 SN  .OHMM   05 040 16 00:   SHORT NORMAL 16"
 SPR .MV     05 010 01 00:   SPONTANEOUS POTENTIAL.
 CALD.IN     45 280 60 00:   CALIPER FROM DENSITY LOG
 CORR.G/C3   45 356 01 00:   DENSITY CORRECTION
 DPHI.DEC    45 890 12 00:   DENSITY POROSITY SANDSTONE
 GRD .GAPI   45 310 01 00:   GAMMA RAY FROM DENSITY LOG
 RHOB.G/C3   45 350 01 00:   BULK DENSITY
~PARAMETER INFORMATION
#MNEM.UNIT          VALUE    DESCRIPTION
#----------   ------------   ------------------------------
 PD  .                 GL:   PERMANENT DATUM
 EPD .F              5168:   ELEVATION PERMANENT DATUM
 LMF .                 KB:   LOG MEASURED FROM
 DMF .                 KB:   DRILLING MEASURED FROM
 EKB .F              5171:   KELLING BUSHING
 EGL .F              5168:   GROUND LEVEL
 DATE.        03-FEB-1978:   RUN DATE
 RUN .                  1:   RUN NUMBER
 DD  .F               650:   DEPTH DRILLER
 DL  .F               655:   DEPTH LOGGER
 BLI .F               655:   BOTTOM LOG INTERVAL
 TLI .F                40:   TOP LOG INTERVAL
 CS  .IN            8.625:   CASING SIZE
 CBD .F                39:   CASING BOTTOM DRILLER
 CBL .F                40:   CASING BOTTOM LOGGER
 BS  .IN            7.875:   BIT SIZE
 BSD .F               650:   BIT SIZE AT DEPTH
 DFT .                KCL:   DRILLING FLUID TYPE
 DFD .                8.6:   DRILLING FLUID DENSITY
 DFV .                 31:   DRILLING FLUID VISCOSITY
 DFPH.                9.5:   DRILLING FLUID PH
 DFL .               12.8:   DRILLING FLUID LOSS
 MSS .           FLOWLINE:   MUD SAMPLE SOURCE
 RMS .OHMM           0.38:   RESISTIVITY MUD SAMPLE
 MST .F                62:   MUD SAMPLE TEMPERATURE
 RMF .OHMM            4.4:   RESISTIVITY MUD FILTRATE SAMPLE
 MFST.F                62:   MUD FILTRATE SAMPLE TEMPERATURE
 RMC .OHMM            0.8:   RESISTIVITY MUD CAKE
 MCST.F                62:   MUD CAKE SAMPLE TEMPERATURE
 MFSS.               MEAS:   MUD FILTRATE SAMPLE SOURCE
 RMB .OHMM           0.35:   RESISTIVITY MUD AT BHT
 BHT .F                68:   BOTTOM HOLE TEMPERATURE
 TCS .HRS               1:   TIME CURCULATED STOPPED
 MRT .F                68:   MAXIMUM RECORDED TEMPERATURE
 LUN .               2958:   LOGGING UNIT NUMBER
 LUL .             CASPER:   LOGGING UNIT LOCATION
 ENGI.           REYNOLDS:   RECORDING ENGINEER
 WITN.         HARRINGTON:   WITNESSED BY
 CLNT.            A2DTECH:   CLIENT CODE
 ORIG.           5" PRINT:   ORIGIN OF DATA
 UWI .       490251057200:   UNIQUE WELL ID
 DICO. A2D Technologies, Inc.:   DIGITIZING COMPANY
~OTHER INFORMATION
~A   DEPT      ILD         SN        SPR       CALD       CORR       DPHI         GRD      RHOB   
# ...
  471.5000    21.9536    17.3059   -55.1525     8.0255     0.1113     0.1891    72.2891     2.3310
  472.0000    21.4921    17.5453   -54.5573     8.0245     0.1037     0.1945    74.9964     2.3332
  472.5000    21.4833    17.5429   -54.1109     8.0234     0.1155     0.2029    69.5466     2.3302
  473.0000    21.7752    17.5405   -53.5186     8.0224     0.1274     0.2081    67.2589     2.3218
  473.5000    22.0708    17.6264   -53.3776     8.0213     0.1381     0.2084    65.5045     2.3089
  474.0000    22.5265    17.6577   -53.3923     8.0201     0.1495     0.2078    61.6534     2.3007
  474.5000    22.6743    17.7777   -53.4040     8.0344     0.1524     0.2072    56.2036     2.2977
  475.0000    22.9822    17.7756   -53.4157     8.0332     0.1433     0.2039    53.1737     2.3006
  475.5000    23.1330    17.7729   -53.4275     8.0170     0.1252     0.1826    60.4098     2.3088
  476.0000    22.9613    17.8948   -53.2845     8.0160     0.1326     0.1793    67.3466     2.3283
  476.5000    22.9519    18.0164   -53.2992     8.0081     0.1399     0.1733    69.1476     2.3477
  477.0000    22.6258    18.4835   -53.3111     7.9988     0.1324     0.1529    70.1933     2.3567
  477.5000    22.4582    18.7833   -53.1739     7.9826     0.1261     0.1484    71.8431     2.3780
  478.0000    22.2937    19.1799   -53.0339     7.9664     0.1202     0.1490    70.3179     2.3896
  478.5000    22.1304    19.5687   -53.0456     7.9502     0.1141     0.1512    70.0070     2.4135
  479.0000    22.2757    19.8393   -52.9027     7.9175     0.1080     0.1521    71.3518     2.4036
  479.5000    22.4219    20.1144   -52.9173     7.8990     0.1004     0.1563    73.3038     2.4014
  480.0000    23.0443    20.1110   -52.7769     7.8865     0.1048     0.1605    71.9326     2.3893
  480.5000    23.8490    20.3898   -52.7896     7.8854     0.1226     0.1608    69.8060     2.3780
  481.0000    24.5473    20.3864   -52.9530     7.8844     0.1329     0.1569    68.1326     2.3802
  481.5000    25.5411    20.6684   -52.9672     7.8833     0.1231     0.1500    65.6889     2.3967
  482.0000    25.8880    20.6655   -52.9772     7.8938     0.0849     0.1368    62.5701     2.4461
  482.5000    26.2421    20.6627   -52.9894     7.8964     0.0534     0.1247    59.3351     2.4611
  483.0000    26.7812    20.6593   -53.0024     7.8953     0.0642     0.1209    62.3848     2.4554
  483.5000    27.3340    20.6569   -53.0142     7.8994     0.0711     0.1356    65.8142     2.4242
  484.0000    28.2885    20.6541   -53.0259     7.9083     0.0635     0.1702    69.2667     2.3752
  484.5000    27.3119    20.5082   -52.8859     7.9073     0.0514     0.1681    70.6145     2.3618
  485.0000    25.8131    19.9444   -52.9006     7.9213     0.0424     0.1663    70.3006     2.3768
  485.5000    24.4169    19.3961   -52.9123     7.9202     0.0423     0.1702    69.8357     2.3850
  486.0000    23.5740    18.9941   -53.0758     7.9192     0.0436     0.1843    70.7303     2.3587
  486.5000    23.5644    18.6633   -53.2393     7.9259     0.0450     0.1934    71.3233     2.3286
  487.0000    23.5549    18.4694   -53.5545     7.9323     0.0356     0.1986    71.4622     2.3158
  487.5000    23.2205    18.2119   -53.8697     7.9310     0.0239     0.2006    71.4502     2.3165
  488.0000    22.7325    17.9590   -54.3450     7.9301     0.0178     0.1976    71.5868     2.3174
  488.5000    22.2547    17.9274   -54.8066     7.9289     0.0177     0.1946    71.8801     2.3239
  489.0000    21.7828    17.7067   -54.9701     7.9279     0.0190     0.1949    71.5633     2.3201
  489.5000    21.4339    17.4602   -55.1336     7.9268     0.0219     0.1946    73.0621     2.3178
  490.0000    20.8786    17.2174   -55.2971     7.9319     0.0292     0.1944    75.0141     2.3170
  490.5000    20.5822    16.9779   -55.4606     7.9399     0.0291     0.1875    76.8151     2.3259
  491.0000    20.2900    16.8583   -55.4723     7.9389     0.0260     0.1740    78.4650     2.3468
  491.5000    20.0028    16.7394   -55.6358     7.9378     0.0214     0.1718    80.1199     2.3558
  492.0000    19.7181    16.6210   -55.7350     7.9520     0.0228     0.1707    81.8247     2.3640
  492.5000    19.4382    16.6188   -55.8139     7.9508     0.0271     0.1734    83.4117     2.3669
  493.0000    19.2958    16.5017   -55.8257     7.9498     0.0345     0.1770    81.5873     2.3646
  493.5000    18.8901    16.4997   -55.8361     7.9486     0.0433     0.1779    79.7628     2.3545
  494.0000    18.6202    16.4972   -55.8492     7.9477     0.0522     0.1767    77.7873     2.3435
  494.5000    18.4839    16.4950   -55.8604     7.9314     0.0565     0.1707    75.9629     2.3569
  495.0000    18.3485    16.4928   -55.9459     7.9304     0.0579     0.1653    75.0201     2.3674
  495.5000    18.5995    16.4905   -56.0364     7.9293     0.0563     0.1666    76.6947     2.3816
  496.0000    18.5901    16.4883   -56.0508     7.9283     0.0547     0.1696    78.0624     2.3793
  496.5000    18.3263    16.4855   -56.0625     7.9424     0.0531     0.1723    79.0852     2.3725
  497.0000    17.8169    16.4833   -56.0743     7.9413     0.0515     0.1732    80.1309     2.3672
  497.5000    17.6863    16.5958   -56.2377     7.9401     0.0513     0.1732    81.4786     2.3618
  498.0000    18.0497    16.7096   -56.2495     7.9391     0.0527     0.1717    82.9775     2.3596
  498.5000    18.4223    16.9401   -56.1095     7.9381     0.0421     0.1504    81.3041     2.3753
  499.0000    18.9336    17.0557   -56.2731     7.9371     0.0405     0.1411    77.9691     2.3910
  499.5000    19.7314    17.4120   -56.2876     7.9360     0.0434     0.1369    76.7489     2.4082
  500.0000    20.6701    17.7756   -56.1370     7.9369     0.0373     0.1303    75.8308     2.4239
  500.5000    21.8789    18.9324   -56.0415     7.9088     0.0193     0.0973    74.9039     2.4643
  501.0000    22.6422    19.7192   -56.3165     7.9014     0.0012     0.0853    72.0149     2.5040
  501.5000    22.9489    19.9919   -56.6287     7.8999    -0.0153     0.0841    66.8011     2.5175
  502.0000    22.7801    20.2677   -56.9410     7.8985     0.0024     0.0918    58.5281     2.5069
  502.5000    22.6086    20.2650   -56.9499     7.8970     0.0038     0.1115    66.8172     2.4754
  503.0000    22.1112    18.7985   -56.9608     7.8955     0.0066     0.1331    72.3874     2.4644
  503.5000    21.2214    17.8986   -56.9696     7.9092     0.0199     0.1442    76.5980     2.4198
  504.0000    20.3463    16.8069   -56.9784     7.9077     0.0303     0.1754    83.8298     2.3830
  504.5000    19.1049    16.2139   -56.9872     7.9062     0.0361     0.1788    85.6235     2.3657
  505.0000    18.0644    15.6635   -56.9960     7.9198     0.0434     0.1788    84.5166     2.3551
  505.5000    17.1996    15.2275   -57.0047     7.9216     0.0494     0.1785    82.2576     2.3513
  506.0000    16.8375    14.9067   -57.0135     7.9469     0.0536     0.1779    80.7328     2.3505
  506.5000    16.7135    14.5927   -56.7210     7.9454     0.0550     0.1707    81.3180     2.3475
  507.0000    16.7046    14.3849   -56.7298     7.9440     0.0533     0.1686    80.6901     2.3689
  507.5000    16.5817    14.1733   -56.8904     7.9425     0.0532     0.1737    79.3116     2.3714
  508.0000    16.5745    13.9763   -57.0509     7.9410     0.0546     0.1767    77.6310     2.3624
  508.5000    16.6845    13.9698   -57.0597     7.9396     0.0589     0.1773    76.0871     2.3556
  509.0000    16.6754    13.7707   -57.2202     7.9532     0.0618     0.1773    75.0203     2.3495
  509.5000    16.6682    13.8602   -57.3809     7.9514     0.0646     0.1743    75.3035     2.3472
  510.0000    16.6609    13.9502   -57.5435     7.9499     0.0645     0.1674    76.9461     2.3607
  510.5000    16.7697    13.9436   -57.7040     7.9486     0.0613     0.1660    80.5525     2.3697
  511.0000    16.8792    13.9355   -57.7128     7.9622     0.0552     0.1669    82.0441     2.3787
  511.5000    16.8700    14.0277   -57.7216     7.9604     0.0476     0.1687    82.6299     2.3756
