~VERSION INFORMATION
 VERS.                2.0:   CWLS LOG ASCII STANDARD - VERSION 2.0
 WRAP.                 NO:   ONE LINE PER DEPTH STEP
~WELL INFORMATION
#MNEM.UNIT      DATA TYPE    INFORMATION
#----------   ------------   ------------------------------
 STRT.F           30.0000:   START DEPTH
 STOP.F          655.5000:   STOP DEPTH
 STEP.F            0.5000:   STEP LENGTH
 NULL.          -999.2500:   NO VALUE
 COMP. FENIX & SCISSON INC:   COMPANY
 WELL.    NPR-3 SX #52-15:   WELL
 FLD .             TEAPOT:   FIELD
 LOC .      S15 T38N R78W:   LOCATION
 CNTY.            NATRONA:   COUNTY
 STAT.            WYOMING:   STATE
 CTRY. UNITED STATES OF AMERICA:   COUNTRY
 SRVC.            Unknown:   SERVICE COMPANY
 DATE.        27-MAY-1978:   LOGDATE
 API .       490251062200:   API NUMBER
~CURVE INFORMATION
#MNEM.UNIT       API CODE    CURVE DESCRIPTION
#----------   ------------   ------------------------------
 DEPT.F                  :   
 GRD .GAPI   45 310 01 00:   GAMMA RAY FROM DENSITY LOG
 CALD.IN     45 280 60 00:   CALIPER
 RHOB.G/C3   45 350 01 00:   BULK DENSITY
 DPHI.DEC    45 890 12 00:   DENSITY POROSITY SANDSTONE
 CORR.G/C3   45 356 01 00:   DENSITY CORRECTION
 SN  .OHMM   05 040 16 00:   SHORT NORMAL 16"
 IL  .OHMM   05 120 00 00:   INDUCTION LOG
 SPR .MV     05 010 01 00:   SPONTANEOUS POTENTIAL FROM RES.
~PARAMETER INFORMATION
#MNEM.UNIT          VALUE    DESCRIPTION
#----------   ------------   ------------------------------
 PD  .                 GL:   PERMANENT DATUM
 EPD .F              5240:   ELEVATION PERMANENT DATUM
 LMF .                 KB:   LOG MEASURED FROM
 DAPD.F                 4:   FEET ABOVE PERMANENT DATUM
 DMF .                 GL:   DRILLING MEASURED FROM
 EKB .F              5244:   KELLING BUSHING
 EGL .F              5240:   GROUND LEVEL
 DATE.          5-27-1978:   RUN DATE
 RUN .                  1:   RUN NUMBER
 DD  .F               645:   DEPTH DRILLER
 DL  .F               655:   DEPTH LOGGER
 BLI .F               650:   BOTTOM LOG INTERVAL
 TLI .F                50:   TOP LOG INTERVAL
 CS  .IN            8.625:   CASING SIZE
 CBD .F                40:   CASING BOTTOM DRILLER
 CBL .F                40:   CASING BOTTOM LOGGER
 BS  .IN            7.875:   BIT SIZE
 BSD .F               645:   BIT SIZE AT DEPTH
 DFT .                KCL:   DRILLING FLUID TYPE
 DFD .                8.6:   DRILLING FLUID DENSITY
 DFV .                 32:   DRILLING FLUID VISCOSITY
 DFPH.               10.5:   DRILLING FLUID PH
 DFL .                7.4:   DRILLING FLUID LOSS
 MSS .           FLOWLINE:   MUD SAMPLE SOURCE
 RMS .OHMM            .30:   RESISTIVITY MUD SAMPLE
 MST .F                66:   MUD SAMPLE TEMPERATURE
 RMF .OHMM            .32:   RESISTIVITY MUD FILTRATE SAMPLE
 MFST.F                64:   MUD FILTRATE SAMPLE TEMPERATURE
 RMC .OHMM            .50:   RESISTIVITY MUD CAKE
 MCST.F                64:   MUD CAKE SAMPLE TEMPERATURE
 MFSS.           MEASURED:   MUD FILTRATE SAMPLE SOURCE
 BHT .F                68:   BOTTOM HOLE TEMPERATURE
 TCS .HRS               2:   TIME CURCULATED STOPPED
 MRT .F                68:   MAXIMUM RECORDED TEMPERATURE
 LUN .               2958:   LOGGING UNIT NUMBER
 LUL .              CASP.:   LOGGING UNIT LOCATION
 ENGI.            POINTER:   RECORDING ENGINEER
 WITN.           MCGINLEY:   WITNESSED BY
 CLNT.            A2DTECH:   CLIENT CODE
 ORIG.      2" , 5" PRINT:   ORIGIN OF DATA
 UWI .       490251062200:   UNIQUE WELL ID
 DICO. A2D Technologies, Inc.:   DIGITIZING COMPANY
~OTHER INFORMATION
~A   DEPT       GRD      CALD       RHOB       DPHI       CORR         SN         IL        SPR   
# ...
  556.5000    62.0848     7.4971     2.4622     0.1388     0.1602    13.7730    16.6115   -10.2146
  557.0000    61.8842     7.4891     2.4705     0.1514     0.1532    13.5924    16.4820   -10.2643
  557.5000    61.7599     7.4813     2.4498     0.1476     0.1545    13.3673    16.3548   -10.2755
  558.0000    62.1831     7.4735     2.4231     0.1442     0.1632    13.1459    16.2566   -10.2859
  558.5000    64.5071     7.4655     2.4338     0.1731     0.1434    12.9282    15.8826   -10.2963
  559.0000    65.3296     7.4743     2.4394     0.1718     0.1122    12.7141    15.5347   -10.3068
  559.5000    65.7127     7.4847     2.4008     0.1704     0.0831    12.4479    15.1944   -10.3173
  560.0000    68.2032     7.4950     2.3926     0.1691     0.0810    12.4717    15.0752   -10.3278
  560.5000    71.4223     7.5053     2.3941     0.1726     0.0784    12.5054    15.0386   -10.3382
  561.0000    72.4670     7.5156     2.3960     0.1763     0.0750    12.5402    15.0019   -10.3487
  561.5000    70.2576     7.5259     2.3929     0.1799     0.0675    12.5612    14.9656   -10.3592
  562.0000    68.5479     7.5362     2.3877     0.1793     0.0677    12.2474    14.9292   -10.3697
  562.5000    69.4792     7.5466     2.3787     0.1775     0.0695    11.9958    14.8929   -10.3801
  563.0000    70.6696     7.5569     2.3794     0.1737     0.0763    12.1316    14.8567   -10.3906
  563.5000    72.0357     7.5594     2.3857     0.1693     0.0762    12.3410    14.8205   -10.4011
  564.0000    73.3990     7.5297     2.3923     0.1650     0.0762    12.4551    14.7845   -10.4115
  564.5000    74.4656     7.5008     2.3950     0.1606     0.0762    12.4844    14.7485   -10.4220
  565.0000    74.4962     7.4719     2.3968     0.1587     0.0763    12.5138    14.7127   -10.4324
  565.5000    72.2951     7.4430     2.4076     0.1623     0.0718    12.5433    14.6901   -10.4427
  566.0000    69.1868     7.4139     2.4175     0.1701     0.0654    12.5729    14.7672   -10.4541
  566.5000    66.0790     7.4099     2.4052     0.1756     0.0540    12.6025    14.8330   -10.5117
  567.0000    65.0935     7.4189     2.3963     0.1741     0.0426    12.6322    14.8990   -10.6696
  567.5000    67.5369     7.4203     2.3877     0.1727     0.0385    12.6619    14.9653   -10.8257
  568.0000    70.4042     7.3799     2.3885     0.1714     0.0347    12.6918    15.0319   -10.9806
  568.5000    70.7637     7.3483     2.3926     0.1679     0.0308    12.7217    15.0988   -11.1383
  569.0000    67.8623     7.3787     2.3973     0.1606     0.0268    12.7516    15.1660   -11.3977
  569.5000    69.8704     7.3937     2.4033     0.1533     0.0273    12.7817    15.2335   -12.0531
  570.0000    73.4928     7.4049     2.4147     0.1460     0.0328    12.8118    15.3013   -12.6890
  570.5000    76.5219     7.4162     2.4264     0.1417     0.0377    12.8420    15.3694   -13.2839
  571.0000    76.5723     7.4354     2.4382     0.1422     0.0363    12.8722    15.3826   -13.4377
  571.5000    76.8347     7.4918     2.4477     0.1428     0.0351    12.9026    15.3826   -13.6057
  572.0000    77.3475     7.5475     2.4473     0.1457     0.0341    12.9130    15.3826   -13.7752
  572.5000    77.7886     7.6030     2.4428     0.1517     0.0344    12.9131    15.3826   -13.9433
  573.0000    77.1326     7.6474     2.4363     0.1575     0.0347    12.9131    15.3826   -14.0391
  573.5000    76.4505     7.6549     2.4270     0.1591     0.0349    12.9131    15.3825   -14.0238
  574.0000    76.2708     7.6629     2.4193     0.1607     0.0352    12.9131    15.3766   -14.0099
  574.5000    74.7947     7.6710     2.4156     0.1622     0.0355    12.9131    15.3588   -13.9957
  575.0000    73.1878     7.6790     2.4119     0.1638     0.0357    12.9131    15.3412   -13.9816
  575.5000    72.2130     7.6869     2.4081     0.1650     0.0360    12.9131    15.3236   -13.9675
  576.0000    74.2540     7.6941     2.4063     0.1642     0.0388    12.9131    15.3060   -13.9534
  576.5000    76.5341     7.7013     2.4068     0.1633     0.0426    12.9133    15.2885   -13.9392
  577.0000    75.7775     7.7001     2.4075     0.1624     0.0464    12.9116    15.2709   -13.9251
  577.5000    74.2416     7.6869     2.4082     0.1615     0.0502    12.8804    15.2533   -13.9110
  578.0000    73.7842     7.6737     2.4089     0.1533     0.0542    12.8499    15.2359   -13.8969
  578.5000    75.3877     7.6605     2.4097     0.1463     0.0639    12.8196    15.1897   -13.8827
  579.0000    76.9496     7.6466     2.4234     0.1465     0.0712    12.7895    15.1439   -13.8681
  579.5000    78.5756     7.6620     2.4368     0.1467     0.0737    12.7594    15.0984   -13.8547
  580.0000    76.0546     7.6837     2.4400     0.1454     0.0762    12.7294    15.0529   -13.8840
  580.5000    72.5516     7.7043     2.4375     0.1438     0.0787    12.6995    15.0075   -14.0491
  581.0000    73.3257     7.6973     2.4400     0.1448     0.0799    12.6769    14.9623   -14.2072
  581.5000    74.6274     7.6882     2.4423     0.1463     0.0792    12.6774    14.9173   -14.3652
  582.0000    75.8949     7.6792     2.4406     0.1456     0.0785    12.6774    14.8723   -14.5232
  582.5000    76.3625     7.6702     2.4388     0.1399     0.0788    12.6774    14.8275   -14.6813
  583.0000    74.2566     7.6612     2.4399     0.1343     0.0819    12.6774    14.7829   -14.8394
  583.5000    72.9425     7.6522     2.4496     0.1286     0.0848    12.6785    14.7383   -14.9974
  584.0000    73.4297     7.6432     2.4592     0.1230     0.0877    12.5974    14.6939   -15.1554
  584.5000    73.8402     7.6341     2.4692     0.1173     0.0896    12.5159    14.6496   -15.2523
  585.0000    71.8086     7.6253     2.4813     0.1154     0.0839    12.4349    14.6055   -15.2795
  585.5000    68.5684     7.6373     2.4902     0.1196     0.0783    12.3544    14.5560   -15.3070
  586.0000    70.3618     7.6508     2.4894     0.1240     0.0727    12.2744    14.5698   -15.3343
  586.5000    72.3844     7.6644     2.4833     0.1285     0.0680    12.2186    14.5861   -15.3618
  587.0000    73.4266     7.6778     2.4773     0.1290     0.0684    12.2187    14.6024   -15.3895
  587.5000    74.4137     7.6913     2.4720     0.1285     0.0770    12.2188    14.6188   -15.4180
  588.0000    76.2591     7.7048     2.4705     0.1280     0.0861    12.2188    14.6352   -15.4330
  588.5000    78.1897     7.7182     2.4711     0.1248     0.0952    12.2188    14.6516   -15.2562
  589.0000    78.2786     7.7316     2.4729     0.1199     0.1063    12.2188    14.6681   -15.0774
  589.5000    77.4413     7.7452     2.4781     0.1150     0.1257    12.2188    14.6895   -14.8863
  590.0000    76.8569     7.7679     2.4903     0.1101     0.1447    12.2188    14.6374   -15.3373
  590.5000    77.0791     7.7905     2.5023     0.1052     0.1626    12.2188    14.5570   -16.0665
  591.0000    77.3683     7.8128     2.5100     0.1017     0.1727    12.2188    14.4766   -16.1673
  591.5000    77.9635     7.8177     2.5129     0.0998     0.1823    12.2188    14.3967   -16.0760
  592.0000    78.5436     7.8040     2.5159     0.0982     0.1919    12.2188    14.3172   -16.2696
  592.5000    78.0267     7.7904     2.5187     0.0987     0.2007    12.2189    14.2381   -16.6726
  593.0000    76.4935     7.7767     2.5198     0.0994     0.2006    12.2191    14.1595   -17.0824
  593.5000    76.2147     7.7631     2.5208     0.1011     0.2007    12.2190    14.0813   -17.2599
  594.0000    76.0047     7.7494     2.5208     0.1030     0.2009    12.2200    14.0036   -17.3104
  594.5000    75.8404     7.7357     2.5184     0.0993     0.2010    12.1144    13.9260   -17.3584
  595.0000    76.0354     7.7248     2.5158     0.0954     0.2012    12.0303    13.8690   -17.4066
  595.5000    76.9303     7.7285     2.5222     0.0943     0.2013    11.9466    13.8218   -17.4549
  596.0000    80.2579     7.7320     2.5304     0.0974     0.2015    11.8632    13.7747   -17.5033
  596.5000    80.0844     7.7354     2.5275     0.1004     0.2016    11.7769    13.7278   -17.5517
