~VERSION INFORMATION
 VERS.                2.0:   CWLS LOG ASCII STANDARD - VERSION 2.0
 WRAP.                 NO:   ONE LINE PER DEPTH STEP
~WELL INFORMATION
#MNEM.UNIT      DATA TYPE    INFORMATION
#----------   ------------   ------------------------------
 STRT.F           34.0000:   START DEPTH
 STOP.F          534.0000:   STOP DEPTH
 STEP.F            0.5000:   STEP LENGTH
 NULL.          -999.2500:   NO VALUE
 COMP.    FENIX & SCISSON:   COMPANY
 WELL.      33 SX 3 #33-3:   WELL
 FLD .             TEAPOT:   FIELD
 LOC .       S3 T38N R78W:   LOCATION
 CNTY.            NATRONA:   COUNTY
 STAT.            WYOMING:   STATE
 CTRY. UNITED STATES OF AMERICA:   COUNTRY
 SRVC.       Schlumberger:   SERVICE COMPANY
 DATE.        23-FEB-1977:   LOGDATE
 API .       490251028500:   API NUMBER
~CURVE INFORMATION
#MNEM.UNIT       API CODE    CURVE DESCRIPTION
#----------   ------------   ------------------------------
 DEPT.F                  :   
 SPR .MV     07 010 01 00:   SPONTANEOUS POTENTIAL
 LL8 .OHMM   07 220 08 00:   LATEROLOG-8 RES.
 ILD .OHMM   07 120 46 00:   INDUCTION LOG DEEP
 ILM .OHMM   07 120 44 00:   INDUCTION LOG MEDIUM
 CALD.IN     45 280 60 00:   CALIPER
 GRD .GAPI   45 310 01 00:   GAMMA RAY FROM DENSITY LOG
 RHOB.G/C3   45 350 01 00:   BULK DENSITY
 DPOR.DEC    45 890 12 00:   DENSITY POROSITY SANDSTONE
 CORR.G/C3   45 356 01 00:   DENSITY CORRECTION
~PARAMETER INFORMATION
#MNEM.UNIT          VALUE    DESCRIPTION
#----------   ------------   ------------------------------
 PD  .                 GL:   PERMANENT DATUM
 EPD .F              5170:   ELEVATION PERMANENT DATUM
 LMF .                 KB:   LOG MEASURED FROM
 DAPD.F                 5:   FEET ABOVE PERMANENT DATUM
 DMF .                 KB:   DRILLING MEASURED FROM
 EKB .F              5175:   KELLING BUSHING
 EGL .F              5170:   GROUND LEVEL
 DATE.            2-23-77:   RUN DATE
 RUN .                  1:   RUN NUMBER
 DD  .F               550:   DEPTH DRILLER
 DL  .F               535:   DEPTH LOGGER
 BLI .F               525:   BOTTOM LOG INTERVAL
 TLI .F                47:   TOP LOG INTERVAL
 CS  .IN            8.625:   CASING SIZE
 CBD .F                40:   CASING BOTTOM DRILLER
 CBL .F                47:   CASING BOTTOM LOGGER
 BS  .IN            7.875:   BIT SIZE
 BSD .F               550:   BIT SIZE AT DEPTH
 DFT .                KCL:   DRILLING FLUID TYPE
 DFD .                  9:   DRILLING FLUID DENSITY
 DFV .                 36:   DRILLING FLUID VISCOSITY
 MSS .            MUDTANK:   MUD SAMPLE SOURCE
 RMS .OHMM           .255:   RESISTIVITY MUD SAMPLE
 MST .F                74:   MUD SAMPLE TEMPERATURE
 RMF .OHMM           .246:   RESISTIVITY MUD FILTRATE SAMPLE
 MFST.F                74:   MUD FILTRATE SAMPLE TEMPERATURE
 RMC .OHMM            .38:   RESISTIVITY MUD CAKE
 MCST.F                74:   MUD CAKE SAMPLE TEMPERATURE
 MFSS.                  M:   MUD FILTRATE SAMPLE SOURCE
 MCSS.                  C:   MUD CAKE SAMPLE SOURCE
 RMB .OHMM            .34:   RESISTIVITY MUD AT BHT
 BHT .F                55:   BOTTOM HOLE TEMPERATURE
 TCS .HRS            0600:   TIME CURCULATED STOPPED
 TLAB.HRS            0730:   TIME LOGGER AT BOTTOM
 MRT .F                55:   MAXIMUM RECORDED TEMPERATURE
 LUN .               5642:   LOGGING UNIT NUMBER
 LUL .               CSPR:   LOGGING UNIT LOCATION
 ENGI.                FIX:   RECORDING ENGINEER
 WITN.         STUEBINGER:   WITNESSED BY
 CLNT.            A2DTECH:   CLIENT CODE
 ORIG.       2", 5" PRINT:   ORIGIN OF DATA
 UWI .       490251028500:   UNIQUE WELL ID
 DICO. A2D Technologies, Inc.:   DIGITIZING COMPANY
~OTHER INFORMATION
~A   DEPT      SPR        LL8        ILD        ILM       CALD         GRD      RHOB       DPOR       CORR   
# ...
  180.0000   -71.7139     7.8020     5.6982     6.4392     8.4354   107.4569     2.4244     0.1388     0.0111
  180.5000   -71.4681     8.7623     5.8309     6.5977     8.4427   110.2143     2.4190     0.1434     0.0090
  181.0000   -71.4449     8.4609     6.0374     6.7600     8.4509   110.8727     2.4261     0.1354     0.0141
  181.5000   -71.9472     8.2084     6.4527     6.9263     8.4592   110.0885     2.4335     0.1338     0.0152
  182.0000   -72.5877     8.7293     6.7147     7.0967     8.4674   107.4207     2.4401     0.1208     0.0106
  182.5000   -73.2295     9.7816     6.8498     7.2713     8.4750   105.0270     2.4409     0.1320     0.0072
  183.0000   -73.8762     9.6332     6.9876     7.4160     8.4752   105.5845     2.4416     0.1304     0.0127
  183.5000   -74.2683     9.2421     7.1281     7.6485     8.4752   105.2061     2.4378     0.1302     0.0125
  184.0000   -74.5262     9.0020     7.2715     7.7967     8.4752   104.8445     2.4298     0.1345     0.0090
  184.5000   -74.7824    10.0562     7.4183     7.9478     8.4752   107.0112     2.4304     0.1372     0.0076
  185.0000   -75.0383     9.9956     7.5684     8.1017     8.4752   108.7131     2.4393     0.1326     0.0147
  185.5000   -75.2944     9.8293     7.7682     8.2587     8.4752   109.5608     2.4482     0.1230     0.0218
  186.0000   -75.5506     9.6920     7.7646     8.4011     8.4753   108.2637     2.4560     0.1128     0.0299
  186.5000   -75.8067     9.8262     7.8229     8.5139     8.4701   106.0602     2.4525     0.1148     0.0387
  187.0000   -76.0628    10.0721     7.8814     8.6281     8.4637   103.5495     2.4470     0.1172     0.0378
  187.5000   -76.3194    10.3385     7.9407     8.7439     8.4572   101.0177     2.4473     0.1140     0.0355
  188.0000   -76.5752    10.3247     8.0007     8.8613     8.4508    99.3844     2.4501     0.1162     0.0250
  188.5000   -76.8221    10.2997     8.0610     8.9802     8.4443   100.1390     2.4533     0.1162     0.0120
  189.0000   -77.2770    10.2748     8.1219     9.1007     8.4379   101.1365     2.4593     0.1152     0.0110
  189.5000   -77.7687    10.2435     8.1832     9.2228     8.4314   100.4708     2.4651     0.1177     0.0213
  190.0000   -78.2640    10.3533     8.2449     9.3405     8.4250   101.1596     2.4655     0.1203     0.0278
  190.5000   -78.7599    10.4598     8.3071     9.3575     8.4185   103.9157     2.4541     0.1229     0.0179
  191.0000   -79.2504    10.5674     8.3613     9.5145     8.4120   106.0652     2.4570     0.1248     0.0220
  191.5000   -79.6937    10.6761     8.3453     9.4998     8.4056   107.0657     2.4608     0.1210     0.0228
  192.0000   -79.7785    10.7273     8.3235     9.4800     8.3992   107.3550     2.4512     0.1184     0.0136
  192.5000   -79.8765    10.6102     8.3019     9.4601     8.3994   107.1222     2.4318     0.1223     0.0218
  193.0000   -79.9760    10.5078     8.2802     9.4404     8.4076   105.8156     2.4141     0.1272     0.0121
  193.5000   -80.0748    10.4064     8.2587     9.4214     8.4157   104.5246     2.4140     0.1276     0.0120
  194.0000   -80.1737    10.3385     8.2372     9.3766     8.4240   103.8238     2.4233     0.1245     0.0222
  194.5000   -80.2585    10.2057     8.2157     9.3321     8.4322   105.1815     2.4329     0.1225     0.0175
  195.0000   -80.2574    10.1536     8.1944     9.2877     8.4404   106.5453     2.4339     0.1210     0.0097
  195.5000   -80.2564    10.1018     8.1730     9.2436     8.4485   107.3166     2.4339     0.1196     0.0173
  196.0000   -80.0569    10.1494     8.1518     9.1996     8.4572   107.6857     2.4339     0.1179     0.0224
  196.5000   -79.6882    10.0470     8.1330     9.1697     8.4669   104.7597     2.4509     0.1160     0.0194
  197.0000   -79.3204     9.9068     7.9771     8.9710     8.4768   102.9556     2.4688     0.1171     0.0306
  197.5000   -79.0611     9.7817     7.8212     8.6997     8.4866   104.1333     2.4628     0.1200     0.0172
  198.0000   -79.0695     9.4145     7.6683     8.4044     8.4950   105.1752     2.4595     0.1204     0.0240
  198.5000   -79.1600     9.0273     7.5185     8.0496     8.4982   105.1727     2.4552     0.1262     0.0147
  199.0000   -79.5054     8.6551     7.3715     7.7098     8.5025   105.1817     2.4507     0.1261     0.0226
  199.5000   -79.8452     8.2987     7.2135     7.3843     8.5068   104.6343     2.4450     0.1261     0.0147
  200.0000   -79.5963     7.8892     6.7505     7.0726     8.5110   103.9041     2.4395     0.1289     0.0069
  200.5000   -79.2750     7.3518     6.2708     6.7740     8.5150   103.4446     2.4407     0.1328     0.0149
  201.0000   -78.4986     6.8510     5.7837     6.4343     8.5181   103.8199     2.4471     0.1311     0.0262
  201.5000   -77.8852     6.3843     5.1328     5.6849     8.5210   104.9706     2.4391     0.1300     0.0267
  202.0000   -77.5003     6.0316     4.4968     5.0230     8.5239   106.5225     2.4224     0.1413     0.0390
  202.5000   -77.0931     5.3555     3.9413     4.4381     8.5268   108.0295     2.3879     0.1583     0.0207
  203.0000   -76.4031     4.7552     3.4544     3.9212     8.5297   109.2306     2.3572     0.1752     0.0094
  203.5000   -75.7432     4.2221     3.0277     3.4647     8.5326   109.1430     2.3268     0.1931     0.0141
  204.0000   -75.2401     3.7116     2.7601     3.0296     8.5355   106.2586     2.2974     0.2115     0.0249
  204.5000   -74.7432     3.2457     2.6111     2.8552     8.5384   102.2549     2.2711     0.2300     0.0329
  205.0000   -74.2341     2.8036     2.4729     2.6624     8.5413   100.2376     2.2463     0.2426     0.0368
  205.5000   -73.6184     2.5190     2.4959     2.6871     8.5442    98.6712     2.2373     0.2559     0.0476
  206.0000   -72.8635     3.1900     2.6142     2.9044     8.5472    99.0971     2.2538     0.2561     0.0628
  206.5000   -72.1072     4.1210     2.8062     3.1599     8.5500   102.4334     2.3012     0.2189     0.0512
  207.0000   -71.3511     4.9410     3.0124     3.4378     8.5529   106.1206     2.3481     0.1884     0.0362
  207.5000   -70.5954     5.2707     3.4000     3.8757     8.5547   110.2577     2.3941     0.1698     0.0224
  208.0000   -69.8935     5.9399     4.0141     4.5099     8.5547   112.9787     2.4126     0.1513     0.0331
  208.5000   -69.5551     6.9957     4.6944     5.2479     8.5547   110.8088     2.4217     0.1419     0.0122
  209.0000   -69.5808     8.0582     5.1827     6.1661     8.5547   109.4762     2.4401     0.1318     0.0170
  209.5000   -69.6268     8.0582     5.7223     6.3392     8.5547   108.2938     2.4518     0.1232     0.0179
  210.0000   -69.6714     8.0085     6.1940     6.5171     8.5547   110.3950     2.4563     0.1231     0.0069
  210.5000   -69.7115     7.9664     6.3978     6.7001     8.5547   112.1590     2.4608     0.1197     0.0245
  211.0000   -69.6629     7.9083     6.6385     6.8328     8.5547   110.4366     2.4650     0.1153     0.0146
  211.5000   -69.3889     7.9866     6.6385     7.0165     8.5547   109.1776     2.4667     0.1088     0.0290
  212.0000   -69.1133     7.9862     6.6522     7.0816     8.5547   108.2028     2.4543     0.1161     0.0123
  212.5000   -68.6259     7.9851     6.6671     7.0816     8.5547   107.8855     2.4409     0.1256     0.0044
  213.0000   -68.0349     7.9842     6.6809     7.0816     8.5547   109.5275     2.4272     0.1242     0.0084
  213.5000   -67.7341     8.2134     6.7036     7.0816     8.5547   111.9695     2.4249     0.1217    -0.0011
  214.0000   -67.6939     8.4612     6.4553     7.0816     8.5547   112.1683     2.4238     0.1213     0.0178
  214.5000   -67.6469     8.6757     6.0411     7.0816     8.5547   114.1274     2.4250     0.1335     0.0137
  215.0000   -67.5994     8.0286     5.6533     6.7539     8.5547   119.9057     2.4313     0.1282     0.0173
  215.5000   -67.5190     6.9887     5.3611     6.2050     8.5547   121.2366     2.4409     0.1192     0.0354
  216.0000   -67.2715     6.0835     5.2048     5.7328     8.5547   120.1514     2.4268     0.1319     0.0243
