~VERSION INFORMATION
 VERS.                2.0:   CWLS LOG ASCII STANDARD - VERSION 2.0
 WRAP.                 NO:   ONE LINE PER DEPTH STEP
~WELL INFORMATION
#MNEM.UNIT      DATA TYPE    INFORMATION
#----------   ------------   ------------------------------
 STRT.F           42.0000:   START DEPTH
 STOP.F          533.0000:   STOP DEPTH
 STEP.F            0.5000:   STEP LENGTH
 NULL.          -999.2500:   NO VALUE
 COMP.    FENIX & SCISSON:   COMPANY
 WELL.      NPR-3 #38S3-3:   WELL
 FLD .             TEAPOT:   FIELD
 LOC .       S3 T38N R78W:   LOCATION
 CNTY.            NATRONA:   COUNTY
 STAT.            WYOMING:   STATE
 CTRY. UNITED STATES OF AMERICA:   COUNTRY
 SRVC.           BIRDWELL:   SERVICE COMPANY
 DATE.        29-JUN-1978:   LOGDATE
 API .       490251066300:   API NUMBER
~CURVE INFORMATION
#MNEM.UNIT       API CODE    CURVE DESCRIPTION
#----------   ------------   ------------------------------
 DEPT.F                  :   
 ILD .OHMM   05 120 46 00:   INDUCTION LOG DEEP
 SN  .OHMM   05 040 16 00:   SHORT NORMAL 16"
 SPR .MV     05 010 01 00:   SPONTANEOUS POTENTIAL FROM RES.
 CALD.IN     45 280 60 00:   CALIPER FROM DENSITY LOG
 CORR.G/C3   45 356 01 00:   DENSITY CORRECTION
 DPHI.DEC    45 890 12 00:   DENSITY POROSITY SANDSTONE
 GRD .GAPI   45 310 01 00:   GAMMA RAY FROM DENSITY LOG
 RHOB.G/C3   45 350 01 00:   BULK DENSITY
~PARAMETER INFORMATION
#MNEM.UNIT          VALUE    DESCRIPTION
#----------   ------------   ------------------------------
 PD  .                 GL:   PERMANENT DATUM
 EPD .F              5238:   ELEVATION PERMANENT DATUM
 LMF .                 KB:   LOG MEASURED FROM
 DAPD.F                 4:   FEET ABOVE PERMANENT DATUM
 DMF .                 KB:   DRILLING MEASURED FROM
 EKB .F              5242:   KELLING BUSHING
 EGL .F              5238:   GROUND LEVEL
 DATE.        29-JUN-1978:   RUN DATE
 RUN .                  1:   RUN NUMBER
 DD  .F               530:   DEPTH DRILLER
 DL  .F               540:   DEPTH LOGGER
 BLI .F               533:   BOTTOM LOG INTERVAL
 TLI .F                40:   TOP LOG INTERVAL
 CS  .IN            8.625:   CASING SIZE
 CBD .F                40:   CASING BOTTOM DRILLER
 BS  .IN            7.875:   BIT SIZE
 BSD .F               530:   BIT SIZE AT DEPTH
 DFT .                KCL:   DRILLING FLUID TYPE
 DFD .                8.7:   DRILLING FLUID DENSITY
 DFV .                 34:   DRILLING FLUID VISCOSITY
 DFPH.                9.5:   DRILLING FLUID PH
 MSS .           FLOWLINE:   MUD SAMPLE SOURCE
 RMS .OHMM            0.2:   RESISTIVITY MUD SAMPLE
 MST .F                82:   MUD SAMPLE TEMPERATURE
 RMF .OHMM           0.18:   RESISTIVITY MUD FILTRATE SAMPLE
 MFST.F                82:   MUD FILTRATE SAMPLE TEMPERATURE
 RMC .OHMM           0.14:   RESISTIVITY MUD CAKE
 MCST.F                82:   MUD CAKE SAMPLE TEMPERATURE
 MFSS.               MEAS:   MUD FILTRATE SAMPLE SOURCE
 TCS .HRS               1:   TIME CURCULATED STOPPED
 LUN .               2958:   LOGGING UNIT NUMBER
 LUL .             CASPER:   LOGGING UNIT LOCATION
 ENGI.             MILLER:   RECORDING ENGINEER
 WITN.         ZARGARNIAN:   WITNESSED BY
 CLNT.            A2DTECH:   CLIENT CODE
 ORIG.           5" PRINT:   ORIGIN OF DATA
 UWI .       490251066300:   UNIQUE WELL ID
 DICO. A2D Technologies, Inc.:   DIGITIZING COMPANY
~OTHER INFORMATION
~A   DEPT      ILD         SN        SPR       CALD       CORR       DPHI         GRD      RHOB   
# ...
  366.0000    14.1614    13.6775    -3.5126     7.2224     0.0368     0.2270    52.7391     2.3318
  366.5000    14.0639    13.5854    -3.5098     7.3534     0.0368     0.2111    53.6338     2.3461
  367.0000    14.0639    13.5887    -3.6573     7.4428     0.0308     0.2117    54.2291     2.3499
  367.5000    14.0639    13.4978    -3.6538     7.4723     0.0248     0.2035    54.3753     2.3641
  368.0000    14.0639    13.5011    -3.5006     7.4719     0.0204     0.1931    54.3709     2.3776
  368.5000    14.0639    13.5038    -3.4977     7.4863     0.0203     0.1916    54.9670     2.3814
  369.0000    14.0639    13.6000    -3.4947     7.5607     0.0203     0.1925    55.8001     2.3830
  369.5000    14.1640    13.6027    -3.6424     7.7250     0.0188     0.1940    56.7546     2.3844
  370.0000    14.4577    13.7002    -3.6389     7.8333     0.0188     0.1952    57.4996     2.3821
  370.5000    14.8626    13.7972    -3.6360     7.9785     0.0173     0.1927    58.2446     2.3769
  371.0000    15.2788    13.8005    -3.6331     8.0679     0.0173     0.1828    58.7006     2.3897
  371.5000    15.4912    13.9952    -3.6296     8.1274     0.0188     0.1810    59.1358     2.4047
  372.0000    15.9087    13.9986    -3.6268     8.1569     0.0187     0.1771    59.5813     2.4114
  372.5000    16.3091    14.0983    -3.7750     8.0965     0.0187     0.1654    60.3254     2.4182
  373.0000    16.5369    14.2217    -3.7714     8.0212     0.0187     0.1533    61.0819     2.4265
  373.5000    16.6526    14.2999    -3.7684     7.8262     0.0172     0.1354    60.7666     2.4407
  374.0000    16.5391    14.4025    -3.7651     7.6460     0.0172     0.1423    57.9188     2.4685
  374.5000    16.4263    14.4053    -3.7622     7.5707     0.0141     0.1663    51.6278     2.4615
  375.0000    16.4277    14.5080    -3.6090     7.5554     0.0097     0.1735    50.7255     2.4197
  375.5000    16.3154    14.6113    -3.7558     7.5549     0.0097     0.1933    50.8717     2.3905
  376.0000    16.2045    14.6143    -3.7530     7.5994     0.0112     0.1999    52.8143     2.3665
  376.5000    15.9833    14.6178    -4.0509     7.6439     0.0111     0.2026    55.9536     2.3590
  377.0000    15.7652    14.7217    -4.1984     7.6883     0.0126     0.2050    58.0459     2.3657
  377.5000    15.5500    14.7248    -4.1949     7.7178     0.0111     0.2071    58.9406     2.3650
  378.0000    15.3380    14.8297    -4.1921     7.7023     0.0096     0.2083    59.5359     2.3598
  378.5000    15.0248    14.7306    -4.1895     7.6719     0.0079     0.2060    59.9814     2.3665
  379.0000    14.9221    14.6321    -4.1865     7.6116     0.0051     0.1975    60.1276     2.3703
  379.5000    14.7184    14.5349    -4.3339     7.5364     0.0051     0.2074    59.8238     2.3598
  380.0000    14.5178    14.5378    -4.3304     7.4760     0.0057     0.2080    59.3114     2.3568
  380.5000    14.3196    14.5413    -4.3275     7.4157     0.0071     0.2044    58.4686     2.3658
  381.0000    14.1241    14.4434    -4.3247     7.3703     0.0095     0.2029    57.7166     2.3666
  381.5000    13.9314    14.4469    -4.3218     7.3627     0.0065     0.2140    56.8148     2.3606
  382.0000    13.7414    14.5499    -4.9198     7.3545     0.0095     0.2140    56.0628     2.3507
  382.5000    13.7425    14.5534    -5.3681     7.3690     0.0110     0.2089    55.1602     2.3448
  383.0000    13.4617    14.6571    -5.5709     7.3686     0.0125     0.2023    54.1088     2.3606
  383.5000    13.3697    14.7615    -5.8135     7.3831     0.0154     0.1918    53.9564     2.3748
  384.0000    13.2788    15.0734    -6.1114     7.4125     0.0169     0.1855    57.5449     2.3833
  384.5000    13.3719    15.2867    -6.4093     7.4420     0.0184     0.1831    63.0794     2.3879
  385.0000    13.4654    15.5023    -6.7072     7.4621     0.0199     0.1774    62.0280     2.3951
  385.5000    13.7481    15.9395    -7.1548     7.4785     0.0183     0.1702    60.2280     2.4116
  386.0000    14.0368    16.3891    -7.3024     7.5156     0.0183     0.1578    60.6736     2.4349
  386.5000    15.3562    17.0864    -7.2988     7.5450     0.0168     0.1428    63.5135     2.4477
  387.0000    17.0329    17.5683    -7.4463     7.5801     0.0122     0.1218    63.8103     2.4657
  387.5000    18.6336    17.8161    -7.2931     7.6115     0.0019     0.1093    60.8119     2.5032
  388.0000    19.8295    17.8196    -7.2902     7.6420    -0.0086     0.0789    56.9161     2.5580
  388.5000    21.1025    17.8232    -6.9860     7.6631    -0.0176     0.0774    55.5644     2.5482
  389.0000    21.9965    17.5821    -6.3816     7.6926    -0.0115     0.0777    54.8124     2.5550
  389.5000    21.9979    17.3443    -5.9277     7.6921    -0.0042     0.0786    53.3119     2.5633
  390.0000    21.8480    17.1105    -5.4737     7.6915     0.0003     0.0792    51.0628     2.5640
  390.5000    20.5333    16.6478    -5.3198     7.6911     0.0048     0.0825    49.8608     2.5550
  391.0000    18.1349    16.1975    -5.4673     7.6907     0.0079     0.0931    50.9052     2.5385
  391.5000    16.4651    15.6517    -5.7652     7.6903     0.0107     0.1296    55.6921     2.4897
  392.0000    15.4741    15.1236    -5.9128     7.7048     0.0122     0.1608    63.3233     2.4327
  392.5000    14.8474    14.6066    -6.0603     7.7493     0.0151     0.1875    64.8159     2.4035
  393.0000    14.5440    14.0237    -6.2078     7.7787     0.0151     0.1894    64.5130     2.3877
  393.5000    14.2467    13.7382    -6.3553     7.8082     0.0121     0.1911    63.7610     2.3847
  394.0000    13.9556    13.3672    -6.2014     7.8228     0.0091     0.1929    62.5599     2.3765
  394.5000    13.4829    13.2779    -6.1985     7.8373     0.0061     0.1944    61.5076     2.3713
  395.0000    13.2076    13.1891    -6.1950     7.8368     0.0031     0.1962    61.2046     2.3735
  395.5000    13.2085    13.1690    -6.3433     7.8364     0.0001     0.1983    61.0514     2.3743
  396.0000    13.2093    13.0133    -6.4901     7.8210    -0.0014     0.2034    60.7485     2.3668
  396.5000    13.0292    13.0165    -6.6376     7.8055     0.0016     0.2154    60.2950     2.3570
  397.0000    13.0301    12.8405    -6.6341     7.7751     0.0048     0.2055    60.1418     2.3548
  397.5000    13.0309    12.6669    -6.9327     7.7747     0.0090     0.1998    60.4376     2.3668
  398.0000    13.0318    12.4962    -7.0795     7.7743     0.0105     0.1890    61.3323     2.3811
  398.5000    13.0328    12.4987    -7.2271     7.7588     0.0105     0.1944    63.8728     2.3875
  399.0000    13.0337    12.5017    -7.5242     7.7434     0.0120     0.1995    65.2175     2.3778
  399.5000    12.9446    12.5908    -7.5214     7.7130     0.0105     0.1998    64.6143     2.3691
  400.0000    13.0354    12.6805    -7.6696     7.6976     0.0119     0.1986    61.3155     2.3668
  400.5000    13.0364    12.5946    -7.5894     7.6658     0.0119     0.1992    59.8072     2.3661
  401.0000    12.9473    12.5924    -7.2119     7.6340     0.0148     0.2010    59.7960     2.3669
  401.5000    12.8591    12.5904    -7.0446     7.6022     0.0163     0.2016    59.6178     2.3669
  402.0000    13.0390    12.5029    -6.9048     7.5704     0.0177     0.2016    58.1240     2.3669
  402.5000    13.2213    12.5019    -6.7516     7.5325     0.0177     0.2022    55.7175     2.3676
  403.0000    13.2222    12.5011    -6.7488     7.5175     0.0176     0.2022    55.5786     2.3640
  403.5000    13.2230    12.5003    -6.7459     7.5174     0.0161     0.1992    60.3330     2.3708
  404.0000    13.2239    12.4995    -6.7699     7.5323     0.0176     0.1910    64.0642     2.3805
  404.5000    13.2250    12.4985    -6.8907     7.5472     0.0175     0.1859    61.8075     2.3888
  405.0000    13.3175    12.5844    -7.1880     7.5621     0.0175     0.1783    61.7565     2.3950
  405.5000    13.4106    12.5834    -7.4858     7.5920     0.0174     0.1712    64.7762     2.4114
  406.0000    13.4115    12.5826    -7.7830     7.6069     0.0189     0.1721    67.1601     2.4166
