~VERSION INFORMATION
 VERS.                2.0:   CWLS LOG ASCII STANDARD - VERSION 2.0
 WRAP.                 NO:   ONE LINE PER DEPTH STEP
~WELL INFORMATION
#MNEM.UNIT      DATA TYPE    INFORMATION
#----------   ------------   ------------------------------
 STRT.F           32.0000:   START DEPTH
 STOP.F          757.0000:   STOP DEPTH
 STEP.F            0.5000:   STEP LENGTH
 NULL.          -999.2500:   NO VALUE
 COMP. FENIX & SCISSON INC:   COMPANY
 WELL.     88 S 34 #88-34:   WELL
 FLD .             NPR #3:   FIELD
 LOC .      S34 T39N R78W:   LOCATION
 CNTY.            NATRONA:   COUNTY
 STAT.            WYOMING:   STATE
 CTRY. UNITED STATES OF AMERICA:   COUNTRY
 SRVC.              Welex:   SERVICE COMPANY
 DATE.        10-MAY-1977:   LOGDATE
 API .       490251035800:   API NUMBER
~CURVE INFORMATION
#MNEM.UNIT       API CODE    CURVE DESCRIPTION
#----------   ------------   ------------------------------
 DEPT.F                  :   
 GURD.OHMM   07 220 05 00:   SHALLOW GUARD RESISTIVITY
 ILD .OHMM   07 120 46 00:   INDUCTION LOG DEEP
 ILM .OHMM   07 120 44 00:   INDUCTION LOG MEDIUM
 SPR .MV     07 010 01 00:   SPONTANEOUS POTENTIAL FROM RES.
 CALD.IN     45 280 60 00:   CALIPER FROM DENSITY LOG
 CORR.G/C3   45 356 01 00:   DENSITY CORRECTION
 DPHI.DEC    45 890 12 00:   DENSITY POROSITY SANDSTONE
 GRD .GAPI   45 310 01 00:   GAMMA RAY FROM DENSITY LOG
 RHOB.G/C3   45 350 01 00:   BULK DENSITY
~PARAMETER INFORMATION
#MNEM.UNIT          VALUE    DESCRIPTION
#----------   ------------   ------------------------------
 PD  .                 GL:   PERMANENT DATUM
 EPD .F              5094:   ELEVATION PERMANENT DATUM
 LMF .                 GL:   LOG MEASURED FROM
 DMF .                 GL:   DRILLING MEASURED FROM
 EGL .F              5094:   GROUND LEVEL
 DATE.        10-MAY-1977:   RUN DATE
 RUN .                  1:   RUN NUMBER
 DD  .F               760:   DEPTH DRILLER
 DL  .F               759:   DEPTH LOGGER
 BLI .F               757:   BOTTOM LOG INTERVAL
 TLI .F                30:   TOP LOG INTERVAL
 CS  .IN            8.625:   CASING SIZE
 CBD .F                40:   CASING BOTTOM DRILLER
 CBL .F                45:   CASING BOTTOM LOGGER
 BS  .IN            7.875:   BIT SIZE
 BSD .F               760:   BIT SIZE AT DEPTH
 DFT .            KCL MUD:   DRILLING FLUID TYPE
 DFD .                9.0:   DRILLING FLUID DENSITY
 DFV .                 33:   DRILLING FLUID VISCOSITY
 DFPH.                7.5:   DRILLING FLUID PH
 DFL .                7.4:   DRILLING FLUID LOSS
 MSS .           FLOWLINE:   MUD SAMPLE SOURCE
 RMS .OHMM           0.33:   RESISTIVITY MUD SAMPLE
 MST .F                70:   MUD SAMPLE TEMPERATURE
 RMF .OHMM           0.28:   RESISTIVITY MUD FILTRATE SAMPLE
 MFST.F                70:   MUD FILTRATE SAMPLE TEMPERATURE
 RMC .OHMM           0.40:   RESISTIVITY MUD CAKE
 MCST.F                70:   MUD CAKE SAMPLE TEMPERATURE
 MFSS.           FANN KIT:   MUD FILTRATE SAMPLE SOURCE
 MCSS.           FANN KIT:   MUD CAKE SAMPLE SOURCE
 RMB .OHMM           0.26:   RESISTIVITY MUD AT BHT
 BHT .F                86:   BOTTOM HOLE TEMPERATURE
 TCS .HRS             1.5:   TIME CURCULATED STOPPED
 MRT .F                86:   MAXIMUM RECORDED TEMPERATURE
 LUN .               8611:   LOGGING UNIT NUMBER
 LUL .             CASPER:   LOGGING UNIT LOCATION
 ENGI.            C. DOAK:   RECORDING ENGINEER
 WITN.         D. RHOADES:   WITNESSED BY
 CLNT.            A2DTECH:   CLIENT CODE
 ORIG.           5" PRINT:   ORIGIN OF DATA
 UWI .       490251035800:   UNIQUE WELL ID
 DICO. A2D Technologies, Inc.:   DIGITIZING COMPANY
~OTHER INFORMATION
~A   DEPT     GURD        ILD        ILM        SPR         CALD      CORR      DPHI         GRD        RHOB 
# ...
  689.0000    13.1482    10.1120    10.1659   -32.7217     7.8525    -0.0011     0.1493    96.9970     2.4336
  689.5000    13.2427    10.1112     9.8898   -32.7243     7.8528    -0.0011     0.1568    98.6771     2.4156
  690.0000    13.2454    10.2149    11.6755   -32.7274     7.8531    -0.0010     0.1516   100.0000     2.4239
  690.5000    13.2480    10.3214    12.4263   -32.8793     7.8534     0.0005     0.1492   100.1501     2.4291
  691.0000    13.2505    10.3207    12.6009   -33.1809     7.8537     0.0050     0.1486   100.7507     2.4307
  691.5000    13.2532    10.3916    11.9552   -33.1837     7.8540     0.0065     0.1516   101.5015     2.4262
  692.0000    13.3485    10.3194    10.4595   -33.1866     7.8448     0.0050     0.1480   100.1141     2.4292
  692.5000    13.3511    10.2371     9.9669   -33.3384     7.8246     0.0050     0.1495    98.3484     2.4345
  693.0000    13.2617    10.0368    10.7554   -33.4903     7.8249     0.0035     0.1523    97.2973     2.4292
  693.5000    13.2644     9.6289    11.2121   -33.6429     7.8252     0.0051     0.1552    96.9970     2.4225
  694.0000    13.1755     9.3660    10.3081   -34.0928     7.8105     0.0051     0.1513    97.7477     2.4240
  694.5000    13.1788     9.1734     9.9035   -34.5428     7.8258     0.0051     0.1468    99.9078     2.4353
  695.0000    13.2729     9.3778    10.2533   -34.6947     7.8261     0.0036     0.1438   102.7027     2.4375
  695.5000    13.1834     9.8276    10.6152   -34.9956     7.8264     0.0036     0.1401   104.6547     2.4421
  696.0000    13.0958    10.0328    10.9141   -35.1548     7.8267     0.0051     0.1470   104.9550     2.4488
  696.5000    13.0984    10.2420    11.2235   -35.3000     7.8270     0.0066     0.1527   103.7538     2.4211
  697.0000    12.9970    10.2413    11.6983   -35.6009     7.8273     0.0082     0.1515   104.2212     2.4251
  697.5000    12.8345    10.1701    12.0277   -35.7528     7.8276     0.0097     0.1482   105.2553     2.4324
  698.0000    12.7486    10.0993    12.1967   -35.9047     7.8429     0.0112     0.1431   106.3063     2.4399
  698.5000    12.5766    10.1688    12.2829   -36.2201     7.8582     0.0082     0.1446   105.8559     2.4444
  699.0000    12.6664    10.1680    12.1999   -36.5072     7.8585     0.0082     0.1503   104.6547     2.4347
  699.5000    12.8576    10.3087    12.0341   -36.5101     7.8588     0.0048     0.1554   103.0749     2.4215
  700.0000    13.0945    10.3794    12.2031   -36.8103     7.8582    -0.0035     0.1578   101.0510     2.4122
  700.5000    13.3027    10.2988    12.0186   -36.6893     7.8530    -0.0187     0.1575   102.5305     2.4153
  701.0000    13.2137    10.2181    11.8477   -36.6704     7.8479    -0.0277     0.1572   103.7476     2.4154
  701.5000    13.2170    10.1375    11.8706   -36.8248     7.8431    -0.0307     0.1560   104.6461     2.4162
  702.0000    13.2197    10.1694    11.7889   -36.9782     7.8279    -0.0292     0.1506   105.5430     2.4229
  702.5000    13.3138    10.1703    11.6271   -36.9825     7.8126    -0.0247     0.1458   106.1408     2.4305
  703.0000    13.3167    10.1008    11.4675   -36.9869     7.8123    -0.0187     0.1452   106.4389     2.4335
  703.5000    13.3194    10.1016    11.7889   -37.1402     7.8269    -0.0157     0.1477   105.3843     2.4268
  704.0000    13.1817    10.1023    11.8706   -37.2936     7.8267    -0.0157     0.1548   102.8289     2.4163
  704.5000    13.0519    10.1030    11.6271   -37.5961     7.8264    -0.0217     0.1596   104.1774     2.4089
  705.0000    12.9639    10.0341    11.3886   -37.8995     7.8561    -0.0277     0.1632   104.3240     2.4067
  705.5000    12.7009    10.0348    11.4675   -37.9038     7.8557    -0.0307     0.1659   104.7716     2.4007
  706.0000    12.4420     9.8979    11.6271   -37.9082     7.8705    -0.0322     0.1692   106.4285     2.3955
  706.5000    12.1056     9.8304    11.5470   -37.9125     7.8852    -0.0337     0.1677   108.8193     2.3925
  707.0000    11.7778     9.7634    11.3886   -38.0659     7.8849    -0.0307     0.1635   111.5191     2.3986
  707.5000    11.3798     9.6304    11.0781   -38.0702     7.8845    -0.0277     0.1590   113.4682     2.4054
  708.0000    10.9653     9.6310    10.7019   -38.3726     7.8842    -0.0231     0.1635   111.3633     2.4024
  708.5000    10.4784     9.6316    10.1966   -38.6895     7.8690    -0.0187     0.1590   108.8799     2.4047
  709.0000    10.6265     9.6323     9.9187   -39.1275     7.8537    -0.0157     0.1560   107.0025     2.4123
  709.5000    11.0025     9.6329     9.7826   -39.4299     7.8684    -0.0097     0.1539   106.7001     2.4160
  710.0000    11.2354     9.5673     9.6483   -39.8814     7.8530    -0.0082     0.1503   109.3993     2.4205
  710.5000    11.3941     9.5021     9.7152   -40.3328     7.8378    -0.0067     0.1452   110.4509     2.4303
  711.0000    11.3178     9.3726     9.6452   -40.6352     7.8225    -0.0082     0.1398   111.3448     2.4379
  711.5000    11.3150     9.0552     9.3634   -40.9376     7.8221    -0.0082     0.1383   112.9936     2.4454
  712.0000    11.1669     8.5691     8.9422   -41.2400     7.8219    -0.0082     0.1392   114.4923     2.4469
  712.5000    10.9404     8.0534     8.2306   -41.5425     7.8366    -0.0067     0.1446   114.9399     2.4365
  713.0000    10.5707     7.4649     7.5757   -41.8459     7.8513    -0.0067     0.1482   115.0872     2.4290
  713.5000    10.2136     6.9674     6.8772   -41.7001     7.9110    -0.0067     0.1434   112.2308     2.4328
  714.0000     9.6658     6.3488     6.4181   -41.8545     7.9407    -0.0067     0.1422   112.9787     2.4373
  714.5000     8.8367     5.8637     6.0730   -41.8589     8.0003    -0.0112     0.1428   115.2281     2.4381
  715.0000     7.7503     5.7439     5.9074   -41.7019     8.0450    -0.0172     0.1456   117.3274     2.4329
  715.5000     5.2117     5.8241     5.9138   -41.5684     8.0597    -0.0127     0.1519   117.1736     2.4255
  716.0000     9.9454     5.9876     6.0730   -41.2758     7.9394    -0.0067     0.1477   116.7204     2.4279
  716.5000    13.2989     6.1984     6.2431   -41.2802     7.8492    -0.0037     0.1447   113.7145     2.4338
  717.0000    11.1905     6.3723     6.6898   -41.2855     7.7889     0.0007     0.1402   108.9069     2.4436
  717.5000    10.5169     6.6423     7.1190   -41.2899     7.7286     0.0022     0.1315   109.1441     2.4616
  718.0000    11.0412     6.8389     7.6811   -41.2942     7.7133     0.0023     0.1309   111.3029     2.4609
  718.5000    11.3531     7.3175     8.1177   -41.2985     7.6980    -0.0012     0.1363   112.2009     2.4533
  719.0000    11.3607     7.7872     8.5814   -41.3029     7.6828    -0.0097     0.1423   113.0990     2.4445
  719.5000    11.5963     8.1733     8.9511   -41.1571     7.6824    -0.0067     0.1399   114.1472     2.4407
  720.0000    12.0067     8.6380     9.2106   -40.8645     7.6821    -0.0007     0.1345   115.1947     2.4475
  720.5000    12.3459     9.0040     9.5819   -40.5624     7.6968    -0.0007     0.1323   116.5432     2.4551
  721.0000    12.4340     9.3209     9.8504   -39.9800     7.6965     0.0007     0.1288   118.3421     2.4590
  721.5000    12.6972     9.6489    10.1264   -39.5373     7.7132     0.0007     0.1237   117.7387     2.4656
  722.0000    12.8766     9.9326    10.4102   -38.6474     7.7409    -0.0037     0.1219   115.0324     2.4709
  722.5000    12.9686    10.3402    10.7019   -39.3969     7.7556    -0.0157     0.1279   113.0776     2.4567
  723.0000    12.8818    10.7041    11.0023   -39.8483     7.7553    -0.0247     0.1471   111.2730     2.4373
  723.5000    13.0644    11.0046    11.2424   -39.8527     7.7535    -0.0310     0.1549   109.3182     2.4208
  724.0000    13.5267    11.2357    11.6271   -39.8570     7.7397    -0.0397     0.1561   107.5055     2.4133
  724.5000    14.0054    11.3143    11.9529   -39.8614     7.7394    -0.0397     0.1447   107.6601     2.4239
  725.0000    14.4011    11.2372    12.3731   -39.8659     7.7391    -0.0382     0.1369   109.0087     2.4374
