~VERSION INFORMATION
 VERS.                2.0:   CWLS LOG ASCII STANDARD - VERSION 2.0
 WRAP.                 NO:   ONE LINE PER DEPTH STEP
~WELL INFORMATION
#MNEM.UNIT      DATA TYPE    INFORMATION
#----------   ------------   ------------------------------
 STRT.F          690.5000:   START DEPTH
 STOP.F         2366.0000:   STOP DEPTH
 STEP.F            0.5000:   STEP LENGTH
 NULL.          -999.2500:   NO VALUE
 COMP. LAWRENCE/ALLISON INC:   COMPANY
 WELL.  NPR 3 #26SHX10-10:   WELL
 FLD .             TEAPOT:   FIELD
 LOC .      S10 T38N R78W:   LOCATION
 CNTY.            NATRONA:   COUNTY
 STAT.            WYOMING:   STATE
 CTRY. UNITED STATES OF AMERICA:   COUNTRY
 SRVC.            Unknown:   SERVICE COMPANY
 DATE.        30-DEC-1992:   LOGDATE
 API .       490251113600:   API NUMBER
~CURVE INFORMATION
#MNEM.UNIT       API CODE    CURVE DESCRIPTION
#----------   ------------   ------------------------------
 DEPT.F                  :   
 ROP .MIN/FT 91 810 01 00:   RATE OF DRILLING PENETRATION
 TGAS.UNITS  91 830 01 00:   TOTAL GAS FROM HOTWIRE
~PARAMETER INFORMATION
#MNEM.UNIT          VALUE    DESCRIPTION
#----------   ------------   ------------------------------
 EKB .F              5235:   KELLING BUSHING
 EGL .F              5225:   GROUND LEVEL
 DATE.           12-30-92:   RUN DATE
 DD  .F              2365:   DEPTH DRILLER
 BLI .F              2360:   BOTTOM LOG INTERVAL
 TLI .F              2160:   TOP LOG INTERVAL
 CS  .IN            8.625:   CASING SIZE
 CBD .F               675:   CASING BOTTOM DRILLER
 TCS .HRS            0200:   TIME CURCULATED STOPPED
 TLAB.HRS            1700:   TIME LOGGER AT BOTTOM
 ENGI.               HUSK:   RECORDING ENGINEER
 WITN.              TOWER:   WITNESSED BY
 CLNT.            A2DTECH:   CLIENT CODE
 ORIG.           5" PRINT:   ORIGIN OF DATA
 UWI .       490251113600:   UNIQUE WELL ID
 DICO. A2D Technologies, Inc.:   DIGITIZING COMPANY
~OTHER INFORMATION
~A   DEPT      ROP         TGAS 
# ...
 1419.5000     1.4956   114.9511
 1420.0000     1.5169   116.0512
 1420.5000     1.5310   116.0924
 1421.0000     1.6228   116.1337
 1421.5000     1.6969   116.1749
 1422.0000     1.7920   115.1290
 1422.5000     1.8028   113.0810
 1423.0000     1.8030   113.1325
 1423.5000     1.8032   112.1047
 1424.0000     1.8034   111.0871
 1424.5000     1.8036   110.0695
 1425.0000     1.8038   109.0519
 1425.5000     1.8040   109.1035
 1426.0000     1.8042   108.0847
 1426.5000     1.8045   107.0682
 1427.0000     1.8047   104.9920
 1427.5000     1.8049   105.0435
 1428.0000     1.8051   104.0260
 1428.5000     1.8053   104.0672
 1429.0000     1.8055   103.0497
 1429.5000     1.8057   103.0909
 1430.0000     1.8059   103.1322
 1430.5000     1.8061   103.1734
 1431.0000     1.8063   102.1558
 1431.5000     1.8066   102.1976
 1432.0000     1.8068   101.1795
 1432.5000     1.8070   101.2311
 1433.0000     1.8072   101.2723
 1433.5000     1.8074   100.2445
 1434.0000     1.8076   100.2960
 1434.5000     1.8078   100.3373
 1435.0000     1.8080    99.3094
 1435.5000     1.8082    99.3610
 1436.0000     1.8084    99.4162
 1436.5000     1.7981   100.5035
 1437.0000     1.7773   100.5539
 1437.5000     1.7564   100.5951
 1438.0000     1.6616   100.6364
 1438.5000     1.5247   100.6776
 1439.0000     1.4300   100.7189
 1439.5000     1.3458   100.7601
 1440.0000     1.3038   101.8602
 1440.5000     1.3146   101.9015
 1441.0000     1.3781   101.9435
 1441.5000     1.4652   101.9943
 1442.0000     1.5702   102.0355
 1442.5000     1.5475   102.0768
 1443.0000     1.4950   102.1180
 1443.5000     1.4108   102.1593
 1444.0000     1.3055   102.2005
 1444.5000     1.2108   103.3006
 1445.0000     1.1371   103.3419
 1445.5000     1.0741   103.3835
 1446.0000     1.0215   103.4209
 1446.5000     1.0006   103.1768
 1447.0000     1.0008   102.9583
 1447.5000     1.0011   102.7398
 1448.0000     1.0224   102.5212
 1448.5000     1.0859   102.3027
 1449.0000     1.1810   102.0841
 1449.5000     1.2445   101.8656
 1450.0000     1.2869   101.6471
 1450.5000     1.2446    99.5294
 1451.0000     1.1601    99.5294
 1451.5000     1.0651    99.5294
 1452.0000     1.0439    99.5294
 1452.5000     1.0543    98.4706
 1453.0000     1.0966    98.4706
 1453.5000     1.1623    97.4118
 1454.0000     1.2439    97.4118
 1454.5000     1.3176    97.4118
 1455.0000     1.3281    97.4118
 1455.5000     1.2963    97.4118
 1456.0000     1.3068    97.4118
 1456.5000     1.3172    97.4118
 1457.0000     1.3487    98.4706
 1457.5000     1.4439   100.5882
 1458.0000     1.5188   101.6471
 1458.5000     1.5383   102.7059
 1459.0000     1.4432   102.7059
 1459.5000     1.3693   102.7059
 1460.0000     1.3375   103.7647
 1460.5000     1.3163   103.7647
 1461.0000     1.3690   103.7647
 1461.5000     1.5271   104.8235
 1462.0000     1.5587   104.8235
 1462.5000     1.5251   104.8235
 1463.0000     1.4951   104.8235
 1463.5000     1.4950   104.8235
 1464.0000     1.4949   104.8235
 1464.5000     1.5159   104.8235
 1465.0000     1.5580   105.8824
 1465.5000     1.6634   105.8824
 1466.0000     1.7899   105.8824
 1466.5000     1.7429   105.8824
 1467.0000     1.4837   105.8824
 1467.5000     1.3676   105.8824
 1468.0000     1.2726   105.8824
 1468.5000     1.2725   105.8824
 1469.0000     1.2724   105.8824
 1469.5000     1.2933   105.8824
 1470.0000     1.2932   105.8824
 1470.5000     1.2826   105.8824
 1471.0000     1.2815   105.8824
 1471.5000     1.2718   105.8824
 1472.0000     1.2823   105.8824
 1472.5000     1.3454   105.8824
 1473.0000     1.4508   105.8824
 1473.5000     1.5140   105.8824
 1474.0000     1.5350   105.8824
 1474.5000     1.5349   105.8824
 1475.0000     1.5348   105.8824
 1475.5000     1.5347   105.8824
 1476.0000     1.5240   105.8824
 1476.5000     1.5239   105.8824
 1477.0000     1.5238   105.8824
 1477.5000     1.5237   105.8824
 1478.0000     1.5236   105.8824
 1478.5000     1.5552   105.8824
 1479.0000     1.6289   105.8824
 1479.5000     1.7033   105.8824
 1480.0000     1.7764   105.8824
 1480.5000     1.7341   105.8824
 1481.0000     1.6601   104.8235
 1481.5000     1.6073   104.8235
 1482.0000     1.5650   104.8235
 1482.5000     1.5227   103.7647
 1483.0000     1.4909   102.7059
 1483.5000     1.4803   102.7059
 1484.0000     1.4802   102.7059
 1484.5000     1.5133   102.7059
 1485.0000     1.5854   102.7059
 1485.5000     1.6486   102.7059
 1486.0000     1.7013   102.7059
 1486.5000     1.7961   102.7059
 1487.0000     1.8171   102.7059
 1487.5000     1.8697   102.7059
 1488.0000     1.9751   102.7059
 1488.5000     1.9539   102.7059
 1489.0000     1.9116   102.7059
 1489.5000     1.9009   102.7059
 1490.0000     1.8586   102.7059
 1490.5000     1.7847   101.6471
 1491.0000     1.7529   101.6471
 1491.5000     1.6579   101.6471
 1492.0000     1.5312   101.6471
 1492.5000     1.5202   101.6471
 1493.0000     1.7365   101.6471
 1493.5000     1.9317   101.6471
 1494.0000     1.9738   101.6471
 1494.5000     1.9526   101.6471
 1495.0000     1.8998   101.6471
 1495.5000     1.8258   100.5882
 1496.0000     1.6991    99.5294
 1496.5000     1.4459    95.2550
 1497.0000     1.2559    90.9254
 1497.5000     1.0744    88.9412
 1498.0000     0.9709    85.7647
 1498.5000     0.9708    84.7059
 1499.0000     0.9707    84.7059
 1499.5000     0.9706    84.7059
 1500.0000     1.0304    84.7059
 1500.5000     1.2348    87.9156
 1501.0000     1.4568    89.0052
 1501.5000     1.6366    89.0365
 1502.0000     1.8376    88.0154
 1502.5000     1.9175    86.9874
 1503.0000     2.0813    87.0181
 1503.5000     2.1768    87.0488
 1504.0000     2.2671    87.0795
 1504.5000     2.2121    87.1102
 1505.0000     1.9568    87.1412
 1505.5000     1.8941    87.1729
 1506.0000     1.7995    87.2100
 1506.5000     1.8423    86.1742
 1507.0000     1.8745    86.2126
 1507.5000     1.9706    86.2434
 1508.0000     1.9810    86.2741
 1508.5000     1.9709    85.2459
 1509.0000     1.9716    84.2178
 1509.5000     1.9721    84.2562
 1510.0000     1.9831    83.2205
 1510.5000     2.0472    83.2589
 1511.0000     2.1531    83.2896
 1511.5000     2.2590    83.3203
 1512.0000     2.3123    83.3510
 1512.5000     2.2810    83.3823
 1513.0000     2.2710    83.4201
 1513.5000     2.2716    83.4508
 1514.0000     2.2722    84.5404
 1514.5000     2.2833    84.5711
 1515.0000     2.2838    84.6018
 1515.5000     2.2843    85.6913
 1516.0000     2.2848    85.7224
 1516.5000     2.2537    85.7604
 1517.0000     2.1876    85.7912
 1517.5000     2.0228    85.8219
 1518.0000     1.9389    86.9114
 1518.5000     1.9288    86.9421
 1519.0000     1.8237    86.9728
 1519.5000     1.8455    87.0036
 1520.0000     1.8678    88.0941
 1520.5000     1.9521    90.2491
 1521.0000     2.0264    90.2753
 1521.5000     2.0375    91.3694
 1522.0000     2.0591    91.4001
 1522.5000     2.0385    90.3643
 1523.0000     2.0390    90.4027
 1523.5000     2.0397    90.4341
 1524.0000     2.0402    90.4718
 1524.5000     2.0301    90.5025
 1525.0000     2.0306    90.5332
 1525.5000     2.0311    90.5640
 1526.0000     2.0316    90.5947
 1526.5000     2.0322    90.6254
 1527.0000     2.0328    90.6565
 1527.5000     2.0226    90.6945
 1528.0000     2.0022    90.7252
 1528.5000     1.9605    90.7559
 1529.0000     1.8344    90.7867
 1529.5000     1.8244    90.8174
 1530.0000     1.8776    90.8481
 1530.5000     2.1152    90.8788
 1531.0000     2.3324    89.8507
 1531.5000     2.5860    88.8303
 1532.0000     2.6287    88.8610
 1532.5000     2.4710    88.8917
 1533.0000     1.9968    88.9224
 1533.5000     1.7291    88.9531
 1534.0000     1.5443    88.9838
 1534.5000     1.5449    89.0153
 1535.0000     1.5454    90.1118
 1535.5000     1.5459    89.0760
 1536.0000     1.5464    82.7614
 1536.5000     1.5364    71.1451
 1537.0000     1.5370    49.9993
 1537.5000     1.5375    39.4418
 1538.0000     1.6224    38.4137
 1538.5000     1.7073    38.4521
 1539.0000     1.7606    38.4828
 1539.5000     1.7927    38.5135
 1540.0000     1.8249    38.5443
 1540.5000     1.8255    38.5729
