~VERSION INFORMATION
 VERS.                2.0:   CWLS LOG ASCII STANDARD - VERSION 2.0
 WRAP.                 NO:   ONE LINE PER DEPTH STEP
~WELL INFORMATION
#MNEM.UNIT      DATA TYPE    INFORMATION
#----------   ------------   ------------------------------
 STRT.F           78.5000:   START DEPTH
 STOP.F         1021.0000:   STOP DEPTH
 STEP.F            0.5000:   STEP LENGTH
 NULL.          -999.2500:   NO VALUE
 COMP. U S NAVY/INTEX OIL CO:   COMPANY
 WELL.     NRR 3 ##65S-11:   WELL
 FLD .             TEAPOT:   FIELD
 LOC .      S11 T38N R78W:   LOCATION
 CNTY.            NATRONA:   COUNTY
 STAT.            WYOMING:   STATE
 CTRY. UNITED STATES OF AMERICA:   COUNTRY
 SRVC.       Schlumberger:   SERVICE COMPANY
 DATE.        09-MAR-1960:   LOGDATE
 API .       490250634100:   API NUMBER
~CURVE INFORMATION
#MNEM.UNIT       API CODE    CURVE DESCRIPTION
#----------   ------------   ------------------------------
 DEPT.F                  :   
 SPR .MV     05 010 01 00:   SPONTANEOUS POTENTIAL FROM RES.
 ILD .OHMM   05 120 46 00:   INDUCTION LOG DEEP
 CILD.MMHO   05 110 00 00:   CONDUCTIVITY INDUCTION LOG
 ASN .OHMM   05 041 16 00:   AMPLIFIED SHORT NORMAL 16"
~PARAMETER INFORMATION
#MNEM.UNIT          VALUE    DESCRIPTION
#----------   ------------   ------------------------------
 PD  .                 GL:   PERMANENT DATUM
 EPD .F              5227:   ELEVATION PERMANENT DATUM
 LMF .                 KB:   LOG MEASURED FROM
 DAPD.F                 5:   FEET ABOVE PERMANENT DATUM
 DMF .                 KB:   DRILLING MEASURED FROM
 EKB .F              5232:   KELLING BUSHING
 EGL .F              5227:   GROUND LEVEL
 DATE.             3-9-60:   RUN DATE
 RUN .                  1:   RUN NUMBER
 DD  .F              1025:   DEPTH DRILLER
 DL  .F              1026:   DEPTH LOGGER
 BLI .F              1021:   BOTTOM LOG INTERVAL
 TLI .F                80:   TOP LOG INTERVAL
 CBD .F                12:   CASING BOTTOM DRILLER
 BS  .IN            7.875:   BIT SIZE
 BSD .F              1025:   BIT SIZE AT DEPTH
 DFT .          OIL EMULS:   DRILLING FLUID TYPE
 DFD .               10.2:   DRILLING FLUID DENSITY
 DFV .                 36:   DRILLING FLUID VISCOSITY
 DFPH.                7.5:   DRILLING FLUID PH
 DFL .                  4:   DRILLING FLUID LOSS
 MSS .          FLOW LINE:   MUD SAMPLE SOURCE
 RMS .OHMM           2.18:   RESISTIVITY MUD SAMPLE
 MST .F                64:   MUD SAMPLE TEMPERATURE
 RMF .OHMM           1.17:   RESISTIVITY MUD FILTRATE SAMPLE
 MFST.F                63:   MUD FILTRATE SAMPLE TEMPERATURE
 RMC .OHMM           2.02:   RESISTIVITY MUD CAKE
 MCST.F                64:   MUD CAKE SAMPLE TEMPERATURE
 MFSS.                  M:   MUD FILTRATE SAMPLE SOURCE
 MCSS.                  M:   MUD CAKE SAMPLE SOURCE
 TCS .HRS             .75:   TIME CURCULATED STOPPED
 LUN .               2795:   LOGGING UNIT NUMBER
 LUL .               CSPR:   LOGGING UNIT LOCATION
 ENGI.              SCOTT:   RECORDING ENGINEER
 WITN.          JORGENSEN:   WITNESSED BY
 CLNT.            A2DTECH:   CLIENT CODE
 ORIG.           2" PRINT:   ORIGIN OF DATA
 UWI .       490250634100:   UNIQUE WELL ID
 DICO. A2D Technologies, Inc.:   DIGITIZING COMPANY
~OTHER INFORMATION
~A   DEPT      SPR        ILD       CILD        ASN   
# ...
  297.5000   -60.6077     6.1138   166.3201     7.8067
  298.0000   -60.5095     6.1618   167.0867     7.6787
  298.5000   -60.4114     6.2091   167.8532     7.6727
  299.0000   -60.3128     6.2571   168.6197     7.7361
  299.5000   -60.2152     6.3036   168.2581     7.7990
  300.0000   -60.1159     6.3495   167.4483     7.8587
  300.5000   -60.0194     6.3101   166.6386     7.9250
  301.0000   -59.9126     6.2296   165.8463     7.9755
  301.5000   -59.9478     6.1562   164.8416     7.9233
  302.0000   -60.0249     6.0790   165.2549     7.7926
  302.5000   -60.0931     6.0043   166.8104     7.6341
  303.0000   -60.1655     5.9277   168.3634     7.5211
  303.5000   -60.2360     5.8527   169.9194     7.4752
  304.0000   -60.3071     5.7713   171.8102     7.4614
  304.5000   -60.3791     5.7711   171.5540     7.4677
  305.0000   -60.4484     5.7905   171.1878     7.4989
  305.5000   -60.5227     5.8038   170.8216     7.5479
  306.0000   -60.5876     5.8222   170.4555     7.5917
  306.5000   -60.6726     5.8338   170.0893     7.6393
  307.0000   -60.6703     5.8579   170.3206     7.5995
  307.5000   -60.5399     5.8203   171.8312     7.5259
  308.0000   -60.4227     5.6832   174.2124     7.3686
  308.5000   -60.2972     5.5512   178.3748     7.1705
  309.0000   -60.1767     5.4154   182.5371     6.9756
  309.5000   -60.0525     5.2807   186.6994     6.7853
  310.0000   -59.9321     5.1479   190.8617     6.5763
  310.5000   -59.8064     5.0085   195.0240     6.4053
  311.0000   -59.6898     4.8807   199.1864     6.4058
  311.5000   -59.5546     4.8297   203.9078     6.4128
  312.0000   -59.5032     4.7681   203.9078     6.4233
  312.5000   -59.5527     4.8219   203.5400     6.4315
  313.0000   -59.5863     4.8603   202.6189     6.4427
  313.5000   -59.6283     4.9075   201.6913     6.4700
  314.0000   -59.6657     4.9497   200.7549     6.5036
  314.5000   -59.7057     4.9946   199.8125     6.5444
  315.0000   -59.7442     5.0382   198.8685     6.5980
  315.5000   -59.7837     5.0823   197.9247     6.6514
  316.0000   -59.8219     5.1262   196.8996     6.7235
  316.5000   -59.8628     5.1700   195.2012     6.8204
  317.0000   -59.8893     5.2141   193.3421     6.9143
  317.5000   -59.8039     5.2560   191.4830     6.9230
  318.0000   -59.7050     5.2519   189.6239     6.9171
  318.5000   -59.6086     5.2401   187.7648     6.9159
  319.0000   -59.5109     5.2298   185.9057     6.9104
  319.5000   -59.4142     5.2190   184.7325     6.9113
  320.0000   -59.3162     5.2080   184.3970     6.9002
  320.5000   -59.2204     5.1979   184.0956     6.9477
  321.0000   -59.1207     5.1860   183.7924     7.0487
  321.5000   -59.0281     5.1775   183.4860     7.1574
  322.0000   -58.9229     5.1621   183.1773     7.1847
  322.5000   -58.9141     5.1867   182.8599     7.1105
  323.0000   -58.9832     5.2541   181.6484     7.0599
  323.5000   -59.0366     5.3153   180.4052     6.9875
  324.0000   -59.0978     5.3796   179.1569     6.9961
  324.5000   -59.1546     5.4428   177.9065     7.0832
  325.0000   -59.2141     5.5052   176.6540     7.1545
  325.5000   -59.2717     5.5707   175.4080     7.2399
  326.0000   -59.3314     5.6301   174.7977     7.3064
  326.5000   -59.3876     5.6772   175.8014     7.4516
  327.0000   -59.4507     5.5501   179.8887     7.4057
  327.5000   -59.4814     5.2953   183.8107     7.1369
  328.0000   -59.3734     5.0627   191.4362     6.8544
  328.5000   -59.2681     4.8180   200.8938     6.4270
  329.0000   -59.1618     4.5818   212.1723     6.0384
  329.5000   -59.0565     4.3377   223.4509     5.6340
  330.0000   -58.9506     4.1036   234.7295     5.2423
  330.5000   -58.8449     3.8542   246.0080     4.8815
  331.0000   -58.7388     3.7400   252.0040     5.0245
  331.5000   -58.6332     3.7853   252.0040     5.3048
  332.0000   -58.5269     4.0530   249.0950     5.5813
  332.5000   -58.4221     4.3439   240.5037     5.8500
  333.0000   -58.3148     4.6264   228.9820     6.1251
  333.5000   -58.2111     4.9130   214.8839     6.3968
  334.0000   -58.0961     5.1966   200.7618     6.6703
  334.5000   -58.1710     5.4835   186.6230     6.9420
  335.0000   -58.3084     5.7656   175.8004     7.2141
  335.5000   -58.4337     6.0522   167.1919     7.4107
  336.0000   -58.5642     6.2251   160.1603     7.5555
  336.5000   -58.6933     6.3138   154.8096     7.6998
  337.0000   -58.8205     6.4120   152.7378     7.8441
  337.5000   -58.9536     6.5053   150.8787     7.9895
  338.0000   -59.0746     6.6005   149.0196     8.1278
  338.5000   -59.2228     6.6964   147.1605     8.2655
  339.0000   -59.2720     6.7885   145.3014     8.3876
  339.5000   -59.1695     6.8906   143.4423     8.4308
  340.0000   -59.0856     6.9443   141.7836     8.4318
  340.5000   -58.9911     6.7943   141.7836     8.4065
  341.0000   -58.9025     6.6439   145.8517     8.1961
  341.5000   -58.8107     6.3921   149.3763     7.9954
  342.0000   -58.7205     6.1578   152.9008     7.7930
  342.5000   -58.6297     5.9217   155.8116     7.5912
  343.0000   -58.5392     5.6869   164.0882     7.3915
  343.5000   -58.4487     5.4510   171.1373     7.2071
  344.0000   -58.3582     5.2160   178.1864     6.8752
  344.5000   -58.2674     4.9798   183.8677     6.5996
  345.0000   -58.1772     4.7457   196.5789     6.3119
  345.5000   -58.0857     4.5078   207.2245     6.0222
  346.0000   -57.9968     4.2771   217.8700     5.7383
  346.5000   -57.9029     4.0316   224.8311     5.4509
  347.0000   -57.8182     3.8626   230.2977     5.1609
  347.5000   -57.7151     3.8508   235.7644     5.0378
  348.0000   -57.7119     3.8816   239.9800     5.1027
  348.5000   -57.8177     4.1052   239.9800     5.4354
  349.0000   -57.9060     4.3036   238.9780     5.7520
  349.5000   -58.0041     4.5090   226.7525     5.9917
  350.0000   -58.0955     4.7079   216.8838     6.1105
  350.5000   -58.1938     4.9341   207.0150     6.2318
  351.0000   -58.2681     4.9986   196.8583     6.2796
  351.5000   -58.1774     5.0398   189.2031     6.3342
  352.0000   -58.0675     5.0848   187.7439     6.3744
  352.5000   -57.9608     5.1348   185.7136     6.4078
  353.0000   -57.8532     5.1658   185.7725     6.3899
  353.5000   -57.7454     5.1632   185.8010     6.2335
  354.0000   -57.6389     5.1367   187.6525     6.0951
  354.5000   -57.5296     4.9391   190.6040     5.9592
  355.0000   -57.4255     4.5607   197.3242     5.7944
  355.5000   -57.3126     4.1698   212.9525     5.5747
  356.0000   -57.2782     3.7829   231.6103     5.2811
  356.5000   -57.3066     3.3887   251.7601     4.8716
  357.0000   -57.3234     3.0090   276.6995     4.4060
  357.5000   -57.3460     2.5898   301.7101     3.8764
  358.0000   -57.3654     2.2336   326.7256     3.5317
  358.5000   -57.3867     2.1252   351.6916     3.4297
  359.0000   -57.4067     1.9747   376.0059     3.3807
  359.5000   -57.4279     1.9318   395.2805     3.4892
  360.0000   -57.4473     2.1052   405.3106     3.5823
  360.5000   -57.4697     2.2690   404.3086     3.6706
  361.0000   -57.4689     2.6278   374.5792     3.9273
  361.5000   -57.4071     3.1011   335.1703     4.4676
  362.0000   -57.3491     3.5448   297.5110     5.0298
  362.5000   -57.2908     4.0073   254.0080     5.4329
  363.0000   -57.2317     4.4541   220.6079     5.4049
  363.5000   -57.1751     4.9242   201.9038     5.4109
  364.0000   -57.1125     4.8945   201.9038     5.4307
  364.5000   -57.0802     4.6823   203.8293     5.4710
  365.0000   -57.1528     4.4733   206.1790     5.5052
  365.5000   -57.2199     4.3289   208.5287     5.5373
  366.0000   -57.2886     4.2965   210.8784     5.5352
  366.5000   -57.3561     4.2339   213.1311     5.4775
  367.0000   -57.4246     4.1958   215.5000     5.3660
  367.5000   -57.4923     4.0653   219.4555     5.2142
  368.0000   -57.5612     3.8317   228.5549     5.0030
  368.5000   -57.6278     3.6071   240.9606     4.7956
  369.0000   -57.6986     3.3753   253.0887     4.5841
  369.5000   -57.7613     3.1499   271.5224     4.3767
  370.0000   -57.8420     2.9164   291.1299     4.1639
