~VERSION INFORMATION
 VERS.                2.0:   CWLS LOG ASCII STANDARD - VERSION 2.0
 WRAP.                 NO:   ONE LINE PER DEPTH STEP
~WELL INFORMATION
#MNEM.UNIT      DATA TYPE    INFORMATION
#----------   ------------   ------------------------------
 STRT.F           30.0000:   START DEPTH
 STOP.F          526.0000:   STOP DEPTH
 STEP.F            0.5000:   STEP LENGTH
 NULL.          -999.2500:   NO VALUE
 COMP. FENIX & SCISSON INC:   COMPANY
 WELL.       NPR #37-SX-3:   WELL
 FLD .             TEAPOT:   FIELD
 LOC .       S3 T38N R78W:   LOCATION
 CNTY.            NATRONA:   COUNTY
 STAT.            WYOMING:   STATE
 CTRY. UNITED STATES OF AMERICA:   COUNTRY
 SRVC.              Welex:   SERVICE COMPANY
 DATE.        10-MAR-1977:   LOGDATE
 API .       490251028600:   API NUMBER
~CURVE INFORMATION
#MNEM.UNIT       API CODE    CURVE DESCRIPTION
#----------   ------------   ------------------------------
 DEPT.F                  :   
 ILD .OHMM   07 120 46 00:   INDUCTION LOG DEEP
 ILM .OHMM   07 120 44 00:   INDUCTION LOG MEDIUM
 SPR .MV     07 010 01 00:   SPONTANEOUS POTENTIAL
 SGRD.OHMM   07 220 05 00:   SHALLOW RESISTIVITY
 GRD .GAPI   45 310 01 00:   GAMMA RAY FROM DENSITY LOG
 CALD.IN     45 280 60 00:   CALIPER
 CORR.G/C3   45 356 01 00:   DENSITY CORRECTION
 RHOB.G/C3   45 350 01 00:   BULK DENSITY
 DPOR.DEC    45 890 12 00:   DENSITY POROSITY SANDSTONE
~PARAMETER INFORMATION
#MNEM.UNIT          VALUE    DESCRIPTION
#----------   ------------   ------------------------------
 PD  .                 GL:   PERMANENT DATUM
 EPD .F              5232:   ELEVATION PERMANENT DATUM
 LMF .                 GL:   LOG MEASURED FROM
 DMF .                 GL:   DRILLING MEASURED FROM
 EGL .F              5232:   GROUND LEVEL
 DATE.            3-10-77:   RUN DATE
 RUN .                  1:   RUN NUMBER
 DD  .F               530:   DEPTH DRILLER
 DL  .F               528:   DEPTH LOGGER
 BLI .F               526:   BOTTOM LOG INTERVAL
 TLI .F                35:   TOP LOG INTERVAL
 CS  .IN            8.625:   CASING SIZE
 CBD .F                40:   CASING BOTTOM DRILLER
 CBL .F                42:   CASING BOTTOM LOGGER
 BS  .IN            7.875:   BIT SIZE
 BSD .F               530:   BIT SIZE AT DEPTH
 DFT .            KCL MUD:   DRILLING FLUID TYPE
 DFD .                8.8:   DRILLING FLUID DENSITY
 DFV .                 32:   DRILLING FLUID VISCOSITY
 DFPH.                  8:   DRILLING FLUID PH
 DFL .                7.7:   DRILLING FLUID LOSS
 MSS .            MUD PIT:   MUD SAMPLE SOURCE
 RMS .OHMM            .48:   RESISTIVITY MUD SAMPLE
 MST .F                47:   MUD SAMPLE TEMPERATURE
 RMF .OHMM            .43:   RESISTIVITY MUD FILTRATE SAMPLE
 MFST.F                47:   MUD FILTRATE SAMPLE TEMPERATURE
 RMC .OHMM            .52:   RESISTIVITY MUD CAKE
 MCST.F                47:   MUD CAKE SAMPLE TEMPERATURE
 MFSS.           FANN KIT:   MUD FILTRATE SAMPLE SOURCE
 MCSS.           FANN KIT:   MUD CAKE SAMPLE SOURCE
 RMB .OHMM            .41:   RESISTIVITY MUD AT BHT
 BHT .F                55:   BOTTOM HOLE TEMPERATURE
 TCS .HRS             1.5:   TIME CURCULATED STOPPED
 MRT .F                55:   MAXIMUM RECORDED TEMPERATURE
 LUN .               8611:   LOGGING UNIT NUMBER
 LUL .           GILLETTE:   LOGGING UNIT LOCATION
 ENGI.               DOAK:   RECORDING ENGINEER
 WITN.              BURKE:   WITNESSED BY
 CLNT.            A2DTECH:   CLIENT CODE
 ORIG.       2", 5" PRINT:   ORIGIN OF DATA
 UWI .       490251028600:   UNIQUE WELL ID
 DICO. A2D Technologies, Inc.:   DIGITIZING COMPANY
~OTHER INFORMATION
~A   DEPT      ILD        ILM        SPR       SGRD         GRD        CALD      CORR        RHOB     DPOR   
# ...
  103.0000     8.0631    10.2442   -51.2599  -999.2500   117.9451     7.9913     0.0741     2.5500     1.1358
  103.5000     8.0224    10.6572   -51.0392  -999.2500   117.9270     7.9918     0.0746     2.5616     1.1557
  104.0000     7.9819    10.8533   -50.9683  -999.2500   118.1989     7.9923     0.0750     2.5716     1.1702
  104.5000     7.9417     9.9609   -51.1921  -999.2500   121.8164     7.9928     0.0754     2.5652     1.1520
  105.0000     7.9016     9.7951   -51.4128  -999.2500   123.8155     7.9933     0.0759     2.5435     1.1172
  105.5000     7.8617     9.7724   -51.5273  -999.2500   123.9670     7.9938     0.0756     2.5290     1.0863
  106.0000     7.8220     9.7530   -51.5886  -999.2500   125.3427     7.9943     0.0740     2.5254     1.0797
  106.5000     7.7826     9.7331   -51.6468  -999.2500   127.5677     7.9948     0.0724     2.5315     1.0928
  107.0000     7.7433     9.7063   -51.6107  -999.2500   127.0204     7.9953     0.0709     2.5277     1.0858
  107.5000     7.7042     9.6660   -51.3936  -999.2500   125.6720     7.9958     0.0693     2.5223     1.0764
  108.0000     7.6653     9.6260   -51.1792  -999.2500   124.2846     7.9963     0.0677     2.5169     1.0656
  108.5000     7.6265     9.5861   -50.9643  -999.2500   124.5183     7.9968     0.0662     2.5134     1.0547
  109.0000     7.5884     9.5464   -50.7496  -999.2500   125.1724     7.9973     0.0646     2.5104     1.0502
  109.5000     7.5553     9.5069   -50.5349  -999.2500   125.7574     7.9978     0.0631     2.5064     1.0465
  110.0000     7.5237     9.4675   -50.3199  -999.2500   126.8505     7.9983     0.0632     2.5005     1.0281
  110.5000     7.4920     9.4283   -50.1037  -999.2500   129.1620     7.9987     0.0658     2.5049     1.0399
  111.0000     7.4605     9.3892   -49.9073  -999.2500   130.7547     7.9992     0.0684     2.5150     1.0549
  111.5000     7.4291     9.3503   -49.9880  -999.2500   129.9075     7.9997     0.0710     2.5228     1.0702
  112.0000     7.3979     9.3116   -50.0721  -999.2500   128.8237     8.0002     0.0736     2.5276     1.0852
  112.5000     7.3667     9.2731   -50.4184  1034.1960   127.7241     8.0007     0.0762     2.5324     1.0933
  113.0000     7.3358     9.2346   -50.8578   295.5484   126.6269     8.0012     0.0773     2.5308     1.0887
  113.5000     7.3098     9.1964   -51.2963    75.9866   125.4267     8.0017     0.0734     2.5231     1.0732
  114.0000     7.4036     9.1583   -51.7477    17.5043   124.1672     8.0016     0.0696     2.5155     1.0580
  114.5000     7.4856     9.1141   -51.4547    16.4938   123.1855     8.0008     0.0659     2.5079     1.0428
  115.0000     7.5685     9.1743   -50.8269    16.1748   122.5785     7.9999     0.0621     2.5005     1.0262
  115.5000     7.6523     9.2471   -50.1873    15.8619   121.0836     7.9991     0.0594     2.5064     1.0398
  116.0000     7.7370     9.3205   -49.5489    15.5328   120.6320     7.9982     0.0578     2.5178     1.0600
  116.5000     7.8227     9.3945   -48.9103    15.8944   120.3846     7.9974     0.0563     2.5261     1.0804
  117.0000     7.9093     9.4690   -48.2736    16.2941   119.6956     7.9965     0.0586     2.5345     1.1010
  117.5000     7.9969     9.5442   -47.6378    16.7042   117.2700     7.9956     0.0614     2.5432     1.1220
  118.0000     8.0854     9.6199   -47.4816    17.1843   116.4747     7.9948     0.0642     2.5421     1.1201
  118.5000     8.1749     9.6963   -47.9939    16.8171   119.2715     7.9939     0.0657     2.5282     1.0649
  119.0000     8.2376     9.7535   -48.5078    16.3970   119.3830     7.9931     0.0640     2.5126     1.0553
  119.5000     8.2376     9.8023   -49.0296    15.9671   117.3040     7.9922     0.0624     2.5032     1.0363
  120.0000     8.2376     9.8514   -49.2280    12.9402   115.9235     7.9913     0.0608     2.4958     1.0165
  120.5000     8.2376     9.9007   -49.4988    12.2309   116.8139     7.9905     0.0601     2.4919     1.0159
  121.0000     8.2376     9.9503   -49.7674    13.6054   118.6008     7.9896     0.0601     2.4983     1.0228
  121.5000     8.2378    10.0001   -50.0466    15.6762   117.8623     7.9888     0.0601     2.5045     1.0297
  122.0000     8.2380    10.0501   -50.0180    15.3373   116.8139     7.9879     0.0591     2.5005     1.0282
  122.5000     8.2228    10.0838   -49.9124    14.9609   119.0793     7.9871     0.0580     2.4939     1.0099
  123.0000     8.1147     9.8977   -49.8053    14.5938   120.3442     7.9862     0.0570     2.4920     1.0100
  123.5000     8.0080     9.7599   -49.6986    14.1687   118.9984     7.9853     0.0563     2.4938     1.0146
  124.0000     7.9027     9.6241   -49.5923    14.3513   117.8936     7.9845     0.0577     2.4957     1.0162
  124.5000     7.7988     9.4902   -49.5220    14.5648   120.1905     7.9836     0.0590     2.4974     1.0179
  125.0000     7.6962     9.3581   -49.6636    14.0584   123.5704     7.9828     0.0601     2.4952     1.0194
  125.5000     7.5950     9.2279   -49.8022    13.6572   122.5824     7.9819     0.0596     2.4929     1.0095
  126.0000     7.4952     9.0995   -49.9404    13.6572   120.5510     7.9810     0.0592     2.4907     1.0042
  126.5000     7.3966     8.9480   -50.0785    14.8351   120.4033     7.9802     0.0588     2.4891     1.0079
  127.0000     7.3394     8.9753   -50.2166    14.6063   122.3950     7.9793     0.0584     2.4886     1.0078
  127.5000     7.2926     9.0095   -50.3547    14.2380   124.0193     7.9785     0.0592     2.4881     1.0058
  128.0000     7.2460     9.0437   -50.4928    13.9108   123.8333     7.9776     0.0617     2.4877     1.0036
  128.5000     7.1997     9.0781   -50.6312    13.9096   121.0372     7.9767     0.0642     2.4907     1.0174
  129.0000     7.1537     9.1141   -50.7703    13.7501   118.1317     7.9759     0.0667     2.5063     1.0428
  129.5000     7.1080     9.2501   -50.8915    13.4567   116.9658     7.9750     0.0694     2.5208     1.0682
  130.0000     7.0465     9.4313   -50.7235    13.2857   116.2981     7.9742     0.0697     2.5270     1.0916
  130.5000     7.1345     9.6161   -50.5347    14.2704   115.6706     7.9733     0.0690     2.5310     1.0894
  131.0000     7.2804     9.8045   -50.3465    15.2450   116.5150     7.9725     0.0682     2.5301     1.0858
  131.5000     7.4280     9.9001   -50.1586    14.7186   119.5553     7.9716     0.0675     2.5229     1.0717
  132.0000     7.5786     9.9001   -49.9708    13.6617   123.1645     7.9707     0.0668     2.5146     1.0579
  132.5000     7.7322     9.9001   -49.7830    13.7791   126.8172     7.9699     0.0661     2.5065     1.0442
  133.0000     7.8082     9.9001   -49.5952    14.0390   128.7427     7.9690     0.0654     2.5047     1.0389
  133.5000     7.8296     9.9001   -49.4074    13.9012   128.1008     7.9682     0.0646     2.5073     1.0422
  134.0000     7.8511     9.9001   -49.2195    13.6581   127.3912     7.9673     0.0640     2.5100     1.0455
  134.5000     7.8726     9.9001   -49.0317    13.7721   126.9233     7.9665     0.0632     2.5084     1.0470
  135.0000     7.8942     9.9001   -48.8439    13.9025   127.8077     7.9656     0.0623     2.5042     1.0355
  135.5000     7.9158     9.9001   -48.6554    14.0359   127.5622     7.9647     0.0614     2.4999     1.0237
  136.0000     7.9375     9.9001   -48.4670    14.1692   125.1054     7.9639     0.0605     2.4956     1.0229
  136.5000     7.9593     9.9001   -48.3008    14.2995   123.1578     7.9630     0.0589     2.4913     1.0117
  137.0000     7.9812     9.9001   -48.6465    13.8125   123.9992     7.9622     0.0567     2.4857     0.9994
  137.5000     8.0131     9.9001   -49.0687    13.3578   125.1229     7.9626     0.0546     2.4790     0.9872
  138.0000     8.0022     9.9001   -49.4911    12.8061   123.8777     7.9632     0.0523     2.4723     0.9749
  138.5000     7.9798     9.9000   -49.3946    12.9545   122.7408     7.9637     0.0502     2.4682     0.9673
  139.0000     7.9575     9.8982   -48.7775    13.2857   125.2706     7.9642     0.0523     2.4703     0.9698
