~VERSION INFORMATION
 VERS.                2.0:   CWLS LOG ASCII STANDARD - VERSION 2.0
 WRAP.                 NO:   ONE LINE PER DEPTH STEP
~WELL INFORMATION
#MNEM.UNIT      DATA TYPE    INFORMATION
#----------   ------------   ------------------------------
 STRT.F           37.5000:   START DEPTH
 STOP.F          525.5000:   STOP DEPTH
 STEP.F            0.5000:   STEP LENGTH
 NULL.          -999.2500:   NO VALUE
 COMP. LAWRENCE/ALLISON INC:   COMPANY
 WELL.    74-11 SX #10-10:   WELL
 FLD .             TEAPOT:   FIELD
 LOC .      S10 T38N R78W:   LOCATION
 CNTY.            NATRONA:   COUNTY
 STAT.            WYOMING:   STATE
 CTRY. UNITED STATES OF AMERICA:   COUNTRY
 SRVC.            Unknown:   SERVICE COMPANY
 DATE.        08-AUG-1984:   LOGDATE
 API .       490251097800:   API NUMBER
~CURVE INFORMATION
#MNEM.UNIT       API CODE    CURVE DESCRIPTION
#----------   ------------   ------------------------------
 DEPT.F                  :   
 CNC .DEC    42 890 03 00:   NEUTRON POROSITY SANDSTONE
 AC  .US/F   60 520 00 00:   ACCOUSTIC
 GRD .GAPI   45 310 01 00:   GAMMA RAY FROM DENSITY LOG
 CALD.IN     45 280 60 00:   CALIPER FROM DENSITY LOG
 CORR.G/C3   45 356 01 00:   DENSITY CORRECTION
 DPHI.DEC    45 890 12 00:   DENSITY POROSITY SANDSTONE
 DEN .G/C3   45 350 01 00:   COMPENSATED BULK DENSTIY
 RILD.OHMM   07 120 46 00:   RESISTIVITY INDUCTION LOG DEEP
 RILM.OHMM   07 120 44 00:   RESISTIVITY INDUCTION LOG MEDIUM
 RFOC.OHMM   07 220 04 00:   RESISTIVITY FOCUSED LOG
 SPR .MV     07 010 01 00:   SPONTANEOUS POTENTIAL FROM RES.
~PARAMETER INFORMATION
#MNEM.UNIT          VALUE    DESCRIPTION
#----------   ------------   ------------------------------
 PD  .                 GL:   PERMANENT DATUM
 EPD .F              5180:   ELEVATION PERMANENT DATUM
 LMF .                 GL:   LOG MEASURED FROM
 DMF .                 GL:   DRILLING MEASURED FROM
 EGL .F              5180:   GROUND LEVEL
 DATE.             8-8-84:   RUN DATE
 RUN .                  1:   RUN NUMBER
 DD  .F               525:   DEPTH DRILLER
 DL  .F               526:   DEPTH LOGGER
 BLI .F               525:   BOTTOM LOG INTERVAL
 TLI .F                42:   TOP LOG INTERVAL
 CS  .IN            9.625:   CASING SIZE
 CBD .F                42:   CASING BOTTOM DRILLER
 CBL .F                42:   CASING BOTTOM LOGGER
 BS  .IN            7.875:   BIT SIZE
 BSD .F               525:   BIT SIZE AT DEPTH
 DFT .          KCL WATER:   DRILLING FLUID TYPE
 MSS .           FLOWLINE:   MUD SAMPLE SOURCE
 RMS .OHMM           .141:   RESISTIVITY MUD SAMPLE
 MST .F                78:   MUD SAMPLE TEMPERATURE
 RMF .OHMM            .12:   RESISTIVITY MUD FILTRATE SAMPLE
 MFST.F                78:   MUD FILTRATE SAMPLE TEMPERATURE
 RMC .OHMM             .2:   RESISTIVITY MUD CAKE
 MCST.F                78:   MUD CAKE SAMPLE TEMPERATURE
 MFSS.               MEAS:   MUD FILTRATE SAMPLE SOURCE
 MCSS.               MEAS:   MUD CAKE SAMPLE SOURCE
 RMB .OHMM            .13:   RESISTIVITY MUD AT BHT
 BHT .F                89:   BOTTOM HOLE TEMPERATURE
 MRT .F                89:   MAXIMUM RECORDED TEMPERATURE
 LUN .               6307:   LOGGING UNIT NUMBER
 LUL .               GLTE:   LOGGING UNIT LOCATION
 ENGI.            JOHNSON:   RECORDING ENGINEER
 WITN.              FIVAS:   WITNESSED BY
 CLNT.            A2DTECH:   CLIENT CODE
 ORIG.           5" PRINT:   ORIGIN OF DATA
 UWI .       490251097800:   UNIQUE WELL ID
 DICO. A2D Technologies, Inc.:   DIGITIZING COMPANY
~OTHER INFORMATION
~A   DEPT      CNC         AC        GRD       CALD       CORR       DPHI        DEN       RILD       RILM       RFOC        SPR   
# ...
  129.0000     0.0491   104.2710   168.6730     8.1370     0.0690     0.1460     2.4380     8.0210     7.6490   671.7075   -90.0910
  129.5000     0.0481   104.4020   167.3640     8.1360     0.0630     0.1470     2.4350     7.8030     7.3680   705.6144   -88.6720
  130.0000     0.0468   104.4740   177.3310     8.1360     0.0480     0.1500     2.4300     7.5840     7.0870   535.6089   -87.2490
  130.5000     0.0468   105.1080   179.2920     8.1350     0.0340     0.1550     2.4230     7.3660     6.8060   466.7594   -87.1910
  131.0000     0.0467   105.6880   177.0220     8.1340     0.0410     0.1590     2.4160     7.1470     6.4130   467.3624   -87.3940
  131.5000     0.0467   107.0190   178.3380     8.1330     0.0470     0.1640     2.4090     6.8400     6.4480   480.9449   -87.5190
  132.0000     0.0466   108.0200   179.3080     8.1330     0.0320     0.1650     2.4050     6.8820     6.5070   494.9222   -85.5190
  132.5000     0.0466   108.5220   174.6790     8.1320     0.0260     0.1620     2.4070     6.9520     6.6060   512.8423   -83.4110
  133.0000     0.0465   108.1310   170.5930     8.1310     0.0470     0.1550     2.4180     7.0230     6.7330   589.5349   -81.2810
  133.5000     0.0465   107.2840   173.2820     8.1310     0.0510     0.1530     2.4250     7.0960     6.8610   492.9392   -79.1900
  134.0000     0.0471   106.4370   179.0830     8.1300     0.0400     0.1530     2.4270     7.2540     6.9880   412.2373   -79.3870
  134.5000     0.0498   105.4860   184.6340     8.1290     0.0290     0.1490     2.4300     7.4170     7.1190   398.6039   -81.0410
  135.0000     0.0497   105.4170   183.1200     8.1280     0.0300     0.1450     2.4340     7.5800     7.2690   421.7006   -82.4270
  135.5000     0.0497   105.3390   180.8300     8.1280     0.0550     0.1440     2.4380     7.7430     7.4190   458.6568   -79.6060
  136.0000     0.0500   105.2610   178.5380     8.1270     0.0410     0.1490     2.4350     7.8640     7.5690   593.0660   -76.5790
  136.5000     0.0499   105.1830   176.2420     8.1260     0.0120     0.1530     2.4310     7.9570     7.7190   676.9450   -74.2070
  137.0000     0.0498   105.1050   173.8780     8.1260     0.0150     0.1520     2.4260     8.0490     7.8530   539.3498   -73.3170
  137.5000     0.0507   105.0260   172.4600     8.1250     0.0270     0.1510     2.4270     8.1410     7.8530   473.4359   -72.0460
  138.0000     0.0507   104.9480   171.2440     8.1240     0.0320     0.1500     2.4290     8.2330     7.8530   457.7786   -68.8060
  138.5000     0.0485   104.8700   170.7790     8.1240     0.0470     0.1490     2.4300     8.2990     7.8530   390.8005   -64.9510
  139.0000     0.0472   104.7920   172.6510     8.1230     0.0580     0.1520     2.4270     8.2090     7.8530   278.6878   -61.2760
  139.5000     0.0471   104.7140   174.5730     8.1220     0.0290     0.1560     2.4220     8.1060     7.7280   267.5696   -57.8910
  140.0000     0.0471   104.8560   170.8830     8.1210    -0.0020     0.1550     2.4180     8.0040     7.5850   341.2806   -58.0710
  140.5000     0.0470   105.2040   166.1330     8.1210     0.0050     0.1530     2.4230     7.9020     7.4420   450.5495   -59.8970
  141.0000     0.0460   105.5510   168.1650     8.1200     0.0170     0.1510     2.4290     7.7990     7.2950   403.7839   -61.7080
  141.5000     0.0454   105.8990   172.3290     8.1190     0.0300     0.1500     2.4310     7.6970     7.2380   332.9832   -63.6840
  142.0000     0.0456   106.2470   173.3680     8.1190     0.0380     0.1490     2.4310     7.5000     7.1070   292.2422   -61.1900
  142.5000     0.0465   106.5940   171.9420     8.1180     0.0430     0.1480     2.4320     7.2000     6.8560   282.5317   -57.5070
  143.0000     0.0471   106.9420   168.2240     8.1170     0.0480     0.1480     2.4320     6.9030     6.4430   336.2709   -57.2790
  143.5000     0.0467   107.3080   164.1640     8.1170     0.0530     0.1510     2.4280     6.4490     6.0290   386.5583   -59.3300
  144.0000     0.0405   107.7890   163.6550     8.1160     0.0580     0.1610     2.4200     6.0000     5.6160   397.7283   -61.3900
  144.5000     0.0389   108.9920   164.3460     8.1150     0.0630     0.1750     2.3980     5.5510     5.2030   310.4259   -61.4320
  145.0000     0.0426   111.4600   165.5760     8.1140     0.0670     0.1930     2.3740     5.0940     4.8200   247.2891   -58.2750
  145.5000     0.0453   113.9280   167.7250     8.1140     0.0650     0.1960     2.3510     5.2610     4.9430   209.6521   -55.7310
  146.0000     0.0474   115.7670   169.8130     8.1130     0.0540     0.1830     2.3670     5.4770     5.1010   271.0905   -52.6600
  146.5000     0.0477   116.4170   170.7770     8.1120     0.0340     0.1720     2.3880     5.6930     5.2590   545.8409   -54.7030
  147.0000     0.0473   113.6720   168.9280     8.1120     0.0110     0.1650     2.4020     5.9080     5.4170   585.4222   -57.4540
  147.5000     0.0470   111.0050   167.4890     8.1110     0.0180     0.1610     2.4090     6.1240     5.5850   447.5327   -63.1590
  148.0000     0.0515   108.3370   167.1320     8.1100     0.0280     0.1580     2.4160     6.4500     5.9990   366.5159   -69.6720
  148.5000     0.0521   106.4060   163.3360     8.1100     0.0380     0.1550     2.4230     6.8140     6.4400   328.4197   -76.9840
  149.0000     0.0521   105.6440   157.8430     8.1090     0.0320     0.1530     2.4240     7.1790     6.8810   308.8890   -75.5560
  149.5000     0.0514   104.8790   153.9260     8.1080     0.0330     0.1520     2.4250     7.5130     7.1800   294.5209   -70.7010
  150.0000     0.0498   104.8790   156.7960     8.1070     0.0430     0.1520     2.4270     7.7800     7.3650   273.2429   -65.9770
  150.5000     0.0491   104.8790   159.8510     8.1070     0.0520     0.1520     2.4280     8.0730     7.5970   256.9935   -61.2750
  151.0000     0.0485   104.8790   157.4370     8.1060     0.0570     0.1510     2.4280     8.2120     7.8530   251.9166   -56.6120
  151.5000     0.0481   104.8790   155.6840     8.1050     0.0470     0.1490     2.4320     8.3660     7.8530   339.6595   -54.5010
  152.0000     0.0558   104.7610   158.8620     8.1050     0.0390     0.1460     2.4400     8.5210     7.9560   525.7274   -53.5790
  152.5000     0.0589   104.2510   160.4380     8.1040     0.0460     0.1420     2.4480     8.6750     8.1060   401.7686   -52.7490
  153.0000     0.0591   103.7410   160.4730     8.1030     0.0520     0.1400     2.4480     8.8300     8.2550   276.8106   -52.8490
  153.5000     0.0578   103.2310   161.5530     8.1030     0.0580     0.1420     2.4460     8.9840     8.4040   323.7165   -53.5990
  154.0000     0.0538   102.7210   168.3440     8.1020     0.0590     0.1430     2.4430     9.1390     8.5530   363.2595   -54.3540
  154.5000     0.0516   102.2110   175.4690     8.1010     0.0560     0.1440     2.4400     9.2940     8.6900   291.4289   -55.1120
  155.0000     0.0509   102.0200   178.3660     8.1000     0.0420     0.1460     2.4380     9.4480     8.5430   251.1055   -55.8770
  155.5000     0.0500   101.9840   166.0470     8.1000     0.0240     0.1450     2.4380     9.5290     8.3770   266.1350   -56.8250
  156.0000     0.0499   101.9470   149.9980     8.0990     0.0260     0.1440     2.4380     9.1350     8.2230   354.4645   -58.4770
  156.5000     0.0505   101.9110   131.5760     8.0980     0.0310     0.1440     2.4390     8.5540     8.2230   468.7516   -60.1180
  157.0000     0.0505   101.8740   125.6820     8.0980     0.0300     0.1460     2.4380     7.9730     8.4730   901.7033   -61.7820
  157.5000     0.0514   101.8420   124.2500     8.0940     0.0110     0.1480     2.4320     7.3920     8.7060  1673.7360   -63.4140
  158.0000     0.0529   101.7470   123.1480     8.0900     0.0070     0.1480     2.4330     6.9670     9.0160   209.8687   -65.0680
  158.5000     0.0541   101.6620   122.1390     8.0860     0.0320     0.1430     2.4400     7.2500     8.8810    58.5219   -65.2770
  159.0000     0.0543   101.4510   121.9500     8.0810     0.0510     0.1370     2.4470     7.6750     8.5930    31.9295   -65.1830
