~VERSION INFORMATION
 VERS.                2.0:   CWLS LOG ASCII STANDARD - VERSION 2.0
 WRAP.                 NO:   ONE LINE PER DEPTH STEP
~WELL INFORMATION
#MNEM.UNIT      DATA TYPE    INFORMATION
#----------   ------------   ------------------------------
 STRT.F          588.0000:   START DEPTH
 STOP.F         1583.5000:   STOP DEPTH
 STEP.F            0.5000:   STEP LENGTH
 NULL.          -999.2500:   NO VALUE
 COMP.   FENIX & SCISSONS:   COMPANY
 WELL.   NPR 3 #23STX1-11:   WELL
 FLD .             TEAPOT:   FIELD
 LOC .      S11 T38N R78W:   LOCATION
 CNTY.            NATRONA:   COUNTY
 STAT.            WYOMING:   STATE
 CTRY. UNITED STATES OF AMERICA:   COUNTRY
 SRVC.            Unknown:   SERVICE COMPANY
 DATE.        15-JUN-1979:   LOGDATE
 API .       490251078300:   API NUMBER
~CURVE INFORMATION
#MNEM.UNIT       API CODE    CURVE DESCRIPTION
#----------   ------------   ------------------------------
 DEPT.F                  :   
 RHOB.G/C3   45 350 01 00:   BULK DENSITY
 DPHI.DEC    45 890 10 00:   DENSITY POROSITY LIMESTONE
 CORR.G/C3   45 356 01 00:   DENSITY CORRECTION
 GRD .GAPI   45 310 01 00:   GAMMA RAY FROM DENSITY LOG
 CALD.IN     45 280 60 00:   CALIPER FROM DENSITY LOG
~PARAMETER INFORMATION
#MNEM.UNIT          VALUE    DESCRIPTION
#----------   ------------   ------------------------------
 PD  .                 GL:   PERMANENT DATUM
 EPD .F              5168:   ELEVATION PERMANENT DATUM
 LMF .                 KB:   LOG MEASURED FROM
 DAPD.F                10:   FEET ABOVE PERMANENT DATUM
 DMF .                 KB:   DRILLING MEASURED FROM
 EKB .F              5178:   KELLING BUSHING
 EGL .F              5168:   GROUND LEVEL
 DATE.            6-15-79:   RUN DATE
 RUN .                  1:   RUN NUMBER
 DD  .F              1580:   DEPTH DRILLER
 DL  .F              1580:   DEPTH LOGGER
 BLI .F              1578:   BOTTOM LOG INTERVAL
 TLI .F               680:   TOP LOG INTERVAL
 CS  .IN            9.625:   CASING SIZE
 CBD .F               660:   CASING BOTTOM DRILLER
 CBL .F               670:   CASING BOTTOM LOGGER
 BS  .IN             8.75:   BIT SIZE
 BSD .F              1580:   BIT SIZE AT DEPTH
 DFT .                OIL:   DRILLING FLUID TYPE
 TCS .HRS               4:   TIME CURCULATED STOPPED
 MRT .F                80:   MAXIMUM RECORDED TEMPERATURE
 LUN .               3029:   LOGGING UNIT NUMBER
 LUL .             CASPER:   LOGGING UNIT LOCATION
 ENGI.            MULLINS:   RECORDING ENGINEER
 CLNT.            A2DTECH:   CLIENT CODE
 ORIG.     1", 2.5" PRINT:   ORIGIN OF DATA
 UWI .       490251078300:   UNIQUE WELL ID
 DICO. A2D Technologies, Inc.:   DIGITIZING COMPANY
~OTHER INFORMATION
~A   DEPT     RHOB       DPHI       CORR         GRD      CALD   
# ...
 1381.0000     2.5392     0.0089     0.0032    92.6700     9.2701
 1381.5000     2.5379     0.0097    -0.0001    95.3617     9.2733
 1382.0000     2.5347     0.0128    -0.0039    97.4928     9.2748
 1382.5000     2.5317     0.0154    -0.0018    95.3038     9.2766
 1383.0000     2.5353     0.0133     0.0037    94.3702     9.2783
 1383.5000     2.5385     0.0116     0.0040    93.1803     9.2801
 1384.0000     2.5388     0.0097     0.0042    92.4327     9.2818
 1384.5000     2.5376     0.0132     0.0029    95.8548     9.2835
 1385.0000     2.5323     0.0169     0.0003   100.3062     9.2852
 1385.5000     2.5259     0.0227    -0.0017    99.0920     9.2870
 1386.0000     2.5186     0.0206    -0.0037    96.3068     9.2887
 1386.5000     2.5229     0.0158     0.0013    93.8151     9.2904
 1387.0000     2.5363     0.0113     0.0067    92.8458     9.2921
 1387.5000     2.5322     0.0164     0.0054    91.9712     9.2939
 1388.0000     2.5225     0.0212     0.0009    91.4212     9.2956
 1388.5000     2.5135     0.0251    -0.0037    94.0086     9.2973
 1389.0000     2.5102     0.0274     0.0025    97.4883     9.2991
 1389.5000     2.5070     0.0298     0.0001    98.4705     9.3008
 1390.0000     2.5034     0.0307    -0.0054    95.0968     9.3025
 1390.5000     2.5113     0.0229    -0.0067    93.6175     9.3043
 1391.0000     2.5215     0.0164    -0.0019    93.7828     9.3060
 1391.5000     2.5311     0.0129     0.0029    92.4585     9.3077
 1392.0000     2.5285     0.0181     0.0020    91.6684     9.3095
 1392.5000     2.5183     0.0231    -0.0019    95.1069     9.3111
 1393.0000     2.5169     0.0204    -0.0038    97.1264     9.3133
 1393.5000     2.5252     0.0147     0.0035    95.8434     9.3092
 1394.0000     2.5388     0.0089     0.0113    94.5644     9.3009
 1394.5000     2.5422     0.0109     0.0057    92.5949     9.2929
 1395.0000     2.5335     0.0175    -0.0001    90.8450     9.2849
 1395.5000     2.5112     0.0267    -0.0078    88.1799     9.2770
 1396.0000     2.5175     0.0203    -0.0032    90.4788     9.2656
 1396.5000     2.5366     0.0113     0.0111    94.3149     9.2493
 1397.0000     2.5378     0.0121     0.0094    97.8318     9.2337
 1397.5000     2.5333     0.0139     0.0069    96.8050     9.2177
 1398.0000     2.5311     0.0154     0.0044    94.2776     9.2003
 1398.5000     2.5316     0.0158     0.0101    91.4747     9.1923
 1399.0000     2.5300     0.0162     0.0121    89.9946     9.2004
 1399.5000     2.5274     0.0176     0.0101    89.5067     9.2072
 1400.0000     2.5256     0.0186     0.0085    88.4964     9.2139
 1400.5000     2.5289     0.0157     0.0068    90.7178     9.2210
 1401.0000     2.5317     0.0134     0.0048    96.8655     9.2282
 1401.5000     2.5361     0.0117     0.0048   101.7507     9.2320
 1402.0000     2.5428     0.0113     0.0073   100.2512     9.2317
 1402.5000     2.5321     0.0162     0.0066    98.4000     9.2317
 1403.0000     2.5250     0.0170     0.0029    96.1776     9.2318
 1403.5000     2.5311     0.0142     0.0001    94.2137     9.2317
 1404.0000     2.5370     0.0113     0.0000    91.9638     9.2311
 1404.5000     2.5429     0.0024     0.0000    92.4879     9.2305
 1405.0000     2.5500     0.0042     0.0001    94.6454     9.2299
 1405.5000     2.5457     0.0087     0.0000    94.3581     9.2293
 1406.0000     2.5329     0.0133     0.0037    92.4127     9.2288
 1406.5000     2.5312     0.0175     0.0079    91.1044     9.2282
 1407.0000     2.5354     0.0158     0.0117    90.8662     9.2276
 1407.5000     2.5355     0.0122     0.0057    91.0454     9.2270
 1408.0000     2.5355     0.0128    -0.0004    92.1153     9.2264
 1408.5000     2.5397     0.0093    -0.0044    93.2015     9.2259
 1409.0000     2.5460     0.0049    -0.0040    93.1342     9.2253
 1409.5000     2.5404     0.0104    -0.0040    91.3567     9.2247
 1410.0000     2.5306     0.0153    -0.0041    88.5593     9.2241
 1410.5000     2.5205     0.0201    -0.0040    89.5430     9.2236
 1411.0000     2.5173     0.0221    -0.0048    93.8089     9.2230
 1411.5000     2.5180     0.0223    -0.0062    94.4914     9.2224
 1412.0000     2.5188     0.0227    -0.0075    95.2684     9.2218
 1412.5000     2.5193     0.0227    -0.0078    96.9874     9.2213
 1413.0000     2.5221     0.0219    -0.0035    97.8839     9.2207
 1413.5000     2.5355     0.0146    -0.0002    96.6208     9.2201
 1414.0000     2.5569     0.0021    -0.0011    96.3999     9.2195
 1414.5000     2.5733    -0.0090    -0.0026    97.8452     9.2190
 1415.0000     2.5722    -0.0093    -0.0041    97.3768     9.2184
 1415.5000     2.5618    -0.0049    -0.0055    97.9798     9.2178
 1416.0000     2.5440     0.0057    -0.0071    98.5299     9.2172
 1416.5000     2.5239     0.0211    -0.0069    99.2473     9.2167
 1417.0000     2.5293     0.0162    -0.0022    98.4416     9.2161
 1417.5000     2.5378     0.0106     0.0026    97.3276     9.2155
 1418.0000     2.5471     0.0057     0.0070    97.3547     9.2149
 1418.5000     2.5454     0.0073     0.0115    98.9594     9.2143
 1419.0000     2.5330     0.0139     0.0023    94.6557     9.2138
 1419.5000     2.5200     0.0219    -0.0076    87.7730     9.2132
 1420.0000     2.5217     0.0187    -0.0115    86.0804     9.2126
 1420.5000     2.5305     0.0134    -0.0060    87.8678     9.2121
 1421.0000     2.5447     0.0073    -0.0005    89.4621     9.2115
 1421.5000     2.5456     0.0065     0.0000    90.8916     9.2109
 1422.0000     2.5441     0.0076     0.0000    91.9793     9.2103
 1422.5000     2.5414     0.0092    -0.0003    94.5520     9.2097
 1423.0000     2.5425     0.0093    -0.0032    97.6012     9.2092
 1423.5000     2.5429     0.0087    -0.0058    98.8995     9.2086
 1424.0000     2.5431     0.0081    -0.0087    95.9952     9.2080
 1424.5000     2.5349     0.0111    -0.0115    96.2596     9.2074
 1425.0000     2.5263     0.0164    -0.0121    96.9349     9.2069
 1425.5000     2.5188     0.0227    -0.0124    96.8964     9.2063
 1426.0000     2.5242     0.0172    -0.0097    96.3078     9.2057
 1426.5000     2.5377     0.0097    -0.0027    94.5520     9.2051
 1427.0000     2.5425     0.0107    -0.0030    95.1494     9.2046
 1427.5000     2.5377     0.0130    -0.0109    93.9094     9.2040
 1428.0000     2.5452     0.0095    -0.0182    89.5280     9.2034
 1428.5000     2.5468     0.0071    -0.0160    86.5022     9.2028
 1429.0000     2.5358     0.0088    -0.0099    89.2672     9.2023
 1429.5000     2.5372     0.0122    -0.0037    93.4450     9.2017
 1430.0000     2.5427     0.0097     0.0021    92.4576     9.2011
 1430.5000     2.5475     0.0067     0.0076    93.3062     9.2005
 1431.0000     2.5511     0.0033     0.0045    93.9366     9.2000
 1431.5000     2.5406     0.0089     0.0013    93.1678     9.1994
 1432.0000     2.5298     0.0154    -0.0023    92.4343     9.1988
 1432.5000     2.5231     0.0192    -0.0058    93.9176     9.1982
 1433.0000     2.5210     0.0205    -0.0091    95.4141     9.1976
 1433.5000     2.5223     0.0195    -0.0121    96.5133     9.1971
 1434.0000     2.5241     0.0166    -0.0065    94.6812     9.1965
 1434.5000     2.5311     0.0101     0.0005    95.0013     9.1959
 1435.0000     2.5428     0.0076     0.0074    90.5105     9.1953
 1435.5000     2.5375     0.0113     0.0012    88.8503     9.1948
 1436.0000     2.5300     0.0202    -0.0059    88.8735     9.1942
 1436.5000     2.5244     0.0185    -0.0053    91.1587     9.1936
 1437.0000     2.5288     0.0159     0.0005    94.4100     9.1930
 1437.5000     2.5330     0.0130     0.0042    96.4332     9.1925
 1438.0000     2.5334     0.0122     0.0018    95.5339     9.1919
 1438.5000     2.5340     0.0113    -0.0036    94.0729     9.1913
 1439.0000     2.5429     0.0068     0.0025    92.5109     9.1910
 1439.5000     2.5535     0.0016    -0.0011    89.2491     9.1917
 1440.0000     2.5489     0.0062    -0.0084    85.8164     9.1934
 1440.5000     2.5393     0.0108    -0.0124    86.3360     9.1951
 1441.0000     2.5299     0.0154    -0.0102    87.2855     9.1968
 1441.5000     2.5253     0.0166    -0.0090    88.3342     9.1985
