~VERSION INFORMATION
 VERS.                2.0:   CWLS LOG ASCII STANDARD - VERSION 2.0
 WRAP.                 NO:   ONE LINE PER DEPTH STEP
~WELL INFORMATION
#MNEM.UNIT      DATA TYPE    INFORMATION
#----------   ------------   ------------------------------
 STRT.F           24.0000:   START DEPTH
 STOP.F          487.5000:   STOP DEPTH
 STEP.F            0.5000:   STEP LENGTH
 NULL.          -999.2500:   NO VALUE
 COMP. FENIX & SCISSON INC:   COMPANY
 WELL.       NPR #35-SX-3:   WELL
 FLD .        TEAPOT DOME:   FIELD
 LOC .       S3 T38N R78W:   LOCATION
 CNTY.            NATRONA:   COUNTY
 STAT.            WYOMING:   STATE
 CTRY. UNITED STATES OF AMERICA:   COUNTRY
 SRVC.       Schlumberger:   SERVICE COMPANY
 DATE.        26-MAR-1977:   LOGDATE
 API .       490251030700:   API NUMBER
~CURVE INFORMATION
#MNEM.UNIT       API CODE    CURVE DESCRIPTION
#----------   ------------   ------------------------------
 DEPT.F                  :   
 SPR .MV     07 010 01 00:   SPONTANEOUS POTENTIAL
 LL8 .OHMM   07 220 08 00:   LATEROLOG-8 RES.
 ILD .OHMM   07 120 46 00:   INDUCTION LOG DEEP
 ILM .OHMM   07 120 44 00:   INDUCTION LOG MEDIUM
 CALD.IN     45 280 60 00:   CALIPER FROM DENSITY LOG
 RHOB.G/C3   45 350 01 00:   BULK DENSITY
 DPOR.DEC    45 890 12 00:   DENSITY POROSITY SANDSTONE
 CORR.G/C3   45 356 01 00:   DENSITY CORRECTION
 GRD .GAPI   45 310 01 00:   GAMMA RAY FROM DENSITY LOG
~PARAMETER INFORMATION
#MNEM.UNIT          VALUE    DESCRIPTION
#----------   ------------   ------------------------------
 PD  .                 GL:   PERMANENT DATUM
 EPD .F          EST 5200:   ELEVATION PERMANENT DATUM
 LMF .                 GL:   LOG MEASURED FROM
 DMF .                 KB:   DRILLING MEASURED FROM
 EKB .F              5205:   KELLING BUSHING
 EGL .F          EST 5200:   GROUND LEVEL
 DATE.            3-26-77:   RUN DATE
 RUN .                  1:   RUN NUMBER
 DD  .F               524:   DEPTH DRILLER
 DL  .F               489:   DEPTH LOGGER
 BLI .F               483:   BOTTOM LOG INTERVAL
 TLI .F                39:   TOP LOG INTERVAL
 CS  .IN            8.625:   CASING SIZE
 CBD .F                40:   CASING BOTTOM DRILLER
 CBL .F                39:   CASING BOTTOM LOGGER
 BS  .IN            7.875:   BIT SIZE
 BSD .F               524:   BIT SIZE AT DEPTH
 DFT .                KCL:   DRILLING FLUID TYPE
 DFD .                8.8:   DRILLING FLUID DENSITY
 DFV .                 31:   DRILLING FLUID VISCOSITY
 DFPH.                  8:   DRILLING FLUID PH
 DFL .                9.1:   DRILLING FLUID LOSS
 MSS .          FLOW LINE:   MUD SAMPLE SOURCE
 RMS .OHMM            .18:   RESISTIVITY MUD SAMPLE
 MST .F                76:   MUD SAMPLE TEMPERATURE
 RMF .OHMM            .15:   RESISTIVITY MUD FILTRATE SAMPLE
 MFST.F                76:   MUD FILTRATE SAMPLE TEMPERATURE
 RMC .OHMM             .1:   RESISTIVITY MUD CAKE
 MCST.F                76:   MUD CAKE SAMPLE TEMPERATURE
 MFSS.                  M:   MUD FILTRATE SAMPLE SOURCE
 MCSS.                  C:   MUD CAKE SAMPLE SOURCE
 RMB .OHMM            .25:   RESISTIVITY MUD AT BHT
 BHT .F                55:   BOTTOM HOLE TEMPERATURE
 TCS .HRS               6:   TIME CURCULATED STOPPED
 MRT .F            EST 55:   MAXIMUM RECORDED TEMPERATURE
 LUN .               5642:   LOGGING UNIT NUMBER
 LUL .               CSPR:   LOGGING UNIT LOCATION
 ENGI.     LOHBECK/MARTIN:   RECORDING ENGINEER
 WITN.         STUEBINGER:   WITNESSED BY
 CLNT.            A2DTECH:   CLIENT CODE
 ORIG.       2", 5" PRINT:   ORIGIN OF DATA
 UWI .       490251030700:   UNIQUE WELL ID
 DICO. A2D Technologies, Inc.:   DIGITIZING COMPANY
~OTHER INFORMATION
~A   DEPT      SPR        LL8        ILD        ILM       CALD       RHOB       DPOR       CORR        GRD   
# ...
  243.0000   -61.8839     5.3565     5.1629     5.4086     8.2820     2.4227     0.1377     0.0199   122.3305
  243.5000   -62.1396     7.2677     5.0780     5.2989     8.2836     2.4259     0.1418     0.0268   120.7064
  244.0000   -62.3952     6.7349     4.9877     5.1913     8.2852     2.4394     0.1311     0.0283   121.4236
  244.5000   -62.4769     5.9300     4.9287     5.1144     8.2867     2.4522     0.1252     0.0186   124.0001
  245.0000   -62.3846     6.7714     5.0207     5.2583     8.2883     2.4540     0.1224     0.0137   126.2014
  245.5000   -62.2923     8.5913     5.2384     5.4607     8.2899     2.4552     0.1201     0.0349   127.5757
  246.0000   -62.1988     8.0318     5.4858     5.7543     8.2914     2.4642     0.1185     0.0403   127.0541
  246.5000   -62.1056     7.2708     5.7448     6.0652     8.2930     2.4720     0.1130     0.0384   123.9681
  247.0000   -62.0133     7.8737     6.0161     6.3920     8.2946     2.4585     0.1177     0.0220   124.0979
  247.5000   -61.9231     8.6866     6.3002     6.7359     8.2962     2.4467     0.1232     0.0017   125.0156
  248.0000   -61.7839     9.6804     6.5977     7.1332     8.2977     2.4514     0.1266     0.0135   124.0445
  248.5000   -61.6519     9.9311     6.9093     7.4134     8.2993     2.4599     0.1078     0.0235   122.9490
  249.0000   -61.5220    10.1628     7.2677     7.7261     8.3009     2.4670     0.1102     0.0211   124.2277
  249.5000   -61.2921    10.4236     7.5047     8.0508     8.3025     2.4594     0.1138     0.0159   125.6979
  250.0000   -61.0717    10.4435     7.7758     8.4245     8.3041     2.4529     0.1170     0.0175   124.7637
  250.5000   -60.8528    10.4719     7.9718     8.5262     8.3056     2.4586     0.1145     0.0189   123.4482
  251.0000   -60.6342    10.5003     7.9189     8.5850     8.3072     2.4644     0.1108     0.0236   122.1014
  251.5000   -60.4155    10.5204     7.8432     8.3701     8.3088     2.4691     0.1090     0.0318   121.9092
  252.0000   -60.1968    10.2629     7.7326     8.2076     8.3104     2.4622     0.1125     0.0241   123.5763
  252.5000   -59.9780    10.0668     7.6236     8.0489     8.3129     2.4555     0.1154     0.0160   125.1046
  253.0000   -59.7586     9.8749     7.5161     7.8933     8.3177     2.4539     0.1157     0.0237   125.2900
  253.5000   -59.5382     9.6870     7.4102     7.7407     8.3225     2.4696     0.1102     0.0315   125.9144
  254.0000   -59.3531     9.5094     7.3057     7.5911     8.3273     2.4769     0.0979     0.0375   126.6021
  254.5000   -59.5403     9.3420     7.2027     7.4444     8.3322     2.4671     0.1089     0.0211   127.3670
  255.0000   -59.7353     9.1777     7.1012     7.3007     8.3370     2.4551     0.1188     0.0236   129.0763
  255.5000   -60.0250     8.7540     6.7552     7.1593     8.3418     2.4427     0.1253     0.0185   130.8259
  256.0000   -60.3375     8.3491     6.3185     7.0209     8.3465     2.4197     0.1415     0.0054   130.6767
  256.5000   -60.6487     8.1971     5.9101     6.4975     8.3513     2.3974     0.1573     0.0193   132.1267
  257.0000   -60.9506     8.0270     5.5280     5.9022     8.3561     2.3693     0.1718     0.0214   134.2343
  257.5000   -61.3813     7.6810     5.1707     5.2998     8.3610     2.3492     0.1858     0.0275   134.1182
  258.0000   -61.7937     6.2309     4.8026     4.7588     8.3658     2.3843     0.1615     0.0252   130.4923
  258.5000   -62.2199     4.6846     4.8583     4.2118     8.3705     2.4344     0.1334     0.0233   124.1601
  259.0000   -62.1886     3.9478     4.9336     4.4528     8.3673     2.4741     0.1133     0.0302   120.3641
  259.5000   -61.6635     5.7288     5.0100     4.8412     8.3630     2.4689     0.1022     0.0286   119.1840
  260.0000   -61.0029     8.0937     5.0877     5.2635     8.3588     2.4620     0.1131     0.0225   119.7009
  260.5000   -60.4549     9.2367     5.3196     5.7226     8.3546     2.4549     0.1223     0.0225   120.8750
  261.0000   -60.1919     9.4397     5.7955     6.2218     8.3504     2.4476     0.1262     0.0157   124.1764
  261.5000   -59.9269     9.6477     6.3140     6.7661     8.3461     2.4531     0.1215     0.0221   127.4383
  262.0000   -59.6619     9.8610     6.8809     7.2691     8.3419     2.4630     0.1098     0.0274   128.5884
  262.5000   -59.3969     9.5611     7.3804     7.5361     8.3377     2.4567     0.1175     0.0148   124.9852
  263.0000   -59.1319     9.2408     7.4633     7.8128     8.3335     2.4497     0.1232     0.0113   120.8022
  263.5000   -58.8665     9.5594     7.5315     8.0106     8.3290     2.4440     0.1263     0.0097   121.3547
  264.0000   -58.6012    10.3040     7.6007     8.0981     8.3243     2.4505     0.1291     0.0088   125.9286
  264.5000   -58.3372    10.4556     7.6712     8.1865     8.3195     2.4620     0.1177     0.0104   130.4061
  265.0000   -58.1459    10.5232     7.7423     8.2758     8.3148     2.4700     0.1085     0.0093   134.9149
  265.5000   -58.1521    10.5928     7.8141     8.3663     8.3101     2.4589     0.1136     0.0044   136.4411
  266.0000   -58.2177    10.6629     7.8865     8.4577     8.3054     2.4484     0.1179     0.0041   134.8205
  266.5000   -58.4836    10.7334     7.9718     8.5762     8.3006     2.4433     0.1198     0.0047   132.5210
  267.0000   -58.4840    10.8164     7.9571     8.5462     8.2959     2.4598     0.1143     0.0137   129.3794
  267.5000   -58.3960    10.7451     7.9338     8.4865     8.2912     2.4728     0.1097     0.0192   127.4672
  268.0000   -58.3051    10.6599     7.9106     8.4273     8.2865     2.4661     0.1116     0.0147   126.0137
  268.5000   -58.2143    10.5754     7.8874     8.3686     8.2817     2.4676     0.1086     0.0171   126.0191
  269.0000   -58.1236    10.4916     7.8644     8.3103     8.2770     2.4765     0.1070     0.0251   128.7435
  269.5000   -58.0323    10.4085     7.8414     8.2524     8.2723     2.4766     0.1018     0.0320   131.9083
  270.0000   -57.9578    10.3277     7.8184     8.1961     8.2676     2.4697     0.1060     0.0222   131.6984
  270.5000   -58.0725    10.1669     7.7955     8.1961     8.2628     2.4705     0.1098     0.0197   129.8378
  271.0000   -58.1837    10.0117     7.7727     8.1959     8.2581     2.4739     0.1006     0.0202   127.2847
  271.5000   -58.2935     9.8610     7.7500     8.1960     8.2533     2.4523     0.1216     0.0095   126.9572
  272.0000   -58.2540    10.2024     7.7273     8.1960     8.2555     2.4303     0.1390     0.0012   127.8843
  272.5000   -58.0650    10.6182     7.7048     8.1959     8.2604     2.4313     0.1329     0.0066   128.5477
  273.0000   -57.8756    10.4920     7.6827     8.2232     8.2654     2.4477     0.1245     0.0156   129.3752
  273.5000   -57.6884    10.3382     7.6824     8.2680     8.2703     2.4619     0.1153     0.0226   132.3370
  274.0000   -57.6059    10.1867     7.6824     8.3130     8.2753     2.4669     0.1210     0.0117   134.6492
  274.5000   -57.8424    10.0374     7.5932     8.3491     8.2802     2.4377     0.1290     0.0088   135.7202
  275.0000   -58.1674     9.8610     7.1676     8.1206     8.2853     2.4259     0.1370     0.0123   135.1280
  275.5000   -58.4858    10.6162     6.7659     7.5003     8.2916     2.4176     0.1450     0.0195   134.6023
  276.0000   -58.8046    11.0183     6.3867     6.9274     8.2715     2.4093     0.1532     0.0273   135.8475
  276.5000   -59.1189     7.7110     6.0288     6.3982     8.2720     2.4034     0.1524     0.0107   137.4192
  277.0000   -59.2826     5.1232     5.8179     6.1056     8.2718     2.4345     0.1256     0.0105   137.8694
  277.5000   -59.0206     6.6886     5.8092     6.1950     8.2718     2.4612     0.1144     0.0229   138.7504
  278.0000   -58.7717     8.8124     5.8006     6.2671     8.2718     2.4676     0.1082     0.0315   138.6639
  278.5000   -58.5247     8.8386     5.7920     6.3404     8.2718     2.4663     0.1111     0.0288   136.0641
  279.0000   -58.2769     8.8254     5.7834     6.4137     8.2718     2.4657     0.1093     0.0324   133.5056
