~VERSION INFORMATION
 VERS.                2.0:   CWLS LOG ASCII STANDARD - VERSION 2.0
 WRAP.                 NO:   ONE LINE PER DEPTH STEP
~WELL INFORMATION
#MNEM.UNIT      DATA TYPE    INFORMATION
#----------   ------------   ------------------------------
 STRT.F           30.0000:   START DEPTH
 STOP.F         2423.0000:   STOP DEPTH
 STEP.F            0.5000:   STEP LENGTH
 NULL.          -999.2500:   NO VALUE
 COMP. DEPARTMENT OF ENERGY:   COMPANY
 WELL.   NPR-3 #35-1 X 10:   WELL
 FLD .        TEAPOT DOME:   FIELD
 LOC .      S10 T38N R78W:   LOCATION
 CNTY.            NATRONA:   COUNTY
 STAT.            WYOMING:   STATE
 CTRY. UNITED STATES OF AMERICA:   COUNTRY
 SRVC.       Schlumberger:   SERVICE COMPANY
 DATE.        15-JAN-1999:   LOGDATE
 API .       490252282200:   API NUMBER
~CURVE INFORMATION
#MNEM.UNIT       API CODE    CURVE DESCRIPTION
#----------   ------------   ------------------------------
 DEPT.F                  :   
 GRR .GAPI   06 310 01 00:   GAMMA RAY FROM RESISTIVITY
 SPR .MV     06 010 01 00:   SPONTANEOUS POTENTIAL FROM RES.
 HD  .IN     06 280 01 00:   HOLE DIAMETER
 AT90.OHMM   06 120 90 00:   90-IN. RESISTIVITY, 2-FT RESOLUTION
 AT30.OHMM   06 120 30 00:   30-IN. RESISTIVITY, 2-FT RESOLUTION
 AT10.OHMM   06 120 10 00:   10-IN. RESISTIVITY, 2-FT RESOLUTION
~PARAMETER INFORMATION
#MNEM.UNIT          VALUE    DESCRIPTION
#----------   ------------   ------------------------------
 PD  .                 GL:   PERMANENT DATUM
 EPD .F              5228:   ELEVATION PERMANENT DATUM
 LMF .                 KB:   LOG MEASURED FROM
 DAPD.F                10:   FEET ABOVE PERMANENT DATUM
 DMF .                 KB:   DRILLING MEASURED FROM
 EKB .F              5238:   KELLING BUSHING
 EDF .F              5237:   DRILLING FLOOR
 EGL .F              5228:   GROUND LEVEL
 DATE.        15-JAN-1999:   RUN DATE
 RUN .                  1:   RUN NUMBER
 DD  .F              2400:   DEPTH DRILLER
 DL  .F              2421:   DEPTH LOGGER
 BLI .F              2393:   BOTTOM LOG INTERVAL
 TLI .F                30:   TOP LOG INTERVAL
 CS  .IN            9.625:   CASING SIZE
 CBD .F               778:   CASING BOTTOM DRILLER
 CBL .F               773:   CASING BOTTOM LOGGER
 BS  .IN              8.5:   BIT SIZE
 BSD .F              2400:   BIT SIZE AT DEPTH
 DFT .            GEL/KCL:   DRILLING FLUID TYPE
 DFD .                8.9:   DRILLING FLUID DENSITY
 DFV .                 39:   DRILLING FLUID VISCOSITY
 DFPH.                  9:   DRILLING FLUID PH
 DFL .                8.8:   DRILLING FLUID LOSS
 MSS .            MUD PIT:   MUD SAMPLE SOURCE
 RMS .OHMM            .29:   RESISTIVITY MUD SAMPLE
 MST .F                65:   MUD SAMPLE TEMPERATURE
 RMF .OHMM            .22:   RESISTIVITY MUD FILTRATE SAMPLE
 MFST.F                65:   MUD FILTRATE SAMPLE TEMPERATURE
 RMC .OHMM            .43:   RESISTIVITY MUD CAKE
 MCST.F                65:   MUD CAKE SAMPLE TEMPERATURE
 MFSS.          MUD PRESS:   MUD FILTRATE SAMPLE SOURCE
 MCSS.         CALCULATED:   MUD CAKE SAMPLE SOURCE
 RMB .OHMM           .195:   RESISTIVITY MUD AT BHT
 BHT .F               100:   BOTTOM HOLE TEMPERATURE
 TCS .HRS            2015:   TIME CURCULATED STOPPED
 TLAB.HRS            2315:   TIME LOGGER AT BOTTOM
 MRT .F               100:   MAXIMUM RECORDED TEMPERATURE
 LUN .               2102:   LOGGING UNIT NUMBER
 LUL .             CASPER:   LOGGING UNIT LOCATION
 ENGI.    TISOVEC/PIERSON:   RECORDING ENGINEER
 WITN.           ESMERSON:   WITNESSED BY
 CLNT.            A2DTECH:   CLIENT CODE
 ORIG.       2", 5" PRINT:   ORIGIN OF DATA
 UWI .       490252282200:   UNIQUE WELL ID
 DICO. A2D Technologies, Inc.:   DIGITIZING COMPANY
~OTHER INFORMATION
~A   DEPT       GRR       SPR         HD       AT90       AT30       AT10   
# ...
  758.0000    75.9534  -999.2500  -999.2500  -999.2500  -999.2500  -999.2500
  758.5000    80.0157  -999.2500  -999.2500  -999.2500  -999.2500  -999.2500
  759.0000    80.5430  -999.2500  -999.2500  -999.2500  -999.2500  -999.2500
  759.5000    79.1119  -999.2500  -999.2500  -999.2500  -999.2500  -999.2500
  760.0000    77.8949  -999.2500  -999.2500  -999.2500  -999.2500  -999.2500
  760.5000    77.6706  -999.2500  -999.2500  -999.2500  -999.2500  -999.2500
  761.0000    77.8980  -999.2500  -999.2500  -999.2500  -999.2500  -999.2500
  761.5000    75.9624  -999.2500  -999.2500  -999.2500  -999.2500  -999.2500
  762.0000    72.3326  -999.2500  -999.2500  -999.2500  -999.2500  -999.2500
  762.5000    70.0774  -999.2500  -999.2500  -999.2500  -999.2500  -999.2500
  763.0000    68.6950  -999.2500  -999.2500  -999.2500  -999.2500  -999.2500
  763.5000    67.1555  -999.2500  -999.2500  -999.2500  -999.2500  -999.2500
  764.0000    65.6839  -999.2500  -999.2500  -999.2500  -999.2500  -999.2500
  764.5000    65.1440  -999.2500  -999.2500  -999.2500  -999.2500  -999.2500
  765.0000    68.2652  -999.2500  -999.2500  -999.2500  -999.2500  -999.2500
  765.5000    72.9520  -999.2500  -999.2500  -999.2500  -999.2500  -999.2500
  766.0000    77.4149  -999.2500  -999.2500  -999.2500  -999.2500  -999.2500
  766.5000    79.3725  -999.2500  -999.2500  -999.2500  -999.2500  -999.2500
  767.0000    79.6222  -999.2500  -999.2500  -999.2500  -999.2500  -999.2500
  767.5000    79.8811  -999.2500  -999.2500  -999.2500  -999.2500  -999.2500
  768.0000    79.0907  -999.2500  -999.2500  -999.2500  -999.2500  -999.2500
  768.5000    74.9306  -999.2500  -999.2500  -999.2500  -999.2500  -999.2500
  769.0000    71.2302  -999.2500  -999.2500  -999.2500  -999.2500  -999.2500
  769.5000    68.1131  -999.2500  -999.2500  -999.2500  -999.2500  -999.2500
  770.0000    66.2562  -999.2500  -999.2500  -999.2500  -999.2500  -999.2500
  770.5000    66.4281  -999.2500  -999.2500  -999.2500  -999.2500  -999.2500
  771.0000    66.4427  -999.2500  -999.2500  -999.2500  -999.2500  -999.2500
  771.5000    67.0584  -999.2500  -999.2500  -999.2500  -999.2500  -999.2500
  772.0000    66.7517  -999.2500  -999.2500  -999.2500  -999.2500  -999.2500
  772.5000    74.1720  -999.2500  -999.2500  -999.2500  -999.2500  -999.2500
  773.0000    84.3663    67.7778     9.4339     9.9419     7.4223     5.4953
  773.5000    94.1090    58.9683     9.6536     9.9949     7.4634     5.5268
  774.0000   100.5808    50.7460     9.8734     9.9272     7.4284     5.5088
  774.5000   100.2897    46.1028    10.3266     9.9126     7.4361     5.5292
  775.0000    99.4004    43.9639    10.6291     9.8980     7.4424     5.5428
  775.5000    97.1480    40.4073    11.3219     9.8834     7.4483     5.5564
  776.0000    95.9199    37.1931    11.7644     9.8687     7.4539     5.5701
  776.5000    98.4254    34.8014    11.8461     9.8543     7.4598     5.5838
  777.0000   101.7140    32.1887    11.8545     9.8398     7.4656     5.5975
  777.5000    99.9957    30.0472    11.8492     9.8257     7.4710     5.6113
  778.0000    95.5110    27.9718    11.8514     9.8113     7.4766     5.6251
  778.5000    89.9934    25.3672    11.8501     9.7968     7.4819     5.6389
  779.0000    90.8323    24.5979    11.8496     9.7630     7.4486     5.6528
  779.5000    94.5470    23.7170    11.8489     9.7199     7.4174     5.6649
  780.0000   100.1000    23.0122    11.8485     9.6772     7.3862     5.6815
  780.5000   104.5485    22.0026    11.8483     9.6118     7.3463     5.6963
  781.0000   105.1591    21.2637    11.8485     9.6813     7.3762     5.7110
  781.5000   104.2997    20.5719    11.8479     9.8500     7.4327     5.7259
  782.0000   103.6141    20.1638    11.8488    10.0652     7.4824     5.7407
  782.5000   102.9509    19.8752    11.8470     9.9099     7.4483     5.7556
  783.0000   103.0516    19.3520    11.8501     9.6862     7.4173     5.7710
  783.5000   103.1946    18.5145    11.8440     9.4668     7.3865     5.6928
  784.0000   103.3592    17.7598    11.8901     9.3419     7.3449     5.6132
  784.5000   103.3567    16.8884    11.9658     9.5203     7.4390     5.5346
  785.0000   101.6668    16.3743    12.0298     9.9286     7.5872     5.5095
  785.5000    99.7595    15.8617    12.0987    10.5459     7.7384     6.5712
  786.0000    98.6698    15.1460    12.1649    10.4647     7.8443     6.4482
  786.5000    98.3887    14.4728    12.1733    10.2392     7.8631     5.9891
  787.0000    97.4462    13.8487    12.1717    10.0680     7.8819     6.0193
  787.5000    95.6915    13.2106    12.1724    10.4515     7.9008     6.1013
  788.0000    93.2197    12.5808    12.1706    10.7434     7.9106     5.9277
  788.5000    89.4917    11.9249    12.1669    10.3254     7.6461     5.6126
  789.0000    88.7159    11.3417    12.1640    10.0680     7.3636     5.6666
  789.5000    91.0739    10.7230    12.1604    10.6552     7.1433     5.8214
  790.0000    97.2540    10.3480    12.1588    11.1495     7.1528     5.9805
  790.5000   108.1917    10.2574    12.1509    10.3521     7.1624     6.1129
  791.0000   114.4596    10.0726    12.1281    10.3914     7.1719     6.1581
  791.5000   114.6707    10.0558    12.0789    10.5281     7.1815     6.2155
  792.0000   109.5017    10.3094    12.0670    10.6442     7.1910     5.8778
  792.5000    99.5968    10.4115    11.8504    10.0947     7.2006     5.5608
  793.0000    98.0030    10.3839    11.2786     9.7013     7.2099     6.6372
  793.5000    98.1817    10.0785    10.6676    11.8974    10.1618     8.6795
  794.0000   103.8944     9.7825    10.1825    11.3997     9.7360     8.4134
  794.5000   113.1151     9.3099     9.9803     9.8394     8.9116     7.8030
  795.0000   116.4766     8.9065     9.8708     8.4927     8.1338     7.0120
  795.5000   112.0604     8.8000     9.7387     7.8923     7.8558     7.0229
  796.0000   108.8977     8.6206     9.6344     7.7363     7.5784     7.0510
  796.5000   112.8494     8.4797     9.5473     7.6225     7.4824     7.0792
  797.0000   119.9197     8.3151     9.5129     7.7344     7.4824     7.1075
  797.5000   124.4444     8.1659     9.4927     7.9106     7.4824     7.1433
  798.0000   125.2945     7.7780     9.4869     7.7054     7.2996     6.8881
  798.5000   124.3267     7.3361     9.4930     7.1554     6.8081     6.4458
  799.0000   122.8408     6.8825     9.4973     6.7566     6.4504     6.0450
  799.5000   119.3870     6.5586     9.5035     6.2734     6.2618     5.8392
  800.0000   115.1269     6.5161     9.5027     6.3001     6.1013     5.6649
  800.5000   113.8368     6.4710     9.4972     6.3929     6.1222     5.9338
  801.0000   117.9926     6.4354     9.4922     6.4871     6.1455     5.8028
  801.5000   124.2776     6.3909     9.4870     6.5826     6.1689     5.7052
  802.0000   126.1994     6.3695     9.4849     6.6795     6.1924     5.6649
  802.5000   124.9769     6.4218     9.4949     6.7566     6.2155     5.6649
  803.0000   121.5567     6.4711     9.5064     6.3421     5.9218     5.6649
  803.5000   119.1263     6.5214     9.5206     5.9602     5.6471     4.9715
  804.0000   118.9872     6.5703     9.5172     5.7710     5.3583     4.3289
  804.5000   118.0288     6.6204     9.4959     5.6742     5.1792     4.2889
  805.0000   115.1185     6.6704     9.4776     5.3717     4.9862     3.9826
  805.5000   112.3776     6.7202     9.4579     5.0214     4.7939     3.6633
  806.0000   111.5021     6.7707     9.4384     5.5162     5.1804     3.6633
  806.5000   113.8983     6.8185     9.4246     5.9338     5.6139     5.0609
  807.0000   119.2437     6.8691     9.4335     6.0107     5.8791     5.7710
  807.5000   126.1898     6.9178     9.4453     6.3319     5.8791     5.6658
  808.0000   125.2284     6.9404     9.4763     6.2903     6.0450     5.5429
  808.5000   120.7995     6.5236     9.5139     6.1427     5.9774     5.4586
  809.0000   118.3283     6.0391     9.5504     5.9891     5.9022     5.4586
  809.5000   119.2672     5.5259     9.5872     6.0783     5.8248     5.4586
