~VERSION INFORMATION
 VERS.                2.0:   CWLS LOG ASCII STANDARD - VERSION 2.0
 WRAP.                 NO:   ONE LINE PER DEPTH STEP
~WELL INFORMATION
#MNEM.UNIT      DATA TYPE    INFORMATION
#----------   ------------   ------------------------------
 STRT.F            0.0000:   START DEPTH
 STOP.F          984.0000:   STOP DEPTH
 STEP.F            0.5000:   STEP LENGTH
 NULL.          -999.2500:   NO VALUE
 COMP. LAWRENCE/ALLISON INC:   COMPANY
 WELL.     NPR 3 #51-X-11:   WELL
 FLD .             TEAPOT:   FIELD
 LOC .      S11 T38N R78W:   LOCATION
 CNTY.            NATRONA:   COUNTY
 STAT.            WYOMING:   STATE
 CTRY. UNITED STATES OF AMERICA:   COUNTRY
 SRVC.           Gearhart:   SERVICE COMPANY
 DATE.        22-AUG-1988:   LOGDATE
 API .       490251125400:   API NUMBER
~CURVE INFORMATION
#MNEM.UNIT       API CODE    CURVE DESCRIPTION
#----------   ------------   ------------------------------
 DEPT.F                  :   
 GRR .GAPI   07 310 01 00:   GAMMA RAY FROM RES. LOG.
 ILM .OHMM   07 120 44 00:   INDUCTION LOG MEDIUM
 ILD .OHMM   07 120 46 00:   INDUCTION LOG DEEP
~PARAMETER INFORMATION
#MNEM.UNIT          VALUE    DESCRIPTION
#----------   ------------   ------------------------------
 PD  .                 GL:   PERMANENT DATUM
 EPD .F              5187:   ELEVATION PERMANENT DATUM
 LMF .                 KB:   LOG MEASURED FROM
 DAPD.F                10:   FEET ABOVE PERMANENT DATUM
 DMF .                 KB:   DRILLING MEASURED FROM
 EKB .F              5197:   KELLING BUSHING
 EGL .F              5187:   GROUND LEVEL
 DATE.            8-22-88:   RUN DATE
 RUN .                  1:   RUN NUMBER
 DD  .F              1000:   DEPTH DRILLER
 DL  .F               992:   DEPTH LOGGER
 BLI .F             983.5:   BOTTOM LOG INTERVAL
 CS  .IN            9.625:   CASING SIZE
 CBD .F                49:   CASING BOTTOM DRILLER
 CBL .F                49:   CASING BOTTOM LOGGER
 BS  .IN             8.75:   BIT SIZE
 BSD .F              1000:   BIT SIZE AT DEPTH
 DFT .                AIR:   DRILLING FLUID TYPE
 BHT .F                70:   BOTTOM HOLE TEMPERATURE
 TLAB.HRS            0300:   TIME LOGGER AT BOTTOM
 MRT .F                70:   MAXIMUM RECORDED TEMPERATURE
 LUN .               7609:   LOGGING UNIT NUMBER
 LUL .           GILLETTE:   LOGGING UNIT LOCATION
 ENGI.          HUCKFELDT:   RECORDING ENGINEER
 WITN.             STRONG:   WITNESSED BY
 CLNT.            A2DTECH:   CLIENT CODE
 ORIG.      1" 2.5" PRINT:   ORIGIN OF DATA
 UWI .       490251125400:   UNIQUE WELL ID
 DICO. A2D Technologies, Inc.:   DIGITIZING COMPANY
~OTHER INFORMATION
~A    DEPT      GRR       ILM        ILD   
# ...
  273.0000   108.2371     4.8416     5.1673
  273.5000   109.2435     4.8685     5.1506
  274.0000   109.0557     4.8955     5.1340
  274.5000   105.8051     4.9226     5.1175
  275.0000   102.3264     4.9499     5.1411
  275.5000   100.8019     4.9774     5.1768
  276.0000    99.4524     5.0050     5.2126
  276.5000   100.5567     5.0327     5.2487
  277.0000   102.7429     5.0606     5.2852
  277.5000   103.6317     5.0887     5.3218
  278.0000   101.7180     5.1169     5.3588
  278.5000   101.2202     5.1453     5.3960
  279.0000   101.3875     5.1738     5.4334
  279.5000   103.4422     5.2025     5.4711
  280.0000   105.4677     5.2514     5.5090
  280.5000   106.3159     5.3081     5.5473
  281.0000   104.0848     5.3655     5.5857
  281.5000    99.9143     5.4236     5.6245
  282.0000    95.8574     5.4822     5.6635
  282.5000    93.2395     5.5415     5.7028
  283.0000    93.8784     5.6014     5.7492
  283.5000    98.9709     5.6263     5.8014
  284.0000   103.5475     5.6414     5.8543
  284.5000   105.8504     5.6566     5.9077
  285.0000   105.2168     5.6718     5.9616
  285.5000   104.6157     5.6871     6.0161
  286.0000   104.3579     5.7024     6.0711
  286.5000   105.6397     5.7203     6.1266
  287.0000   109.8757     5.7836     6.1825
  287.5000   110.4361     5.8604     6.2384
  288.0000   105.9325     5.9422     6.2952
  288.5000   101.6944     6.0469     6.3815
  289.0000   100.8127     5.8854     6.3288
  289.5000   101.6948     5.6068     5.9910
  290.0000   102.5851     5.3409     5.6714
  290.5000   102.4935     5.0875     5.3687
  291.0000   101.7070     4.8463     5.0822
  291.5000   101.0455     4.6171     4.8110
  292.0000   100.5061     4.3989     4.5715
  292.5000   101.6999     4.1911     4.5874
  293.0000   102.8186     3.9566     4.6512
  293.5000   104.0109     4.0047     4.7160
  294.0000   105.1706     4.0867     4.8666
  294.5000   106.3493     4.5732     5.0956
  295.0000   107.4777     5.0379     5.3330
  295.5000   108.5151     5.5105     5.5841
  296.0000   106.6049     5.7244     5.8463
  296.5000   103.9413     5.9312     6.1205
  297.0000   101.3205     6.1455     6.4077
  297.5000   101.5962     6.3674     6.7629
  298.0000   102.9346     6.5974     6.8077
  298.5000   104.3105     6.7677     6.9110
  299.0000   105.7270     6.8351     7.0174
  299.5000   105.0092     6.9110     7.1224
  300.0000   103.5144     6.9879     7.2289
  300.5000   102.1259     7.0655     7.2928
  301.0000   102.4311     7.1578     7.2928
  301.5000   102.5620     7.1288     7.2928
  302.0000   104.6849     7.0617     7.2327
  302.5000   108.1690     6.8925     6.9926
  303.0000   111.8377     6.6089     6.7605
  303.5000   112.7555     6.3370     6.5361
  304.0000   108.9044     6.0763     6.3191
  304.5000   100.6048     5.8263     6.1093
  305.0000    98.2891     5.5865     5.8321
  305.5000    97.7783     5.3567     5.5390
  306.0000    99.5330     5.0997     5.2607
  306.5000    97.3897     4.7883     4.9963
  307.0000    96.5358     4.4958     4.7118
  307.5000    98.5436     4.2212     4.3897
  308.0000   101.5781     3.9634     4.0847
  308.5000   104.6662     3.7213     4.0869
  309.0000   108.0266     3.5858     4.0850
  309.5000   107.9774     3.6113     4.0859
  310.0000   104.2930     3.7223     4.1703
  310.5000   101.3285     4.0267     4.3735
  311.0000    99.3610     4.3430     4.5852
  311.5000    95.6501     4.6842     4.8071
  312.0000    92.4596     5.0191     5.0398
  312.5000    93.4078     5.1167     5.2837
  313.0000    94.5360     5.2082     5.5105
  313.5000    95.8242     5.3084     5.4489
  314.0000    97.0982     5.2622     5.3940
  314.5000    98.2472     5.2127     5.3396
  315.0000    99.6817     5.1637     5.2858
  315.5000   100.3710     5.1151     5.2325
  316.0000    99.2204     5.0669     5.1630
  316.5000    99.1969     5.0193     4.8868
  317.0000    99.8691     4.9721     4.3515
  317.5000   101.7455     4.9262     3.8748
  318.0000    95.1160     4.2483     3.4504
  318.5000    93.0792     3.6742     3.0880
  319.0000    94.4297     3.1778     2.9393
  319.5000    96.7752     2.7483     2.8036
  320.0000    98.6275     2.3770     2.7094
  320.5000   100.9495     2.2061     2.7094
  321.0000   102.0987     2.3058     2.7094
  321.5000   101.5692     2.4011     2.7094
  322.0000    95.6074     2.5695     2.9422
  322.5000    91.5135     2.9105     3.2149
  323.0000    89.4957     3.2949     3.5128
  323.5000    88.2443     3.7318     3.8383
  324.0000    88.5203     4.2395     4.1940
  324.5000    88.7591     4.4107     4.5827
  325.0000    89.1153     4.5937     4.8450
  325.5000    91.6469     4.7400     4.8706
  326.0000    94.0068     4.7204     4.8962
  326.5000    96.9235     4.7007     4.9262
  327.0000    96.3026     4.6805     4.8369
  327.5000    95.3824     4.6577     4.7326
  328.0000    94.1714     4.5824     4.6304
  328.5000    94.6488     4.4966     4.5305
  329.0000    96.1497     4.4124     4.4328
  329.5000    97.1518     4.3223     4.1476
  330.0000    97.1289     4.2761     3.8071
  330.5000    97.1681     4.0958     3.4945
  331.0000    97.1388     3.6797     3.2076
  331.5000    97.1716     3.3058     2.9443
  332.0000    97.2502     2.9700     2.7025
  332.5000    98.8623     2.6682     2.5617
  333.0000    99.7754     2.3971     2.5617
  333.5000    99.9536     2.2061     2.5617
  334.0000   100.1907     2.2477     2.5952
  334.5000   100.5800     2.3747     2.7578
  335.0000    98.5736     2.7044     2.9306
  335.5000    94.3221     3.0798     3.1838
  336.0000    90.8118     3.4788     3.5551
  336.5000    90.8396     3.8402     3.9696
  337.0000    93.6051     4.2391     4.4869
  337.5000    97.0742     4.6795     4.7455
  338.0000   100.7257     5.2102     4.9128
  338.5000   102.9428     5.2553     5.0166
  339.0000    99.9821     5.3084     4.9682
  339.5000    97.0562     5.2500     4.9018
  340.0000    93.9666     5.2102     4.8334
  340.5000    92.8722     5.1514     4.4567
  341.0000    95.2015     4.8770     4.0958
  341.5000   100.1888     4.3043     3.7660
  342.0000   100.2673     3.7988     3.4612
  342.5000   100.5590     3.3527     3.1810
  343.0000   100.7447     2.9590     2.9747
  343.5000   106.6023     2.5617     2.9699
  344.0000   111.8646     2.5617     2.9499
  344.5000   115.1012     2.5617     2.9300
  345.0000   108.8300     2.6659     2.9197
  345.5000   102.4893     2.8996     3.1418
  346.0000    97.0013     3.1538     3.3626
  346.5000    95.4202     3.4542     3.5990
  347.0000    95.7889     3.6358     3.8521
  347.5000    95.9968     3.8447     4.1229
  348.0000    96.2242     4.0655     4.4128
  348.5000    96.4703     4.2991     4.5271
  349.0000    96.7318     4.4549     4.5809
  349.5000    96.9380     4.5461     4.6353
  350.0000    97.1129     4.6391     4.6904
  350.5000    96.1554     4.7455     4.7455
  351.0000    94.1674     4.6996     4.6457
  351.5000    91.6090     4.6577     4.5491
  352.0000    89.7133     4.4253     4.4546
  352.5000    91.3515     4.2120     4.3102
  353.0000    94.9515     4.0089     4.1112
  353.5000    98.5125     3.8156     3.9214
  354.0000    99.5796     3.6316     3.7404
  354.5000    98.5460     3.4566     3.5889
  355.0000    97.2990     3.2899     3.4639
  355.5000    99.3859     3.1313     3.3433
  356.0000   101.6409     3.0308     3.2660
  356.5000   103.5101     3.0505     3.2660
  357.0000   102.0109     3.0868     3.2660
  357.5000   100.7965     3.1460     3.2660
  358.0000    99.1660     3.1029     3.2214
  358.5000   100.0131     2.9923     3.1092
  359.0000   102.8974     2.8852     3.0009
  359.5000   102.7800     2.7815     2.8964
  360.0000   100.7971     2.6813     2.7955
  360.5000   100.0117     2.5733     2.6982
  361.0000   101.7138     2.4371     2.6122
  361.5000   103.2731     2.3115     2.5587
  362.0000   104.9607     2.2061     2.5636
  362.5000   106.2307     2.2435     2.5591
  363.0000   104.8092     2.3744     2.6928
  363.5000   101.9455     2.5436     2.8622
