~VERSION INFORMATION
 VERS.                2.0:   CWLS LOG ASCII STANDARD - VERSION 2.0
 WRAP.                 NO:   ONE LINE PER DEPTH STEP
~WELL INFORMATION
#MNEM.UNIT      DATA TYPE    INFORMATION
#----------   ------------   ------------------------------
 STRT.F         1400.0000:   START DEPTH
 STOP.F         3422.0000:   STOP DEPTH
 STEP.F            0.5000:   STEP LENGTH
 NULL.          -999.2500:   NO VALUE
 COMP. LAWRENCE/ALLISON INC:   COMPANY
 WELL.   NPR 3 #36-STX-23:   WELL
 FLD .             TEAPOT:   FIELD
 LOC .      S23 T38N R78W:   LOCATION
 CNTY.            NATRONA:   COUNTY
 STAT.            WYOMING:   STATE
 CTRY. UNITED STATES OF AMERICA:   COUNTRY
 SRVC.            Unknown:   SERVICE COMPANY
 DATE.        04-JAN-1985:   LOGDATE
 API .       490251137700:   API NUMBER
~CURVE INFORMATION
#MNEM.UNIT       API CODE    CURVE DESCRIPTION
#----------   ------------   ------------------------------
 DEPT.F                  :   
 ROP .MIN/FT 91 810 01 00:   RAT OF DRILLING PENETRATION
 TGAS.UNITS  91 830 01 00:   TOTAL GAS UNIT
~PARAMETER INFORMATION
#MNEM.UNIT          VALUE    DESCRIPTION
#----------   ------------   ------------------------------
 DATE.           1-4-1985:   RUN DATE
 RUN .                  1:   RUN NUMBER
 DD  .F              3427:   DEPTH DRILLER
 TLI .F              1400:   TOP LOG INTERVAL
 BSD .F              3427:   BIT SIZE AT DEPTH
 WITN. RAY ANDERSON/JACK HARBISON:   WITNESSED BY
 CLNT.            A2DTECH:   CLIENT CODE
 ORIG.           5" PRINT:   ORIGIN OF DATA
 UWI .       490251137700:   UNIQUE WELL ID
 DICO. A2D Technologies, Inc.:   DIGITIZING COMPANY
~OTHER INFORMATION
~A  DEPT       ROP       TGAS   
# ...
 3101.0000     0.7397    49.9090
 3101.5000     0.7393    49.2155
 3102.0000     0.7389    48.5220
 3102.5000     0.7386    47.8286
 3103.0000     0.7382    47.1351
 3103.5000     0.7378    46.4416
 3104.0000     0.7374    45.7481
 3104.5000     0.7370    45.0547
 3105.0000     0.7366    44.3612
 3105.5000     0.7362    43.7370
 3106.0000     0.7359    45.6056
 3106.5000     0.7355    45.4521
 3107.0000     0.7351    45.3293
 3107.5000     0.7347    47.1980
 3108.0000     0.7343    50.9661
 3108.5000     0.7339    52.8347
 3109.0000     0.7335    58.5636
 3109.5000     0.7332    66.2840
 3110.0000     0.7328    81.8474
 3110.5000     0.7324    58.1952
 3111.0000     0.7329    56.1116
 3111.5000     0.7344    55.9888
 3112.0000     0.7358    55.8660
 3112.5000     0.7373    55.7432
 3113.0000     0.7387    53.6596
 3113.5000     0.7402    51.5760
 3114.0000     0.7416    51.4532
 3114.5000     0.7431    51.3304
 3115.0000     0.7445    51.2076
 3115.5000     0.7460    51.0848
 3116.0000     0.7474    52.9535
 3116.5000     0.7489    54.7607
 3117.0000     0.7503    54.6379
 3117.5000     0.7518    54.5151
 3118.0000     0.7532    54.3923
 3118.5000     0.7547    54.2695
 3119.0000     0.7562    54.1467
 3119.5000     0.7576    54.0239
 3120.0000     0.7591    53.9011
 3120.5000     0.7596    55.7391
 3121.0000     0.7597    55.6163
 3121.5000     0.7598    57.4850
 3122.0000     0.7599    57.3314
 3122.5000     0.7600    59.2001
 3123.0000     0.7601    61.0381
 3123.5000     0.7602    60.8846
 3124.0000     0.7603    62.7533
 3124.5000     0.7604    62.5998
 3125.0000     0.7605    62.4770
 3125.5000     0.7606    62.3542
 3126.0000     0.7607    60.2706
 3126.5000     0.7608    60.1478
 3127.0000     0.7608    62.0165
 3127.5000     0.7609    61.8630
 3128.0000     0.7610    63.7316
 3128.5000     0.7611    63.6029
 3129.0000     0.7612    65.4468
 3129.5000     0.7613    67.2848
 3130.0000     0.7614    67.4818
 3130.5000     0.7615    70.9607
 3131.0000     0.7616    70.8334
 3131.5000     0.7617    72.6759
 3132.0000     0.7618    72.5490
 3132.5000     0.7619    70.4657
 3133.0000     0.7620    70.3431
 3133.5000     0.7621    70.2206
 3134.0000     0.7622    70.0980
 3134.5000     0.7526    69.9755
 3135.0000     0.7524    69.8529
 3135.5000     0.7505    69.7304
 3136.0000     0.7483    65.6863
 3136.5000     0.7460    61.6422
 3137.0000     0.7438    59.5588
 3137.5000     0.7416    59.4363
 3138.0000     0.7393    57.3530
 3138.5000     0.7371    57.2304
 3139.0000     0.7349    57.1079
 3139.5000     0.7326    58.9613
 3140.0000     0.7305    62.7451
 3140.5000     0.7287    60.7312
 3141.0000     0.7269    82.2509
 3141.5000     0.7251   148.8686
 3142.0000     0.7233   170.3882
 3142.5000     0.7216    84.0647
 3143.0000     0.6063    56.5647
 3143.5000     0.5294    54.5550
 3144.0000     0.5190    54.5060
 3144.5000     0.5007    54.4570
 3145.0000     0.4816    56.3688
 3145.5000     0.5201    56.3198
 3146.0000     0.5683    56.2708
 3146.5000     0.6068    60.1557
 3147.0000     0.6357    62.0552
 3147.5000     0.6743    62.0062
 3148.0000     0.7224    59.9965
 3148.5000     0.7225    59.9475
 3149.0000     0.7226    59.8985
 3149.5000     0.7227    59.8495
 3150.0000     0.7228    61.7736
 3150.5000     0.6748    61.7123
 3151.0000     0.5883    63.6364
 3151.5000     0.5115    63.5751
 3152.0000     0.5019    63.5261
 3152.5000     0.5020    63.4772
 3153.0000     0.5117    65.4012
 3153.5000     0.5118    65.3400
 3154.0000     0.5119    65.2910
 3154.5000     0.5119    65.2420
 3155.0000     0.5120    65.1930
 3155.5000     0.5217    63.1833
 3156.0000     0.5218    63.1343
 3156.5000     0.5315    63.0853
 3157.0000     0.5893    61.0755
 3157.5000     0.6567    61.0265
 3158.0000     0.6952    59.0168
 3158.5000     0.7049    57.0070
 3159.0000     0.7146    56.9580
 3159.5000     0.7147    56.9090
 3160.0000     0.7147    56.8600
 3160.5000     0.7200    58.7718
 3161.0000     0.7276    58.7228
 3161.5000     0.7352    60.6346
 3162.0000     0.7439    64.5072
 3162.5000     0.6575    66.4313
 3163.0000     0.5902    68.3430
 3163.5000     0.5326    68.2818
 3164.0000     0.5231    68.2328
 3164.5000     0.5424    68.5739
 3165.0000     0.5425    68.1349
 3165.5000     0.5426    68.0859
 3166.0000     0.5426    68.0369
 3166.5000     0.5427    66.0271
 3167.0000     0.5428    65.9782
 3167.5000     0.5429    63.9684
 3168.0000     0.5430    63.9194
 3168.5000     0.5430    61.9096
 3169.0000     0.5431    61.8606
 3169.5000     0.5336    61.8116
 3170.0000     0.5337    61.7627
 3170.5000     0.5722    61.7137
 3171.0000     0.6588    61.6647
 3171.5000     0.7454    61.6157
 3172.0000     0.6974    61.5667
 3172.5000     0.6302    63.4785
 3173.0000     0.5726   435.9786
 3173.5000     0.5438   656.4026
 3174.0000     0.5149   355.4884
 3174.5000     0.5141   147.5963
 3175.0000     0.5134    86.7630
 3175.5000     0.5126    82.7925
 3176.0000     0.5119    86.6650
 3176.5000     0.5112    96.4200
 3177.0000     0.5104   100.2926
 3177.5000     0.5097   100.2436
 3178.0000     0.5089   100.1946
 3178.5000     0.5082   102.1064
 3179.0000     0.5074   100.0966
 3179.5000     0.5067   102.0098
 3180.0000     0.5281    99.9946
 3180.5000     0.5824    99.9456
 3181.0000     0.6367    95.9750
 3181.5000     0.6910    88.0829
 3182.0000     0.7471    88.0339
 3182.5000     0.7469    86.0241
 3183.0000     0.7468    85.9752
 3183.5000     0.7466    83.9654
 3184.0000     0.7464    85.8894
 3184.5000     0.7462    85.8282
 3185.0000     0.7460    85.7792
 3185.5000     0.7458    85.7302
 3186.0000     0.7456    85.6812
 3186.5000     0.7454    87.6053
 3187.0000     0.7453    89.5048
 3187.5000     0.7451    89.4559
 3188.0000     0.7449    91.3799
 3188.5000     0.7447    93.2917
 3189.0000     0.7445    95.2035
 3189.5000     0.7443    95.1423
 3190.0000     0.7441    97.0663
 3190.5000     0.7440    97.0051
 3191.0000     0.7438    94.9953
 3191.5000     0.7436    91.0247
 3192.0000     0.7434    87.0542
 3192.5000     0.7432    85.0444
 3193.0000     0.7430    84.9954
 3193.5000     0.7428    84.9465
 3194.0000     0.7426    84.8975
 3194.5000     0.7425    84.8485
 3195.0000     0.7423    82.8387
 3195.5000     0.7421    82.7897
 3196.0000     0.7419    84.7138
 3196.5000     0.7417    84.6525
 3197.0000     0.7415    82.6428
 3197.5000     0.7413    84.5668
 3198.0000     0.7412    84.5056
 3198.5000     0.7410    85.8658
 3199.0000     0.7408    87.7534
 3199.5000     0.7406    89.6410
 3200.0000     0.7404    89.3461
 3200.5000     0.7418    88.6766
 3201.0000     0.7433    88.0070
 3201.5000     0.7448    87.3375
 3202.0000     0.7463    86.6680
 3202.5000     0.7478    85.9985
 3203.0000     0.7493    87.5937
 3203.5000     0.7508    89.4845
 3204.0000     0.7763   201.0499
 3204.5000     0.8508   144.0180
 3205.0000     0.9254    96.5441
 3205.5000     0.9999    89.1937
 3206.0000     1.0318    85.5762
 3206.5000     1.0320    85.5573
 3207.0000     1.0322    85.5381
 3207.5000     1.0325    85.5190
 3208.0000     1.0327    85.5000
 3208.5000     1.0329    93.1080
 3209.0000     1.0332    94.9957
 3209.5000     1.0334    94.9765
 3210.0000     1.0337    94.9573
 3210.5000     1.0339    96.8453
 3211.0000     1.0341    96.8258
 3211.5000     1.0344    94.8998
 3212.0000     1.0346    94.8807
 3212.5000     1.0349    94.8615
 3213.0000     1.0351    94.8423
 3213.5000     1.0353    94.8232
 3214.0000     1.0356   100.5243
 3214.5000     1.0358   100.5052
 3215.0000     1.0361   100.4860
 3215.5000     1.0363   100.4668
 3216.0000     1.0365   102.3593
 3216.5000     1.0368   102.3353
 3217.0000     1.0368   102.3161
 3217.5000     1.0367   102.2970
 3218.0000     1.0366   100.3710
 3218.5000     1.0365    98.4451
 3219.0000     1.0363    98.4259
 3219.5000     1.0362   104.1319
 3220.0000     1.0361   106.0195
 3220.5000     1.0359   105.9956
 3221.0000     1.0358   105.9764
 3221.5000     1.0357   107.8688
 3222.0000     1.0356   105.9407
