~VERSION INFORMATION
 VERS.                2.0:   CWLS LOG ASCII STANDARD - VERSION 2.0
 WRAP.                 NO:   ONE LINE PER DEPTH STEP
~WELL INFORMATION
#MNEM.UNIT      DATA TYPE    INFORMATION
#----------   ------------   ------------------------------
 STRT.F           52.5000:   START DEPTH
 STOP.F         2929.0000:   STOP DEPTH
 STEP.F            0.5000:   STEP LENGTH
 NULL.          -999.2500:   NO VALUE
 COMP.   FLUOR DANIEL INC:   COMPANY
 WELL. NAVAL PETROLEUM RESERVE 3 X-23 #52-23:   WELL
 FLD .            WILDCAT:   FIELD
 LOC .      S23 T38N R78W:   LOCATION
 CNTY.            NATRONA:   COUNTY
 STAT.            WYOMING:   STATE
 CTRY. UNITED STATES OF AMERICA:   COUNTRY
 SRVC.            Unknown:   SERVICE COMPANY
 DATE.        23-APR-1995:   LOGDATE
 API .       490252271500:   API NUMBER
~CURVE INFORMATION
#MNEM.UNIT       API CODE    CURVE DESCRIPTION
#----------   ------------   ------------------------------
 DEPT.F                  :   
 ROP .MIN/FT 91 810 01 00:   RAT OF DRILLING PENETRATION
 TGAS.UNITS  91 830 01 00:   TOTAL GAS FROM HOTWIRE
~PARAMETER INFORMATION
#MNEM.UNIT          VALUE    DESCRIPTION
#----------   ------------   ------------------------------
 EKB .F              5344:   KELLING BUSHING
 EGL .F              5334:   GROUND LEVEL
 DATE.            4-23-95:   RUN DATE
 DD  .F              2929:   DEPTH DRILLER
 CS  .IN            9.625:   CASING SIZE
 CBD .F                53:   CASING BOTTOM DRILLER
 BS  .IN             8.75:   BIT SIZE
 BSD .F              2929:   BIT SIZE AT DEPTH
 ENGI.              TOWER:   RECORDING ENGINEER
 WITN.               HUSK:   WITNESSED BY
 CLNT.            A2DTECH:   CLIENT CODE
 ORIG.           5" PRINT:   ORIGIN OF DATA
 UWI .       490252271500:   UNIQUE WELL ID
 DICO. A2D Technologies, Inc.:   DIGITIZING COMPANY
~OTHER INFORMATION
~A   DEPT        ROP     TGAS   
# ...
 1389.0000     0.8192     2.3380
 1389.5000     0.8080     2.3471
 1390.0000     0.8072     2.3442
 1390.5000     0.6710     2.3307
 1391.0000     0.6697     2.3172
 1391.5000     0.6682     2.3037
 1392.0000     0.6667     2.2902
 1392.5000     0.6652     2.2766
 1393.0000     0.6638     2.2631
 1393.5000     0.6623     2.2496
 1394.0000     0.6608     2.2361
 1394.5000     0.6593     2.2226
 1395.0000     0.6579     2.2090
 1395.5000     0.6564     2.1955
 1396.0000     0.6549     2.1820
 1396.5000     0.6534     2.1685
 1397.0000     0.6520     2.1550
 1397.5000     0.6505     2.1414
 1398.0000     0.6489     2.1279
 1398.5000     0.9607     2.1144
 1399.0000     0.9599     2.1025
 1399.5000     0.9591     2.2069
 1400.0000     0.9583     2.3003
 1400.5000     0.7302     2.3937
 1401.0000     0.7312     2.4870
 1401.5000     0.7323     2.5804
 1402.0000     0.7333     2.6738
 1402.5000     0.7344     2.7672
 1403.0000     0.7354     2.8606
 1403.5000     0.7365     2.9540
 1404.0000     0.7375     3.0474
 1404.5000     0.5094     3.1408
 1405.0000     0.5104     3.2341
 1405.5000     0.5115     3.3275
 1406.0000     0.5125     3.4209
 1406.5000     0.5135     3.5143
 1407.0000     0.5146     3.6077
 1407.5000     0.5156     3.7011
 1408.0000     0.5167     3.7762
 1408.5000     0.5177     3.7055
 1409.0000     0.5188     3.6516
 1409.5000     0.5198     3.6516
 1410.0000     0.5208     3.6516
 1410.5000     0.5219     3.6516
 1411.0000     0.5229     3.6516
 1411.5000     0.5240     3.2220
 1412.0000     0.5250     3.2220
 1412.5000     0.5260     3.2220
 1413.0000     0.5271     3.4368
 1413.5000     0.5281     3.6516
 1414.0000     0.5292     3.6516
 1414.5000     0.5302     3.6516
 1415.0000     0.5312     3.4368
 1415.5000     0.5323     3.2220
 1416.0000     0.5335     3.2220
 1416.5000     0.6595     2.7924
 1417.0000     0.6814     2.7924
 1417.5000     0.6824     2.7649
 1418.0000     0.6727     2.7330
 1418.5000     0.6635     2.7012
 1419.0000     0.6541     2.6694
 1419.5000     0.6554     2.6375
 1420.0000     0.6558     2.6057
 1420.5000     0.6556     2.5757
 1421.0000     0.6554     2.5594
 1421.5000     0.6551     2.5431
 1422.0000     0.6549     2.5267
 1422.5000     0.6546     2.5104
 1423.0000     0.6544     2.4941
 1423.5000     0.6542     2.4778
 1424.0000     0.6539     2.4615
 1424.5000     0.6537     2.4452
 1425.0000     0.6534     2.4289
 1425.5000     0.6532     2.4126
 1426.0000     0.6530     2.3963
 1426.5000     0.6527     2.3800
 1427.0000     0.6525     2.3628
 1427.5000     0.6522     2.3804
 1428.0000     0.6520     2.3992
 1428.5000     0.6518     2.4179
 1429.0000     0.6515     2.4366
 1429.5000     0.6513     2.4621
 1430.0000     1.0052     2.4948
 1430.5000     1.0028     2.5276
 1431.0000     1.0002     2.5604
 1431.5000     0.9976     2.5931
 1432.0000     0.9950     2.6259
 1432.5000     0.7956     2.6586
 1433.0000     0.7953     2.6914
 1433.5000     0.7951     2.7241
 1434.0000     0.7948     2.7569
 1434.5000     0.5549     2.7896
 1435.0000     0.5547     2.8224
 1435.5000     0.5544     2.8551
 1436.0000     0.5542     2.8614
 1436.5000     0.5539     2.8482
 1437.0000     0.5536     2.8350
 1437.5000     0.5534     2.8219
 1438.0000     0.5531     2.8087
 1438.5000     0.5529     2.7955
 1439.0000     0.5526     2.7823
 1439.5000     0.5523     2.7692
 1440.0000     0.5520     2.7560
 1440.5000     0.5510     2.7428
 1441.0000     0.5499     2.7296
 1441.5000     0.5488     2.7165
 1442.0000     0.5477     2.7033
 1442.5000     0.5467     2.6901
 1443.0000     0.5456     2.6757
 1443.5000     0.5445     2.7000
 1444.0000     0.5435     2.7267
 1444.5000     0.5424     2.7534
 1445.0000     0.5413     2.7801
 1445.5000     0.5403     2.8068
 1446.0000     0.5392     2.8335
 1446.5000     0.5381     2.8603
 1447.0000     0.5371     2.8870
 1447.5000     0.5360     2.9137
 1448.0000     0.5349     2.9404
 1448.5000     0.5339     2.9671
 1449.0000     0.5328     2.9938
 1449.5000     0.5317     2.9469
 1450.0000     0.5307     2.8265
 1450.5000     0.5296     2.7062
 1451.0000     0.5285     2.5859
 1451.5000     0.5275     2.4655
 1452.0000     0.5264     2.3452
 1452.5000     0.5253     2.2249
 1453.0000     0.5243     2.1538
 1453.5000     0.5232     2.1699
 1454.0000     0.5221     2.1861
 1454.5000     0.5211     2.2022
 1455.0000     0.5200     2.2184
 1455.5000     0.5189     2.2345
 1456.0000     0.5179     2.2507
 1456.5000     0.5168     2.2668
 1457.0000     0.5157     2.2829
 1457.5000     0.5146     2.2991
 1458.0000     0.5134     2.3152
 1458.5000     0.8148     2.3314
 1459.0000     0.8141     2.3475
 1459.5000     0.8133     2.3678
 1460.0000     0.8124     2.4597
 1460.5000     0.6148     2.5516
 1461.0000     0.6151     2.6436
 1461.5000     0.6154     2.7355
 1462.0000     0.8031     2.8274
 1462.5000     0.8034     2.9193
 1463.0000     0.8036     3.0113
 1463.5000     0.8039     3.1032
 1464.0000     0.8042     3.1951
 1464.5000     0.9711     3.2870
 1465.0000     0.9714     3.3790
 1465.5000     0.9716     3.3894
 1466.0000     0.9606     3.2619
 1466.5000     0.5241     3.1344
 1467.0000     0.5240     3.0068
 1467.5000     0.5238     2.8793
 1468.0000     0.5237     2.7518
 1468.5000     0.5236     2.6243
 1469.0000     0.5235     2.4967
 1469.5000     0.5234     2.3692
 1470.0000     0.5232     2.2417
 1470.5000     0.5231     2.1432
 1471.0000     0.5230     2.1251
 1471.5000     0.5229     2.1070
 1472.0000     0.5228     2.0889
 1472.5000     0.5227     2.0708
 1473.0000     0.5225     2.0528
 1473.5000     0.5224     2.0347
 1474.0000     0.5223     2.0166
 1474.5000     0.5222     1.9985
 1475.0000     0.5221     1.9804
 1475.5000     0.5219     1.9623
 1476.0000     0.5218     1.9442
 1476.5000     0.5217     1.9262
 1477.0000     0.5216     1.9081
 1477.5000     0.5215     1.8900
 1478.0000     0.5213     1.8719
 1478.5000     0.5212     1.8538
 1479.0000     0.5211     1.8357
 1479.5000     0.5210     1.8177
 1480.0000     0.5209     1.7996
 1480.5000     0.5203     1.7815
 1481.0000     0.5197     1.7634
 1481.5000     0.5191     1.7453
 1482.0000     0.5184     1.7272
 1482.5000     0.5178     1.7780
 1483.0000     0.5172     1.8950
 1483.5000     0.5166     2.0119
 1484.0000     0.5160     2.1289
 1484.5000     0.5154     2.2458
 1485.0000     0.5147     2.3628
 1485.5000     0.5141     2.3077
 1486.0000     0.5135     2.2525
 1486.5000     0.6491     2.1974
 1487.0000     0.6491     2.1423
 1487.5000     0.6491     2.0872
 1488.0000     0.6492     2.0321
 1488.5000     0.6492     1.9770
 1489.0000     0.6493     1.9412
 1489.5000     0.6493     1.9801
 1490.0000     0.6494     2.0191
 1490.5000     0.6494     2.0581
 1491.0000     0.6495     2.0970
 1491.5000     0.6495     2.1360
 1492.0000     0.7068     2.1750
 1492.5000     0.7760     2.2139
 1493.0000     0.7771     2.2529
 1493.5000     0.7781     2.2919
 1494.0000     0.9979     2.3309
 1494.5000     0.9990     2.3628
 1495.0000     1.0000     2.3047
 1495.5000     1.0010     2.2556
 1496.0000     0.5335     2.2064
 1496.5000     0.5344     2.1573
 1497.0000     0.5354     2.1081
 1497.5000     0.5365     2.0590
 1498.0000     0.5375     2.0098
 1498.5000     0.5385     1.9607
 1499.0000     0.5396     1.9438
 1499.5000     0.5406     1.9680
 1500.0000     0.5401     1.9921
 1500.5000     0.5383     2.0162
 1501.0000     0.5366     2.0404
 1501.5000     0.5348     2.0645
 1502.0000     0.5330     2.0887
 1502.5000     0.5313     2.1128
 1503.0000     0.5295     2.1369
 1503.5000     0.5277     2.1313
 1504.0000     0.6313     2.1007
 1504.5000     0.6320     2.0700
 1505.0000     0.6328     2.0394
 1505.5000     0.6336     2.0088
 1506.0000     0.6344     1.9781
 1506.5000     0.6352     1.9475
 1507.0000     0.6359     1.9332
 1507.5000     0.6367     1.9332
 1508.0000     0.6375     1.9332
 1508.5000     0.6383     1.9332
 1509.0000     0.6391     1.9332
 1509.5000     0.6398     1.9332
 1510.0000     0.6406     1.9332
