~VERSION INFORMATION
 VERS.                2.0:   CWLS LOG ASCII STANDARD - VERSION 2.0
 WRAP.                 NO:   ONE LINE PER DEPTH STEP
~WELL INFORMATION
#MNEM.UNIT      DATA TYPE    INFORMATION
#----------   ------------   ------------------------------
 STRT.F            0.0000:   START DEPTH
 STOP.F          520.0000:   STOP DEPTH
 STEP.F            0.5000:   STEP LENGTH
 NULL.          -999.2500:   NO VALUE
 COMP. LAWRENCE/ALLISON INC:   COMPANY
 WELL.   NPR #3 #67-13 SX:   WELL
 FLD .             TEAPOT:   FIELD
 LOC .       S3 T38N R78W:   LOCATION
 CNTY.            NATRONA:   COUNTY
 STAT.            WYOMING:   STATE
 CTRY. UNITED STATES OF AMERICA:   COUNTRY
 SRVC.           Gearhart:   SERVICE COMPANY
 DATE.        06-JUL-1988:   LOGDATE
 API .       490251123000:   API NUMBER
~CURVE INFORMATION
#MNEM.UNIT       API CODE    CURVE DESCRIPTION
#----------   ------------   ------------------------------
 DEPT.F                  :   
 GRR .GAPI   07 310 01 00:   GAMMA RAY FROM RES. LOG.
 RILD.OHMM   07 120 46 00:   INDUCTION LOG DEEP RESISTIVITY
 RILM.OHMM   07 120 44 00:   INDUCTION LOG MEDIUM RESISTIVITY
~PARAMETER INFORMATION
#MNEM.UNIT          VALUE    DESCRIPTION
#----------   ------------   ------------------------------
 PD  .                 GL:   PERMANENT DATUM
 EPD .F              5168:   ELEVATION PERMANENT DATUM
 LMF .                 KB:   LOG MEASURED FROM
 DAPD.F                10:   FEET ABOVE PERMANENT DATUM
 DMF .                 KB:   DRILLING MEASURED FROM
 EKB .F              5178:   KELLING BUSHING
 EGL .F              5168:   GROUND LEVEL
 DATE.             7-6-88:   RUN DATE
 RUN .                  1:   RUN NUMBER
 DD  .F               520:   DEPTH DRILLER
 DL  .F               524:   DEPTH LOGGER
 BLI .F             515.5:   BOTTOM LOG INTERVAL
 TLI .F                50:   TOP LOG INTERVAL
 CS  .IN            9.625:   CASING SIZE
 CBD .F                50:   CASING BOTTOM DRILLER
 CBL .F                50:   CASING BOTTOM LOGGER
 BS  .IN             8.75:   BIT SIZE
 BSD .F               520:   BIT SIZE AT DEPTH
 DFT .                AIR:   DRILLING FLUID TYPE
 TLAB.HRS            0015:   TIME LOGGER AT BOTTOM
 MRT .F                70:   MAXIMUM RECORDED TEMPERATURE
 LUN .               7597:   LOGGING UNIT NUMBER
 LUL .           GILLETTE:   LOGGING UNIT LOCATION
 ENGI.          HUCKFELDT:   RECORDING ENGINEER
 WITN.              FIVAS:   WITNESSED BY
 CLNT.            A2DTECH:   CLIENT CODE
 ORIG.       2", 5" PRINT:   ORIGIN OF DATA
 UWI .       490251123000:   UNIQUE WELL ID
 DICO. A2D Technologies, Inc.:   DIGITIZING COMPANY
~OTHER INFORMATION
~A    DEPT      GRR      RILD       RILM   
# ...
   91.0000   122.3127    13.2811    12.8442
   91.5000   121.3955    13.1834    12.7690
   92.0000   120.6935    13.0887    12.7186
   92.5000   121.8053    12.9943    12.6108
   93.0000   124.4966    12.8995    12.4604
   93.5000   126.8420    12.8054    12.3118
   94.0000   127.9724    12.7119    12.1650
   94.5000   125.9348    12.6192    12.0200
   95.0000   122.2989    12.5271    11.8766
   95.5000   121.3750    12.4858    11.8126
   96.0000   121.9304    12.5626    11.8462
   96.5000   122.9609    12.7109    11.8759
   97.0000   123.7523    12.8609    11.9056
   97.5000   122.3132    13.0127    11.9222
   98.0000   120.5616    13.1974    12.3154
   98.5000   119.2279    13.1417    12.7186
   99.0000   117.5270    13.0723    12.6110
   99.5000   117.0761    13.0033    12.4233
  100.0000   118.4508    12.7217    12.2549
  100.5000   119.7752    12.5955    12.0032
  101.0000   120.0124    12.3230    11.7987
  101.5000   120.0884    12.1184    11.6007
  102.0000   121.0605    11.9364    11.4032
  102.5000   122.2138    11.7384    11.2119
  103.0000   122.4486    11.5616    11.0209
  103.5000   122.8121    11.3707    10.8362
  104.0000   122.9397    11.1796    10.6217
  104.5000   121.8269    11.1212    10.4773
  105.0000   120.3648    11.0689    10.4609
  105.5000   119.5191    11.0069    10.4272
  106.0000   120.3684    10.9535    10.3912
  106.5000   120.7333    10.8932    10.3575
  107.0000   118.5609    10.8389    10.3214
  107.5000   116.7378    10.7802    10.2874
  108.0000   117.5901    10.7241    10.2512
  108.5000   121.2554    10.6712    10.2174
  109.0000   124.8169    10.6397    10.1815
  109.5000   126.0610    10.6100    10.1480
  110.0000   126.4608    10.5803    10.1122
  110.5000   125.3908    10.5507    10.0857
  111.0000   123.4031    10.5212    10.0617
  111.5000   122.4333    10.4918    10.0429
  112.0000   121.8350    10.4624    10.0177
  112.5000   121.4046    10.4332    10.0007
  113.0000   120.6694    10.4040     9.9743
  113.5000   119.3470    10.3795     9.9590
  114.0000   119.0657    10.2884     9.9310
  114.5000   121.0890    10.1660     9.9141
  115.0000   124.4381    10.0029     9.8149
  115.5000   127.3545     9.6549     9.4363
  116.0000   130.7779     9.3765     9.1308
  116.5000   134.5968     9.2049     8.8352
  117.0000   134.8687     8.9533     8.5491
  117.5000   130.9929     8.7894     8.3155
  118.0000   126.5132     8.7086     8.2881
  118.5000   123.3066     8.7086     8.2363
  119.0000   121.6496     8.7086     8.1848
  119.5000   121.9907     8.7086     8.1632
  120.0000   123.4081     8.7086     8.2327
  120.5000   125.0101     8.7086     8.2931
  121.0000   126.2225     8.8710     8.3540
  121.5000   126.0496     8.9688     8.4244
  122.0000   125.5476     9.0677     8.5111
  122.5000   124.5356     9.1678     8.5986
  123.0000   123.8962     9.2689     8.6871
  123.5000   126.4184     9.3765     8.7765
  124.0000   129.5266     9.5287     8.8669
  124.5000   130.3056     9.6178     8.9533
  125.0000   129.3791     9.7078     9.0245
  125.5000   128.3369     9.7985     9.0926
  126.0000   128.6212     9.8902     9.1613
  126.5000   129.8200     9.9826     9.2304
  127.0000   130.9300    10.0958     9.3001
  127.5000   131.2364    10.0823     9.3704
  128.0000   130.7006    10.0653     9.4411
  128.5000   130.2744    10.0484     9.5269
  129.0000   130.7700    10.0314     9.6400
  129.5000   131.0704    10.0145     9.6067
  130.0000   129.8714     9.9976     9.5494
  130.5000   128.4453     9.9807     9.4924
  131.0000   127.6790     9.9624     9.4341
  131.5000   127.9013     9.9466     9.3794
  132.0000   129.1156     9.9292     9.3225
  132.5000   129.8561     9.9129     9.2677
  133.0000   129.6416     9.8960     9.2121
  133.5000   129.4810     9.8795     9.1572
  134.0000   130.3630     9.8628     9.1237
  134.5000   131.0514     9.8463     9.1345
  135.0000   130.3734     9.8296     9.1466
  135.5000   129.2316     9.8187     9.1571
  136.0000   128.6924     9.7811     9.1695
  136.5000   129.3533     9.7093     9.1798
  137.0000   129.8228     9.6390     9.1917
  137.5000   129.9996     9.5678     9.2025
  138.0000   129.7818     9.4993     9.1668
  138.5000   127.4489     9.4284     9.1280
  139.0000   125.6281     9.3621     9.0922
  139.5000   126.2733     9.2939     9.0543
  140.0000   127.8145     9.2262     8.9796
  140.5000   129.4919     9.1589     8.8728
  141.0000   130.3082     9.0887     8.7673
  141.5000   129.5932     9.0142     8.6630
  142.0000   128.0454     8.9404     8.5491
  142.5000   126.4431     8.8710     8.3916
  143.0000   124.8858     8.6020     8.2190
  143.5000   123.2898     8.3540     8.0499
  144.0000   122.2393     8.1131     7.8671
  144.5000   122.7204     7.8792     7.4334
  145.0000   124.6436     7.6521     6.9768
  145.5000   126.9774     7.5120     6.7455
  146.0000   129.3725     7.3745     6.6619
  146.5000   131.4668     7.3733     6.7837
  147.0000   131.9791     7.4574     6.9225
  147.5000   131.2308     7.6406     7.0416
  148.0000   130.5358     7.8395     7.4086
  148.5000   129.7082     8.0327     7.7409
  149.0000   130.1240     8.2407     7.9097
  149.5000   131.6733     8.4449     8.0118
  150.0000   131.9716     8.5487     8.1152
  150.5000   131.3112     8.5459     8.2390
  151.0000   130.1737     8.5471     8.2390
  151.5000   128.8701     8.5464     8.2028
  152.0000   128.2070     8.5456     8.1722
  152.5000   128.0511     8.5477     8.1416
  153.0000   128.0987     8.3652     8.1112
  153.5000   129.0231     8.2199     8.0882
  154.0000   128.3241     8.0669     8.0261
  154.5000   125.4039     7.9401     7.9230
  155.0000   125.7449     7.9401     7.7922
  155.5000   128.3575     7.7231     7.4606
  156.0000   129.9719     7.4436     7.1085
  156.5000   130.3669     7.0581     6.7438
  157.0000   128.9444     6.6926     6.3961
  157.5000   127.7586     6.3027     6.0661
  158.0000   127.5381     6.1304     5.7552
  158.5000   127.1545     5.9943     5.4390
  159.0000   126.0822     5.9628     5.3430
  159.5000   124.1232     6.0472     5.3839
  160.0000   123.7179     6.1873     5.4435
  160.5000   125.4210     6.4194     5.7435
  161.0000   126.5492     6.7237     6.2054
  161.5000   127.4985     6.9901     6.7214
  162.0000   127.4665     7.3426     6.9677
  162.5000   125.6383     7.7948     7.2395
  163.0000   125.2649     7.8831     7.5219
  163.5000   125.6467     8.0216     7.7948
  164.0000   124.5607     8.1877     7.9761
  164.5000   123.5897     8.3573     8.1632
  165.0000   123.9342     8.5304     8.2207
  165.5000   125.2339     8.7086     8.2833
  166.0000   126.2216     8.7303     8.3465
  166.5000   125.9771     8.7932     8.3926
  167.0000   124.5678     8.8565     8.4613
  167.5000   122.6694     8.9203     8.5266
  168.0000   122.0682     8.9845     8.5924
  168.5000   122.4793     9.0492     8.6587
  169.0000   124.1768     9.1144     8.7255
  169.5000   127.1530     9.1800     8.7894
  170.0000   128.0953     9.2461     8.7894
  170.5000   128.0592     9.3020     8.8676
  171.0000   128.8399     9.3369     8.9336
  171.5000   129.9249     9.3719     9.0002
  172.0000   130.4487     9.4070     9.0672
  172.5000   129.0681     9.4423     9.1348
  173.0000   127.0633     9.4392     9.2049
  173.5000   124.7103     9.3785     9.0357
  174.0000   123.1851     9.3181     8.8710
  174.5000   124.0341     9.2581     8.8710
  175.0000   124.7343     9.2049     8.8710
  175.5000   124.2368     9.1563     8.8710
  176.0000   124.3427     9.1202     8.8710
  176.5000   126.3242     8.9828     8.8038
  177.0000   129.6536     8.8675     8.5958
  177.5000   132.7800     8.7537     8.3811
  178.0000   133.4254     8.6285     8.3084
  178.5000   131.5006     8.4658     8.1877
  179.0000   129.5367     8.2856     8.0893
  179.5000   128.3493     7.9858     7.9954
  180.0000   127.9312     7.4375     7.7681
  180.5000   127.6317     6.9269     7.4977
  181.0000   127.5367     6.4513     7.1786
  181.5000   128.3686     6.0084     6.6627
