~VERSION INFORMATION
 VERS.                2.0:   CWLS LOG ASCII STANDARD - VERSION 2.0
 WRAP.                 NO:   ONE LINE PER DEPTH STEP
~WELL INFORMATION
#MNEM.UNIT      DATA TYPE    INFORMATION
#----------   ------------   ------------------------------
 STRT.F           30.0000:   START DEPTH
 STOP.F          562.0000:   STOP DEPTH
 STEP.F            0.5000:   STEP LENGTH
 NULL.          -999.2500:   NO VALUE
 COMP. LAWRENCE/ALLISON INC:   COMPANY
 WELL. 81-16 SHX-SX-10 #10-10:   WELL
 FLD .             TEAPOT:   FIELD
 LOC .      S10 T38N R78W:   LOCATION
 CNTY.            NATRONA:   COUNTY
 STAT.            WYOMING:   STATE
 CTRY. UNITED STATES OF AMERICA:   COUNTRY
 SRVC.           Gearhart:   SERVICE COMPANY
 DATE.        03-JUN-1987:   LOGDATE
 API .       490251113300:   API NUMBER
~CURVE INFORMATION
#MNEM.UNIT       API CODE    CURVE DESCRIPTION
#----------   ------------   ------------------------------
 DEPT.F                  :   
 GRR .GAPI   07 310 01 00:   GAMMA RAY FROM RES. LOG.
 RILD.OHMM   07 120 46 00:   INDUCTION LOG DEEP RESISTIVITY
 RILM.OHMM   07 120 44 00:   INDUCTION LOG MEDIUM RESISTIVITY
~PARAMETER INFORMATION
#MNEM.UNIT          VALUE    DESCRIPTION
#----------   ------------   ------------------------------
 PD  .                 GL:   PERMANENT DATUM
 EPD .F              5169:   ELEVATION PERMANENT DATUM
 LMF .                 KB:   LOG MEASURED FROM
 DAPD.F                 8:   FEET ABOVE PERMANENT DATUM
 DMF .                 KB:   DRILLING MEASURED FROM
 EKB .F              5177:   KELLING BUSHING
 EDF .F              5175:   DRILLING FLOOR
 EGL .F              5169:   GROUND LEVEL
 DATE.             6-3-87:   RUN DATE
 RUN .                  1:   RUN NUMBER
 DD  .F               570:   DEPTH DRILLER
 DL  .F               570:   DEPTH LOGGER
 BLI .F               562:   BOTTOM LOG INTERVAL
 TLI .F                30:   TOP LOG INTERVAL
 CS  .IN            8.625:   CASING SIZE
 CBD .F                50:   CASING BOTTOM DRILLER
 CBL .F                49:   CASING BOTTOM LOGGER
 BS  .IN            7.875:   BIT SIZE
 BSD .F               570:   BIT SIZE AT DEPTH
 DFT .               FOAM:   DRILLING FLUID TYPE
 TCS .HRS            0930:   TIME CURCULATED STOPPED
 TLAB.HRS            1101:   TIME LOGGER AT BOTTOM
 MRT .F                80:   MAXIMUM RECORDED TEMPERATURE
 LUN .               7597:   LOGGING UNIT NUMBER
 LUL .           GILLETTE:   LOGGING UNIT LOCATION
 ENGI. WEATHERMON/JOHNSTON:   RECORDING ENGINEER
 WITN.             STRONG:   WITNESSED BY
 CLNT.            A2DTECH:   CLIENT CODE
 ORIG.       2", 5" PRINT:   ORIGIN OF DATA
 UWI .       490251113300:   UNIQUE WELL ID
 DICO. A2D Technologies, Inc.:   DIGITIZING COMPANY
~OTHER INFORMATION
~A   DEPT       GRR      RILD       RILM   
# ...
  121.0000   125.1474     8.5007     9.1078
  121.5000   125.3567     8.6180     9.2085
  122.0000   125.6363     8.7370     9.3103
  122.5000   125.9671     8.8576     9.4133
  123.0000   123.5038     8.9799     9.5173
  123.5000   120.7556     9.1038     9.6226
  124.0000   117.1701     9.2295     9.7289
  124.5000   112.7379     9.3572     9.8365
  125.0000   113.1303     9.4860     9.9453
  125.5000   114.7715     9.6015    10.0639
  126.0000   116.3908     9.5282    10.0639
  126.5000   117.2104     9.4631     9.9887
  127.0000   117.6246     9.3985     9.9325
  127.5000   118.4381     9.3343     9.8762
  128.0000   119.3915     9.2705     9.7588
  128.5000   120.1661     9.2072     9.6422
  129.0000   119.6613     9.1443     9.5270
  129.5000   118.2839     9.0818     9.4136
  130.0000   115.4459     8.9895     9.3343
  130.5000   113.5010     9.0151     9.4383
  131.0000   115.5098     9.0656     9.5196
  131.5000   118.2571     9.1163     9.6015
  132.0000   121.0379     9.1673     9.6841
  132.5000   123.8321     9.2186     9.7674
  133.0000   125.0699     9.2702     9.8212
  133.5000   124.2294     9.3219     9.9964
  134.0000   121.7522     9.3730    10.1746
  134.5000   119.2983     9.4225    10.3570
  135.0000   116.8427     9.6540    10.4855
  135.5000   114.3884     9.8738    10.6140
  136.0000   111.9356    10.0986    10.7490
  136.5000   109.3697    10.3285    10.9557
  137.0000   109.2229    10.5636    11.1797
  137.5000   109.8653    10.8041    11.4083
  138.0000   109.6335    11.0500    11.6416
  138.5000   109.1562    11.3015    11.8797
  139.0000   108.8649    11.5588    12.1226
  139.5000   109.4045    11.8219    12.3705
  140.0000   110.0444    12.0911    12.6234
  140.5000   110.7362    12.3663    12.8815
  141.0000   111.4663    12.6478    13.1449
  141.5000   111.3869    12.9358    13.4137
  142.0000   110.4448    13.2302    13.6880
  142.5000   108.9777    13.4718    13.9064
  143.0000   108.3690    13.5645    14.0321
  143.5000   109.3808    13.6580    14.1589
  144.0000   111.0508    13.7283    14.2541
  144.5000   111.3088    13.7289    14.1828
  145.0000   109.8289    13.7290    14.1262
  145.5000   108.3204    13.5947    14.0698
  146.0000   107.9591    13.4927    14.0137
  146.5000   107.9569    13.3915    13.9081
  147.0000   107.3158    13.2911    13.7630
  147.5000   106.1932    13.1915    13.6192
  148.0000   105.8614    13.0926    13.4769
  148.5000   107.8359    12.9944    13.3363
  149.0000   109.8019    12.8970    13.1970
  149.5000   110.2798    12.8003    13.0969
  150.0000   107.5439    12.7326    13.2065
  150.5000   104.8442    12.8022    13.2929
  151.0000   102.5829    12.8562    13.3802
  151.5000   103.7387    12.9107    13.4682
  152.0000   105.4848    12.9653    13.5556
  152.5000   106.7534    13.0201    13.6003
  153.0000   106.1516    13.0969    13.5518
  153.5000   102.6208    12.9942    13.5101
  154.0000    97.7185    12.8267    13.4718
  154.5000    90.7470    12.6615    13.2591
  155.0000    90.6542    12.4953    13.0266
  155.5000    97.3907    12.2774    12.7965
  156.0000   105.5533    12.0592    12.5706
  156.5000   111.7673    11.8449    12.3488
  157.0000   110.1504    11.6345    12.1309
  157.5000   108.0601    11.5258    11.9209
  158.0000   106.6292    11.4445    11.8106
  158.5000   106.4274    11.3643    11.7032
  159.0000   104.7894    11.2846    11.5969
  159.5000   102.5104    11.2062    11.4915
  160.0000   100.2473    11.0897    11.3871
  160.5000   100.7206    10.9307    11.2852
  161.0000   106.2385    10.7734    11.1845
  161.5000   110.0600    10.6483    11.0847
  162.0000   108.0548    10.6071    10.9858
  162.5000   105.9261    10.5661    10.9239
  163.0000   104.2279    10.5254    10.8804
  163.5000   105.6237    10.4847    10.8370
  164.0000   107.6135    10.4443    10.7937
  164.5000   109.6329    10.4040    10.7507
  165.0000   110.7101    10.3638    10.7078
  165.5000   107.1821    10.3238    10.6485
  166.0000   103.6310    10.2840    10.6707
  166.5000   102.4649    10.2551    10.7092
  167.0000   101.4515    10.4498    10.7490
  167.5000   101.3743    10.3647    10.6710
  168.0000   103.0604    10.2125    10.5883
  168.5000   105.0633    10.0626    10.5061
  169.0000   105.7733     9.9149    10.3827
  169.5000   106.1185     9.6766    10.1595
  170.0000   106.3250     9.4120     9.8918
  170.5000   107.3094     9.1546     9.6241
  171.0000   110.6714     8.9042     9.3658
  171.5000   113.8380     8.6601     9.1474
  172.0000   115.7628     8.3380     8.9707
  172.5000   113.2746     8.3458     8.9048
  173.0000   109.6168     8.3617     8.9384
  173.5000   105.8174     8.3765     8.9895
  174.0000   105.3895     8.3912     8.9895
  174.5000   110.0941     8.4066     8.9887
  175.0000   115.2685     8.4575     8.9884
  175.5000   120.3747     8.6097     9.1173
  176.0000   120.4286     8.7622     9.2175
  176.5000   110.8824     8.9179     9.3191
  177.0000   104.0947     9.0763     9.4208
  177.5000   101.0185     9.2376     9.5126
  178.0000   101.7131     9.4016     9.6855
  178.5000   106.4286     9.5686     9.8748
  179.0000   110.0119     9.6922    10.0679
  179.5000   109.5992     9.7245    10.3520
  180.0000   109.2550     9.7545    10.3144
  180.5000   109.4488     9.7846    10.2468
  181.0000   109.9040     9.8149    10.1590
  181.5000   110.8220     9.8455    10.2221
  182.0000   111.7936     9.8761    10.3520
  182.5000   112.3678     9.8147    10.3099
  183.0000   112.0775     9.7518    10.2393
  183.5000   111.8183     9.6893    10.1691
  184.0000   112.3948     9.6272    10.0994
  184.5000   115.5468     9.5555    10.0301
  185.0000   120.2177     9.4773     9.9614
  185.5000   124.5632     9.4000     9.8931
  186.0000   123.0719     9.3335     9.8253
  186.5000   119.3952     9.3441     9.7838
  187.0000   116.8179     9.3544     9.7839
  187.5000   116.5700     9.3646     9.7839
  188.0000   117.1000     9.3748     9.7838
  188.5000   117.8136     9.3851     9.7838
  189.0000   116.3337     9.3954     9.7839
  189.5000   112.7946     9.4056     9.7851
  190.0000   109.9597     9.4160     9.7297
  190.5000   111.5436     9.4217     9.6795
  191.0000   115.0066     9.3673     9.6299
  191.5000   117.3753     9.3273     9.5806
  192.0000   117.3221     9.2875     9.5315
  192.5000   118.1481     9.2468     9.4827
  193.0000   119.1201     9.1460     9.4341
  193.5000   119.4127     9.0439     9.3858
  194.0000   116.2110     8.9431     9.3343
  194.5000   113.5272     8.8220     9.1603
  195.0000   114.6296     8.8621     9.1770
  195.5000   119.1714     8.9136     9.2053
  196.0000   118.5024     8.9895     9.2469
  196.5000   115.4052     8.8007     9.0265
  197.0000   114.8047     8.4604     8.6309
  197.5000   114.3223     8.1333     8.2527
  198.0000   112.7230     7.8187     7.8910
  198.5000   110.1018     7.5164     7.6609
  199.0000   110.3962     7.1726     7.5891
  199.5000   110.8583     7.2354     7.5181
  200.0000   111.1066     7.3375     7.5891
  200.5000   108.7335     7.4477     7.7172
  201.0000   106.3600     7.5771     7.8615
  201.5000   106.3852     7.7179     8.0086
  202.0000   109.7887     7.8612     8.1583
  202.5000   113.2578     8.0072     8.3109
  203.0000   115.5414     8.1560     8.4664
  203.5000   114.5724     8.3074     8.6247
  204.0000   113.7149     8.4976     8.8232
  204.5000   113.9066     8.4845     8.7980
  205.0000   113.1110     8.4564     8.7576
  205.5000   110.7966     8.4275     8.7169
  206.0000   108.4143     8.3989     8.6766
  206.5000   110.6754     8.3704     8.6376
  207.0000   113.6828     8.3421     8.5778
  207.5000   116.6761     8.3138     8.5184
  208.0000   118.9535     8.2857     8.4595
  208.5000   118.5063     8.2597     8.4009
  209.0000   118.1886     7.9074     8.3387
  209.5000   118.5121     7.5933     8.0545
  210.0000   118.8357     7.2917     7.7555
  210.5000   119.1601     7.0019     7.4672
  211.0000   119.1311     6.7234     7.0257
  211.5000   117.1021     6.4579     6.4133
