~VERSION INFORMATION
 VERS.                2.0:   CWLS LOG ASCII STANDARD - VERSION 2.0
 WRAP.                 NO:   ONE LINE PER DEPTH STEP
~WELL INFORMATION
#MNEM.UNIT      DATA TYPE    INFORMATION
#----------   ------------   ------------------------------
 STRT.F           20.0000:   START DEPTH
 STOP.F          500.0000:   STOP DEPTH
 STEP.F            0.5000:   STEP LENGTH
 NULL.          -999.2500:   NO VALUE
 COMP.    FENIX & SCISSON:   COMPANY
 WELL. RES 3 TEAPOT DOM #81SX10-10:   WELL
 FLD .             TEAPOT:   FIELD
 LOC .      S10 T38N R78W:   LOCATION
 CNTY.            NATRONA:   COUNTY
 STAT.            WYOMING:   STATE
 CTRY. UNITED STATES OF AMERICA:   COUNTRY
 SRVC.           BIRDWELL:   SERVICE COMPANY
 DATE.        22-NOV-1978:   LOGDATE
 API .       490251075100:   API NUMBER
~CURVE INFORMATION
#MNEM.UNIT       API CODE    CURVE DESCRIPTION
#----------   ------------   ------------------------------
 DEPT.F                  :   
 ILD .OHMM   05 120 46 00:   INDUCTION LOG DEEP
 SN  .OHMM   05 040 16 00:   SHORT NORMAL 16"
 SPR .MV     05 010 01 00:   SPONTANEOUS POTENTIAL FROM RES.
 CALD.IN     45 280 60 00:   CALIPER FROM DENSITY LOG
 CORR.G/C3   45 356 01 00:   DENSITY CORRECTION
 DPHI.DEC    45 890 10 00:   DENSITY POROSITY LIMESTONE
 GRD .GAPI   45 310 01 00:   GAMMA RAY FROM DENSITY LOG
 RHOB.G/C3   45 350 01 00:   BULK DENSITY
~PARAMETER INFORMATION
#MNEM.UNIT          VALUE    DESCRIPTION
#----------   ------------   ------------------------------
 PD  .                 GL:   PERMANENT DATUM
 EPD .F              5129:   ELEVATION PERMANENT DATUM
 LMF .                 KB:   LOG MEASURED FROM
 DAPD.F                 4:   FEET ABOVE PERMANENT DATUM
 DMF .                 KB:   DRILLING MEASURED FROM
 EKB .F              5133:   KELLING BUSHING
 EGL .F              5129:   GROUND LEVEL
 DATE.        22-NOV-1978:   RUN DATE
 RUN .                  1:   RUN NUMBER
 DD  .F               500:   DEPTH DRILLER
 DL  .F               500:   DEPTH LOGGER
 BLI .F               500:   BOTTOM LOG INTERVAL
 TLI .F                20:   TOP LOG INTERVAL
 CS  .IN            8.625:   CASING SIZE
 CBD .F                40:   CASING BOTTOM DRILLER
 CBL .F                40:   CASING BOTTOM LOGGER
 BS  .IN            7.875:   BIT SIZE
 BSD .F               500:   BIT SIZE AT DEPTH
 DFT .                KCL:   DRILLING FLUID TYPE
 DFD .                8.7:   DRILLING FLUID DENSITY
 DFV .                 36:   DRILLING FLUID VISCOSITY
 DFPH.               11.2:   DRILLING FLUID PH
 DFL .                 94:   DRILLING FLUID LOSS
 MSS .            MUD PIT:   MUD SAMPLE SOURCE
 RMS .OHMM           0.28:   RESISTIVITY MUD SAMPLE
 MST .F                62:   MUD SAMPLE TEMPERATURE
 RMF .OHMM           0.24:   RESISTIVITY MUD FILTRATE SAMPLE
 MFST.F                66:   MUD FILTRATE SAMPLE TEMPERATURE
 RMC .OHMM           0.31:   RESISTIVITY MUD CAKE
 MCST.F                66:   MUD CAKE SAMPLE TEMPERATURE
 MFSS.               MEAS:   MUD FILTRATE SAMPLE SOURCE
 MCSS.               MEAS:   MUD CAKE SAMPLE SOURCE
 RMB .OHMM            0.3:   RESISTIVITY MUD AT BHT
 BHT .F                58:   BOTTOM HOLE TEMPERATURE
 TCS .HRS               1:   TIME CURCULATED STOPPED
 MRT .F                58:   MAXIMUM RECORDED TEMPERATURE
 LUN .               3029:   LOGGING UNIT NUMBER
 LUL .               CASP:   LOGGING UNIT LOCATION
 ENGI.           REYNOLDS:   RECORDING ENGINEER
 WITN.              AMEND:   WITNESSED BY
 CLNT.            A2DTECH:   CLIENT CODE
 ORIG.           5" PRINT:   ORIGIN OF DATA
 UWI .       490251075100:   UNIQUE WELL ID
 DICO. A2D Technologies, Inc.:   DIGITIZING COMPANY
~OTHER INFORMATION
~A   DEPT      ILD         SN        SPR       CALD       CORR       DPHI         GRD      RHOB   
   20.0000  -999.2500  -999.2500  -999.2500  -999.2500  -999.2500  -999.2500    78.9805  -999.2500
   20.5000  -999.2500  -999.2500  -999.2500  -999.2500  -999.2500  -999.2500    80.6297  -999.2500
   21.0000  -999.2500  -999.2500  -999.2500  -999.2500  -999.2500  -999.2500    82.5787  -999.2500
   21.5000  -999.2500  -999.2500  -999.2500  -999.2500  -999.2500  -999.2500    84.0780  -999.2500
   22.0000  -999.2500  -999.2500  -999.2500  -999.2500  -999.2500  -999.2500    86.1769  -999.2500
   22.5000  -999.2500  -999.2500  -999.2500  -999.2500  -999.2500  -999.2500    79.5802  -999.2500
   23.0000  -999.2500  -999.2500  -999.2500  -999.2500  -999.2500  -999.2500    72.3838  -999.2500
   23.5000  -999.2500  -999.2500  -999.2500  -999.2500  -999.2500  -999.2500    76.1319  -999.2500
   24.0000  -999.2500  -999.2500  -999.2500  -999.2500  -999.2500  -999.2500    77.6312  -999.2500
   24.5000  -999.2500  -999.2500  -999.2500  -999.2500  -999.2500  -999.2500    70.7346  -999.2500
   25.0000  -999.2500  -999.2500  -999.2500  -999.2500  -999.2500  -999.2500    71.4843  -999.2500
   25.5000  -999.2500  -999.2500  -999.2500  -999.2500  -999.2500  -999.2500    74.7826  -999.2500
   26.0000  -999.2500  -999.2500  -999.2500  -999.2500  -999.2500  -999.2500    77.1814  -999.2500
   26.5000  -999.2500  -999.2500  -999.2500  -999.2500  -999.2500  -999.2500    76.4318  -999.2500
   27.0000  -999.2500  -999.2500  -999.2500  -999.2500  -999.2500  -999.2500    75.9820  -999.2500
   27.5000  -999.2500  -999.2500  -999.2500  -999.2500  -999.2500  -999.2500    79.0505  -999.2500
   28.0000  -999.2500  -999.2500  -999.2500  -999.2500  -999.2500  -999.2500    80.1799  -999.2500
   28.5000  -999.2500  -999.2500  -999.2500  -999.2500  -999.2500  -999.2500    78.8306  -999.2500
   29.0000  -999.2500  -999.2500  -999.2500  -999.2500  -999.2500  -999.2500    79.2804  -999.2500
   29.5000  -999.2500  -999.2500  -999.2500  -999.2500  -999.2500  -999.2500    84.3778  -999.2500
   30.0000  -999.2500  -999.2500  -999.2500  -999.2500  -999.2500  -999.2500    86.6267  -999.2500
   30.5000  -999.2500  -999.2500  -999.2500  -999.2500  -999.2500  -999.2500    81.6792  -999.2500
   31.0000  -999.2500  -999.2500  -999.2500  -999.2500  -999.2500  -999.2500    77.3313  -999.2500
   31.5000  -999.2500  -999.2500  -999.2500  -999.2500  -999.2500  -999.2500    81.9790  -999.2500
   32.0000  -999.2500  -999.2500  -999.2500  -999.2500  -999.2500  -999.2500    89.6252  -999.2500
   32.5000  -999.2500  -999.2500  -999.2500  -999.2500  -999.2500  -999.2500    90.8246  -999.2500
   33.0000  -999.2500  -999.2500  -999.2500  -999.2500  -999.2500  -999.2500    87.5262  -999.2500
   33.5000  -999.2500  -999.2500  -999.2500  -999.2500  -999.2500  -999.2500    84.5277  -999.2500
   34.0000  -999.2500  -999.2500  -999.2500  -999.2500  -999.2500  -999.2500    81.5292  -999.2500
   34.5000  -999.2500  -999.2500  -999.2500  -999.2500  -999.2500  -999.2500    86.7766  -999.2500
   35.0000  -999.2500  -999.2500  -999.2500  -999.2500  -999.2500  -999.2500    90.9745  -999.2500
   35.5000  -999.2500  -999.2500  -999.2500  -999.2500  -999.2500  -999.2500    87.8116  -999.2500
   36.0000  -999.2500  -999.2500  -999.2500  -999.2500  -999.2500  -999.2500    82.1289  -999.2500
   36.5000  -999.2500  -999.2500  -999.2500  -999.2500  -999.2500  -999.2500    78.0810  -999.2500
   37.0000  -999.2500  -999.2500  -999.2500  -999.2500  -999.2500  -999.2500    75.8321  -999.2500
   37.5000  -999.2500  -999.2500  -999.2500  -999.2500  -999.2500  -999.2500    76.5817  -999.2500
   38.0000  -999.2500  -999.2500  -999.2500  -999.2500  -999.2500  -999.2500    78.9805  -999.2500
   38.5000  -999.2500  -999.2500  -999.2500  -999.2500  -999.2500  -999.2500    76.5817  -999.2500
   39.0000  -999.2500  -999.2500  -999.2500  -999.2500  -999.2500  -999.2500    78.3808  -999.2500
   39.5000  -999.2500  -999.2500  -999.2500  -999.2500  -999.2500  -999.2500    84.6777  -999.2500
   40.0000  -999.2500  -999.2500  -999.2500     7.8533    -0.0751     0.2673   101.1694     2.1069
   40.5000  -999.2500  -999.2500  -999.2500     8.0326     0.0448     0.2064    99.4608     2.1929
   41.0000  -999.2500  -999.2500  -999.2500     7.8676     0.0566     0.1623    92.7736     2.3131
   41.5000  -999.2500  -999.2500  -999.2500     7.7176     0.0701     0.1077    91.1244     2.4077
   42.0000     4.0237     8.6517  -999.2500     7.6874     0.0866     0.0900    97.2714     2.4805
   42.5000     4.2595     8.8733  -999.2500     7.7036     0.1061     0.0888   102.0690     2.5407
   43.0000     4.3188     9.1901  -999.2500     7.7317     0.1196     0.0996   102.3788     2.5458
   43.5000     4.4094     9.5800  -999.2500     7.7314     0.0866     0.1119   110.3148     2.4902
   44.0000     4.4709     9.9187  -999.2500     7.7311     0.0567     0.1209   112.7136     2.4797
   44.5000     4.5731    10.1984  -999.2500     7.7308     0.0522     0.1273   111.3643     2.4745
   45.0000     4.8245    10.4860    -0.8844     7.7006     0.0552     0.1257   109.8651     2.4745
   45.5000     6.1042    10.7893    -8.5323     7.6703     0.0403     0.1236   110.9145     2.4782
   46.0000    82.9107    11.0858   -15.9520     7.6700     0.0388     0.1221   113.1634     2.4835
   46.5000     8.8086    11.3197   -20.8293     7.6548     0.0403     0.1374   113.0135     2.4760
   47.0000     8.8086    11.4785   -22.6298     7.6695     0.0209     0.1380   110.7646     2.4505
   47.5000     8.8698    11.6396   -23.3809     7.6692     0.0224     0.1316   109.1154     2.4685
   48.0000     8.9314    11.6406   -23.5322     7.6689     0.0284     0.1176   109.7151     2.4820
   48.5000     8.8086    11.5607   -23.2341     7.6685     0.0329     0.1149   116.6646     2.4872
   49.0000     8.7479    11.5616   -23.0853     7.6682     0.0299     0.1152   121.1094     2.4925
   49.5000     8.6875    11.6429   -23.5368     7.6680     0.0209     0.1227   122.6087     2.4895
   50.0000     8.6276    11.6438   -24.2879     7.6677     0.0120     0.1386   122.9085     2.4632
   50.5000     8.6276    11.7256   -29.0872     7.6673     0.0075     0.1377   123.0585     2.4527
   51.0000     8.6276    11.8902   -29.9882     7.6670     0.0060     0.1187   110.8376     2.4595
   51.5000     8.6276    12.1446   -30.5893     7.6667     0.0060     0.1076   104.4678     2.4722
   52.0000     8.6276    12.4835   -31.3403     7.6665     0.0090     0.1061   107.1664     2.4865
   52.5000     8.5814    12.7468   -32.6914     7.6662     0.0106     0.1067   108.3658     2.4977
   53.0000     8.5814    12.8363   -34.1921     7.6659     0.0151     0.1070   108.0660     2.5015
   53.5000     8.5814    13.0165   -35.3929     7.6806     0.0166     0.1148   108.5157     2.5015
   54.0000     8.5221    13.1082   -36.1439     7.6952     0.0175     0.1253   113.1634     2.4932
   54.5000     8.4047    13.1090   -37.0453     7.6949     0.0151     0.1313   117.5112     2.4722
   55.0000     8.3466    13.2011   -38.0962     7.6796     0.0106     0.1376   117.9610     2.4527
   55.5000     8.2317    13.2939   -38.9971     7.6644     0.0086     0.1364   116.7616     2.4474
   56.0000     8.1748    13.3875   -40.1979     7.6641     0.0062     0.1331   116.3118     2.4542
   56.5000     8.1748    13.3883   -41.5490     7.6637     0.0063     0.1307   116.7616     2.4655
   57.0000     8.1183    13.3892   -42.4500     7.6635     0.0092     0.1295   117.9610     2.4685
   57.5000     8.1183    13.3901   -43.5009     7.6632     0.0092     0.1283   119.0105     2.4685
   58.0000     8.1748    13.4842   -43.9521     7.6636     0.0092     0.1283   119.1604     2.4655
   58.5000     8.1748    13.4853   -43.9330     7.6797     0.0092     0.1307   119.7601     2.4655
   59.0000     8.1748    13.3004   -43.5051     7.7071     0.0072     0.1319   121.9240     2.4670
   59.5000     8.1748    12.8479   -43.5069     7.7218     0.0033     0.1316   125.4573     2.4677
   60.0000     8.1748    12.3081   -43.8081     7.7216     0.0033     0.1340   127.8561     2.4625
