~VERSION INFORMATION
 VERS.                2.0:   CWLS LOG ASCII STANDARD - VERSION 2.0
 WRAP.                 NO:   ONE LINE PER DEPTH STEP
~WELL INFORMATION
#MNEM.UNIT      DATA TYPE    INFORMATION
#----------   ------------   ------------------------------
 STRT.F           78.5000:   START DEPTH
 STOP.F         1021.0000:   STOP DEPTH
 STEP.F            0.5000:   STEP LENGTH
 NULL.          -999.2500:   NO VALUE
 COMP. U S NAVY/INTEX OIL CO:   COMPANY
 WELL.     NRR 3 ##65S-11:   WELL
 FLD .             TEAPOT:   FIELD
 LOC .      S11 T38N R78W:   LOCATION
 CNTY.            NATRONA:   COUNTY
 STAT.            WYOMING:   STATE
 CTRY. UNITED STATES OF AMERICA:   COUNTRY
 SRVC.       Schlumberger:   SERVICE COMPANY
 DATE.        09-MAR-1960:   LOGDATE
 API .       490250634100:   API NUMBER
~CURVE INFORMATION
#MNEM.UNIT       API CODE    CURVE DESCRIPTION
#----------   ------------   ------------------------------
 DEPT.F                  :   
 SPR .MV     05 010 01 00:   SPONTANEOUS POTENTIAL FROM RES.
 ILD .OHMM   05 120 46 00:   INDUCTION LOG DEEP
 CILD.MMHO   05 110 00 00:   CONDUCTIVITY INDUCTION LOG
 ASN .OHMM   05 041 16 00:   AMPLIFIED SHORT NORMAL 16"
~PARAMETER INFORMATION
#MNEM.UNIT          VALUE    DESCRIPTION
#----------   ------------   ------------------------------
 PD  .                 GL:   PERMANENT DATUM
 EPD .F              5227:   ELEVATION PERMANENT DATUM
 LMF .                 KB:   LOG MEASURED FROM
 DAPD.F                 5:   FEET ABOVE PERMANENT DATUM
 DMF .                 KB:   DRILLING MEASURED FROM
 EKB .F              5232:   KELLING BUSHING
 EGL .F              5227:   GROUND LEVEL
 DATE.             3-9-60:   RUN DATE
 RUN .                  1:   RUN NUMBER
 DD  .F              1025:   DEPTH DRILLER
 DL  .F              1026:   DEPTH LOGGER
 BLI .F              1021:   BOTTOM LOG INTERVAL
 TLI .F                80:   TOP LOG INTERVAL
 CBD .F                12:   CASING BOTTOM DRILLER
 BS  .IN            7.875:   BIT SIZE
 BSD .F              1025:   BIT SIZE AT DEPTH
 DFT .          OIL EMULS:   DRILLING FLUID TYPE
 DFD .               10.2:   DRILLING FLUID DENSITY
 DFV .                 36:   DRILLING FLUID VISCOSITY
 DFPH.                7.5:   DRILLING FLUID PH
 DFL .                  4:   DRILLING FLUID LOSS
 MSS .          FLOW LINE:   MUD SAMPLE SOURCE
 RMS .OHMM           2.18:   RESISTIVITY MUD SAMPLE
 MST .F                64:   MUD SAMPLE TEMPERATURE
 RMF .OHMM           1.17:   RESISTIVITY MUD FILTRATE SAMPLE
 MFST.F                63:   MUD FILTRATE SAMPLE TEMPERATURE
 RMC .OHMM           2.02:   RESISTIVITY MUD CAKE
 MCST.F                64:   MUD CAKE SAMPLE TEMPERATURE
 MFSS.                  M:   MUD FILTRATE SAMPLE SOURCE
 MCSS.                  M:   MUD CAKE SAMPLE SOURCE
 TCS .HRS             .75:   TIME CURCULATED STOPPED
 LUN .               2795:   LOGGING UNIT NUMBER
 LUL .               CSPR:   LOGGING UNIT LOCATION
 ENGI.              SCOTT:   RECORDING ENGINEER
 WITN.          JORGENSEN:   WITNESSED BY
 CLNT.            A2DTECH:   CLIENT CODE
 ORIG.           2" PRINT:   ORIGIN OF DATA
 UWI .       490250634100:   UNIQUE WELL ID
 DICO. A2D Technologies, Inc.:   DIGITIZING COMPANY
~OTHER INFORMATION
~A   DEPT      SPR        ILD       CILD        ASN   
   78.5000   -66.5806  -999.2500  -999.2500  -999.2500
   79.0000   -66.3487  -999.2500  -999.2500  -999.2500
   79.5000   -66.1167  -999.2500  -999.2500  -999.2500
   80.0000   -65.8848     4.2896   223.4678     5.9039
   80.5000   -65.6528     4.4118   220.9210     5.9763
   81.0000   -65.4209     4.5341   216.6834     6.0488
   81.5000   -65.1889     4.6563   211.3861     6.1212
   82.0000   -65.0706     4.7786   206.9138     6.1824
   82.5000   -64.8447     4.9008   198.1678     5.7856
   83.0000   -64.6412     5.0230   190.6003     5.2966
   83.5000   -64.4618     5.0850   187.0999     5.3497
   84.0000   -64.2749     5.2057   180.8004     4.9467
   84.5000   -64.1538     5.3310   178.2938     6.0420
   85.0000   -64.2322     5.4477   176.7520     7.3114
   85.5000   -64.3068     5.5848   173.7716     7.4906
   86.0000   -64.3844     5.6803   171.3997     7.5568
   86.5000   -64.4600     5.7075   169.0337     7.5299
   87.0000   -64.5365     5.7506   166.6558     7.6185
   87.5000   -64.6133     5.7860   163.8277     7.6226
   88.0000   -64.6883     5.8256   164.2535     7.5427
   88.5000   -64.7671     5.8629   164.7629     7.5308
   89.0000   -64.8385     5.9014   165.2722     7.6235
   89.5000   -64.9234     5.9394   165.8317     7.7111
   90.0000   -64.9154     5.9776   163.6885     7.7966
   90.5000   -64.8284     6.0156   161.3115     7.8942
   91.0000   -64.7574     6.0539   158.8176     8.0078
   91.5000   -64.6785     6.0916   158.1719     8.1197
   92.0000   -64.6037     6.1306   157.4928     8.2357
   92.5000   -64.5267     6.1671   156.8136     8.3329
   93.0000   -64.4508     6.2082   156.1345     8.2989
   93.5000   -64.3745     6.2403   155.4554     8.2411
   94.0000   -64.2985     6.3215   154.8096     8.1986
   94.5000   -64.2214     6.4479   154.2752     8.1391
   95.0000   -64.1531     6.5632   153.8076     8.3140
   95.5000   -64.2229     6.6855   151.0020     8.6203
   96.0000   -64.3196     6.8011   148.4089     8.9029
   96.5000   -64.4111     6.9239   145.8159     9.1405
   97.0000   -64.5052     6.9686   143.2228     9.1386
   97.5000   -64.5975     6.9651   140.6297     9.0382
   98.0000   -64.6917     6.9560   141.0106     8.9403
   98.5000   -64.7830     6.8667   142.8423     8.8409
   99.0000   -64.8799     6.7850   144.6739     8.7467
   99.5000   -64.9478     6.7013   146.5055     8.6431
  100.0000   -64.9490     6.6189   148.3371     8.4274
  100.5000   -64.8873     6.5358   150.1687     8.2119
  101.0000   -64.7955     6.4532   152.0003     8.1372
  101.5000   -64.7096     6.3704   153.8319     8.0836
  102.0000   -64.6207     6.2877   155.6635     8.0231
  102.5000   -64.5334     6.2048   157.4951     7.9633
  103.0000   -64.4453     6.1221   159.3265     7.8886
  103.5000   -64.3575     6.0388   161.1572     7.7897
  104.0000   -64.2695     5.9569   162.9841     7.6884
  104.5000   -64.1816     5.8723   164.8049     7.5844
  105.0000   -64.0938     5.7929   166.7962     7.4868
  105.5000   -64.0059     5.7020   167.7661     7.3745
  106.0000   -63.9182     5.6614   168.9749     7.3285
  106.5000   -63.8289     5.7431   170.7173     7.3678
  107.0000   -63.7516     5.8306   171.8437     7.4180
  107.5000   -63.8442     5.9201   168.6078     7.4927
  108.0000   -63.9693     6.0082   165.9755     7.6614
  108.5000   -64.0880     6.0973   163.3432     7.8412
  109.0000   -64.2103     6.1857   160.7108     7.9628
  109.5000   -64.3292     6.2751   158.0785     8.0790
  110.0000   -64.4529     6.3625   155.4462     8.1948
  110.5000   -64.5686     6.4533   152.8139     8.3022
  111.0000   -64.6988     6.5380   150.1815     8.4073
  111.5000   -64.7512     6.6335   147.7956     8.4732
  112.0000   -64.7535     6.6398   146.7936     8.5130
  112.5000   -64.6824     6.5772   147.7956     8.5155
  113.0000   -64.5385     6.5291   150.5878     8.4655
  113.5000   -64.4098     6.4740   153.0739     8.4547
  114.0000   -64.2772     6.4227   155.5600     8.2810
  114.5000   -64.1489     6.3694   158.0461     8.0043
  115.0000   -64.0189     6.3171   160.5322     7.7670
  115.5000   -63.8884     6.2643   163.0183     7.6408
  116.0000   -63.7612     6.2117   165.5043     7.6027
  116.5000   -63.6273     6.1593   167.9904     7.5639
  117.0000   -63.5056     6.1062   170.0134     7.5268
  117.5000   -63.3641     6.0546   170.8417     7.5012
  118.0000   -63.4094     6.0003   169.9182     7.5084
  118.5000   -63.5695     5.9511   168.7316     7.5496
  119.0000   -63.6960     5.8906   167.5451     7.5503
  119.5000   -63.8392     5.8705   166.3586     7.5628
  120.0000   -63.9715     5.9124   165.1720     7.5768
  120.5000   -64.1231     5.9468   163.8277     7.5906
  121.0000   -64.1138     5.9855   165.1993     7.6016
  121.5000   -64.0646     6.0223   166.7813     7.5627
  122.0000   -64.0242     6.0560   168.3634     7.5105
  122.5000   -63.9795     6.0162   169.9454     7.4616
  123.0000   -63.9370     5.9618   170.9519     7.4100
  123.5000   -63.8934     5.9100   171.2062     7.3620
  124.0000   -63.8503     5.8570   171.4604     7.3079
  124.5000   -63.8070     5.8046   171.7147     7.2844
  125.0000   -63.7640     5.7520   171.9689     7.2924
  125.5000   -63.7209     5.6994   172.2232     7.2958
  126.0000   -63.6778     5.6468   172.4774     7.3006
  126.5000   -63.6347     5.5943   172.7317     7.3063
  127.0000   -63.5915     5.5416   173.7274     7.2935
  127.5000   -63.5483     5.4889   175.3257     7.1722
  128.0000   -63.5052     5.4363   176.9238     7.0464
  128.5000   -63.4618     5.3835   178.5220     6.9190
  129.0000   -63.4192     5.3310   180.1202     6.7966
  129.5000   -63.3743     5.2788   181.7184     6.6628
  130.0000   -63.3419     5.2547   183.3166     6.5855
  130.5000   -63.4082     5.2762   183.4235     6.7484
  131.0000   -63.4868     5.4170   182.7455     6.9110
  131.5000   -63.5635     5.5528   182.0675     7.0755
  132.0000   -63.6403     5.6896   179.1959     7.2374
  132.5000   -63.7181     5.8238   175.3820     7.3978
  133.0000   -63.7933     5.9629   171.5681     7.4658
  133.5000   -63.8750     6.0757   166.8337     7.4879
  134.0000   -63.9234     6.1349   166.3928     7.5144
  134.5000   -63.7996     6.1937   165.8116     7.5389
  135.0000   -63.6693     6.2512   165.2305     7.5624
  135.5000   -63.5395     6.3096   164.5666     7.5910
  136.0000   -63.4104     6.3675   163.7191     7.6004
  136.5000   -63.2797     6.4255   162.8716     7.5819
  137.0000   -63.1521     6.4841   162.0240     7.5630
  137.5000   -63.0187     6.5419   161.1765     7.5526
  138.0000   -62.8958     6.6015   160.3290     7.6268
  138.5000   -62.7566     6.6574   159.1095     7.9410
  139.0000   -62.7913     6.7204   157.3297     8.1917
  139.5000   -62.9222     6.7703   155.5499     8.2260
  140.0000   -63.0283     6.8464   153.7700     8.1613
  140.5000   -63.1400     6.7772   153.8076     8.0427
  141.0000   -63.2620     6.5460   155.8833     7.9228
  141.5000   -63.3577     6.3383   160.2726     7.7222
  142.0000   -63.4065     6.1177   164.6620     7.5113
  142.5000   -63.4693     5.9047   169.0513     7.3008
  143.0000   -63.5263     5.6865   173.4406     7.0907
  143.5000   -63.4854     5.4729   177.8299     6.8796
  144.0000   -63.4153     5.2522   182.2192     6.6725
  144.5000   -63.3516     5.0698   186.6085     6.5155
  145.0000   -63.2850     5.0577   190.9978     6.5042
  145.5000   -63.2199     5.0554   194.8898     6.5594
  146.0000   -63.1538     5.0739   193.8820     6.6127
  146.5000   -63.0885     5.2207   189.2930     6.7552
  147.0000   -63.0221     5.3652   185.2313     6.8901
  147.5000   -62.9579     5.5100   181.1707     7.0268
  148.0000   -62.8897     5.6541   177.0980     7.1623
  148.5000   -62.8288     5.7990   173.0078     7.2986
  149.0000   -62.7534     5.9429   168.9004     7.4341
  149.5000   -62.7593     6.0884   164.8898     7.5707
  150.0000   -62.8506     6.2309   160.8216     7.7054
  150.5000   -62.9279     6.3788   157.2846     7.8435
  151.0000   -63.0127     6.5164   155.2505     7.9751
