~VERSION INFORMATION
 VERS.                2.0:   CWLS LOG ASCII STANDARD - VERSION 2.0
 WRAP.                 NO:   ONE LINE PER DEPTH STEP
~WELL INFORMATION
#MNEM.UNIT      DATA TYPE    INFORMATION
#----------   ------------   ------------------------------
 STRT.F           50.0000:   START DEPTH
 STOP.F         1020.0000:   STOP DEPTH
 STEP.F            0.5000:   STEP LENGTH
 NULL.          -999.2500:   NO VALUE
 COMP. LAWRENCE/ALLISON INC:   COMPANY
 WELL.      28 STX #14-14:   WELL
 FLD .             TEAPOT:   FIELD
 LOC .      S14 T38N R78W:   LOCATION
 CNTY.            NATRONA:   COUNTY
 STAT.            WYOMING:   STATE
 CTRY. UNITED STATES OF AMERICA:   COUNTRY
 SRVC.            Unknown:   SERVICE COMPANY
 DATE.        22-OCT-1984:   LOGDATE
 API .       490251099000:   API NUMBER
~CURVE INFORMATION
#MNEM.UNIT       API CODE    CURVE DESCRIPTION
#----------   ------------   ------------------------------
 DEPT.F                  :   
 SPR .MV     07 010 01 00:   SPONTANEOUS POTENTIAL
 RILD.OHMM   07 120 46 00:   INDUCTION LOG DEEP RESISTIVITY
 RILM.OHMM   07 120 44 00:   INDUCTION LOG MEDIUM RESISTIVITY
 RFOC.OHMM   07 220 04 00:   RESISTIVITY FOCUSED LOG
 GRD .GAPI   45 310 01 00:   GAMMA RAY FROM DENSITY LOG
 CALD.IN     45 280 60 00:   CALIPER
 DEN .G/C3   45 350 01 00:   COMPENSATED BULK DENSTIY
 CORR.G/C3   45 356 01 00:   DENSITY CORRECTION
 PORD.DEC    45 890 12 00:   POROSITY DENSITY SANDSTONE
 CNC .DEC    42 890 03 00:   NEUTRON POROSITY SANDSTONE
 AC  .US/F   60 520 00 00:   ACOUSTIC SONIC
~PARAMETER INFORMATION
#MNEM.UNIT          VALUE    DESCRIPTION
#----------   ------------   ------------------------------
 PD  .                 GL:   PERMANENT DATUM
 EPD .F              5257:   ELEVATION PERMANENT DATUM
 LMF .                 KB:   LOG MEASURED FROM
 DAPD.F                12:   FEET ABOVE PERMANENT DATUM
 DMF .                 KB:   DRILLING MEASURED FROM
 EKB .F              5269:   KELLING BUSHING
 EGL .F              5257:   GROUND LEVEL
 DATE.           10-22-84:   RUN DATE
 RUN .                  1:   RUN NUMBER
 DD  .F              1020:   DEPTH DRILLER
 DL  .F              1019:   DEPTH LOGGER
 BLI .F              1017:   BOTTOM LOG INTERVAL
 TLI .F                52:   TOP LOG INTERVAL
 CS  .IN               16:   CASING SIZE
 CBD .F                40:   CASING BOTTOM DRILLER
 CBL .F                52:   CASING BOTTOM LOGGER
 BS  .IN            12.25:   BIT SIZE
 BSD .F              1020:   BIT SIZE AT DEPTH
 DFT .          GEL/WATER:   DRILLING FLUID TYPE
 DFD .                9.1:   DRILLING FLUID DENSITY
 DFV .                 35:   DRILLING FLUID VISCOSITY
 MSS .           FLOWLINE:   MUD SAMPLE SOURCE
 RMS .OHMM           2.04:   RESISTIVITY MUD SAMPLE
 MST .F                76:   MUD SAMPLE TEMPERATURE
 RMF .OHMM           1.53:   RESISTIVITY MUD FILTRATE SAMPLE
 MFST.F                76:   MUD FILTRATE SAMPLE TEMPERATURE
 RMC .OHMM           2.55:   RESISTIVITY MUD CAKE
 MCST.F                76:   MUD CAKE SAMPLE TEMPERATURE
 MFSS.               CALC:   MUD FILTRATE SAMPLE SOURCE
 MCSS.               CALC:   MUD CAKE SAMPLE SOURCE
 TCS .HRS               3:   TIME CURCULATED STOPPED
 MRT .F               100:   MAXIMUM RECORDED TEMPERATURE
 LUN .            HL 6307:   LOGGING UNIT NUMBER
 LUL .           GILLETTE:   LOGGING UNIT LOCATION
 ENGI.          CROSSBERG:   RECORDING ENGINEER
 WITN.            JOHNSON:   WITNESSED BY
 CLNT.            A2DTECH:   CLIENT CODE
 ORIG.       2", 5" PRINT:   ORIGIN OF DATA
 UWI .       490251099000:   UNIQUE WELL ID
 DICO. A2D Technologies, Inc.:   DIGITIZING COMPANY
~OTHER INFORMATION
~A   DEPT      SPR       RILD       RILM       RFOC        GRD        CALD       DEN       CORR       PORD          CNC       AC   
# ...
  477.0000   -61.5146     7.1759     5.5223     5.7178    92.4158    12.1189     2.4368     0.0653     0.1431     0.3644   101.9701
  477.5000   -61.1202     7.1711     5.4992     5.7338    91.8580    11.9156     2.4418     0.0708     0.1440     0.3737   101.8263
  478.0000   -60.7159     7.1663     5.4762     5.7499    90.8039    11.6973     2.4480     0.0851     0.1375     0.3772   100.9541
  478.5000   -60.3118     7.1615     5.4532     5.7660    89.7330    11.5832     2.4508     0.0992     0.1344     0.3661   100.0730
  479.0000   -59.9085     7.1566     5.4304     5.7822    88.3079    11.6783     2.4466     0.1214     0.1382     0.3546    99.4926
  479.5000   -59.5051     7.1518     5.3972     5.7985    86.1292    11.7620     2.4435     0.1768     0.1403     0.3503    99.6911
  480.0000   -59.1010     7.1469     5.4151     5.8089    83.2104    11.7493     2.4127     0.2451     0.1656     0.3510   100.3702
  480.5000   -58.6955     7.1421     5.4486     5.7808    82.7194    11.3282     2.3335     0.3148     0.2184     0.3369   101.0170
  481.0000   -58.2955     7.1372     5.4821     5.7597    83.7742    10.8949     2.2109     0.3259     0.2712     0.3219   101.1650
  481.5000   -57.9786     7.1324     5.5160     5.7388    85.3342    10.4605     2.1369     0.3245     0.3226     0.3327   100.5289
  482.0000   -58.2577     7.1276     5.5500     5.7179    88.8703    10.0575     2.1279     0.2711     0.3129     0.3491    91.3673
  482.5000   -58.5240     7.1227     5.5842     5.6972    93.2749     9.0503     2.1715     0.2106     0.3000     0.3503    81.9605
  483.0000   -58.8021     7.1179     5.6187     5.6764    95.9188     7.9699     2.2078     0.1829     0.2942     0.3474    72.5538
  483.5000   -59.0944     7.1110     5.6534     5.6510    97.7724     7.6728     2.2441     0.1584     0.2629     0.3339    65.4180
  484.0000   -59.4771     7.1832     5.7032     5.8551    99.6060     7.7135     2.2671     0.1638     0.2452     0.3233    62.2036
  484.5000   -60.2307     7.3119     5.6895     6.1340   100.2435     7.7885     2.2725     0.1710     0.2429     0.3324    59.6869
  485.0000   -60.9919     7.4428     5.6657     6.3722    99.0367     8.0900     2.2867     0.1781     0.2406     0.3577    64.9665
  485.5000   -61.7536     7.5760     5.6420     6.1792    99.0750     8.6153     2.3003     0.1852     0.2575     0.3899    74.4331
  486.0000   -62.4975     7.7117     5.6184     5.9398   102.5632     9.1456     2.3015     0.1925     0.2742     0.4022    83.8733
  486.5000   -62.9817     7.7837     5.5993     5.7559   105.7451     9.6761     2.2215     0.2096     0.2912     0.3874    93.7425
  487.0000   -62.9183     7.6788     5.6744     5.8207   101.9090    10.2111     2.1518     0.2382     0.3157     0.3690    96.0703
  487.5000   -62.9187     7.5959     5.7383     5.8757    95.3852    10.4610     2.0985     0.2637     0.3416     0.3507    98.6327
  488.0000   -62.7312     7.5131     5.8028     5.9311    90.1577    10.6425     2.0826     0.2550     0.3539     0.3426    99.5050
  488.5000   -62.2436     7.5131     5.8681     5.9872    88.2854    10.8989     2.1029     0.2425     0.3374     0.3345    99.9787
  489.0000   -61.7603     7.6166     5.9341     6.0437    88.8278    11.1996     2.1417     0.2492     0.3178     0.3264   100.3107
  489.5000   -61.2762     7.7191     6.0009     6.1008    91.0122    11.4537     2.1901     0.2569     0.3030     0.3210   100.6445
  490.0000   -60.7919     7.8231     6.0352     6.1584    92.3215    11.6486     2.2390     0.2289     0.2802     0.3218   100.9730
  490.5000   -60.3073     7.9286     6.0559     6.2166    90.2469    11.8434     2.2846     0.1972     0.2473     0.3291   100.9620
  491.0000   -59.8273     8.0355     6.0766     6.2751    87.9090    12.0229     2.3312     0.1704     0.2144     0.3370   100.6437
  491.5000   -59.5558     8.1439     6.0974     6.3679    86.8136    12.1096     2.3783     0.1444     0.1895     0.3382   100.3291
  492.0000   -59.3477     8.1971     6.1184     6.3533    87.1171    12.1646     2.4038     0.1185     0.1665     0.3272   100.0146
  492.5000   -59.3424     8.2393     6.1385     6.3197    90.1854    12.2207     2.4294     0.0988     0.1508     0.3230   100.0252
  493.0000   -59.3432     8.2816     6.1653     6.2863    93.5500    12.2773     2.4533     0.1114     0.1368     0.3280   100.1551
  493.5000   -59.3424     8.3242     6.1912     6.2529    95.8186    12.2862     2.4683     0.1338     0.1263     0.3314   100.2850
  494.0000   -59.3456     8.3670     6.2172     6.2197    95.6148    12.2924     2.4738     0.1554     0.1216     0.3302   100.4144
  494.5000   -59.4572     8.4100     6.2433     6.1951    95.4160    12.2988     2.4759     0.1562     0.1217     0.3286   100.5308
  495.0000   -59.9566     8.4532     6.2696     6.2773    97.7082    12.3052     2.4745     0.1553     0.1230     0.3251   100.5294
  495.5000   -60.4454     8.5647     6.2960     6.3745   100.6317    12.3118     2.4674     0.1544     0.1277     0.3201   100.5289
  496.0000   -60.9334     8.7131     6.3520     6.4734   103.0853    12.3186     2.4593     0.1468     0.1324     0.3150   100.0287
  496.5000   -61.4220     8.8640     6.4429     6.5737   101.0717    12.3094     2.4531     0.1215     0.1364     0.3100    99.3315
  497.0000   -61.9104     9.0176     6.5352     6.6756   100.5622    12.2969     2.4558     0.0964     0.1344     0.3077    98.6343
  497.5000   -62.3989     9.1739     6.6288     6.7791   101.0952    12.2843     2.4600     0.0891     0.1308     0.3131    97.7442
  498.0000   -62.8876     9.3329     6.7237     6.8841   101.4754    12.2718     2.4664     0.1065     0.1275     0.3239    96.7759
  498.5000   -63.3784     9.4946     6.8200     6.9326    98.1515    12.2592     2.4712     0.1240     0.1250     0.3245    95.8110
  499.0000   -63.8610     9.6591     6.9176     6.9636    94.6382    12.2467     2.4721     0.1263     0.1232     0.3117    95.0262
  499.5000   -63.7858     9.8263     7.0167     6.9948    93.3505    12.2342     2.4814     0.1228     0.1193     0.3006    95.9952
  500.0000   -63.6366     9.9967     7.1171     7.0261    92.1539    12.2217     2.4871     0.0995     0.1168     0.2888    97.2355
  500.5000   -63.4864    10.1228     7.2191     7.0575    90.0953    12.2092     2.4829     0.0766     0.1191     0.2702    96.5589
  501.0000   -63.3447    10.2021     7.3224     7.0891    90.0300    12.1999     2.4789     0.0555     0.1216     0.2686    90.9673
  501.5000   -63.0223    10.2820     7.4273     7.1208    91.1079    12.1989     2.4766     0.0587     0.1220     0.2728    76.5633
  502.0000   -62.5871    10.3625     7.5336     7.1527    93.6792    12.1977     2.4786     0.0744     0.1193     0.2795    59.3753
  502.5000   -62.1497    10.4436     7.6415     7.1766    96.8236    12.1966     2.4806     0.0796     0.1184     0.2862    44.2415
  503.0000   -61.7119    10.5254     7.7242     7.1625    99.8161    12.1954     2.4771     0.0703     0.1206     0.2930    62.8751
  503.5000   -61.2740    10.6556     7.6769     7.1513    97.4089    12.1942     2.4717     0.0610     0.1236     0.2997    77.6359
  504.0000   -60.8382    10.6043     7.6032     7.1401    93.9796    12.1930     2.4679     0.0603     0.1269     0.3030    89.2515
  504.5000   -60.4053    10.4843     7.5302     7.1289    92.2230    12.1919     2.4645     0.0670     0.1295     0.2910    93.1437
  505.0000   -60.0673    10.3658     7.4579     7.1177    94.4454    12.1907     2.4641     0.0736     0.1291     0.2862    94.4727
  505.5000   -59.8800    10.2485     7.3863     7.1066    97.4887    12.1895     2.4641     0.0782     0.1285     0.2890    95.2453
  506.0000   -59.6928    10.1326     7.3155     7.0954    96.9994    12.1884     2.4641     0.0777     0.1299     0.2919    95.7919
  506.5000   -59.5456    10.0180     7.2432     7.0843    95.3430    12.1872     2.4577     0.0772     0.1324     0.2949    96.0703
  507.0000   -59.9735     9.9001     7.2325     7.0732    93.6462    12.1860     2.4547     0.0767     0.1344     0.2978    96.1293
