~VERSION INFORMATION
 VERS.                2.0:   CWLS LOG ASCII STANDARD - VERSION 2.0
 WRAP.                 NO:   ONE LINE PER DEPTH STEP
~WELL INFORMATION
#MNEM.UNIT      DATA TYPE    INFORMATION
#----------   ------------   ------------------------------
 STRT.F          550.0000:   START DEPTH
 STOP.F         2078.5000:   STOP DEPTH
 STEP.F            0.5000:   STEP LENGTH
 NULL.          -999.2500:   NO VALUE
 COMP. BROWN JOHN E&C INC:   COMPANY
 WELL. 58-61 STX-10 #58-10:   WELL
 FLD .             TEAPOT:   FIELD
 LOC .      S10 T38N R78W:   LOCATION
 CNTY.            NATRONA:   COUNTY
 STAT.            WYOMING:   STATE
 CTRY. UNITED STATES OF AMERICA:   COUNTRY
 SRVC.            Unknown:   SERVICE COMPANY
 DATE.        07-SEP-1991:   LOGDATE
 API .       490251108000:   API NUMBER
~CURVE INFORMATION
#MNEM.UNIT       API CODE    CURVE DESCRIPTION
#----------   ------------   ------------------------------
 DEPT.F                  :   
 ROP .MIN/FT 91 810 01 00:   RAT OF DRILLING PENETRATION
 TGAS.UNITS  91 830 01 00:   TOTAL GAS FROM HOTWIRE
~PARAMETER INFORMATION
#MNEM.UNIT          VALUE    DESCRIPTION
#----------   ------------   ------------------------------
 EKB .F              5216:   KELLING BUSHING
 EGL .F              5206:   GROUND LEVEL
 DATE.             9-7-91:   RUN DATE
 DD  .F              2079:   DEPTH DRILLER
 TCS .HRS            1815:   TIME CURCULATED STOPPED
 TLAB.HRS            1930:   TIME LOGGER AT BOTTOM
 ENGI.         HUSK/TOWER:   RECORDING ENGINEER
 WITN.             HENDRY:   WITNESSED BY
 CLNT.            A2DTECH:   CLIENT CODE
 ORIG.           5" PRINT:   ORIGIN OF DATA
 UWI .       490251108000:   UNIQUE WELL ID
 DICO. A2D Technologies, Inc.:   DIGITIZING COMPANY
~OTHER INFORMATION
~A   DEPT        ROP       TGAS 
# ...
  914.5000     0.2905    11.8987
  915.0000     0.2906    11.7528
  915.5000     0.2907    11.6069
  916.0000     0.2907    11.4611
  916.5000     0.2908    11.3145
  917.0000     0.2908    11.1711
  917.5000     0.2908    11.0065
  918.0000     0.2908    12.0747
  918.5000     0.2908    13.7107
  919.0000     0.2908    15.0422
  919.5000     0.2908    28.3941
  920.0000     0.2908    43.3173
  920.5000     0.2908    43.7990
  921.0000     0.2908    26.1300
  921.5000     0.2908    18.1485
  922.0000     0.2908    17.4402
  922.5000     0.2908    16.6419
  923.0000     0.2908    16.0188
  923.5000     0.2908    16.0747
  924.0000     0.2908    16.1181
  924.5000     0.2908    16.1598
  925.0000     0.2908    16.2013
  925.5000     0.2908    16.2429
  926.0000     0.2908    16.2844
  926.5000     0.2908    16.3260
  927.0000     0.2908    16.3675
  927.5000     0.2908    16.4090
  928.0000     0.2908    16.4506
  928.5000     0.2908    16.4921
  929.0000     0.2908    16.5337
  929.5000     0.2908    16.5752
  930.0000     0.2908    16.6167
  930.5000     0.2908    16.6583
  931.0000     0.2908    16.6998
  931.5000     0.2908    16.7414
  932.0000     0.2908    16.7829
  932.5000     0.2908    16.8244
  933.0000     0.2908    16.8660
  933.5000     0.2908    16.9075
  934.0000     0.2908    16.9491
  934.5000     0.2908    16.9906
  935.0000     0.2908    17.0321
  935.5000     0.2908    17.0737
  936.0000     0.2908    17.1152
  936.5000     0.2908    17.1567
  937.0000     0.2908    17.1959
  937.5000     0.2908    17.2251
  938.0000     0.2908    17.3057
  938.5000     0.2908    19.5756
  939.0000     0.2908    23.2934
  939.5000     0.2908    34.6763
  940.0000     0.2908    39.8765
  940.5000     0.2908    31.3903
  941.0000     0.2908    22.1232
  941.5000     0.2908    18.1081
  942.0000     0.2908    16.9967
  942.5000     0.2908    16.0646
  943.0000     0.2908    16.0756
  943.5000     0.2908    16.1571
  944.0000     0.2908    16.2353
  944.5000     0.2908    16.3118
  945.0000     0.2908    16.3883
  945.5000     0.2908    16.4648
  946.0000     0.2908    16.5411
  946.5000     0.2908    16.6179
  947.0000     0.2908    16.6544
  947.5000     0.2908    16.6550
  948.0000     0.2908    16.6551
  948.5000     0.2908    16.6550
  949.0000     0.2908    16.6550
  949.5000     0.2908    16.6550
  950.0000     0.2908    16.6550
  950.5000     0.2908    16.6550
  951.0000     0.2908    16.6550
  951.5000     0.2908    16.6550
  952.0000     0.2908    16.6551
  952.5000     0.2908    16.6552
  953.0000     0.2908    16.6544
  953.5000     0.2908    16.6055
  954.0000     0.2908    16.4533
  954.5000     0.2908    16.3028
  955.0000     0.2908    16.1522
  955.5000     0.2908    16.0017
  956.0000     0.2908    15.8512
  956.5000     0.2908    15.6993
  957.0000     0.2910    15.5436
  957.5000     0.2912    15.4244
  958.0000     0.2914    16.2652
  958.5000     0.2916    17.1959
  959.0000     0.2918    19.6958
  959.5000     0.2920    29.3874
  960.0000     0.2922    38.5498
  960.5000     0.2924    37.4351
  961.0000     0.2926    31.2003
  961.5000     0.2928    25.1045
  962.0000     0.2930    21.2203
  962.5000     0.2932    20.2462
  963.0000     0.2934    19.2431
  963.5000     0.2936    18.2365
  964.0000     0.2938    17.8968
  964.5000     0.2940    17.8630
  965.0000     0.2942    17.8349
  965.5000     0.2944    17.8067
  966.0000     0.2946    17.7780
  966.5000     0.2948    17.7492
  967.0000     0.2950    17.7205
  967.5000     0.2952    17.6917
  968.0000     0.2953    17.6630
  968.5000     0.2955    17.6343
  969.0000     0.2957    17.6055
  969.5000     0.2959    17.5768
  970.0000     0.2961    17.5481
  970.5000     0.2963    17.5193
  971.0000     0.2965    17.4906
  971.5000     0.2967    17.4618
  972.0000     0.2969    17.4331
  972.5000     0.2971    17.4044
  973.0000     0.2973    17.3756
  973.5000     0.2975    17.3468
  974.0000     0.2977    17.3180
  974.5000     0.2979    17.2898
  975.0000     0.2981    17.3485
  975.5000     0.2983    17.5162
  976.0000     0.2985    17.6824
  976.5000     0.2987    17.8488
  977.0000     0.2989    18.0152
  977.5000     0.2991    18.1799
  978.0000     0.2993    18.3049
  978.5000     0.2995    18.2287
  979.0000     0.2997    29.8441
  979.5000     0.2999    42.3130
  980.0000     0.3001    42.7033
  980.5000     0.3003    33.4171
  981.0000     0.3005    25.6936
  981.5000     0.3007    20.1324
  982.0000     0.3009    19.1761
  982.5000     0.3011    19.1623
  983.0000     0.3013    19.1673
  983.5000     0.3015    19.1690
  984.0000     0.3017    19.1690
  984.5000     0.3019    19.1690
  985.0000     0.3021    19.1690
  985.5000     0.3022    19.1690
  986.0000     0.3025    19.1690
  986.5000     0.3027    19.1690
  987.0000     0.3029    19.1690
  987.5000     0.3030    19.1690
  988.0000     0.3032    19.1690
  988.5000     0.3028    19.1690
  989.0000     0.3015    19.1690
  989.5000     0.3003    19.1690
  990.0000     0.2990    19.1690
  990.5000     0.2977    19.1690
  991.0000     0.2965    19.1690
  991.5000     0.2952    19.1690
  992.0000     0.2940    19.1690
  992.5000     0.2927    19.1690
  993.0000     0.2915    19.1688
  993.5000     0.2902    19.1691
  994.0000     0.2889    19.1827
  994.5000     0.2877    19.2532
  995.0000     0.2864    19.3220
  995.5000     0.2852    19.3907
  996.0000     0.2839    19.4595
  996.5000     0.2826    19.5282
  997.0000     0.2814    19.5969
  997.5000     0.2801    19.6621
  998.0000     0.2789    19.7124
  998.5000     0.2777    19.9638
  999.0000     0.2766    21.7924
  999.5000     0.2754    38.5278
 1000.0000     0.2743    55.5169
 1000.5000     0.2732    35.9511
 1001.0000     0.2721    22.7546
 1001.5000     0.2710    19.7822
 1002.0000     0.2698    19.7907
 1002.5000     0.2687    19.7682
 1003.0000     0.2676    19.7152
 1003.5000     0.2665    19.6596
 1004.0000     0.2658    19.6038
 1004.5000     0.2665    19.5480
 1005.0000     0.2671    19.4922
 1005.5000     0.2677    19.4364
 1006.0000     0.2683    19.3807
 1006.5000     0.2689    19.3248
 1007.0000     0.2695    19.2688
 1007.5000     0.2701    19.2133
 1008.0000     0.2707    19.1791
 1008.5000     0.2713    19.2425
 1009.0000     0.2718    19.3040
 1009.5000     0.2725    19.3653
 1010.0000     0.2731    19.4265
 1010.5000     0.2736    19.4878
 1011.0000     0.2743    19.5490
 1011.5000     0.2749    19.6103
 1012.0000     0.2754    19.6715
 1012.5000     0.2761    19.7328
 1013.0000     0.2767    19.7940
 1013.5000     0.2772    19.8553
 1014.0000     0.2779    19.9165
 1014.5000     0.2785    19.9778
 1015.0000     0.2790    20.0390
 1015.5000     0.2797    20.1003
 1016.0000     0.2803    20.1615
 1016.5000     0.2808    20.2228
 1017.0000     0.2815    20.2835
 1017.5000     0.2820    20.3367
 1018.0000     0.2826    20.4125
 1018.5000     0.2832    20.8212
 1019.0000     0.2838    26.3121
 1019.5000     0.2844    37.6132
 1020.0000     0.2850    41.5812
 1020.5000     0.2856    35.7292
 1021.0000     0.2862    25.1305
 1021.5000     0.2868    22.0545
 1022.0000     0.2874    21.0102
 1022.5000     0.2880    20.9910
 1023.0000     0.2886    20.9478
 1023.5000     0.2892    20.9053
 1024.0000     0.2898    20.8619
 1024.5000     0.2904    20.8185
 1025.0000     0.2901    20.7751
 1025.5000     0.2882    20.7318
 1026.0000     0.2864    20.6884
 1026.5000     0.2845    20.6450
 1027.0000     0.2827    20.6016
 1027.5000     0.2808    20.5582
 1028.0000     0.2790    20.5148
 1028.5000     0.2772    20.4715
 1029.0000     0.2753    20.4281
 1029.5000     0.2735    20.3847
 1030.0000     0.2716    20.3413
 1030.5000     0.2698    20.2979
 1031.0000     0.2679    20.2545
 1031.5000     0.2660    20.2112
 1032.0000     0.2668    20.1678
 1032.5000     0.2681    20.1244
 1033.0000     0.2695    20.0810
 1033.5000     0.2708    20.0376
 1034.0000     0.2722    19.9942
 1034.5000     0.2736    19.9509
 1035.0000     0.2749    19.9074
 1035.5000     0.2763    19.8641
