~VERSION INFORMATION
 VERS.                2.0:   CWLS LOG ASCII STANDARD - VERSION 2.0
 WRAP.                 NO:   ONE LINE PER DEPTH STEP
~WELL INFORMATION
#MNEM.UNIT      DATA TYPE    INFORMATION
#----------   ------------   ------------------------------
 STRT.F           23.0000:   START DEPTH
 STOP.F         1106.0000:   STOP DEPTH
 STEP.F            0.5000:   STEP LENGTH
 NULL.          -999.2500:   NO VALUE
 COMP. FENIX & SCISSON INC:   COMPANY
 WELL.       NPR-3 #67-11:   WELL
 FLD . TEAPOT DOME NPR #3:   FIELD
 LOC .      S11 T38N R78W:   LOCATION
 CNTY.            NATRONA:   COUNTY
 STAT.            WYOMING:   STATE
 CTRY. UNITED STATES OF AMERICA:   COUNTRY
 SRVC.            Unknown:   SERVICE COMPANY
 DATE.        06-MAR-1978:   LOGDATE
 API .       490251059100:   API NUMBER
~CURVE INFORMATION
#MNEM.UNIT       API CODE    CURVE DESCRIPTION
#----------   ------------   ------------------------------
 DEPT.F                  :   
 ILD .OHMM   05 120 46 00:   INDUCTION LOG DEEP
 SN  .OHMM   05 040 16 00:   SHORT NORMAL 16"
 SPR .MV     05 010 01 00:   SPONTANEOUS POTENTIAL FROM RES.
 CALD.IN     45 280 60 00:   CALIPER
 GRD .GAPI   45 310 01 00:   GAMMA RAY FROM DENSITY LOG
 CORR.G/C3   45 356 01 00:   DENSITY CORRECTION
 DPHI.DEC    45 890 12 00:   DENSITY POROSITY SANDSTONE
 RHOB.G/C3   45 350 01 00:   BULK DENSITY
~PARAMETER INFORMATION
#MNEM.UNIT          VALUE    DESCRIPTION
#----------   ------------   ------------------------------
 PD  .                 GL:   PERMANENT DATUM
 EPD .F              5243:   ELEVATION PERMANENT DATUM
 LMF .                 KB:   LOG MEASURED FROM
 DAPD.F                 4:   FEET ABOVE PERMANENT DATUM
 DMF .                 KB:   DRILLING MEASURED FROM
 EKB .F              5247:   KELLING BUSHING
 EGL .F              5243:   GROUND LEVEL
 DATE.           3-6-1978:   RUN DATE
 RUN .                  1:   RUN NUMBER
 DD  .F              1104:   DEPTH DRILLER
 DL  .F              1108:   DEPTH LOGGER
 BLI .F              1102:   BOTTOM LOG INTERVAL
 TLI .F                40:   TOP LOG INTERVAL
 CS  .IN            8.625:   CASING SIZE
 CBD .F                40:   CASING BOTTOM DRILLER
 CBL .F                40:   CASING BOTTOM LOGGER
 BS  .IN            7.875:   BIT SIZE
 BSD .F              1104:   BIT SIZE AT DEPTH
 DFT .         LIGNO/SULF:   DRILLING FLUID TYPE
 DFD .                8.6:   DRILLING FLUID DENSITY
 DFV .                 31:   DRILLING FLUID VISCOSITY
 DFL .                  8:   DRILLING FLUID LOSS
 MSS .            MUD PIT:   MUD SAMPLE SOURCE
 RMS .OHMM              2:   RESISTIVITY MUD SAMPLE
 MST .F                58:   MUD SAMPLE TEMPERATURE
 RMF .OHMM            1.2:   RESISTIVITY MUD FILTRATE SAMPLE
 MFST.F                64:   MUD FILTRATE SAMPLE TEMPERATURE
 RMC .OHMM              3:   RESISTIVITY MUD CAKE
 MCST.F                64:   MUD CAKE SAMPLE TEMPERATURE
 MFSS.               MEAS:   MUD FILTRATE SAMPLE SOURCE
 RMB .OHMM            1.5:   RESISTIVITY MUD AT BHT
 BHT .F                78:   BOTTOM HOLE TEMPERATURE
 TCS .HRS               4:   TIME CURCULATED STOPPED
 MRT .F                78:   MAXIMUM RECORDED TEMPERATURE
 LUN .               2959:   LOGGING UNIT NUMBER
 LUL .               CASP:   LOGGING UNIT LOCATION
 ENGI.             MILLER:   RECORDING ENGINEER
 WITN.           MCGINLEY:   WITNESSED BY
 CLNT.            A2DTECH:   CLIENT CODE
 ORIG.       2", 5" PRINT:   ORIGIN OF DATA
 UWI .       490251059100:   UNIQUE WELL ID
 DICO. A2D Technologies, Inc.:   DIGITIZING COMPANY
~OTHER INFORMATION
~A   DEPT      ILD         SN        SPR       CALD         GRD      CORR       DPHI       RHOB   
# ...
  711.5000     6.1877     7.1522   -25.3743     7.6296    92.4359     0.0493     0.1032     2.4857
  712.0000     6.2064     7.2774   -25.1765     7.6272    94.9417     0.0441     0.1037     2.4813
  712.5000     6.2248     7.4567   -24.8503     7.6249    97.4258     0.0328     0.1041     2.4767
  713.0000     6.2436     7.6404   -24.8011     7.6225    99.3766     0.0217     0.1046     2.4783
  713.5000     6.3521     7.7948   -24.8002     7.6202    98.3255     0.0212     0.1050     2.4809
  714.0000     6.4839     7.8397   -24.8010     7.6140    96.8108     0.0214     0.1022     2.4835
  714.5000     6.6185     7.8860   -24.7991     7.6067    96.4803     0.0217     0.0996     2.4860
  715.0000     6.7558     7.9325   -24.7425     7.5994    97.7101     0.0219     0.0970     2.4886
  715.5000     6.8509     7.9794   -24.6845     7.5921    97.1736     0.0222     0.0942     2.4913
  716.0000     6.8616     8.0265   -24.6262     7.5848    90.8071     0.0224     0.0973     2.4942
  716.5000     6.8722     8.0739   -24.6359     7.5775    90.3821     0.0226     0.1018     2.4976
  717.0000     6.8830     8.0882   -24.6932     7.5702    93.2053     0.0229     0.1062     2.4950
  717.5000     6.8938     8.2390   -24.7509     7.5629    93.1383     0.0233     0.1107     2.4850
  718.0000     6.9046     8.1929   -24.8091     7.5571    93.3776     0.0244     0.1151     2.4752
  718.5000     6.9127     8.1252   -24.8668     7.5523    94.1564     0.0256     0.1196     2.4702
  719.0000     6.8992     8.0581   -24.9249     7.5475    94.0494     0.0267     0.1222     2.4656
  719.5000     6.8835     7.9915   -24.9902     7.5428    91.4209     0.0278     0.1231     2.4607
  720.0000     6.8678     7.9397   -24.7639     7.5380    90.2021     0.0289     0.1239     2.4593
  720.5000     6.8521     7.9398   -24.4421     7.5333    92.1295     0.0462     0.1205     2.4677
  721.0000     6.8365     7.9400   -24.5687     7.5284    92.3884     0.0680     0.1157     2.4771
  721.5000     6.8210     7.9401   -24.7562     7.5238    92.2694     0.0602     0.1166     2.4774
  722.0000     6.8060     7.9402   -24.9451     7.5258    93.5188     0.0477     0.1173     2.4692
  722.5000     6.7842     7.9471   -25.1325     7.5616    95.5431     0.0470     0.1180     2.4634
  723.0000     6.7216     7.9591   -25.3248     7.5970    97.6838     0.0467     0.1186     2.4641
  723.5000     6.7549     7.9712   -25.5352     7.6326    98.1282     0.0422     0.1228     2.4632
  724.0000     6.7943     7.9833   -25.0898     7.6559    97.2416     0.0286     0.1254     2.4562
  724.5000     6.8344     7.9954   -24.6269     7.6512    97.3367     0.0179     0.1242     2.4508
  725.0000     6.8753     8.0078   -24.6790     7.6410    97.6871     0.0149     0.1176     2.4563
  725.5000     6.9127     8.0144   -24.7255     7.6308    94.7590     0.0153     0.1110     2.4616
  726.0000     6.9571     8.0155   -24.7774     7.6205    93.5384     0.0156     0.1106     2.4671
  726.5000     7.0504     8.0882   -24.6856     7.6103    92.8818     0.0159     0.1101     2.4674
  727.0000     7.1448     8.3080   -24.4902     7.6000    92.9988     0.0162     0.1095     2.4653
  727.5000     7.2406     8.5198   -24.5148     7.5898    93.0984     0.0165     0.1090     2.4696
  728.0000     7.3376     8.7370   -24.7099     7.5798    93.0175     0.0167     0.1081     2.4742
  728.5000     7.5442     8.9598   -24.8099     7.5759    90.9777     0.0170     0.1070     2.4782
  729.0000     7.6983     9.1883   -24.8296     7.5722    88.9291     0.0180     0.1060     2.4817
  729.5000     7.8124     9.4182   -24.8490     7.5685    88.3650     0.0190     0.1050     2.4851
  730.0000     7.9283     9.6363   -24.8679     7.5649    89.6389     0.0201     0.1039     2.4874
  730.5000     8.0458     9.8582   -24.8868     7.5610    90.7883     0.0211     0.1030     2.4851
  731.0000     8.1652    10.0855   -24.9058     7.5703    84.5962     0.0222     0.1023     2.4830
  731.5000     8.2863    10.3177   -24.9247     7.5808    75.5732     0.0232     0.1016     2.4818
  732.0000     8.4228    10.5549   -24.9437     7.5383    74.8022     0.0243     0.1010     2.4883
  732.5000     8.6520    10.7158   -24.9623     7.4881    81.2553     0.0250     0.1023     2.4949
  733.0000     8.8874    10.8610   -24.9799     7.4817    88.9318     0.0249     0.1035     2.4952
  733.5000     9.1292    11.0071   -25.0075     7.4902    91.8247     0.0205     0.1047     2.4935
  734.0000     9.2202    11.1547   -25.2520     7.4986    89.6521     0.0112     0.1058     2.4917
  734.5000     9.2424    11.2767   -25.5007     7.5069    84.3661     0.0072     0.1075     2.4887
  735.0000     9.2648    11.3582   -25.7529     7.5159    81.7279     0.0036     0.1146     2.4812
  735.5000     9.2909    11.4344   -25.7131     7.5540    82.3385     0.0022     0.1148     2.4737
  736.0000     9.2910    11.4897   -25.6111     7.6316    86.2319     0.0076     0.1152     2.4806
  736.5000     9.2050    11.1982   -25.5067     7.6814    89.3039     0.0127     0.1155     2.4854
  737.0000     9.1234    10.9710   -25.4026     7.6336    88.6105     0.0125     0.1158     2.4803
  737.5000     9.0425    10.7371   -25.2987     7.5804    87.1360     0.0118     0.1160     2.4756
  738.0000     8.9623    10.5116   -25.1947     7.5473    87.1609     0.0111     0.1161     2.4709
  738.5000     8.8829    10.2824   -25.0909     7.5877    87.2450     0.0104     0.1150     2.4695
  739.0000     8.8041    10.2852   -25.0105     7.6267    87.3954     0.0096     0.1134     2.4715
  739.5000     8.7259    10.1480   -25.0914     7.6392    84.0245     0.0090     0.1174     2.4734
  740.0000     8.6484    10.0330   -25.1745     7.6390    81.7087     0.0087     0.1255     2.4690
  740.5000     8.6053     9.9978   -25.2572     7.6386    82.3971     0.0084     0.1312     2.4582
  741.0000     8.5739     9.9582   -25.3375     7.6382    82.9032     0.0082     0.1290     2.4481
  741.5000     8.5427     9.9187   -25.3396     7.6378    82.4948     0.0079     0.1270     2.4475
  742.0000     8.5116     9.8796   -25.0750     7.6374    82.1956     0.0076     0.1262     2.4475
  742.5000     8.4805     9.8406   -25.0017     7.6370    83.4521     0.0074     0.1254     2.4476
  743.0000     8.4705     9.8201   -24.9993     7.6366    84.7158     0.0071     0.1246     2.4505
  743.5000     8.4264     9.7535   -24.9996     7.6362    85.9650     0.0065     0.1246     2.4533
  744.0000     8.3853     9.6775   -24.9996     7.6358    85.8697     0.0057     0.1258     2.4517
  744.5000     8.3444     9.6021   -25.0000     7.6354    84.5488     0.0049     0.1296     2.4481
  745.0000     8.3037     9.5272   -25.0017     7.6350    82.0666     0.0042     0.1335     2.4446
  745.5000     8.2632     9.4530   -25.1596     7.6346    79.6706     0.0034     0.1337     2.4411
  746.0000     8.1552     9.3793   -25.5765     7.6342    79.0829     0.0040     0.1322     2.4397
  746.5000     8.1151     9.3062   -25.9836     7.6338    82.7660     0.0060     0.1264     2.4450
  747.0000     8.0752     9.2794   -25.9990     7.6334    82.5346     0.0080     0.1238     2.4500
  747.5000     8.0354     9.2169   -25.9239     7.6330    81.3079     0.0100     0.1235     2.4537
  748.0000     7.9959     9.1548   -25.6186     7.6326    81.6290     0.0107     0.1230     2.4499
  748.5000     7.9565     9.0931   -25.2552     7.6322    84.5049     0.0102     0.1314     2.4457
  749.0000     7.9174     9.0318   -25.4915     7.6318    87.3050     0.0097     0.1260     2.4481
  749.5000     7.8784     8.9710   -25.6453     7.6315    88.3985     0.0092     0.1214     2.4517
  750.0000     7.8442     8.9533   -25.7302     7.6311    85.6192     0.0075     0.1210     2.4530
  750.5000     7.7990     8.9095   -25.6903     7.6307    83.9394     0.0055     0.1264     2.4511
  751.0000     7.7541     8.8611   -25.2808     7.6303    84.7693     0.0034     0.1326     2.4492
  751.5000     7.6416     8.8158   -25.0174     7.6299    82.8132     0.0012     0.1388     2.4460
