~VERSION INFORMATION
 VERS.                2.0:   CWLS LOG ASCII STANDARD - VERSION 2.0
 WRAP.                 NO:   ONE LINE PER DEPTH STEP
~WELL INFORMATION
#MNEM.UNIT      DATA TYPE    INFORMATION
#----------   ------------   ------------------------------
 STRT.F         2000.0000:   START DEPTH
 STOP.F         2706.0000:   STOP DEPTH
 STEP.F            0.5000:   STEP LENGTH
 NULL.          -999.2500:   NO VALUE
 COMP. INTEX OIL CO INCORP:   COMPANY
 WELL.    N/A "A" #409-20:   WELL
 FLD .        TEAPOT DOME:   FIELD
 LOC .      S20 T39N R78W:   LOCATION
 CNTY.            NATRONA:   COUNTY
 STAT.            WYOMING:   STATE
 CTRY. UNITED STATES OF AMERICA:   COUNTRY
 SRVC.      NL McCullough:   SERVICE COMPANY
 DATE.        12-SEP-1965:   LOGDATE
 API .       490251021400:   API NUMBER
~CURVE INFORMATION
#MNEM.UNIT       API CODE    CURVE DESCRIPTION
#----------   ------------   ------------------------------
 DEPT.F                  :   
 CALI.IN     70 280 01 00:   CALIPER
 GR  .GAPI   30 310 01 00:   GAMMA RAY
~PARAMETER INFORMATION
#MNEM.UNIT          VALUE    DESCRIPTION
#----------   ------------   ------------------------------
 PD  .                 GL:   PERMANENT DATUM
 LMF .                 GL:   LOG MEASURED FROM
 DATE.            9-12-65:   RUN DATE
 RUN .                  1:   RUN NUMBER
 DL  .F              2708:   DEPTH LOGGER
 BLI .F              2706:   BOTTOM LOG INTERVAL
 TLI .F              2000:   TOP LOG INTERVAL
 CS  .IN            8.625:   CASING SIZE
 CBD .F              2525:   CASING BOTTOM DRILLER
 DFT .                DRY:   DRILLING FLUID TYPE
 TCS .HRS               1:   TIME CURCULATED STOPPED
 ENGI.            JACKSON:   RECORDING ENGINEER
 WITN.          JORGENSEN:   WITNESSED BY
 CLNT.            A2DTECH:   CLIENT CODE
 ORIG.           5" PRINT:   ORIGIN OF DATA
 UWI .       490251021400:   UNIQUE WELL ID
 DICO. A2D Technologies, Inc.:   DIGITIZING COMPANY
~OTHER INFORMATION
~A  DEPT      CALI          GR  
 2000.0000  -999.2500    98.4327
 2000.5000  -999.2500   100.8379
 2001.0000  -999.2500   105.2739
 2001.5000  -999.2500   102.0941
 2002.0000  -999.2500    99.6962
 2002.5000  -999.2500   101.6056
 2003.0000  -999.2500   101.2406
 2003.5000  -999.2500   104.2682
 2004.0000  -999.2500   107.1801
 2004.5000  -999.2500   110.9045
 2005.0000  -999.2500   108.8904
 2005.5000  -999.2500   103.7373
 2006.0000  -999.2500   103.2785
 2006.5000  -999.2500   109.6924
 2007.0000  -999.2500   112.3494
 2007.5000  -999.2500   100.8262
 2008.0000  -999.2500    96.4663
 2008.5000  -999.2500    99.7223
 2009.0000  -999.2500    99.7157
 2009.5000  -999.2500    99.9615
 2010.0000  -999.2500    97.2462
 2010.5000  -999.2500    99.8264
 2011.0000  -999.2500   102.5928
 2011.5000  -999.2500   100.2398
 2012.0000  -999.2500   100.9157
 2012.5000  -999.2500   104.9453
 2013.0000  -999.2500   100.5585
 2013.5000  -999.2500    93.3961
 2014.0000  -999.2500    92.7807
 2014.5000  -999.2500    96.6503
 2015.0000  -999.2500    91.4692
 2015.5000  -999.2500    88.1122
 2016.0000  -999.2500    87.5215
 2016.5000  -999.2500    83.6071
 2017.0000  -999.2500    88.6635
 2017.5000  -999.2500    87.8282
 2018.0000  -999.2500    85.7409
 2018.5000  -999.2500    90.3212
 2019.0000  -999.2500    94.6190
 2019.5000  -999.2500    89.3866
 2020.0000  -999.2500    92.4468
 2020.5000  -999.2500   104.4859
 2021.0000  -999.2500    98.4361
 2021.5000  -999.2500   105.3721
 2022.0000  -999.2500   100.0936
 2022.5000  -999.2500    93.8437
 2023.0000  -999.2500    98.6184
 2023.5000  -999.2500   104.5831
 2024.0000  -999.2500   109.4580
 2024.5000  -999.2500   111.8999
 2025.0000  -999.2500   105.1180
 2025.5000  -999.2500   101.2386
 2026.0000  -999.2500   107.6579
 2026.5000  -999.2500   113.7635
 2027.0000  -999.2500   116.2785
 2027.5000  -999.2500   119.1203
 2028.0000  -999.2500   115.9966
 2028.5000  -999.2500   127.7315
 2029.0000  -999.2500   131.7220
 2029.5000  -999.2500   132.4591
 2030.0000  -999.2500   132.8535
 2030.5000  -999.2500   137.9815
 2031.0000  -999.2500   138.0930
 2031.5000  -999.2500   130.5470
 2032.0000  -999.2500   123.3331
 2032.5000  -999.2500   121.4738
 2033.0000  -999.2500   124.6549
 2033.5000  -999.2500   125.0772
 2034.0000  -999.2500   126.7628
 2034.5000  -999.2500   122.3483
 2035.0000  -999.2500   109.8963
 2035.5000  -999.2500   102.6113
 2036.0000  -999.2500   106.8839
 2036.5000  -999.2500   108.9576
 2037.0000  -999.2500   114.8938
 2037.5000  -999.2500   119.6882
 2038.0000  -999.2500   118.3709
 2038.5000  -999.2500   119.5944
 2039.0000  -999.2500   119.6875
 2039.5000  -999.2500   123.2872
 2040.0000  -999.2500   119.7746
 2040.5000  -999.2500   116.8438
 2041.0000  -999.2500   113.9611
 2041.5000  -999.2500   109.6786
 2042.0000  -999.2500   110.6558
 2042.5000  -999.2500   114.6424
 2043.0000  -999.2500   118.5766
 2043.5000  -999.2500   114.2625
 2044.0000  -999.2500   106.8327
 2044.5000  -999.2500    99.8342
 2045.0000  -999.2500    99.2754
 2045.5000  -999.2500   100.5672
 2046.0000  -999.2500    99.4250
 2046.5000  -999.2500   110.6955
 2047.0000  -999.2500   109.6825
 2047.5000  -999.2500   122.4672
 2048.0000  -999.2500   120.8243
 2048.5000  -999.2500   121.4687
 2049.0000  -999.2500   119.6783
 2049.5000  -999.2500   116.9822
 2050.0000  -999.2500   115.5879
 2050.5000  -999.2500   101.1750
 2051.0000  -999.2500   106.1492
 2051.5000  -999.2500   108.9793
 2052.0000  -999.2500   110.6003
 2052.5000  -999.2500   110.4125
 2053.0000  -999.2500   103.2156
 2053.5000  -999.2500   102.4559
 2054.0000  -999.2500   105.5935
 2054.5000  -999.2500   107.5020
 2055.0000  -999.2500    98.2173
 2055.5000  -999.2500    96.6173
 2056.0000  -999.2500   101.1127
 2056.5000  -999.2500   102.7084
 2057.0000  -999.2500   104.6696
 2057.5000  -999.2500   101.4070
 2058.0000  -999.2500    95.2234
 2058.5000  -999.2500    98.0618
 2059.0000  -999.2500   100.5524
 2059.5000  -999.2500   101.7930
 2060.0000  -999.2500   100.0213
 2060.5000  -999.2500   102.1169
 2061.0000  -999.2500    96.3528
 2061.5000  -999.2500   107.6211
 2062.0000  -999.2500   112.4374
 2062.5000  -999.2500   112.6103
 2063.0000  -999.2500   109.2997
 2063.5000  -999.2500   107.8389
 2064.0000  -999.2500   103.4037
 2064.5000  -999.2500   103.4915
 2065.0000  -999.2500   112.5843
 2065.5000  -999.2500   115.1436
 2066.0000  -999.2500   112.5315
 2066.5000  -999.2500   111.0884
 2067.0000  -999.2500   104.7238
 2067.5000  -999.2500    95.8385
 2068.0000  -999.2500    92.3708
 2068.5000  -999.2500    91.2219
 2069.0000  -999.2500    89.4382
 2069.5000  -999.2500   101.1088
 2070.0000  -999.2500   103.7621
 2070.5000  -999.2500   106.9993
 2071.0000  -999.2500   104.5186
 2071.5000  -999.2500    96.3290
 2072.0000  -999.2500    97.5290
 2072.5000  -999.2500    92.3128
 2073.0000  -999.2500   100.6952
 2073.5000  -999.2500   105.6936
 2074.0000  -999.2500   110.5026
 2074.5000  -999.2500   104.8986
 2075.0000  -999.2500   101.6710
 2075.5000  -999.2500    98.7107
 2076.0000  -999.2500    93.6336
 2076.5000  -999.2500    95.6952
 2077.0000  -999.2500    93.2803
 2077.5000  -999.2500    88.4674
 2078.0000  -999.2500    92.9160
 2078.5000  -999.2500    93.0965
 2079.0000  -999.2500    98.8983
 2079.5000  -999.2500    97.2950
 2080.0000  -999.2500    99.8516
 2080.5000  -999.2500   103.9711
 2081.0000  -999.2500   111.0605
 2081.5000  -999.2500   108.1240
 2082.0000  -999.2500   103.8212
 2082.5000  -999.2500    99.5668
 2083.0000  -999.2500   103.8675
 2083.5000  -999.2500   101.5006
 2084.0000  -999.2500   105.7544
 2084.5000  -999.2500   108.6206
 2085.0000  -999.2500   113.3755
 2085.5000  -999.2500   111.0684
 2086.0000  -999.2500   111.8453
 2086.5000  -999.2500   105.3789
 2087.0000  -999.2500   113.0976
 2087.5000  -999.2500   110.0815
 2088.0000  -999.2500   106.2671
 2088.5000  -999.2500   101.5135
 2089.0000  -999.2500    98.5710
 2089.5000  -999.2500   100.5134
 2090.0000  -999.2500   102.1010
 2090.5000  -999.2500    99.9644
 2091.0000  -999.2500    99.5943
 2091.5000  -999.2500    99.4310
 2092.0000  -999.2500   104.5522
 2092.5000  -999.2500   109.0782
 2093.0000  -999.2500   109.0130
 2093.5000  -999.2500    99.3217
 2094.0000  -999.2500   102.7860
 2094.5000  -999.2500    99.5875
 2095.0000  -999.2500   105.0537
 2095.5000  -999.2500   108.2050
 2096.0000  -999.2500   109.5286
 2096.5000  -999.2500   111.5528
 2097.0000  -999.2500   112.8005
 2097.5000  -999.2500   108.4697
 2098.0000  -999.2500   104.3721
 2098.5000  -999.2500   104.5027
 2099.0000  -999.2500   108.0503
 2099.5000  -999.2500   100.7614
 2100.0000  -999.2500    96.0424
 2100.5000  -999.2500    92.6932
 2101.0000  -999.2500    90.9199
 2101.5000  -999.2500    93.5056
 2102.0000  -999.2500    97.1082
 2102.5000  -999.2500   100.4299
 2103.0000  -999.2500    94.9412
 2103.5000  -999.2500    96.6142
 2104.0000  -999.2500   100.0073
 2104.5000  -999.2500    99.4520
 2105.0000  -999.2500   100.2492
 2105.5000  -999.2500   102.8375
 2106.0000  -999.2500   100.9193
 2106.5000  -999.2500   105.1550
 2107.0000  -999.2500   102.4441
 2107.5000  -999.2500   107.7311
 2108.0000  -999.2500   110.1229
 2108.5000  -999.2500   108.5377
 2109.0000  -999.2500   109.7345
 2109.5000  -999.2500   104.5360
 2110.0000  -999.2500   103.8224
 2110.5000  -999.2500   104.7804
 2111.0000  -999.2500    94.2692
 2111.5000  -999.2500    93.7732
 2112.0000  -999.2500   102.4853
 2112.5000  -999.2500   108.3030
 2113.0000  -999.2500   111.1977
 2113.5000  -999.2500   110.0998
 2114.0000  -999.2500   114.0241
 2114.5000  -999.2500   116.1814
 2115.0000  -999.2500   114.9236
 2115.5000  -999.2500   112.4948
 2116.0000  -999.2500   109.0719
 2116.5000  -999.2500   108.7452
 2117.0000  -999.2500   108.0299
 2117.5000  -999.2500   107.7803
 2118.0000  -999.2500   110.1614
 2118.5000  -999.2500    97.9588
 2119.0000  -999.2500    93.9908
 2119.5000  -999.2500    94.6279
 2120.0000  -999.2500    94.0396
 2120.5000  -999.2500    99.5046
 2121.0000  -999.2500    98.7789
