~VERSION INFORMATION
 VERS.                2.0:   CWLS LOG ASCII STANDARD - VERSION 2.0
 WRAP.                 NO:   ONE LINE PER DEPTH STEP
~WELL INFORMATION
#MNEM.UNIT      DATA TYPE    INFORMATION
#----------   ------------   ------------------------------
 STRT.F           36.0000:   START DEPTH
 STOP.F          557.0000:   STOP DEPTH
 STEP.F            0.5000:   STEP LENGTH
 NULL.          -999.2500:   NO VALUE
 COMP. FENIX & SCISSON U.S. NAVY:   COMPANY
 WELL.        NPR #62-S-3:   WELL
 FLD .             TEAPOT:   FIELD
 LOC .       S3 T38N R78W:   LOCATION
 CNTY.            NATRONA:   COUNTY
 STAT.            WYOMING:   STATE
 CTRY. UNITED STATES OF AMERICA:   COUNTRY
 SRVC.              Welex:   SERVICE COMPANY
 DATE.        07-MAY-1977:   LOGDATE
 API .       490251035000:   API NUMBER
~CURVE INFORMATION
#MNEM.UNIT       API CODE    CURVE DESCRIPTION
#----------   ------------   ------------------------------
 DEPT.F                  :   
 SPR .MV     07 010 01 00:   SPONTANEOUS POTENTIAL
 ILD .OHMM   07 120 46 00:   INDUCTION LOG DEEP
 ILM .OHMM   07 120 44 00:   INDUCTION LOG MEDIUM
 SGRD.OHMM   07 221 05 00:   SHALLOW SHORT GUARD RESISTIVITY
 GRD .GAPI   45 310 01 00:   GAMMA RAY FROM DENSITY LOG
 CALD.IN     45 280 60 00:   CALIPER FROM DENSITY LOG
 CORR.G/C3   45 356 01 00:   DENSITY CORRECTION
 RHOB.G/C3   45 350 01 00:   BULK DENSITY
 DPHI.DEC    45 890 12 00:   DENSITY POROSITY SANDSTONE
 NEUT.NAPI   35 330 01 00:   NEUTRON
~PARAMETER INFORMATION
#MNEM.UNIT          VALUE    DESCRIPTION
#----------   ------------   ------------------------------
 PD  .                 GL:   PERMANENT DATUM
 EPD .F              5136:   ELEVATION PERMANENT DATUM
 LMF .                 GL:   LOG MEASURED FROM
 DMF .                 GL:   DRILLING MEASURED FROM
 EGL .F              5136:   GROUND LEVEL
 DATE.        07-MAY-1977:   RUN DATE
 RUN .                  1:   RUN NUMBER
 DD  .F               560:   DEPTH DRILLER
 DL  .F               560:   DEPTH LOGGER
 BLI .F               558:   BOTTOM LOG INTERVAL
 TLI .F                35:   TOP LOG INTERVAL
 CS  .IN            8.625:   CASING SIZE
 CBD .F                40:   CASING BOTTOM DRILLER
 CBL .F                42:   CASING BOTTOM LOGGER
 BS  .IN            7.875:   BIT SIZE
 BSD .F               560:   BIT SIZE AT DEPTH
 DFT .             KCLMUD:   DRILLING FLUID TYPE
 DFD .                8.8:   DRILLING FLUID DENSITY
 MSS .           FLOWLINE:   MUD SAMPLE SOURCE
 RMS .OHMM           0.24:   RESISTIVITY MUD SAMPLE
 MST .F                60:   MUD SAMPLE TEMPERATURE
 RMF .OHMM           0.20:   RESISTIVITY MUD FILTRATE SAMPLE
 MFST.F                60:   MUD FILTRATE SAMPLE TEMPERATURE
 RMC .OHMM           0.29:   RESISTIVITY MUD CAKE
 MCST.F                60:   MUD CAKE SAMPLE TEMPERATURE
 MFSS.               MEAS:   MUD FILTRATE SAMPLE SOURCE
 MCSS.               MEAS:   MUD CAKE SAMPLE SOURCE
 RMB .OHMM             17:   RESISTIVITY MUD AT BHT
 BHT .F                71:   BOTTOM HOLE TEMPERATURE
 TCS .HRS            0230:   TIME CURCULATED STOPPED
 MRT .F                71:   MAXIMUM RECORDED TEMPERATURE
 LUN .               8611:   LOGGING UNIT NUMBER
 LUL .           GILLETTE:   LOGGING UNIT LOCATION
 ENGI.            C. DOCK:   RECORDING ENGINEER
 WITN.           ROB LYON:   WITNESSED BY
 CLNT.            A2DTECH:   CLIENT CODE
 ORIG.           5" PRINT:   ORIGIN OF DATA
 UWI .       490251035000:   UNIQUE WELL ID
 DICO. A2D Technologies, Inc.:   DIGITIZING COMPANY
~OTHER INFORMATION
~A   DEPT      SPR        ILD        ILM       SGRD        GRD       CALD       CORR       RHOB       DPHI       NEUT   
# ...
  136.5000   -41.7108     8.7921    10.0250    12.9786   120.4663     7.8480    -0.0022     2.4817     0.1178  -999.2500
  137.0000   -41.8521     8.9195     9.2952    13.0744   122.2821     7.8346    -0.0021     2.4825     0.1157  -999.2500
  137.5000   -41.8393     9.0488     8.7385    13.1699   124.2351     7.8209    -0.0021     2.4908     0.1135  -999.2500
  138.0000   -41.8290     9.2443     8.5632    13.5450   125.3005     7.8221    -0.0012     2.4924     0.1114  -999.2500
  138.5000   -41.9703     9.3783     8.5083    13.8345   123.6755     7.8233    -0.0012     2.4917     0.1099  -999.2500
  139.0000   -41.9574     9.5143     7.8345    13.9355   122.3509     7.8245    -0.0004     2.4926     0.1077  -999.2500
  139.5000   -41.9472     9.5850     7.4679    13.9403   121.6234     7.8257     0.0005     2.5016     0.1050  -999.2500
  140.0000   -42.0885     9.7239     7.8420    13.7530   123.2839     7.8269     0.0013     2.5100     0.1014  -999.2500
  140.5000   -42.0756     9.7961     8.2920    13.6614   124.7952     7.8281     0.0029     2.5123     0.0974  -999.2500
  141.0000   -42.2146     9.7318     8.7703    14.1495   126.0079     7.8293     0.0044     2.5124     0.0962  -999.2500
  141.5000   -42.2041     9.7360     9.2191    14.4520   123.1908     7.8305     0.0045     2.5140     0.0962  -999.2500
  142.0000   -42.1937     9.6048     9.8130    14.3570   119.0304     7.8317     0.0046     2.5170     0.0949  -999.2500
  142.5000   -42.3326     9.4755    10.2952    14.0662   117.1088     7.8329     0.0039     2.5179     0.0958  -999.2500
  143.0000   -42.3219     9.2827    10.2291    13.8770   116.6572     7.8490     0.0032     2.5135     0.0994  -999.2500
  143.5000   -42.4611     9.1539    10.0239    13.5959   119.0866     7.8502     0.0033     2.5061     0.1029  -999.2500
  144.0000   -42.8953     8.9649    10.0287    13.3206   121.1948     7.8514     0.0018     2.4957     0.1080  -999.2500
  144.5000   -43.1831     8.7889    10.3864    13.2331   123.0046     7.8526     0.0004     2.4905     0.1095  -999.2500
  145.0000   -43.4735     8.6111    10.6828    13.2377   124.2174     7.8538    -0.0010     2.4906     0.1095  -999.2500
  145.5000   -43.6122     8.4951    10.6879    13.5207   122.8928     7.8401    -0.0010     2.4967     0.1055  -999.2500
  146.0000   -43.7484     8.3223    10.1176    13.6193   120.8220     7.8413    -0.0002     2.5072     0.1007  -999.2500
  146.5000   -43.7381     8.2669    10.2634    12.8897   120.0897     7.8272     0.0014     2.5163     0.0958  -999.2500
  147.0000   -43.7278     8.1555    10.7032    12.5403   120.8594     7.8136     0.0030     2.5209     0.0937  -999.2500
  147.5000   -43.7176     8.1021    11.0087    12.6329   123.4154     7.8150     0.0038     2.5201     0.0946  -999.2500
  148.0000   -43.7073     8.0490    11.2448    12.6373   125.8222     7.8162     0.0046     2.5148     0.0964  -999.2500
  148.5000   -43.6970     8.0532    11.0956    12.5531   124.9454     7.8174     0.0047     2.5058     0.1005  -999.2500
  149.0000   -43.6867     7.9996    10.7981    12.2999   123.4716     7.8186     0.0040     2.4963     0.1077  -999.2500
  149.5000   -43.8256     8.0037    10.7288    12.2180   119.3112     7.8347     0.0041     2.4906     0.1095  -999.2500
  150.0000   -43.8152     8.0162    10.9589    12.2119   116.3448     7.8521     0.0042     2.4944     0.1086  -999.2500
  150.5000   -44.0527     8.0769    11.0420    12.1447   115.4634     7.8617     0.0045     2.5027     0.1049  -999.2500
  151.0000   -44.2435     8.1264    10.6726    12.1506   115.0390     7.8536     0.0047     2.5028     0.1040  -999.2500
  151.5000   -44.2307     8.1868    10.6034    12.2410   114.9038     7.8555     0.0050     2.4998     0.1061  -999.2500
  152.0000   -44.0714     8.3637    10.9082    12.5914   115.0764     7.8570     0.0044     2.4947     0.1078  -999.2500
  152.5000   -44.0611     8.4849    11.3765    12.8623   116.1399     7.8585     0.0038     2.4880     0.1132  -999.2500
  153.0000   -43.9016     8.6079    12.2823    13.4152   117.2034     7.8600     0.0031     2.4821     0.1168  -999.2500
  153.5000   -43.8912     8.6801    12.7213    15.3249   117.5160     7.8615     0.0024     2.4799     0.1158  -999.2500
  154.0000   -43.8787     8.8601    11.9603    15.8600   115.3006     7.8630     0.0017     2.4904     0.1122  -999.2500
  154.5000   -43.7194     8.9259    12.7352    13.3098   114.1253     7.8645     0.0003     2.4995     0.1062  -999.2500
  155.0000   -43.7092     8.9922    13.3741    12.9829   111.0096     7.8657    -0.0004     2.5041     0.1016  -999.2500
  155.5000   -43.6989     9.0590    13.1067    13.7318   113.1179     7.8672    -0.0011     2.5064     0.1001  -999.2500
  156.0000   -43.6886     9.1263    11.3414    16.5676   114.9277     7.8687    -0.0017     2.5034     0.1007  -999.2500
  156.5000   -43.6784     9.1301    10.3006    14.2300   115.3942     7.8701    -0.0024     2.4915     0.1045  -999.2500
  157.0000   -43.6681     9.1338    10.8199    13.6565   119.5920     7.8716    -0.0023     2.4818     0.1144  -999.2500
  157.5000   -43.6579     9.1376    11.1269    13.4732   121.2525     7.8731    -0.0030     2.4737     0.1201  -999.2500
  158.0000   -43.6476     9.2055    10.8846    13.8606   118.8832     7.8746    -0.0037     2.4707     0.1204  -999.2500
  158.5000   -43.6373     9.1442    10.0291    14.0592   115.0213     7.8761    -0.0036     2.4753     0.1179  -999.2500
  159.0000   -43.6271     9.1489     9.9778    13.4010   113.6967     7.8627    -0.0028     2.4806     0.1158  -999.2500
  159.5000   -43.6168     9.0256    10.4798    13.0390   113.5615     7.8654    -0.0012     2.4799     0.1155  -999.2500
  160.0000   -43.7556     8.9041    10.1995    13.3211   114.6297     7.8806    -0.0011     2.4755     0.1187  -999.2500
  160.5000   -44.0434     8.7801     9.7903    13.4203   115.5439     7.8821    -0.0018     2.4718     0.1205  -999.2500
  161.0000   -44.0328     8.6658     9.5945    13.4267   116.7567     7.8842    -0.0040     2.4742     0.1211  -999.2500
  161.5000   -43.5732     8.6702     9.7335    13.3403   118.2679     7.9000    -0.0032     2.4840     0.1114  -999.2500
  162.0000   -43.1159     8.6738    10.0119    12.9815   119.9284     7.9164    -0.0031     2.4960     0.1036  -999.2500
  162.5000   -42.9566     8.6774    10.1569    12.7202   119.2009     7.9179    -0.0015     2.5021     0.1050  -999.2500
  163.0000   -42.7973     8.7418    10.2329    13.5461   116.5330     7.9194    -0.0007     2.4946     0.1083  -999.2500
  163.5000   -42.6380     8.9307    10.0979    13.4574   115.2038     7.9209     0.0009     2.4887     0.1116  -999.2500
  164.0000   -42.4787     9.0602    10.0324    12.9048   116.8690     7.9075    -0.0005     2.4843     0.1142  -999.2500
  164.5000   -42.3194     9.1915    10.0393    12.9440   118.3802     7.9090    -0.0020     2.4814     0.1154  -999.2500
  165.0000   -42.3091     9.4559    10.3265    13.7147   119.7422     7.9105    -0.0026     2.4807     0.1151  -999.2500
  165.5000   -42.1498     9.5930    10.6219    14.6551   119.9055     7.9120    -0.0026     2.4808     0.1147  -999.2500
  166.0000   -42.1396     9.7320    10.8505    14.1624   119.6304     7.8985    -0.0025     2.4816     0.1150  -999.2500
  166.5000   -41.8313     9.9423    10.7816    14.4688   119.3506     7.9000    -0.0017     2.4854     0.1120  -999.2500
  167.0000   -41.6720    10.0863    10.6369    14.6779   116.2350     7.9015    -0.0008     2.4892     0.1110  -999.2500
  167.5000   -41.5127    10.3043    10.6453    14.7872   111.7127     7.9030     0.0008     2.4848     0.1152  -999.2500
  168.0000   -41.2042    10.4537    10.9702    15.6383   109.0209     7.9045     0.0008     2.4781     0.1185  -999.2500
  168.5000   -41.0447    10.5413    11.5938    15.8644   107.9032     7.9060     0.0009     2.4789     0.1164  -999.2500
  169.0000   -40.8832    10.6106    12.2457    15.6515   107.4993     7.8925     0.0017     2.4820     0.1130  -999.2500
  169.5000   -40.5749    10.6894    13.2206    15.7698   107.0271     7.8941     0.0018     2.4880     0.1076  -999.2500
