~VERSION INFORMATION
 VERS.                2.0:   CWLS LOG ASCII STANDARD - VERSION 2.0
 WRAP.                 NO:   ONE LINE PER DEPTH STEP
~WELL INFORMATION
#MNEM.UNIT      DATA TYPE    INFORMATION
#----------   ------------   ------------------------------
 STRT.F         2000.0000:   START DEPTH
 STOP.F         2706.0000:   STOP DEPTH
 STEP.F            0.5000:   STEP LENGTH
 NULL.          -999.2500:   NO VALUE
 COMP. INTEX OIL CO INCORP:   COMPANY
 WELL.    N/A "A" #409-20:   WELL
 FLD .        TEAPOT DOME:   FIELD
 LOC .      S20 T39N R78W:   LOCATION
 CNTY.            NATRONA:   COUNTY
 STAT.            WYOMING:   STATE
 CTRY. UNITED STATES OF AMERICA:   COUNTRY
 SRVC.      NL McCullough:   SERVICE COMPANY
 DATE.        12-SEP-1965:   LOGDATE
 API .       490251021400:   API NUMBER
~CURVE INFORMATION
#MNEM.UNIT       API CODE    CURVE DESCRIPTION
#----------   ------------   ------------------------------
 DEPT.F                  :   
 CALI.IN     70 280 01 00:   CALIPER
 GR  .GAPI   30 310 01 00:   GAMMA RAY
~PARAMETER INFORMATION
#MNEM.UNIT          VALUE    DESCRIPTION
#----------   ------------   ------------------------------
 PD  .                 GL:   PERMANENT DATUM
 LMF .                 GL:   LOG MEASURED FROM
 DATE.            9-12-65:   RUN DATE
 RUN .                  1:   RUN NUMBER
 DL  .F              2708:   DEPTH LOGGER
 BLI .F              2706:   BOTTOM LOG INTERVAL
 TLI .F              2000:   TOP LOG INTERVAL
 CS  .IN            8.625:   CASING SIZE
 CBD .F              2525:   CASING BOTTOM DRILLER
 DFT .                DRY:   DRILLING FLUID TYPE
 TCS .HRS               1:   TIME CURCULATED STOPPED
 ENGI.            JACKSON:   RECORDING ENGINEER
 WITN.          JORGENSEN:   WITNESSED BY
 CLNT.            A2DTECH:   CLIENT CODE
 ORIG.           5" PRINT:   ORIGIN OF DATA
 UWI .       490251021400:   UNIQUE WELL ID
 DICO. A2D Technologies, Inc.:   DIGITIZING COMPANY
~OTHER INFORMATION
~A  DEPT      CALI          GR  
# ...
 2243.0000  -999.2500   108.1185
 2243.5000  -999.2500   112.6818
 2244.0000  -999.2500   113.6787
 2244.5000  -999.2500   102.6667
 2245.0000  -999.2500    91.6942
 2245.5000  -999.2500    82.6295
 2246.0000  -999.2500    80.8088
 2246.5000  -999.2500    87.8351
 2247.0000  -999.2500    94.0877
 2247.5000  -999.2500    98.6168
 2248.0000  -999.2500    99.7496
 2248.5000  -999.2500    93.6195
 2249.0000  -999.2500   100.0652
 2249.5000  -999.2500    95.6165
 2250.0000  -999.2500   100.8212
 2250.5000  -999.2500    96.6159
 2251.0000  -999.2500   101.9988
 2251.5000  -999.2500   100.5930
 2252.0000  -999.2500   102.7144
 2252.5000  -999.2500    99.6337
 2253.0000  -999.2500   102.6285
 2253.5000  -999.2500   101.7909
 2254.0000  -999.2500   102.9950
 2254.5000  -999.2500   103.9876
 2255.0000  -999.2500   102.9531
 2255.5000  -999.2500    98.5903
 2256.0000  -999.2500    99.4751
 2256.5000  -999.2500    93.8473
 2257.0000  -999.2500    91.6842
 2257.5000  -999.2500    96.3794
 2258.0000  -999.2500    97.0812
 2258.5000  -999.2500    95.6917
 2259.0000  -999.2500    93.3203
 2259.5000  -999.2500   100.5346
 2260.0000  -999.2500    96.4942
 2260.5000  -999.2500    98.7452
 2261.0000  -999.2500   104.2754
 2261.5000  -999.2500   106.2662
 2262.0000  -999.2500   111.3476
 2262.5000  -999.2500   112.9467
 2263.0000  -999.2500   108.4475
 2263.5000  -999.2500   107.2820
 2264.0000  -999.2500   108.5874
 2264.5000  -999.2500    99.6746
 2265.0000  -999.2500    91.4151
 2265.5000  -999.2500    87.2570
 2266.0000  -999.2500    89.2300
 2266.5000  -999.2500    92.8952
 2267.0000  -999.2500    96.6706
 2267.5000  -999.2500    94.0847
 2268.0000  -999.2500    97.0516
 2268.5000  -999.2500    97.6421
 2269.0000  -999.2500    95.4954
 2269.5000  -999.2500    97.1090
 2270.0000  -999.2500    92.9360
 2270.5000  -999.2500    90.3722
 2271.0000  -999.2500    98.9128
 2271.5000  -999.2500   109.7302
 2272.0000  -999.2500   109.7553
 2272.5000  -999.2500   106.2388
 2273.0000  -999.2500   106.8157
 2273.5000  -999.2500   100.6900
 2274.0000  -999.2500    99.6028
 2274.5000  -999.2500   101.3337
 2275.0000  -999.2500    94.8502
 2275.5000  -999.2500    90.4943
 2276.0000  -999.2500    90.8666
 2276.5000  -999.2500    93.9678
 2277.0000  -999.2500    92.6841
 2277.5000  -999.2500    95.9467
 2278.0000  -999.2500    93.0670
 2278.5000  -999.2500    93.2691
 2279.0000  -999.2500   100.2333
 2279.5000  -999.2500   104.2420
 2280.0000  -999.2500   102.8168
 2280.5000  -999.2500   105.3109
 2281.0000  -999.2500   100.6614
 2281.5000  -999.2500    93.9424
 2282.0000  -999.2500    83.5795
 2282.5000  -999.2500    72.9269
 2283.0000  -999.2500    64.6232
 2283.5000  -999.2500    56.2299
 2284.0000  -999.2500    53.8873
 2284.5000  -999.2500    54.6713
 2285.0000  -999.2500    53.7555
 2285.5000  -999.2500    53.4783
 2286.0000  -999.2500    53.0101
 2286.5000  -999.2500    52.6531
 2287.0000  -999.2500    52.8284
 2287.5000  -999.2500    52.1002
 2288.0000  -999.2500    51.7500
 2288.5000  -999.2500    51.0149
 2289.0000  -999.2500    49.8697
 2289.5000  -999.2500    50.4275
 2290.0000  -999.2500    53.8452
 2290.5000  -999.2500    56.6783
 2291.0000  -999.2500    58.2793
 2291.5000  -999.2500    57.9868
 2292.0000  -999.2500    59.8404
 2292.5000  -999.2500    63.0282
 2293.0000  -999.2500    59.1879
 2293.5000  -999.2500    58.8498
 2294.0000  -999.2500    62.3954
 2294.5000  -999.2500    66.1054
 2295.0000  -999.2500    70.6886
 2295.5000  -999.2500    72.2261
 2296.0000  -999.2500    71.8536
 2296.5000  -999.2500    71.5471
 2297.0000  -999.2500    71.2183
 2297.5000  -999.2500    71.4488
 2298.0000  -999.2500    69.9921
 2298.5000  -999.2500    65.0004
 2299.0000  -999.2500    67.7764
 2299.5000  -999.2500    66.3570
 2300.0000  -999.2500    66.2508
 2300.5000  -999.2500    70.5290
 2301.0000  -999.2500    69.4773
 2301.5000  -999.2500    76.2652
 2302.0000  -999.2500    82.4992
 2302.5000  -999.2500    77.7416
 2303.0000  -999.2500    78.2139
 2303.5000  -999.2500    83.5270
 2304.0000  -999.2500    84.8534
 2304.5000  -999.2500    85.4728
 2305.0000  -999.2500    83.1638
 2305.5000  -999.2500    78.7611
 2306.0000  -999.2500    76.8894
 2306.5000  -999.2500    79.5481
 2307.0000  -999.2500    84.3300
 2307.5000  -999.2500    88.1559
 2308.0000  -999.2500    82.9603
 2308.5000  -999.2500    78.7376
 2309.0000  -999.2500    78.3608
 2309.5000  -999.2500    78.2841
 2310.0000  -999.2500    75.6404
 2310.5000  -999.2500    73.9201
 2311.0000  -999.2500    70.2338
 2311.5000  -999.2500    72.1198
 2312.0000  -999.2500    73.6603
 2312.5000  -999.2500    68.8586
 2313.0000  -999.2500    66.5010
 2313.5000  -999.2500    72.2260
 2314.0000  -999.2500    76.0965
 2314.5000  -999.2500    77.8670
 2315.0000  -999.2500    80.4603
 2315.5000  -999.2500    87.9626
 2316.0000  -999.2500    90.7324
 2316.5000  -999.2500    88.5405
 2317.0000  -999.2500    83.2637
 2317.5000  -999.2500    87.7164
 2318.0000  -999.2500    79.5542
 2318.5000  -999.2500    77.9077
 2319.0000  -999.2500    86.4224
 2319.5000  -999.2500    90.5948
 2320.0000  -999.2500    91.7245
 2320.5000  -999.2500    88.4092
 2321.0000  -999.2500    83.4559
 2321.5000  -999.2500    82.4914
 2322.0000  -999.2500    84.8790
 2322.5000  -999.2500    83.1803
 2323.0000  -999.2500    89.6385
 2323.5000  -999.2500    90.0237
 2324.0000  -999.2500    86.7407
 2324.5000  -999.2500    88.0991
 2325.0000  -999.2500    83.4634
 2325.5000  -999.2500    84.9825
 2326.0000  -999.2500    82.3118
 2326.5000  -999.2500    78.5518
 2327.0000  -999.2500    78.6572
 2327.5000  -999.2500    76.3145
 2328.0000  -999.2500    71.8760
 2328.5000  -999.2500    66.0117
 2329.0000  -999.2500    62.1135
 2329.5000  -999.2500    63.8167
 2330.0000  -999.2500    59.1211
 2330.5000  -999.2500    58.5089
 2331.0000  -999.2500    56.9266
 2331.5000  -999.2500    59.3195
 2332.0000  -999.2500    66.1290
 2332.5000  -999.2500    71.9407
 2333.0000  -999.2500    78.5509
 2333.5000  -999.2500    84.3453
 2334.0000  -999.2500    86.2471
 2334.5000  -999.2500    84.0191
 2335.0000  -999.2500    82.6882
 2335.5000  -999.2500    79.5166
 2336.0000  -999.2500    77.7678
 2336.5000  -999.2500    84.1574
 2337.0000  -999.2500    81.7998
 2337.5000  -999.2500    76.9487
 2338.0000  -999.2500    83.7617
 2338.5000  -999.2500    79.8361
 2339.0000  -999.2500    76.1711
 2339.5000  -999.2500    76.8757
 2340.0000  -999.2500    76.0283
 2340.5000  -999.2500    75.4681
 2341.0000  -999.2500    75.5491
 2341.5000  -999.2500    76.4684
 2342.0000  -999.2500    75.2523
 2342.5000  -999.2500    74.5672
 2343.0000  -999.2500    75.4723
 2343.5000  -999.2500    80.1482
 2344.0000  -999.2500    84.4415
 2344.5000  -999.2500    72.9971
 2345.0000  -999.2500    71.7549
 2345.5000  -999.2500    72.5782
 2346.0000  -999.2500    67.8380
 2346.5000  -999.2500    73.3288
 2347.0000  -999.2500    77.8969
 2347.5000  -999.2500    83.2758
 2348.0000  -999.2500    83.1952
 2348.5000  -999.2500    77.7188
 2349.0000  -999.2500    71.8850
 2349.5000  -999.2500    63.0493
 2350.0000  -999.2500    65.2386
 2350.5000  -999.2500    61.8544
 2351.0000  -999.2500    63.7522
 2351.5000  -999.2500    66.1872
 2352.0000  -999.2500    67.3372
 2352.5000  -999.2500    66.2023
 2353.0000  -999.2500    67.5690
 2353.5000  -999.2500    62.9025
 2354.0000  -999.2500    67.1783
 2354.5000  -999.2500    62.8201
 2355.0000  -999.2500    63.4593
 2355.5000  -999.2500    67.6458
 2356.0000  -999.2500    71.2936
 2356.5000  -999.2500    68.5267
 2357.0000  -999.2500    71.6753
 2357.5000  -999.2500    72.4592
 2358.0000  -999.2500    73.7773
 2358.5000  -999.2500    78.4876
 2359.0000  -999.2500    83.9645
 2359.5000  -999.2500    83.0590
 2360.0000  -999.2500    84.1964
 2360.5000  -999.2500    81.1819
 2361.0000  -999.2500    80.5353
 2361.5000  -999.2500    77.8770
 2362.0000  -999.2500    77.0104
 2362.5000  -999.2500    78.3255
 2363.0000  -999.2500    75.1406
 2363.5000  -999.2500    75.4697
 2364.0000  -999.2500    78.1411
