~VERSION INFORMATION
 VERS.                2.0:   CWLS LOG ASCII STANDARD - VERSION 2.0
 WRAP.                 NO:   ONE LINE PER DEPTH STEP
~WELL INFORMATION
#MNEM.UNIT      DATA TYPE    INFORMATION
#----------   ------------   ------------------------------
 STRT.F           14.0000:   START DEPTH
 STOP.F          692.5000:   STOP DEPTH
 STEP.F            0.5000:   STEP LENGTH
 NULL.          -999.2500:   NO VALUE
 COMP. FENIX & SCISSON INC:   COMPANY
 WELL. NPR #3 #27-51 SX 11 WP:   WELL
 FLD .        TEAPOT DOME:   FIELD
 LOC .      S11 T38N R78W:   LOCATION
 CNTY.            NATRONA:   COUNTY
 STAT.            WYOMING:   STATE
 CTRY. UNITED STATES OF AMERICA:   COUNTRY
 SRVC.      Dresser Atlas:   SERVICE COMPANY
 DATE.        16-AUG-1980:   LOGDATE
 API .       490251083900:   API NUMBER
~CURVE INFORMATION
#MNEM.UNIT       API CODE    CURVE DESCRIPTION
#----------   ------------   ------------------------------
 DEPT.F                  :   
 RHOB.G/C3   45 350 01 00:   BULK DENSITY
 CORR.G/C3   45 356 01 00:   DENSITY CORRECTION
 GRD .GAPI   45 310 01 00:   GAMMA RAY FROM DENSITY LOG
 CALD.IN     45 280 60 00:   CALIPER
 NPOR.DEC    42 890 03 00:   NEUTRON POROSITY SANDSTONE
 DPOR.DEC    45 890 12 00:   DENSITY POROSITY SANDSTONE
 SPR .MV     07 010 01 00:   SPONTANEOUS POTENTIAL
 SFL .OHMM   07 220 01 00:   SHALLOW FOCUSED LOG RESISTIVITY
 ILM .OHMM   07 120 44 00:   INDUCTION LOG MEDIUM
 ILD .OHMM   07 120 46 00:   INDUCTION LOG DEEP
~PARAMETER INFORMATION
#MNEM.UNIT          VALUE    DESCRIPTION
#----------   ------------   ------------------------------
 PD  .                 GL:   PERMANENT DATUM
 EPD .F              5194:   ELEVATION PERMANENT DATUM
 LMF .                 KB:   LOG MEASURED FROM
 DAPD.F                 5:   FEET ABOVE PERMANENT DATUM
 DMF .                 KB:   DRILLING MEASURED FROM
 EKB .F              5199:   KELLING BUSHING
 EGL .F              5194:   GROUND LEVEL
 DATE.            8-16-80:   RUN DATE
 RUN .                  1:   RUN NUMBER
 DD  .F               685:   DEPTH DRILLER
 DL  .F               693:   DEPTH LOGGER
 BLI .F               692:   BOTTOM LOG INTERVAL
 TLI .F                25:   TOP LOG INTERVAL
 BS  .IN            7.875:   BIT SIZE
 BSD .F               685:   BIT SIZE AT DEPTH
 DFT .                KCL:   DRILLING FLUID TYPE
 DFD .                9.4:   DRILLING FLUID DENSITY
 DFV .                 45:   DRILLING FLUID VISCOSITY
 DFPH.                 11:   DRILLING FLUID PH
 DFL .                7.2:   DRILLING FLUID LOSS
 MSS .           FLOWLINE:   MUD SAMPLE SOURCE
 RMS .OHMM            .74:   RESISTIVITY MUD SAMPLE
 MST .F                60:   MUD SAMPLE TEMPERATURE
 RMF .OHMM            .44:   RESISTIVITY MUD FILTRATE SAMPLE
 MFST.F                60:   MUD FILTRATE SAMPLE TEMPERATURE
 RMC .OHMM           1.35:   RESISTIVITY MUD CAKE
 MCST.F                60:   MUD CAKE SAMPLE TEMPERATURE
 MFSS.               MEAS:   MUD FILTRATE SAMPLE SOURCE
 MCSS.               MEAS:   MUD CAKE SAMPLE SOURCE
 TCS .HRS               1:   TIME CURCULATED STOPPED
 LUN .               6180:   LOGGING UNIT NUMBER
 LUL .               CODY:   LOGGING UNIT LOCATION
 ENGI.              HOYER:   RECORDING ENGINEER
 WITN.           MCINTYRE:   WITNESSED BY
 CLNT.            A2DTECH:   CLIENT CODE
 ORIG.      2" 2.5" PRINT:   ORIGIN OF DATA
 UWI .       490251083900:   UNIQUE WELL ID
 DICO. A2D Technologies, Inc.:   DIGITIZING COMPANY
~OTHER INFORMATION
~A   DEPT     RHOB       CORR        GRD       CALD       NPOR       DPOR        SPR        SFL         ILM       ILD   
# ...
  483.0000     2.2854     0.0291    85.3837     7.9710     0.2193     0.2259   -76.4754    19.6360    20.1382    22.1258
  483.5000     2.3222     0.0283    84.7854     7.9151     0.2169     0.2101   -76.5476    18.3040    20.6059    22.1258
  484.0000     2.3914     0.0301    86.7302     7.8749     0.2144     0.1903   -76.5447    16.7980    21.0844    22.3765
  484.5000     2.4348     0.0360    89.3184     7.9481     0.2104     0.1704   -76.4234    16.7980    21.3278    22.7438
  485.0000     2.4671     0.0335    89.8612     7.9882     0.2044     0.1475   -76.1355    17.7495    20.6402    21.9972
  485.5000     2.5002     0.0277    91.7088     8.0336     0.1983     0.1147   -75.8489    21.1770    19.9021    20.9730
  486.0000     2.5390     0.0220    93.7123     8.0353     0.1914     0.0904   -75.5659    27.3290    19.1904    19.9965
  486.5000     2.5182     0.0166    92.6344     8.0243     0.1906     0.1122   -75.4444    22.5359    18.5042    19.0654
  487.0000     2.4503     0.0125    90.7344     8.0136     0.1977     0.1374   -75.9308    17.1450    17.8457    18.1777
  487.5000     2.4075     0.0173    91.6080     8.0030     0.2064     0.1601   -76.3995    14.8664    17.2595    17.7495
  488.0000     2.4016     0.0212    91.6586     7.9925     0.2174     0.1626   -76.7361    14.8909    17.2606    17.7495
  488.5000     2.3981     0.0255    92.9056     7.9818     0.2263     0.1649   -76.2998    15.7522    17.2609    17.7495
  489.0000     2.3923     0.0302    94.5047     7.9711     0.2283     0.1673   -75.8674    15.7522    17.2561    17.9181
  489.5000     2.3797     0.0305    93.5829     7.9605     0.2252     0.1758   -75.4369    16.0718    18.1010    18.1617
  490.0000     2.3637     0.0259    94.7743     7.9498     0.2194     0.1848   -75.0079    16.7980    19.0686    18.4086
  490.5000     2.3491     0.0217    93.9560     7.9392     0.2186     0.1939   -74.9493    18.4474    20.2024    18.5834
  491.0000     2.3112     0.0175    93.6664     7.9288     0.2211     0.2029   -74.9476    20.4707    19.8327    18.5834
  491.5000     2.2882     0.0132    94.1940     7.9178     0.2251     0.2066   -74.8574    22.9536    19.2787    18.7549
  492.0000     2.2987     0.0099    93.8806     7.9184     0.2190     0.2055   -74.6568    22.9536    19.2787    19.8334
  492.5000     2.3370     0.0073    92.7071     7.9290     0.2041     0.1944   -74.4569    18.6689    21.9185    20.8677
  493.0000     2.3791     0.0045    93.0754     7.9392     0.1891     0.1764   -74.3547    17.7495    24.1926    21.9559
  493.5000     2.4178     0.0009    94.0785     7.9494     0.1778     0.1529   -74.1028    18.4136    26.7026    23.1008
  494.0000     2.4548     0.0065    95.2570     7.9598     0.1678     0.1122   -73.7460    26.0197    29.2607    24.3055
  494.5000     2.6366     0.0237    94.2777     7.9700     0.1560     0.0715   -73.6722    35.5709    31.5273    25.2604
  495.0000     2.6518     0.0398    91.7982     7.9802     0.1443     0.0255   -73.9238    42.1798    32.2410    25.9319
  495.5000     2.6378     0.0360    89.3873     7.9912     0.1313     0.0303   -74.1437    36.9587    32.2410    26.6213
  496.0000     2.6049     0.0273    88.0842     7.9945     0.1313     0.0480   -73.8562    33.1415    29.6755    26.8316
  496.5000     2.5697     0.0382    89.0008     7.9892     0.1399     0.0657   -73.2351    30.2337    26.5648    25.0146
  497.0000     2.5362     0.0371    90.2310     7.9848     0.1478     0.0870   -72.6251    26.4646    23.7802    22.6301
  497.5000     2.4986     0.0308    91.3023     7.9803     0.1561     0.1115   -72.5532    22.2929    21.5246    20.4730
  498.0000     2.4460     0.0237    92.8071     7.9756     0.1718     0.1374   -72.5536    19.1345    19.1565    18.5215
  498.5000     2.4083     0.0175    95.8275     7.9711     0.1884     0.1566   -72.5554    17.0509    17.2306    17.0544
  499.0000     2.4124     0.0122    98.7609     7.9666     0.2050     0.1618   -72.5508    15.8832    16.0040    16.3638
  499.5000     2.3956     0.0109   100.8252     7.9620     0.2218     0.1669   -72.7923    15.8905    15.3438    15.7011
  500.0000     2.3798     0.0092   100.7280     7.9574     0.2205     0.1714   -73.1147    16.7521    14.8296    15.0653
  500.5000     2.3861     0.0076    99.7257     7.9529     0.2182     0.1689   -73.3011    17.1155    14.5361    14.6365
  501.0000     2.3961     0.0059    98.3965     7.9483     0.2159     0.1656   -73.0645    16.9277    14.2388    14.6933
  501.5000     2.3932     0.0043    97.1689     7.9438     0.2146     0.1684   -72.8437    16.7646    14.2388    14.8823
  502.0000     2.3894     0.0027    98.4124     7.9392     0.2255     0.1705   -72.6065    16.6030    14.3701    15.0737
  502.5000     2.3854     0.0010   100.2252     7.9347     0.2360     0.1705   -72.8099    16.4923    14.3701    15.2676
  503.0000     2.3816     0.0008    95.5085     7.9301     0.2424     0.1719   -73.1646    16.5449    14.3701    15.3242
  503.5000     2.3777     0.0035    97.0408     7.9255     0.2467     0.1739   -73.5434    16.7149    14.3701    15.3242
  504.0000     2.3760     0.0062    99.8524     7.9211     0.2515     0.1761   -73.2074    16.7980    14.4054    15.3242
  504.5000     2.3815     0.0089   102.9016     7.9165     0.2490     0.1733   -72.8169    16.7330    14.4741    15.3384
  505.0000     2.3923     0.0117   102.8166     7.9169     0.2441     0.1675   -72.4323    16.6427    14.5432    15.4637
  505.5000     2.4007     0.0145   100.7751     7.9194     0.2392     0.1625   -72.1398    16.5528    14.6125    15.5899
  506.0000     2.3960     0.0167   101.6952     7.9217     0.2371     0.1625   -72.1024    16.4923    14.6823    15.7170
  506.5000     2.3868     0.0181   100.7729     7.9240     0.2348     0.1659   -72.0601    16.6331    14.7523    15.7522
  507.0000     2.3919     0.0195    98.3734     7.9264     0.2323     0.1674   -72.0185    16.7877    14.7722    15.7522
  507.5000     2.3983     0.0211    97.8590     7.9287     0.2298     0.1654   -71.9747    16.9552    14.7170    15.6140
  508.0000     2.4049     0.0225    98.5816     7.9310     0.2274     0.1633   -71.8378    16.9524    14.6686    15.4665
  508.5000     2.3983     0.0240   100.1986     7.9334     0.2249     0.1640   -71.5987    16.8276    14.6205    15.3203
  509.0000     2.3914     0.0255   101.5156     7.9357     0.2235     0.1665   -71.3614    16.5413    14.5725    15.1756
  509.5000     2.4018     0.0268   101.4272     7.9380     0.2259     0.1633   -71.1278    16.2016    14.5247    15.0322
  510.0000     2.4092     0.0277   103.0605     7.9403     0.2282     0.1561   -70.9866    16.0399    14.4108    14.8902
  510.5000     2.3936     0.0223   104.9292     7.9427     0.2299     0.1591   -71.1210    16.3839    14.2418    14.7495
  511.0000     2.3803     0.0174   103.4970     7.9450     0.2299     0.1713   -71.2454    16.6471    14.0748    14.6101
  511.5000     2.3653     0.0166   102.6807     7.9473     0.2282     0.1802   -71.3606    16.2547    13.9097    14.4721
  512.0000     2.3749     0.0184   103.3042     7.9496     0.2272     0.1762   -71.3582    15.8519    13.7466    14.3354
  512.5000     2.3966     0.0201   104.4675     7.9520     0.2339     0.1681   -71.3570    15.7522    13.5854    14.1999
  513.0000     2.3903     0.0218   103.1797     7.9545     0.2429     0.1657   -71.3534    15.7522    13.4261    14.0658
  513.5000     2.3840     0.0235   100.1641     7.9558     0.2408     0.1689   -71.1889    15.5637    13.2686    13.9797
  514.0000     2.3863     0.0252   101.0243     7.9556     0.2353     0.1680   -70.7029    15.3166    13.2303    14.0154
  514.5000     2.3931     0.0269   102.9780     7.9556     0.2299     0.1663   -70.1832    15.0734    13.3275    14.0800
  515.0000     2.4003     0.0281   100.7472     7.9557     0.2244     0.1645   -70.5108    14.8342    13.4769    14.1768
  515.5000     2.4024     0.0278    98.8337     7.9556     0.2210     0.1641   -70.9813    14.6365    13.4767    14.2996
  516.0000     2.3975     0.0274    99.2708     7.9556     0.2237     0.1641   -70.3599    15.1481    13.5271    14.4235
