~VERSION INFORMATION
 VERS.                2.0:   CWLS LOG ASCII STANDARD - VERSION 2.0
 WRAP.                 NO:   ONE LINE PER DEPTH STEP
~WELL INFORMATION
#MNEM.UNIT      DATA TYPE    INFORMATION
#----------   ------------   ------------------------------
 STRT.F           20.0000:   START DEPTH
 STOP.F          600.0000:   STOP DEPTH
 STEP.F            0.5000:   STEP LENGTH
 NULL.          -999.2500:   NO VALUE
 COMP. FENIX & SCISSON INC:   COMPANY
 WELL. TEAPOT DOME #23 SX 3-4:   WELL
 FLD .             TEAPOT:   FIELD
 LOC .       S4 T38N R78W:   LOCATION
 CNTY.            NATRONA:   COUNTY
 STAT.            WYOMING:   STATE
 CTRY. UNITED STATES OF AMERICA:   COUNTRY
 SRVC.            Unknown:   SERVICE COMPANY
 DATE.        31-JUL-1978:   LOGDATE
 API .       490251067600:   API NUMBER
~CURVE INFORMATION
#MNEM.UNIT       API CODE    CURVE DESCRIPTION
#----------   ------------   ------------------------------
 DEPT.F                  :   
 CALD.IN     45 280 60 00:   CALIPER FROM DENSITY LOG
 GRD .GAPI   45 310 01 00:   GAMMA RAY FROM DENSITY LOG
 CORR.G/C3   45 356 01 00:   DENSITY CORRECTION
 DPHI.DEC    45 890 12 00:   DENSITY POROSITY SANDSTONE
 RHOB.G/C3   45 350 01 00:   BULK DENSITY
 SPR .MV     07 010 01 00:   SPONTANEOUS POTENTIAL
 ILD .OHMM   07 120 46 00:   INDUCTION LOG DEEP
 SN  .OHMM   07 040 16 00:   SHORT NORMAL 16"
 CILD.MMHO   07 110 46 00:   CONDUCTIVITY INDUCTION LOG DEEP
~PARAMETER INFORMATION
#MNEM.UNIT          VALUE    DESCRIPTION
#----------   ------------   ------------------------------
 PD  .                 GL:   PERMANENT DATUM
 EPD .F              5181:   ELEVATION PERMANENT DATUM
 LMF .                 KB:   LOG MEASURED FROM
 DAPD.F                 4:   FEET ABOVE PERMANENT DATUM
 DMF .                 KB:   DRILLING MEASURED FROM
 EKB .F              5185:   KELLING BUSHING
 EGL .F              5181:   GROUND LEVEL
 DATE.        31-JUL-1978:   RUN DATE
 RUN .                  1:   RUN NUMBER
 DD  .F               595:   DEPTH DRILLER
 DL  .F               606:   DEPTH LOGGER
 BLI .F               600:   BOTTOM LOG INTERVAL
 TLI .F                40:   TOP LOG INTERVAL
 CBL .F                45:   CASING BOTTOM LOGGER
 BS  .IN            7.875:   BIT SIZE
 BSD .F               595:   BIT SIZE AT DEPTH
 DFT .                KCL:   DRILLING FLUID TYPE
 DFD .                9.0:   DRILLING FLUID DENSITY
 DFV .                 36:   DRILLING FLUID VISCOSITY
 DFPH.                9.0:   DRILLING FLUID PH
 DFL .                8.0:   DRILLING FLUID LOSS
 MSS .           FLOWLINE:   MUD SAMPLE SOURCE
 BHT .F                74:   BOTTOM HOLE TEMPERATURE
 TCS .HRS            0500:   TIME CURCULATED STOPPED
 MRT .F                74:   MAXIMUM RECORDED TEMPERATURE
 LUN .               2958:   LOGGING UNIT NUMBER
 LUL .               CASP:   LOGGING UNIT LOCATION
 ENGI.            POINTER:   RECORDING ENGINEER
 WITN.              AMEND:   WITNESSED BY
 CLNT.            A2DTECH:   CLIENT CODE
 ORIG.           5" PRINT:   ORIGIN OF DATA
 UWI .       490251067600:   UNIQUE WELL ID
 DICO. A2D Technologies, Inc.:   DIGITIZING COMPANY
~OTHER INFORMATION
~A   DEPT     CALD        GRD       CORR       DPHI       RHOB        SPR        ILD         SN       CILD   
# ...
  348.5000     8.2341   109.7085     0.0152     0.1134     2.4664   -34.6438     7.1373     7.7037   146.2738
  349.0000     8.2203   118.4188     0.0153     0.1140     2.4643   -35.0820     7.0859     7.6013   146.2023
  349.5000     8.2218   120.0923     0.0153     0.1131     2.4643   -35.0743     6.9957     7.5522   146.1348
  350.0000     8.2385   121.0010     0.0154     0.1157     2.4667   -35.0669     6.7190     7.5034   146.0674
  350.5000     8.2399   128.2178     0.0162     0.1190     2.4690   -34.4628     6.4947     7.5583   145.9920
  351.0000     8.2562   129.4242     0.0163     0.1100     2.4773   -34.1566     6.0648     7.5094   152.6582
  351.5000     8.2576   127.4916     0.0163     0.1135     2.4722   -33.9990     5.6633     7.3079   164.5678
  352.0000     8.2436   121.5232     0.0156     0.1255     2.4528   -33.8414     5.2380     7.2107   176.4774
  352.5000     8.2453   122.7296     0.0135     0.1393     2.4117   -33.8324     5.1060     7.1147   189.1361
  353.0000     8.2467   126.7761     0.0068     0.1545     2.3870   -33.8234     4.9747     7.0681   195.8022
  353.5000     8.2481   127.3819    -0.0015     0.1755     2.3661   -34.1116     4.9092     7.0718   200.3645
  354.0000     8.2494   123.3593    -0.0044     0.1500     2.4059   -34.4020     4.9120     7.0747   197.1495
  354.5000     8.2658   121.6766     0.0130     0.0939     2.4906   -34.0936     4.9487     7.1267   193.3288
  355.0000     8.6957   120.3587     0.0266     0.0879     2.5061   -33.9360     4.9858     7.2288   191.0062
  355.5000     8.3974   119.1774     0.0341     0.1076     2.4854   -33.9270     5.1283     7.3832   187.9345
  356.0000     8.2545   117.5695     0.0161     0.1121     2.4699   -33.7694     5.3852     7.6457   182.6157
  356.5000     8.2559   117.8791     0.0102     0.1043     2.4828   -33.7623     5.6942     7.9724   172.0534
  357.0000     8.2573   118.1887     0.0095     0.1088     2.4828   -33.7533     6.0209     8.1427   155.4986
  357.5000     8.2586   121.0394     0.0095     0.1102     2.4776   -33.7444     6.3664     8.1461   143.4382
  358.0000     8.2600   117.0141     0.0089     0.1114     2.4710   -33.7355     6.7317     8.2060   133.6249
  358.5000     8.2764   120.9111     0.0082     0.1126     2.4658   -33.7266     6.9720     8.2094   138.0439
  359.0000     8.2777   121.8186     0.0082     0.1137     2.4659   -33.7177     6.9759     8.2128   139.4855
  359.5000     8.2791   126.4630     0.0083     0.1147     2.4637   -33.7087     6.9798     8.2163   139.3912
  360.0000     8.2805   119.2987     0.0076     0.1152     2.4623   -33.5511     6.9837     8.2197   139.3158
  360.5000     8.2818   115.7219     0.0077     0.1065     2.4849   -33.2449     6.9875     8.2231   140.0083
  361.0000     8.2832   115.7325     0.0077     0.1035     2.4910   -33.2359     6.9914     8.2259   138.4159
  361.5000     8.2995   116.3410     0.0078     0.1037     2.4910   -33.0784     6.9462     8.1725   134.5952
  362.0000     8.3159   119.4906     0.0078     0.1037     2.4904   -33.2202     6.9511     8.1761   131.5235
  362.5000     8.3173   120.2486     0.0079     0.1040     2.4905   -33.2089     6.9550     8.1794   134.4444
  363.0000     8.3186   122.6100     0.0080     0.1042     2.4898   -33.1999     7.0071     8.1265   136.6161
  363.5000     8.3350   124.1536     0.0080     0.1039     2.4891   -33.3418     7.0595     8.1299   137.2898
  364.0000     8.3364   122.4724     0.0081     0.0991     2.4960   -33.3305     7.1124     8.1333   137.2144
  364.5000     8.3377   119.5410     0.0081     0.0985     2.4990   -33.3215     7.1164     8.0807   136.3899
  365.0000     8.3391   124.0360     0.0082     0.1005     2.4983   -33.4634     7.0227     8.0841   136.3296
  365.5000     8.3404   123.2992     0.0083     0.0954     2.4999   -33.6030     6.9773     8.0317   135.5056
  366.0000     8.3265   128.3920     0.0083     0.0957     2.5000   -33.7403     6.9331     8.0352   136.1825
  366.5000     8.2679   129.5984     0.0084     0.0942     2.5001   -33.7313     6.9371     7.9832   136.1071
  367.0000     8.2692   125.2742     0.0084     0.0923     2.5002   -33.7223     6.9410     7.9866   136.8486
  367.5000     8.2556   120.9500     0.0077     0.0980     2.5003   -33.8642     6.9953     7.9341   137.4544
  368.0000     8.2420   120.2106     0.0078     0.1073     2.4816   -34.0037     7.1934     7.9383   137.3783
  368.5000     8.2284   121.5665     0.0079     0.1093     2.4787   -33.9925     7.3473     7.9416   136.5543
  369.0000     8.2447   119.7834     0.0079     0.1090     2.4780   -33.9835     7.3544     7.8902   137.2285
  369.5000     8.2761   122.4872     0.0080     0.1093     2.4766   -33.9745     7.0085     7.8935   139.4000
  370.0000     8.3674   119.6578     0.0081     0.1102     2.4752   -33.9673     6.4995     7.8968   143.8190
  370.5000     8.2938   120.7147     0.0073     0.1117     2.4730   -33.9584     6.2825     7.8450   148.2379
  371.0000     8.2498   124.4623     0.0059     0.1137     2.4641   -33.9495     6.2860     7.7942   150.4120
  371.5000     8.2365   123.8723     0.0060     0.1197     2.4560   -33.9406     6.2895     7.6384   151.8352
  372.0000     8.2379   126.0279     0.0068     0.1217     2.4583   -33.9317     6.2930     7.5883   151.7570
  372.5000     8.2393   127.0326     0.0077     0.1130     2.4786   -33.9203     6.2523     7.4366   149.4344
  373.0000     8.2406   121.4769     0.0108     0.1046     2.4929   -33.7652     6.2136     7.3877   147.8609
  373.5000     8.2267   119.7289     0.0145     0.1019     2.4930   -33.7562     6.1735     7.4944   149.2836
  374.0000     8.2284   118.9927     0.0168     0.0977     2.4931   -33.7472     6.0095     7.4452   157.4479
  374.5000     8.2297   119.3022     0.0169     0.1099     2.4542   -33.7382     5.8088     7.3868   165.6122
  375.0000     8.2161   120.6581     0.0154     0.1237     2.4461   -34.0264     5.4243     7.2402   170.7802
  375.5000     8.2022   122.7614     0.0042     0.1395     2.4042   -34.0174     4.9614     7.1028   181.1917
  376.0000     8.1885   125.9111    -0.0018     0.2048     2.3271   -34.7513     4.8283     7.0524   198.3448
  376.5000     8.1900   124.7259    -0.0115     0.2045     2.3190   -35.1903     4.9669     7.0086   194.5240
  377.0000     8.1935   121.8964    -0.0129     0.1715     2.4367   -34.8819     5.1089     6.9659   191.4712
  377.5000     8.2256   119.2138     0.0037     0.1005     2.4884   -34.1300     5.1117     7.0171   193.6430
  378.0000     8.7953   120.4229     0.0331     0.0858     2.5342   -33.6752     5.0097     7.0687   193.5488
  378.5000     8.4346   119.8329     0.0414     0.1007     2.4991   -33.6662     4.8424     7.1700   194.2413
  379.0000     8.2867   122.0883     0.0212     0.1040     2.4917   -33.8080     4.8993     7.3231   190.4017
  379.5000     8.2431   122.6969     0.0122     0.1049     2.4895   -33.9476     5.5732     7.5313   176.0941
  380.0000     8.2744   124.8001     0.0130     0.1052     2.4888   -33.4906     6.3545     7.6921   151.2995
  380.5000     8.3208   121.3557     0.0131     0.1054     2.4882   -33.3330     6.4004     7.6953   142.9844
  381.0000     8.3221   123.9103     0.0131     0.1051     2.4883   -33.4726     6.7716     7.6986   138.4147
  381.5000     8.3081   125.2778     0.0139     0.1041     2.4891   -33.7631     7.3020     7.6480   131.5977
  382.0000     8.3099   122.4186     0.0148     0.0963     2.4922   -33.9027     6.9602     7.5985   136.0166
  382.5000     8.3112   117.3767     0.0156     0.0981     2.4930   -34.1908     6.0659     7.4983   151.6716
  383.0000     8.3126   116.7344     0.0164     0.0957     2.4923   -34.3304     5.8633     7.4490   157.5887
  383.5000     8.3140   119.7896     0.0164     0.1070     2.4879   -33.7248     5.2894     7.3001   167.2511
  384.0000     8.3153   115.9138     0.0165     0.1367     2.4311   -33.7435     4.9735     7.2030   179.4065
  384.5000     8.3167   119.8108     0.0090     0.1747     2.3390   -34.4520     4.8741     7.1065   195.8199
