~VERSION INFORMATION
 VERS.                2.0:   CWLS LOG ASCII STANDARD - VERSION 2.0
 WRAP.                 NO:   ONE LINE PER DEPTH STEP
~WELL INFORMATION
#MNEM.UNIT      DATA TYPE    INFORMATION
#----------   ------------   ------------------------------
 STRT.F           32.0000:   START DEPTH
 STOP.F          697.0000:   STOP DEPTH
 STEP.F            0.5000:   STEP LENGTH
 NULL.          -999.2500:   NO VALUE
 COMP.    FENIX & SCISSON:   COMPANY
 WELL.      NPR-3 #81S3-3:   WELL
 FLD .        TEAPOT DOME:   FIELD
 LOC .       S3 T38N R78W:   LOCATION
 CNTY.            NATRONA:   COUNTY
 STAT.            WYOMING:   STATE
 CTRY. UNITED STATES OF AMERICA:   COUNTRY
 SRVC.           BIRDWELL:   SERVICE COMPANY
 DATE.        11-JAN-1978:   LOGDATE
 API .       490251055400:   API NUMBER
~CURVE INFORMATION
#MNEM.UNIT       API CODE    CURVE DESCRIPTION
#----------   ------------   ------------------------------
 DEPT.F                  :   
 ILD .OHMM   05 120 46 00:   INDUCTION LOG DEEP
 SN  .OHMM   05 040 16 00:   SHORT NORMAL 16"
 SPR .MV     05 010 01 00:   SPONTANEOUS POTENTIAL FROM RES.
 CALD.IN     45 280 60 00:   CALIPER FROM DENSITY LOG
 DPHI.DEC    45 890 12 00:   DENSITY POROSITY SANDSTONE
 DRHO.G/C3   45 356 01 00:   DENSITY CORRECTION
 GRD .GAPI   45 310 01 00:   GAMMA RAY FROM DENSITY LOG
 RHOB.G/C3   45 350 01 00:   BULK DENSITY
~PARAMETER INFORMATION
#MNEM.UNIT          VALUE    DESCRIPTION
#----------   ------------   ------------------------------
 PD  .                 GL:   PERMANENT DATUM
 EPD .F              5119:   ELEVATION PERMANENT DATUM
 LMF .                 KB:   LOG MEASURED FROM
 DAPD.F                 4:   FEET ABOVE PERMANENT DATUM
 DMF .                 KB:   DRILLING MEASURED FROM
 EKB .F              5123:   KELLING BUSHING
 EGL .F              5119:   GROUND LEVEL
 DATE.        11-JAN-1978:   RUN DATE
 RUN .                  1:   RUN NUMBER
 DD  .F               695:   DEPTH DRILLER
 DL  .F               704:   DEPTH LOGGER
 BLI .F               697:   BOTTOM LOG INTERVAL
 TLI .F                40:   TOP LOG INTERVAL
 CS  .IN            8.625:   CASING SIZE
 CBD .F                40:   CASING BOTTOM DRILLER
 CBL .F                40:   CASING BOTTOM LOGGER
 BS  .IN            7.875:   BIT SIZE
 BSD .F               695:   BIT SIZE AT DEPTH
 DFT .                KCL:   DRILLING FLUID TYPE
 DFD .                8.6:   DRILLING FLUID DENSITY
 DFV .                 31:   DRILLING FLUID VISCOSITY
 DFPH.                9.5:   DRILLING FLUID PH
 DFL .                7.6:   DRILLING FLUID LOSS
 MSS .           FLOWLINE:   MUD SAMPLE SOURCE
 RMS .OHMM           0.32:   RESISTIVITY MUD SAMPLE
 MST .F                62:   MUD SAMPLE TEMPERATURE
 RMF .OHMM           0.32:   RESISTIVITY MUD FILTRATE SAMPLE
 MFST.F                62:   MUD FILTRATE SAMPLE TEMPERATURE
 RMC .OHMM            0.8:   RESISTIVITY MUD CAKE
 MCST.F                63:   MUD CAKE SAMPLE TEMPERATURE
 MFSS.               MEAS:   MUD FILTRATE SAMPLE SOURCE
 MCSS.               MEAS:   MUD CAKE SAMPLE SOURCE
 TCS .HRS               2:   TIME CURCULATED STOPPED
 LUN .               2958:   LOGGING UNIT NUMBER
 LUL .             CASPER:   LOGGING UNIT LOCATION
 ENGI.           REYNOLDS:   RECORDING ENGINEER
 WITN.         HARRINGTON:   WITNESSED BY
 CLNT.            A2DTECH:   CLIENT CODE
 ORIG.           5" PRINT:   ORIGIN OF DATA
 UWI .       490251055400:   UNIQUE WELL ID
 DICO. A2D Technologies, Inc.:   DIGITIZING COMPANY
~OTHER INFORMATION
~A   DEPT      ILD         SN        SPR       CALD       DPHI       DRHO         GRD      RHOB   
# ...
  275.0000    12.5858    12.5509   -40.2985     8.7158     0.0809     0.0617    87.8043     2.5045
  275.5000    12.5859    12.5494   -39.6955     8.7220     0.0785     0.0617    93.9714     2.5068
  276.0000    12.5861    12.5480   -39.5405     8.7283     0.0749     0.0648    95.7657     2.5151
  276.5000    12.5862    12.5466   -40.3045     8.7346     0.0809     0.0679    96.9638     2.5151
  277.0000    12.5863    12.5451   -40.4242     8.7409     0.0815     0.0680    98.1620     2.5129
  277.5000    12.5864    12.5437   -39.9691     8.7471     0.0788     0.0681    98.9131     2.5121
  278.0000    12.5865    12.5423   -39.8139     8.7534     0.0709     0.0681    99.0680     2.5234
  278.5000    12.5866    12.5408   -39.9588     8.7597     0.0754     0.0682    94.9011     2.5212
  279.0000    12.5867    12.5394   -39.9514     8.7634     0.0769     0.0698    85.5180     2.5197
  279.5000    12.5868    12.5380   -39.9455     8.7790     0.0736     0.0714    84.3302     2.5212
  280.0000    12.5869    12.5365   -39.9396     8.7947     0.0730     0.0744    87.3182     2.5250
  280.5000    12.5870    12.5351   -39.9337     8.7954     0.0736     0.0700    90.0067     2.5228
  281.0000    12.5871    12.5337   -39.9278     8.7949     0.0675     0.0686    91.3539     2.5341
  281.5000    12.5872    12.5344   -39.9219     8.7940     0.0615     0.0687    95.3837     2.5364
  282.0000    12.5874    12.4450   -39.9160     8.7931     0.0702     0.0687    98.0722     2.5206
  282.5000    12.5885    12.4384   -39.9102     8.7922     0.0741     0.0718    98.3746     2.5199
  283.0000    12.5791    12.4318   -40.0537     8.7914     0.0747     0.0734    92.2718     2.5191
  283.5000    12.5697    12.4252   -40.1970     8.7905     0.0756     0.0719    90.1898     2.5193
  284.0000    12.5603    12.4186   -40.4895     8.7896     0.0723     0.0675    97.3507     2.5216
  284.5000    12.5509    12.4120   -40.7821     8.7887     0.0689     0.0631   103.0198     2.5260
  285.0000    12.5416    12.4054   -40.9353     8.7878     0.0716     0.0632   104.0689     2.5282
  285.5000    12.5322    12.3988   -41.0688     8.7869     0.0764     0.0677   102.7335     2.5185
  286.0000    12.4446    12.3922   -40.9134     8.7860     0.0812     0.0753   100.6530     2.5110
  286.5000    12.4499    12.3957   -40.6078     8.7851     0.0863     0.0845    99.1686     2.5088
  287.0000    12.4542    12.3991   -40.3034     8.7842     0.0866     0.0875   100.0687     2.5013
  287.5000    12.5452    12.4026   -39.8498     8.7833     0.0869     0.0891   100.6708     2.5006
  288.0000    12.5495    12.4929   -39.9931     8.7825     0.0829     0.0892    98.4412     2.5046
  288.5000    12.6411    12.4963   -40.2872     8.7816     0.0781     0.0892    94.7214     2.5114
  289.0000    12.6455    12.5866   -40.1306     8.7807     0.0763     0.0893    93.2369     2.5164
  289.5000    12.7379    12.5900   -39.9755     8.7798     0.0757     0.0909    93.2429     2.5262
  290.0000    12.7423    12.5935   -39.6711     8.7798     0.0742     0.0910    92.9409     2.5315
  290.5000    12.7467    12.5969   -39.6652     8.7805     0.0714     0.0895    91.7069     2.5315
  291.0000    12.6628    12.6004   -39.6593     8.7812     0.0678     0.0866    89.6652     2.5353
  291.5000    12.6674    12.6038   -39.6534     8.7820     0.0632     0.0822    88.7725     2.5413
  292.0000    12.6718    12.6073   -39.9460     8.7827     0.0600     0.0763    88.2054     2.5451
  292.5000    12.6762    12.6107   -40.2388     8.7835     0.0608     0.0703    87.9132     2.5459
  293.0000    12.6806    12.5263   -40.2327     8.7842     0.0672     0.0689    90.1561     2.5309
  293.5000    12.6850    12.5306   -40.2268     8.7850     0.0708     0.0659    92.0994     2.5279
  294.0000    12.6894    12.5340   -40.2209     8.7857     0.0735     0.0645    92.4034     2.5264
  294.5000    12.6938    12.5374   -40.2149     8.7865     0.0713     0.0631    92.8564     2.5242
  295.0000    12.6113    12.5409   -40.2090     8.7872     0.0698     0.0616    93.9056     2.5280
  295.5000    12.6156    12.5443   -40.3525     8.7879     0.0695     0.0617    94.5061     2.5310
  296.0000    12.5316    12.4611   -40.3451     8.7887     0.0737     0.0603    92.2780     2.5182
  296.5000    12.4493    12.4645   -40.4900     8.7894     0.0806     0.0604    91.5388     2.5115
  297.0000    12.3675    12.3819   -40.4826     8.7902     0.0806     0.0605    91.8428     2.5108
  297.5000    12.2862    12.3854   -40.7752     8.7909     0.0803     0.0605    92.2958     2.5108
  298.0000    12.2055    12.3763   -41.3664     8.7917     0.0802     0.0606    92.5998     2.5070
  298.5000    12.0425    12.2225   -40.7635     8.7924     0.0802     0.0622    91.7115     2.5048
  299.0000    12.0466    11.9736   -40.4591     8.7932     0.0814     0.0623    92.0155     2.5071
  299.5000    11.9664    11.8943   -40.1561     8.7939     0.0838     0.0623    95.5982     2.5049
  300.0000    11.8878    11.8154   -40.5980     8.7946     0.0844     0.0639    98.1376     2.5011
  300.5000    11.8097    11.7371   -40.7414     8.7954     0.0814     0.0655    99.4848     2.5042
  301.0000    11.8147    11.7411   -40.8847     8.7961     0.0801     0.0687    99.7888     2.5103
  301.5000    11.9011    11.8259   -39.6833     8.7969     0.0840     0.0733    99.0495     2.5132
  302.0000    12.0714    11.8292   -39.6774     8.7976     0.0855     0.0777    94.2989     2.5056
  302.5000    12.0756    11.9974   -39.6715     8.7984     0.0828     0.0778    89.8209     2.5118
  303.0000    12.2484    12.0841   -39.6657     8.7991     0.0771     0.0689    92.5483     2.5186
  303.5000    12.3379    12.1714   -39.6597     8.7999     0.0677     0.0644    95.1994     2.5261
  304.0000    12.4281    12.2593   -40.1016     8.8007     0.0632     0.0630    93.4169     2.5367
  304.5000    12.5189    12.2627   -40.3942     8.8015     0.0608     0.0646    90.2932     2.5299
  305.0000    12.6104    12.3513   -40.3716     8.7995     0.0596     0.0647    89.7030     2.5360
  305.5000    12.7026    12.4405   -40.3354     8.7957     0.0599     0.0632    90.0070     2.5353
  306.0000    12.7078    12.5304   -40.2992     8.7919     0.0607     0.0648    91.3541     2.5376
  306.5000    12.7122    12.6209   -40.2630     8.7881     0.0631     0.0649    93.8936     2.5398
  307.0000    12.8050    12.7121   -40.2268     8.7843     0.0700     0.0665    96.5821     2.5271
  307.5000    12.8094    12.8040   -40.3574     8.7805     0.0703     0.0661    98.2273     2.5249
  308.0000    12.8138    12.8965   -40.5021     8.7767     0.0709     0.0659    98.6789     2.5249
  308.5000    12.8182    12.8420   -40.6440     8.7729     0.0745     0.0734    96.5998     2.5204
  309.0000    12.8252    12.7829   -40.9380     8.7691     0.0763     0.0750    95.7116     2.5159
  309.5000    12.8544    12.7847   -41.2305     8.7653     0.0759     0.0780    96.9097     2.5167
  310.0000    12.8845    12.6978   -41.2231     8.7500     0.0729     0.0811    98.8516     2.5205
  310.5000    12.7981    12.7000   -40.9186     8.7507     0.0732     0.0841    97.2196     2.5228
  311.0000    12.8008    12.7017   -40.4649     8.7515     0.0768     0.0841    97.0750     2.5168
  311.5000    12.8035    12.7035   -40.3097     8.7522     0.0816     0.0842    97.0824     2.5093
  312.0000    12.7176    12.7052   -40.3037     8.7530     0.0806     0.0827    96.4922     2.5093
  312.5000    12.6323    12.7070   -40.1485     8.7546     0.0788     0.0797    86.8111     2.5131
  313.0000    12.6350    12.7087   -39.9933     8.7571     0.0770     0.0782    87.8602     2.5147
  313.5000    12.7255    12.7105   -39.9873     8.7596     0.0758     0.0737    91.8900     2.5170
  314.0000    12.7282    12.7123   -40.1321     8.7621     0.0806     0.0722    95.7707     2.5177
  314.5000    12.7308    12.7140   -40.1247     8.7646     0.0851     0.0693    95.3296     2.5095
  315.0000    12.8221    12.8041   -40.1187     8.7670     0.0868     0.0678    91.6097     2.5028
