~VERSION INFORMATION
 VERS.                2.0:   CWLS LOG ASCII STANDARD - VERSION 2.0
 WRAP.                 NO:   ONE LINE PER DEPTH STEP
~WELL INFORMATION
#MNEM.UNIT      DATA TYPE    INFORMATION
#----------   ------------   ------------------------------
 STRT.F            2.0000:   START DEPTH
 STOP.F          595.0000:   STOP DEPTH
 STEP.F            0.5000:   STEP LENGTH
 NULL.          -999.2500:   NO VALUE
 COMP.       F D SERV INC:   COMPANY
 WELL.    73-5 SX-3 #73-3:   WELL
 FLD .             TEAPOT:   FIELD
 LOC .       S3 T38N R78W:   LOCATION
 CNTY.            NATRONA:   COUNTY
 STAT.            WYOMING:   STATE
 CTRY. UNITED STATES OF AMERICA:   COUNTRY
 SRVC.     Atlas Wireline:   SERVICE COMPANY
 DATE.        01-MAY-1992:   LOGDATE
 API .       490252252200:   API NUMBER
~CURVE INFORMATION
#MNEM.UNIT       API CODE    CURVE DESCRIPTION
#----------   ------------   ------------------------------
 DEPT.F                  :   
 CALD.IN     45 280 60 00:   CALIPER FROM DENSITY
 CORR.G/C3   45 356 01 00:   DENSITY CORRECTION
 DEN .G/C3   45 350 01 00:   COMPENSATED BULK DENSTIY
 GRD .GAPI   45 310 01 00:   GAMMA RAY FROM DENSITY LOG
 RILD.OHMM   07 120 46 00:   INDUCTION LOG DEEP RESISTIVITY
 RILM.OHMM   07 120 44 00:   INDUCTION LOG MEDIUM RESISTIVITY
 PORD.DEC    45 890 12 00:   POROSITY DENSITY SANDSTONE
~PARAMETER INFORMATION
#MNEM.UNIT          VALUE    DESCRIPTION
#----------   ------------   ------------------------------
 PD  .                 GL:   PERMANENT DATUM
 EPD .F              5147:   ELEVATION PERMANENT DATUM
 LMF .                 KB:   LOG MEASURED FROM
 DAPD.F                 5:   FEET ABOVE PERMANENT DATUM
 DMF .                 KB:   DRILLING MEASURED FROM
 EKB .F              5152:   KELLING BUSHING
 EGL .F              5147:   GROUND LEVEL
 DATE.        01-MAY-1992:   RUN DATE
 RUN .                  1:   RUN NUMBER
 DD  .F               600:   DEPTH DRILLER
 DL  .F               603:   DEPTH LOGGER
 BLI .F               601:   BOTTOM LOG INTERVAL
 TLI .F                 2:   TOP LOG INTERVAL
 CS  .IN            8.625:   CASING SIZE
 CBD .F                46:   CASING BOTTOM DRILLER
 CBL .F                53:   CASING BOTTOM LOGGER
 BS  .IN            7.875:   BIT SIZE
 BSD .F               600:   BIT SIZE AT DEPTH
 DFT .                AIR:   DRILLING FLUID TYPE
 TCS .HRS               1:   TIME CURCULATED STOPPED
 LUN .            HL-6274:   LOGGING UNIT NUMBER
 LUL .             CASPER:   LOGGING UNIT LOCATION
 ENGI.             ZIEGER:   RECORDING ENGINEER
 WITN.             STRONG:   WITNESSED BY
 CLNT.            A2DTECH:   CLIENT CODE
 ORIG.           5" PRINT:   ORIGIN OF DATA
 UWI .       490252252200:   UNIQUE WELL ID
 DICO. A2D Technologies, Inc.:   DIGITIZING COMPANY
~OTHER INFORMATION
~A    DEPT    CALD       CORR        DEN         GRD      RILD       RILM       PORD   
# ...
  411.5000     8.2034    -0.0148     2.4163   117.5254    16.6638    16.8076     0.1423
  412.0000     8.2030    -0.0120     2.4102   117.8231    16.8936    17.0391     0.1436
  412.5000     8.1875    -0.0091     2.3965   115.7142    17.1251    17.1537     0.1505
  413.0000     8.1871    -0.0092     2.3889   113.3052    17.3583    17.2692     0.1569
  413.5000     8.1866    -0.0124     2.3858   112.7007    17.4740    17.3853     0.1596
  414.0000     8.2012    -0.0126     2.3887   114.5022    17.5902    17.5021     0.1578
  414.5000     8.2007    -0.0127     2.3978   115.1008    17.7072    17.6198     0.1542
  415.0000     8.2002    -0.0159     2.4023   114.7770    17.5779    17.6148     0.1494
  415.5000     8.1998    -0.0191     2.4050   113.2902    17.3175    17.6089     0.1473
  416.0000     8.1843    -0.0162     2.4049   112.6375    17.0823    17.1196     0.1489
  416.5000     8.1838    -0.0133     2.4048   112.0806    16.8385    16.8777     0.1497
  417.0000     8.1834    -0.0104     2.4123   113.8821    16.7157    16.6392     0.1470
  417.5000     8.1829    -0.0075     2.4288   116.5859    16.5937    16.4041     0.1386
  418.0000     8.1976    -0.0077     2.4363   117.7860    16.3581    16.1723     0.1326
  418.5000     8.1971    -0.0079     2.4407   112.9710    16.1259    15.9438     0.1302
  419.0000     8.1967    -0.0080     2.4452   113.5695    16.0083    15.8286     0.1269
  419.5000     8.1962    -0.0082     2.4481   115.0703    15.7810    15.6050     0.1245
  420.0000     8.1958    -0.0083     2.4450   116.8718    15.6659    15.3845     0.1233
  420.5000     8.1953    -0.0085     2.4389   118.0726    15.5516    15.1671     0.1266
  421.0000     8.1949    -0.0116     2.4327   115.6629    15.4381    14.9528     0.1296
  421.5000     8.1793    -0.0118     2.4296   112.9531    15.3255    14.7415     0.1312
  422.0000     8.1788    -0.0089     2.4311   114.7547    15.1079    14.6350     0.1315
  422.5000     8.1633    -0.0085     2.4447   117.4585    14.8935    14.4282     0.1261
  423.0000     8.1629    -0.0032     2.4535   119.2600    14.7848    14.2243     0.1203
  423.5000     8.1624    -0.0064     2.4565   121.0616    14.5749    14.1064     0.1185
  424.0000     8.1620    -0.0096     2.4548   120.4571    14.4632    13.9211     0.1176
  424.5000     8.1616    -0.0127     2.4532   119.2511    14.2631    13.9173     0.1180
  425.0000     8.1762    -0.0129     2.4516   118.6466    14.1425    13.9134     0.1207
  425.5000     8.1757    -0.0130     2.4500   118.9726    13.9569    13.9096     0.1225
  426.0000     8.1753    -0.0162     2.4500   120.4731    13.8551    13.9058     0.1216
  426.5000     8.1899    -0.0164     2.4514   121.0437    13.7540    13.9020     0.1198
  427.0000     8.1895    -0.0195     2.4528   119.7815    13.7493    13.8015     0.1195
  427.5000     8.1890    -0.0197     2.4542   117.7288    13.7446    13.7018     0.1199
  428.0000     8.1886    -0.0168     2.4557   116.2220    13.6443    13.5082     0.1199
  428.5000     8.1731    -0.0169     2.4556   114.7153    13.5448    13.4106     0.1190
  429.0000     8.1725    -0.0141     2.4555   113.5093    13.5401    13.2211     0.1172
  429.5000     8.1872    -0.0110     2.4569   112.3033    13.5354    13.0343     0.1160
  430.0000     8.1867    -0.0053     2.4598   112.6018    13.3433    12.8501     0.1160
  430.5000     8.1862    -0.0055     2.4627   113.5004    13.2459    12.7572     0.1154
  431.0000     8.1858    -0.0117     2.4688   114.3997    13.1493    12.5770     0.1108
  431.5000     8.1853    -0.0149     2.4779   115.5997    12.9626    12.4860     0.1049
  432.0000     8.1849    -0.0180     2.4887   116.7997    12.8681    12.3808     0.1013
  432.5000     8.1845    -0.0212     2.4850   117.6998    12.7727    12.1349     0.1007
  433.0000     8.1840    -0.0183     2.4744   117.3953    12.5927    12.0472     0.1031
  433.5000     8.1836    -0.0154     2.4622   115.5878    12.4140    11.8770     0.1089
  434.0000     8.1831    -0.0156     2.4515   117.3894    12.2376    11.8738     0.1122
  434.5000     8.1827    -0.0127     2.4605   121.5969    12.0630    11.7880     0.1059
  435.0000     8.1973    -0.0098     2.4816   123.6992    11.9750    11.7028     0.1011
  435.5000     8.1818    -0.0070     2.4920   122.4932    11.8877    11.6996     0.0938
  436.0000     8.1813    -0.0071     2.4965   121.5800    11.8836    11.6963     0.0896
  436.5000     8.1657    -0.0163     2.4979   120.3820    11.7969    11.6931     0.0887
  437.0000     8.1653    -0.0195     2.4948   123.1578    11.7928    11.6899     0.0918
  437.5000     8.1648    -0.0197     2.4871   125.2381    11.7888    11.6867     0.0948
  438.0000     8.1644    -0.0228     2.4840   124.8839    11.7847    11.7654     0.0972
  438.5000     8.1639    -0.0261     2.4794   120.3696    11.8642    11.8444     0.1007
  439.0000     8.1786    -0.0262     2.4748   116.1561    11.9431    11.9238     0.1045
  439.5000     8.1781    -0.0263     2.4687   115.5524    12.1058    12.0043     0.1081
  440.0000     8.1927    -0.0234     2.4656   118.8569    12.1864    12.0962     0.1124
  440.5000     8.1923    -0.0206     2.4624   121.2600    12.3533    12.2514     0.1151
  441.0000     8.1918    -0.0207     2.4624   123.0615    12.4356    12.4193     0.1124
  441.5000     8.2065    -0.0178     2.4623   123.0969    12.5183    12.5037     0.1115
  442.0000     8.2060    -0.0150     2.4622   120.9503    12.5139    12.5878     0.1137
  442.5000     8.2056    -0.0151     2.4636   120.9473    12.5021    12.5835     0.1143
  443.0000     8.2051    -0.0183     2.4650   120.9444    12.2966    12.4926     0.1146
  443.5000     8.1896    -0.0185     2.4709   120.0211    12.0911    12.1454     0.1116
  444.0000     8.1891    -0.0216     2.4799   120.1647    11.9841    11.8905     0.1047
  444.5000     8.2038    -0.0218     2.4859   124.0816    11.8140    11.6410     0.0983
  445.0000     8.2032    -0.0189     2.4918   126.6460    11.6461    11.4765     0.0953
  445.5000     8.2028    -0.0160     2.4963   125.7408    11.4683    11.3936     0.0944
  446.0000     8.2023    -0.0101     2.4977   122.4296    11.1601    11.2326     0.0938
  446.5000     8.2170    -0.0073     2.4991   120.9228    11.0016    11.0739     0.0923
  447.0000     8.2165    -0.0105     2.5036   121.8221    10.8454    10.9939     0.0884
  447.5000     8.2161    -0.0167     2.5095   125.1274    10.6915    10.9882     0.0860
  448.0000     8.2156    -0.0168     2.5049   126.6282    10.6135    10.9113     0.0876
  448.5000     8.2152    -0.0170     2.5003   126.9267    10.5361    10.8325     0.0900
  449.0000     8.2147    -0.0140     2.4972   126.3215    10.5324    10.8288     0.0924
  449.5000     8.1992    -0.0142     2.4956   126.0178    10.6034    10.8259     0.0967
  450.0000     8.1988    -0.0147     2.4909   126.7285    10.7070    10.9272     0.1002
  450.5000     8.1985    -0.0170     2.4870   127.5084    10.9077    11.2662     0.1015
  451.0000     8.1982    -0.0193     2.4847   127.8025    11.2012    11.6171     0.1033
  451.5000     8.1979    -0.0215     2.4801   126.5883    11.6769    12.4627     0.1091
  452.0000     8.1976    -0.0333     2.4453   124.7749    12.6049    13.3562     0.1281
  452.5000     8.1973    -0.0274     2.3727   119.9539    13.8946    14.8915     0.1732
  453.0000     8.1970    -0.0185     2.3046   108.8172    15.4234    17.6090     0.2007
  453.5000     8.1967    -0.0126     2.2508   103.0940    17.3610    20.2404     0.2194
  454.0000     8.2115    -0.0159     2.2275   103.9873    19.3096    22.6248     0.2502
  454.5000     8.2111    -0.0191     2.2300   103.6776    21.8841    24.9396     0.2539
  455.0000     8.2108    -0.0192     2.2787   102.4657    23.9790    26.7345     0.2361
  455.5000     8.2105    -0.0194     2.3058   103.0583    25.8442    27.8698     0.2189
  456.0000     8.2254    -0.0165     2.3133   103.3503    27.0948    28.4534     0.2065
  456.5000     8.2250    -0.0167     2.3102   103.0405    27.8559    29.0452     0.2077
