~VERSION INFORMATION
 VERS.                2.0:   CWLS LOG ASCII STANDARD - VERSION 2.0
 WRAP.                 NO:   ONE LINE PER DEPTH STEP
~WELL INFORMATION
#MNEM.UNIT      DATA TYPE    INFORMATION
#----------   ------------   ------------------------------
 STRT.F           46.0000:   START DEPTH
 STOP.F         2100.0000:   STOP DEPTH
 STEP.F            0.5000:   STEP LENGTH
 NULL.          -999.2500:   NO VALUE
 COMP. LAWRENCE/ALLISON INC:   COMPANY
 WELL.    58-21 SX #10-10:   WELL
 FLD .             TEAPOT:   FIELD
 LOC .      S10 T38N R78W:   LOCATION
 CNTY.            NATRONA:   COUNTY
 STAT.            WYOMING:   STATE
 CTRY. UNITED STATES OF AMERICA:   COUNTRY
 SRVC.           Gearhart:   SERVICE COMPANY
 DATE.        06-JUL-1987:   LOGDATE
 API .       490251114400:   API NUMBER
~CURVE INFORMATION
#MNEM.UNIT       API CODE    CURVE DESCRIPTION
#----------   ------------   ------------------------------
 DEPT.F                  :   
 GR  .GAPI   81 310 01 00:   GAMMA RAY
 TGAS.UNITS  91 830 01 00:   TOTAL GAS FROM HOTWIRE
 ROP .MIN/FT 91 810 01 00:   RAT OF DRILLING PENETRATION
~PARAMETER INFORMATION
#MNEM.UNIT          VALUE    DESCRIPTION
#----------   ------------   ------------------------------
 PD  .                 GL:   PERMANENT DATUM
 EPD .F              5219:   ELEVATION PERMANENT DATUM
 LMF .                 KB:   LOG MEASURED FROM
 DAPD.F                 8:   FEET ABOVE PERMANENT DATUM
 DMF .                 KB:   DRILLING MEASURED FROM
 EKB .F              5227:   KELLING BUSHING
 EDF .F              5225:   DRILLING FLOOR
 EGL .F              5219:   GROUND LEVEL
 DATE.             7-6-87:   RUN DATE
 RUN .                  1:   RUN NUMBER
 DD  .F               610:   DEPTH DRILLER
 DL  .F             531.5:   DEPTH LOGGER
 BLI .F               526:   BOTTOM LOG INTERVAL
 TLI .F                50:   TOP LOG INTERVAL
 BS  .IN            7.875:   BIT SIZE
 BSD .F               610:   BIT SIZE AT DEPTH
 DFT .              WATER:   DRILLING FLUID TYPE
 LUN .               6084:   LOGGING UNIT NUMBER
 LUL .           GILLETTE:   LOGGING UNIT LOCATION
 ENGI.                COX:   RECORDING ENGINEER
 WITN.               LOWE:   WITNESSED BY
 CLNT.            A2DTECH:   CLIENT CODE
 ORIG.           5" PRINT:   ORIGIN OF DATA
 UWI .       490251114400:   UNIQUE WELL ID
 DICO. A2D Technologies, Inc.:   DIGITIZING COMPANY
~OTHER INFORMATION
~A   DEPT        GR      TGAS        ROP   
# ...
 1775.0000  -999.2500    46.3788     0.5735
 1775.5000  -999.2500    46.3788     0.5743
 1776.0000  -999.2500    46.3788     0.5751
 1776.5000  -999.2500    46.3788     0.5759
 1777.0000  -999.2500    46.3787     0.5767
 1777.5000  -999.2500    46.3794     0.5775
 1778.0000  -999.2500    46.4206     0.5782
 1778.5000  -999.2500    46.5472     0.5790
 1779.0000  -999.2500    46.6724     0.5798
 1779.5000  -999.2500    46.7976     0.5806
 1780.0000  -999.2500    46.9228     0.5814
 1780.5000  -999.2500    47.0481     0.5821
 1781.0000  -999.2500    47.1733     0.5829
 1781.5000  -999.2500    47.2985     0.5837
 1782.0000  -999.2500    47.4237     0.5845
 1782.5000  -999.2500    47.5490     0.5853
 1783.0000  -999.2500    47.6742     0.5860
 1783.5000  -999.2500    47.7994     0.5868
 1784.0000  -999.2500    47.9246     0.5876
 1784.5000  -999.2500    48.0499     0.5884
 1785.0000  -999.2500    48.1751     0.5892
 1785.5000  -999.2500    48.3003     0.5899
 1786.0000  -999.2500    48.4255     0.5907
 1786.5000  -999.2500    48.5507     0.5915
 1787.0000  -999.2500    48.6760     0.5923
 1787.5000  -999.2500    48.8012     0.5931
 1788.0000  -999.2500    48.9264     0.5938
 1788.5000  -999.2500    49.0518     0.5938
 1789.0000  -999.2500    49.1772     0.5936
 1789.5000  -999.2500    49.3001     0.5932
 1790.0000  -999.2500    49.3420     0.5927
 1790.5000  -999.2500    49.1866     0.5923
 1791.0000  -999.2500    49.0351     0.5919
 1791.5000  -999.2500    48.8832     0.5914
 1792.0000  -999.2500    48.7314     0.5910
 1792.5000  -999.2500    48.5796     0.5906
 1793.0000  -999.2500    48.4279     0.5901
 1793.5000  -999.2500    48.2761     0.5897
 1794.0000  -999.2500    48.1243     0.5892
 1794.5000  -999.2500    47.9725     0.5888
 1795.0000  -999.2500    47.8207     0.5884
 1795.5000  -999.2500    47.6685     0.5879
 1796.0000  -999.2500    47.5168     0.5875
 1796.5000  -999.2500    47.3754     0.5871
 1797.0000  -999.2500    47.3588     0.5866
 1797.5000  -999.2500    47.3393     0.5862
 1798.0000  -999.2500    47.3193     0.5857
 1798.5000  -999.2500    47.2992     0.5853
 1799.0000  -999.2500    47.2791     0.5849
 1799.5000  -999.2500    47.2591     0.5844
 1800.0000  -999.2500    47.2390     0.5840
 1800.5000  -999.2500    47.2189     0.5836
 1801.0000  -999.2500    47.1989     0.5831
 1801.5000  -999.2500    47.1788     0.5827
 1802.0000  -999.2500    47.1588     0.5823
 1802.5000  -999.2500    47.1387     0.5817
 1803.0000  -999.2500    47.1186     0.5806
 1803.5000  -999.2500    47.0986     0.5933
 1804.0000  -999.2500    47.0785     0.6308
 1804.5000  -999.2500    47.0584     0.6822
 1805.0000  -999.2500    47.0384     0.7344
 1805.5000  -999.2500    47.0183     0.7869
 1806.0000  -999.2500    46.9982     0.8409
 1806.5000  -999.2500    46.9782     0.8450
 1807.0000  -999.2500    46.9581     0.8479
 1807.5000  -999.2500    46.9380     0.8509
 1808.0000  -999.2500    46.9177     0.8541
 1808.5000  -999.2500    46.8975     0.8572
 1809.0000  -999.2500    46.8962     0.8603
 1809.5000  -999.2500    47.0367     0.8634
 1810.0000  -999.2500    47.1742     0.8665
 1810.5000  -999.2500    47.3194     0.8688
 1811.0000  -999.2500    46.2005     0.8687
 1811.5000  -999.2500    43.9453     0.8687
 1812.0000  -999.2500    41.6882     0.8687
 1812.5000  -999.2500    39.4283     0.8687
 1813.0000  -999.2500    37.1698     0.8687
 1813.5000  -999.2500    34.9100     0.8687
 1814.0000  -999.2500    32.6637     0.8687
 1814.5000  -999.2500    30.4082     0.8687
 1815.0000  -999.2500    29.1139     0.8687
 1815.5000  -999.2500    27.7074     0.8687
 1816.0000  -999.2500    26.7822     0.8687
 1816.5000  -999.2500    25.8962     0.8687
 1817.0000  -999.2500    25.0067     0.8687
 1817.5000  -999.2500    24.1184     0.8687
 1818.0000  -999.2500    23.2241     0.8687
 1818.5000  -999.2500    22.6969     0.8687
 1819.0000  -999.2500    22.4636     0.8687
 1819.5000  -999.2500    22.3512     0.8687
 1820.0000  -999.2500    21.6540     0.8687
 1820.5000  -999.2500    21.2701     0.8687
 1821.0000  -999.2500    21.1693     0.8687
 1821.5000  -999.2500    21.0912     0.8687
 1822.0000  -999.2500    21.0128     0.8687
 1822.5000  -999.2500    20.9335     0.8687
 1823.0000  -999.2500    20.8543     0.8687
 1823.5000  -999.2500    20.7750     0.8687
 1824.0000  -999.2500    20.6958     0.8687
 1824.5000  -999.2500    20.6166     0.8688
 1825.0000  -999.2500    20.5373     0.8694
 1825.5000  -999.2500    20.4581     0.8701
 1826.0000  -999.2500    20.3788     0.8708
 1826.5000  -999.2500    20.2996     0.8714
 1827.0000  -999.2500    20.2203     0.8720
 1827.5000  -999.2500    20.1411     0.8727
 1828.0000  -999.2500    20.0618     0.8733
 1828.5000  -999.2500    19.9826     0.8740
 1829.0000  -999.2500    19.9030     0.8746
 1829.5000  -999.2500    19.8200     0.8753
 1830.0000  -999.2500    19.8758     0.8759
 1830.5000  -999.2500    19.9681     0.8766
 1831.0000  -999.2500    20.0614     0.8772
 1831.5000  -999.2500    20.1544     0.8778
 1832.0000  -999.2500    20.2474     0.8785
 1832.5000  -999.2500    20.3403     0.8791
 1833.0000  -999.2500    20.4332     0.8798
 1833.5000  -999.2500    20.5262     0.8804
 1834.0000  -999.2500    20.6184     0.8811
 1834.5000  -999.2500    20.7100     0.8817
 1835.0000  -999.2500    20.8198     0.8824
 1835.5000  -999.2500    21.1842     0.8830
 1836.0000  -999.2500    21.3138     0.8836
 1836.5000  -999.2500    21.5060     0.8843
 1837.0000  -999.2500    21.7530     0.8849
 1837.5000  -999.2500    21.7584     0.8856
 1838.0000  -999.2500    23.8036     0.8862
 1838.5000  -999.2500    26.4503     0.8869
 1839.0000  -999.2500    29.1053     0.8875
 1839.5000  -999.2500    31.7550     0.8881
 1840.0000  -999.2500    34.4043     0.8888
 1840.5000  -999.2500    37.0565     0.8894
 1841.0000  -999.2500    39.7024     0.8901
 1841.5000  -999.2500    42.1414     0.8907
 1842.0000  -999.2500    43.4188     0.8914
 1842.5000  -999.2500    44.7240     0.8920
 1843.0000  -999.2500    46.0362     0.8926
 1843.5000  -999.2500    47.3667     0.8934
 1844.0000  -999.2500    48.4111     0.9070
 1844.5000  -999.2500    48.4148     0.9444
 1845.0000  -999.2500    47.5399     0.9791
 1845.5000  -999.2500    46.6822     1.0139
 1846.0000  -999.2500    46.1834     1.0309
 1846.5000  -999.2500    45.6801     1.0312
 1847.0000  -999.2500    45.1785     1.0313
 1847.5000  -999.2500    44.6766     1.0312
 1848.0000  -999.2500    44.1747     1.0313
 1848.5000  -999.2500    43.6728     1.0313
 1849.0000  -999.2500    43.1709     1.0311
 1849.5000  -999.2500    42.6690     1.0256
 1850.0000  -999.2500    42.1671     1.0085
 1850.5000  -999.2500    41.6652     0.9417
 1851.0000  -999.2500    41.1633     0.8527
 1851.5000  -999.2500    40.6613     0.7622
 1852.0000  -999.2500    40.1594     0.6726
 1852.5000  -999.2500    39.6588     0.6660
 1853.0000  -999.2500    39.2434     0.6628
 1853.5000  -999.2500    38.9627     0.6594
 1854.0000  -999.2500    38.6801     0.6562
 1854.5000  -999.2500    38.3979     0.6562
 1855.0000  -999.2500    38.1156     0.6565
 1855.5000  -999.2500    37.8332     0.6571
 1856.0000  -999.2500    37.5509     0.6577
 1856.5000  -999.2500    37.2686     0.6583
 1857.0000  -999.2500    36.9863     0.6589
 1857.5000  -999.2500    36.7040     0.6595
 1858.0000  -999.2500    36.4217     0.6600
 1858.5000  -999.2500    36.1394     0.6606
 1859.0000  -999.2500    35.8570     0.6612
 1859.5000  -999.2500    35.5746     0.6618
 1860.0000  -999.2500    35.2926     0.6624
 1860.5000  -999.2500    35.0113     0.6630
 1861.0000  -999.2500    34.8206     0.6636
 1861.5000  -999.2500    34.6940     0.6641
 1862.0000  -999.2500    34.5676     0.6647
 1862.5000  -999.2500    34.4426     0.6653
 1863.0000  -999.2500    34.3426     0.6659
 1863.5000  -999.2500    34.3417     0.6665
 1864.0000  -999.2500    34.4742     0.6671
 1864.5000  -999.2500    34.6352     0.6676
 1865.0000  -999.2500    34.8116     0.6682
 1865.5000  -999.2500    35.3639     0.6688
