~VERSION INFORMATION
 VERS.                2.0:   CWLS LOG ASCII STANDARD - VERSION 2.0
 WRAP.                 NO:   ONE LINE PER DEPTH STEP
~WELL INFORMATION
#MNEM.UNIT      DATA TYPE    INFORMATION
#----------   ------------   ------------------------------
 STRT.F           42.0000:   START DEPTH
 STOP.F          612.0000:   STOP DEPTH
 STEP.F            0.5000:   STEP LENGTH
 NULL.          -999.2500:   NO VALUE
 COMP. FENIX AND SCISSON INCORPORATED:   COMPANY
 WELL. RES 3 TEAPOT DOM #25SX11-11:   WELL
 FLD .             TEAPOT:   FIELD
 LOC .      S11 T38N R78W:   LOCATION
 CNTY.            NATRONA:   COUNTY
 STAT.            WYOMING:   STATE
 CTRY. UNITED STATES OF AMERICA:   COUNTRY
 SRVC.            Unknown:   SERVICE COMPANY
 DATE.        16-FEB-1978:   LOGDATE
 API .       490251058000:   API NUMBER
~CURVE INFORMATION
#MNEM.UNIT       API CODE    CURVE DESCRIPTION
#----------   ------------   ------------------------------
 DEPT.F                  :   
 ILD .OHMM   05 120 46 00:   INDUCTION LOG DEEP
 SN  .OHMM   05 040 16 00:   SHORT NORMAL 16"
 SPR .MV     05 010 01 00:   SPONTANEOUS POTENTIAL FROM RES.
 CALD.IN     45 280 60 00:   CALIPER FROM DENSITY LOG
 CORR.G/C3   45 356 01 00:   DENSITY CORRECTION
 DPHI.DEC    45 890 12 00:   DENSITY POROSITY SANDSTONE
 GRD .GAPI   45 310 01 00:   GAMMA RAY FROM DENSITY LOG
 RHOB.G/C3   45 350 01 00:   BULK DENSITY
~PARAMETER INFORMATION
#MNEM.UNIT          VALUE    DESCRIPTION
#----------   ------------   ------------------------------
 PD  .                 GL:   PERMANENT DATUM
 EPD .F              5167:   ELEVATION PERMANENT DATUM
 LMF .                 KB:   LOG MEASURED FROM
 DAPD.F                 3:   FEET ABOVE PERMANENT DATUM
 DMF .                 KB:   DRILLING MEASURED FROM
 EKB .F              5170:   KELLING BUSHING
 EGL .F              5167:   GROUND LEVEL
 DATE.        16-FEB-1978:   RUN DATE
 RUN .                  1:   RUN NUMBER
 DD  .F               610:   DEPTH DRILLER
 DL  .F               615:   DEPTH LOGGER
 BLI .F               610:   BOTTOM LOG INTERVAL
 TLI .F                40:   TOP LOG INTERVAL
 CS  .IN            8.625:   CASING SIZE
 CBD .F                40:   CASING BOTTOM DRILLER
 CBL .F                40:   CASING BOTTOM LOGGER
 BS  .IN            7.875:   BIT SIZE
 BSD .F               610:   BIT SIZE AT DEPTH
 DFT .        LIGNO/ SULF:   DRILLING FLUID TYPE
 DFD .                8.7:   DRILLING FLUID DENSITY
 DFV .                 30:   DRILLING FLUID VISCOSITY
 DFPH.                 10:   DRILLING FLUID PH
 DFL .                4.6:   DRILLING FLUID LOSS
 MSS .           FLOWLINE:   MUD SAMPLE SOURCE
 RMS .OHMM            1.7:   RESISTIVITY MUD SAMPLE
 MST .F                69:   MUD SAMPLE TEMPERATURE
 RMF .OHMM            1.5:   RESISTIVITY MUD FILTRATE SAMPLE
 MFST.F                70:   MUD FILTRATE SAMPLE TEMPERATURE
 RMC .OHMM            2.5:   RESISTIVITY MUD CAKE
 MCST.F                70:   MUD CAKE SAMPLE TEMPERATURE
 MFSS.               MEAS:   MUD FILTRATE SAMPLE SOURCE
 RMB .OHMM            1.6:   RESISTIVITY MUD AT BHT
 BHT .F                70:   BOTTOM HOLE TEMPERATURE
 TCS .HRS               3:   TIME CURCULATED STOPPED
 MRT .F                70:   MAXIMUM RECORDED TEMPERATURE
 LUN .               2958:   LOGGING UNIT NUMBER
 LUL .             CASPER:   LOGGING UNIT LOCATION
 ENGI.            POINTER:   RECORDING ENGINEER
 WITN.           MCGINLEY:   WITNESSED BY
 CLNT.            A2DTECH:   CLIENT CODE
 ORIG.           5" PRINT:   ORIGIN OF DATA
 UWI .       490251058000:   UNIQUE WELL ID
 DICO. A2D Technologies, Inc.:   DIGITIZING COMPANY
~OTHER INFORMATION
~A   DEPT      ILD         SN         SPR      CALD       CORR       DPHI        GRD       RHOB   
# ...
  366.0000     4.9689     6.0038    -9.6364     7.9613     0.0281     0.1091   106.3708     2.4874
  366.5000     5.4320     6.2130    -9.6454     7.9608     0.0265     0.1038   105.6123     2.4866
  367.0000     5.7382     6.4295    -9.6528     7.9755     0.0264     0.1011   103.6019     2.4881
  367.5000     5.9779     6.6629    -9.8116     7.9599     0.0263     0.0993   102.1334     2.4895
  368.0000     6.3149     7.0560   -10.2734     7.9444     0.0262     0.0996   101.9793     2.4895
  368.5000     6.5332     7.5842   -10.4323     7.9289     0.0261     0.1041   103.7838     2.4902
  369.0000     6.6658     7.6866   -10.7426     7.9284     0.0259     0.1093   108.4552     2.4894
  369.5000     6.7541     7.7374   -10.7500     7.9279     0.0258     0.1108   103.7751     2.4809
  370.0000     6.8912     7.7329   -10.4542     7.9426     0.0272     0.1126    99.6983     2.4727
  370.5000     6.8849     7.6757   -10.3100     7.9421     0.0302     0.1135    98.9398     2.4697
  371.0000     6.9290     7.7264   -10.1658     7.9417     0.0315     0.1126   102.2526     2.4689
  371.5000     6.8747     7.7219   -10.1749     7.9412     0.0299     0.1096   101.3433     2.4726
  372.0000     6.7748     7.7168   -10.0289     7.9407     0.0298     0.1082    99.0776     2.4748
  372.5000     6.7698     7.6080    -9.8864     7.9403     0.0282     0.1076   102.3904     2.4762
  373.0000     6.7648     7.5510    -9.8939     7.9550     0.0311     0.1073   104.6485     2.4762
  373.5000     6.8070     7.2898    -9.7496     7.9697     0.0310     0.1076   106.0016     2.4746
  374.0000     6.8007     7.1361    -9.9102     7.9843     0.0309     0.1098   105.3928     2.4731
  374.5000     6.6555     7.0833    -9.9175     7.9838     0.0308     0.1143   105.5393     2.4730
  375.0000     6.5134     7.1302    -9.9249     7.9985     0.0322     0.1173   107.9482     2.4684
  375.5000     6.3303     7.1260    -9.9322     7.9980     0.0366     0.1203   108.0957     2.4639
  376.0000     6.1523     7.0243    -9.9395     7.9975     0.0394     0.1224   106.8836     2.4607
  376.5000     5.9793     6.9241    -9.9470     7.9820     0.0438     0.1279   107.1809     2.4600
  377.0000     5.8073     6.7737    -9.9559     7.9211     0.0482     0.1318   108.6245     2.4547
  377.5000     5.4920     6.4976    -9.9632     7.4071     0.0541     0.1355   113.9585     2.4509
  378.0000     5.3006     6.2294   -10.1220     7.1952     0.0585     0.1345   114.2568     2.4336
  378.5000     5.1874     6.0981   -10.4324     7.3608     0.0554     0.1210   112.8939     2.4418
  379.0000     5.1836     6.0111   -10.5912     7.5265     0.0478     0.1120   109.4205     2.4542
  379.5000     5.1798     5.9261   -11.0531     7.6620     0.0462     0.1099   109.1145     2.4657
  380.0000     5.2120     5.9645   -11.0404     7.7371     0.0491     0.1105   108.8084     2.4679
  380.5000     5.2812     6.0027   -10.6131     7.7820     0.0595     0.1160   106.2022     2.4326
  381.0000     5.3510     6.1261   -10.4689     7.7967     0.0794     0.1214   102.3141     2.4475
  381.5000     5.5735     6.3885   -10.7811     7.8265     0.1072     0.1208   105.6269     2.4505
  382.0000     5.8064     6.8548   -11.0914     7.8411     0.1205     0.1082   107.5833     2.4612
  382.5000     6.2195     7.4816   -11.7048     7.8406     0.1279     0.0884   107.4281     2.4947
  383.0000     6.6158     7.6896   -11.8636     7.8401     0.1233     0.0899   106.5187     2.5037
  383.5000     6.8445     7.7396   -11.5439     7.8397     0.1097     0.0966   106.0618     2.5066
  384.0000     6.9836     7.6814   -11.1207     7.8242     0.0728     0.1146   105.9067     2.5073
  384.5000     6.9782     7.7852   -10.6734     7.8086     0.0362     0.1149   110.2753     2.4637
  385.0000     6.9719     7.8913   -10.9856     7.8082     0.0406     0.1122   109.9693     2.4723
  385.5000     6.9668     7.9970   -10.9929     7.7925     0.0285     0.1020   109.5124     2.4936
  386.0000     6.9616     8.1050   -10.6970     7.7921     0.0290     0.0924   109.2064     2.4936
  386.5000     6.9565     8.1010   -10.5530     7.7917     0.0275     0.0888   109.0512     2.4988
  387.0000     6.9513     8.0964   -10.5621     7.7982     0.0274     0.0819   108.7149     2.5123
  387.5000     6.9462     8.0925   -10.5694     7.8113     0.0258     0.0745   106.3265     2.5145
  388.0000     6.9410     8.0887   -10.4234     7.8357     0.0213     0.0724   100.5906     2.5305
  388.5000     6.9347     8.0849   -10.5840     7.8351     0.0152     0.0919   100.1338     2.5068
  389.0000     6.9295     8.0810   -10.8944     7.8347     0.0136     0.1124   100.5819     2.4963
  389.5000     6.9244     8.0772   -11.2047     7.8343     0.0135     0.1160   103.4433     2.4925
  390.0000     6.9193     8.0734   -11.5253     7.8577     0.0120     0.1157   108.7179     2.4676
  390.5000     6.9142     7.9032   -11.8272     7.8942     0.0134     0.1145   115.6365     2.4691
  391.0000     6.9091     7.8403   -11.8345     7.9235     0.0133     0.1103   117.9098     2.4736
  391.5000     6.8562     7.7319   -11.9933     7.9382     0.0147     0.1059   116.8486     2.4780
  392.0000     6.8510     7.7831   -12.1521     7.9566     0.0251     0.1032   113.5260     2.4802
  392.5000     6.8448     7.8336   -12.3110     7.9708     0.0356     0.1020   108.3934     2.4809
  393.0000     6.8887     7.8290   -12.1668     7.9823     0.0355     0.1050   107.7707     2.4801
  393.5000     6.9316     7.8253   -12.0226     7.9817     0.0354     0.1080   109.7648     2.4778
  394.0000     6.9748     7.8770   -11.8783     7.9813     0.0368     0.1176   111.5466     2.4754
  394.5000     6.8722     7.8179   -11.8875     7.9656     0.0397     0.1285   111.6942     2.4701
  395.0000     6.7255     7.7063   -11.7414     7.9501     0.0486     0.1294   111.0854     2.4603
  395.5000     6.2997     7.5417   -11.2960     7.9497     0.0561     0.1246   111.5336     2.4543
  396.0000     5.8030     7.4286   -11.1518     7.9342     0.0620     0.1177   112.4353     2.4490
  396.5000     5.6398     7.1782   -10.8561     8.0847     0.0488     0.1117   110.6199     2.4602
  397.0000     5.6750     6.8819   -11.0152     7.8408     0.0349     0.1081   110.9172     2.4646
  397.5000     5.6708     6.5979   -11.4786     7.7061     0.0378     0.1088   110.4592     2.4721
  398.0000     5.7071     6.3696   -11.4859     7.7208     0.0392     0.1157   109.0974     2.4578
  398.5000     5.6624     6.1493   -11.4932     7.7506     0.0407     0.1250   108.7924     2.4630
  399.0000     5.5392     6.0616   -11.6521     7.7803     0.0436     0.1374   111.6528     2.4569
  399.5000     5.3104     6.2295   -11.6594     7.8101     0.0525     0.1521   111.1959     2.4185
  400.0000     5.1620     6.8141   -11.5152     7.8399     0.0479     0.1524   106.5158     2.3959
  400.5000     5.1212     6.8582   -11.3794     7.8697     0.0613     0.1471   105.1540     2.3869
  401.0000     4.9768     6.4820   -11.8485     7.8843     0.0418     0.1345   106.2044     2.4116
  401.5000     4.9384     6.1276   -12.1661     7.8838     0.0327     0.1204   105.7475     2.4424
  402.0000     4.9344     5.8735   -10.5140     7.8682     0.0341     0.1056   107.5531     2.4604
  402.5000     4.9648     5.6692   -10.9867     7.8678     0.0370     0.0985   108.9062     2.4739
  403.0000     4.9607     5.6645   -11.6073     7.8674     0.0370     0.0934   108.9171     2.4851
  403.5000     4.9557     5.6607   -11.9249     7.8669     0.0369     0.0952   108.5882     2.4994
  404.0000     4.9873     6.0218   -12.0910     7.8639     0.0353     0.0946   108.8920     2.5008
  404.5000     5.1583     6.6786   -12.2576     7.8632     0.0338     0.0953   115.2225     2.4993
  405.0000     5.6022     7.0554   -12.7298     7.8778     0.0337     0.0992   114.1315     2.4962
  405.5000     6.2556     7.2495   -12.8959     7.8768     0.0336     0.1034   112.0126     2.4947
  406.0000     6.7469     7.2950   -13.5165     7.8761     0.0350     0.1031   103.2572     2.4962
