~VERSION INFORMATION
 VERS.                2.0:   CWLS LOG ASCII STANDARD - VERSION 2.0
 WRAP.                 NO:   ONE LINE PER DEPTH STEP
~WELL INFORMATION
#MNEM.UNIT      DATA TYPE    INFORMATION
#----------   ------------   ------------------------------
 STRT.F           20.0000:   START DEPTH
 STOP.F          964.0000:   STOP DEPTH
 STEP.F            0.5000:   STEP LENGTH
 NULL.          -999.2500:   NO VALUE
 COMP. FENIX & SCISSON INC:   COMPANY
 WELL.    NPR-3 SX #58-11:   WELL
 FLD .             TEAPOT:   FIELD
 LOC .      S11 T38N R78W:   LOCATION
 CNTY.            NATRONA:   COUNTY
 STAT.            WYOMING:   STATE
 CTRY. UNITED STATES OF AMERICA:   COUNTRY
 SRVC.            Unknown:   SERVICE COMPANY
 DATE.        09-MAR-1978:   LOGDATE
 API .       490251060100:   API NUMBER
~CURVE INFORMATION
#MNEM.UNIT       API CODE    CURVE DESCRIPTION
#----------   ------------   ------------------------------
 DEPT.F                  :   
 SPR .MV     05 010 01 00:   SPONTANEOUS POTENTIAL FROM RES.
 SN  .OHMM   05 040 16 00:   SHORT NORMAL 16"
 ILD .OHMM   05 120 46 00:   INDUCTION LOG DEEP
 CALD.IN     45 280 60 00:   CALIPER
 GRD .GAPI   45 310 01 00:   GAMMA RAY FROM DENSITY LOG
 CORR.G/C3   45 356 01 00:   DENSITY CORRECTION
 RHOB.G/C3   45 350 01 00:   BULK DENSITY
 DPHI.DEC    45 890 12 00:   DENSITY POROSITY SANDSTONE
~PARAMETER INFORMATION
#MNEM.UNIT          VALUE    DESCRIPTION
#----------   ------------   ------------------------------
 PD  .                 GL:   PERMANENT DATUM
 EPD .F              5219:   ELEVATION PERMANENT DATUM
 LMF .                 KB:   LOG MEASURED FROM
 DAPD.F                 4:   FEET ABOVE PERMANENT DATUM
 DMF .                 KB:   DRILLING MEASURED FROM
 EKB .F              5223:   KELLING BUSHING
 EGL .F              5219:   GROUND LEVEL
 DATE.           3-9-1978:   RUN DATE
 RUN .                  1:   RUN NUMBER
 DD  .F               963:   DEPTH DRILLER
 DL  .F               966:   DEPTH LOGGER
 BLI .F               960:   BOTTOM LOG INTERVAL
 TLI .F                80:   TOP LOG INTERVAL
 CS  .IN            8.625:   CASING SIZE
 CBD .F                40:   CASING BOTTOM DRILLER
 BS  .IN            7.875:   BIT SIZE
 BSD .F               963:   BIT SIZE AT DEPTH
 DFT .         LIGNO SULF:   DRILLING FLUID TYPE
 DFD .                8.6:   DRILLING FLUID DENSITY
 DFV .                 30:   DRILLING FLUID VISCOSITY
 DFPH.               10.5:   DRILLING FLUID PH
 DFL .                4.8:   DRILLING FLUID LOSS
 MSS .          FLOW LINE:   MUD SAMPLE SOURCE
 RMS .OHMM            1.7:   RESISTIVITY MUD SAMPLE
 MST .F                60:   MUD SAMPLE TEMPERATURE
 RMF .OHMM            1.5:   RESISTIVITY MUD FILTRATE SAMPLE
 MFST.F                74:   MUD FILTRATE SAMPLE TEMPERATURE
 RMC .OHMM            2.8:   RESISTIVITY MUD CAKE
 MCST.F                68:   MUD CAKE SAMPLE TEMPERATURE
 MFSS.               MEAS:   MUD FILTRATE SAMPLE SOURCE
 MCSS.               MEAS:   MUD CAKE SAMPLE SOURCE
 RMB .OHMM           1.38:   RESISTIVITY MUD AT BHT
 BHT .F                74:   BOTTOM HOLE TEMPERATURE
 TCS .HRS               4:   TIME CURCULATED STOPPED
 MRT .F                74:   MAXIMUM RECORDED TEMPERATURE
 LUN .               2958:   LOGGING UNIT NUMBER
 LUL .               CASP:   LOGGING UNIT LOCATION
 ENGI.             MILLER:   RECORDING ENGINEER
 WITN.         HARRINGTON:   WITNESSED BY
 CLNT.            A2DTECH:   CLIENT CODE
 ORIG.      2" , 5" PRINT:   ORIGIN OF DATA
 UWI .       490251060100:   UNIQUE WELL ID
 DICO. A2D Technologies, Inc.:   DIGITIZING COMPANY
~OTHER INFORMATION
~A   DEPT      SPR         SN        ILD       CALD         GRD      CORR       RHOB       DPHI   
# ...
  870.5000   -28.2837    10.2456     9.4684     8.0663    63.4191     0.0160     2.4448     0.1283
  871.0000   -28.1556    10.2502     9.4502     8.0659    66.5926     0.0164     2.4466     0.1256
  871.5000   -28.0441    10.2549     9.4321     8.0654    69.3629     0.0168     2.4594     0.1230
  872.0000   -28.0435    10.2595     9.4141     8.0649    71.8967     0.0172     2.4616     0.1204
  872.5000   -28.0439    10.2641     9.3961     8.0644    68.9270     0.0177     2.4644     0.1187
  873.0000   -28.0439    10.2688     9.3781     8.0639    67.1752     0.0181     2.4672     0.1205
  873.5000   -28.0439    10.2734     9.3601     8.0634    66.8772     0.0185     2.4723     0.1222
  874.0000   -28.0434    10.2780     9.3421     8.0629    66.5173     0.0190     2.4658     0.1240
  874.5000   -28.0426    10.2828     9.3244     8.0625    65.8886     0.0194     2.4509     0.1255
  875.0000   -28.0470    10.2840     9.3064     8.0620    64.3507     0.0198     2.4500     0.1255
  875.5000   -28.1766    10.2840     9.2903     8.0614    63.8381     0.0203     2.4490     0.1255
  876.0000   -28.6883    10.2840     9.4003     8.0612    64.0435     0.0207     2.4489     0.1281
  876.5000   -29.1855    10.2847     9.5018     8.0604    64.1912     0.0209     2.4450     0.1315
  877.0000   -29.7012    10.2825     9.6043     8.0594    64.3356     0.0209     2.4388     0.1349
  877.5000   -29.7564    10.4314     9.7080     8.0459    64.4927     0.0206     2.4325     0.1382
  878.0000   -29.6435    10.6007     9.8127     8.0319    64.6402     0.0239     2.4259     0.1484
  878.5000   -29.5221    10.7728     9.9109     8.0175    64.7946     0.0322     2.4069     0.1605
  879.0000   -29.4641    10.9476     9.9647     8.0034    64.9269     0.0402     2.3876     0.1727
  879.5000   -30.1014    11.1643    10.0799     7.9890    64.9969     0.0407     2.3676     0.1793
  880.0000   -31.1216    11.3913    10.1895     7.9748    63.3874     0.0409     2.3606     0.1818
  880.5000   -32.6072    11.6229    10.6846     7.9608    60.4473     0.0407     2.3585     0.1843
  881.0000   -33.6072    12.2448    11.2899     7.9457    57.3438     0.0408     2.3535     0.1868
  881.5000   -34.0090    13.1196    11.9300     7.9421    54.0227     0.0408     2.3426     0.1892
  882.0000   -34.8419    13.4435    12.6066     7.9485    52.0984     0.0408     2.3363     0.1833
  882.5000   -36.2172    13.5432    13.1241     7.9537    54.7891     0.0408     2.3371     0.1931
  883.0000   -36.3658    14.2252    13.6259     7.9590    56.2496     0.0408     2.3372     0.1912
  883.5000   -36.2961    15.5166    14.1449     7.9645    55.7816     0.0408     2.3406     0.1883
  884.0000   -36.2433    16.0229    14.3416     7.9699    55.6637     0.0408     2.3452     0.1883
  884.5000   -36.6370    15.9167    14.3416     7.9752    55.5172     0.0408     2.3479     0.1829
  885.0000   -37.0066    15.8308    14.3416     7.9806    57.3223     0.0408     2.3582     0.1765
  885.5000   -36.7198    15.7296    14.3416     7.9860    57.7710     0.0407     2.3664     0.1765
  886.0000   -36.4148    15.7750    14.3416     7.9914    58.2441     0.0412     2.3607     0.1817
  886.5000   -36.3968    15.8309    14.3411     7.9968    58.4572     0.0425     2.3526     0.1870
  887.0000   -36.8123    15.8756    14.3425     8.0021    56.9081     0.0438     2.3433     0.1897
  887.5000   -37.2238    15.6261    14.1948     8.0076    55.5389     0.0452     2.3456     0.1865
  888.0000   -37.5875    15.4221    14.0507     8.0131    54.6296     0.0464     2.3512     0.1829
  888.5000   -36.8347    15.2996    13.9079     8.0175    55.9569     0.0478     2.3567     0.1781
  889.0000   -36.1764    15.2996    13.7663     8.0288    60.4202     0.0506     2.3625     0.1745
  889.5000   -35.9914    15.2996    13.6262     8.0442    59.0542     0.0563     2.3672     0.1737
  890.0000   -34.6728    14.9572    13.4871     8.0583    55.4359     0.0540     2.3711     0.1719
  890.5000   -34.8303    14.6090    13.3494     8.0724    52.2639     0.0519     2.3719     0.1674
  891.0000   -35.1047    14.6090    13.2749     8.0868    53.6556     0.0494     2.3748     0.1651
  891.5000   -35.3711    14.6090    13.1993     8.1010    56.0741     0.0472     2.3824     0.1628
  892.0000   -35.5548    14.3263    13.1241     8.1152    58.2520     0.0448     2.3896     0.1588
  892.5000   -34.8773    14.2097    13.0489     8.1294    59.8212     0.0425     2.3963     0.1585
  893.0000   -34.0074    14.2097    12.9741     8.1437    60.9389     0.0408     2.3966     0.1581
  893.5000   -33.3888    14.2097    12.8997     8.1579    60.6868     0.0408     2.3966     0.1577
  894.0000   -33.3060    14.2097    12.8162     8.1722    60.4814     0.0409     2.3966     0.1573
  894.5000   -33.4314    14.0575    12.6794     8.1864    60.2364     0.0395     2.3972     0.1532
  895.0000   -34.1215    13.7813    12.5440     8.2005    59.9979     0.0364     2.4038     0.1489
  895.5000   -33.9295    13.4418    12.4101     8.2150    59.7804     0.0335     2.4098     0.1506
  896.0000   -33.0252    13.4445    12.2775     8.2209    59.4932     0.0303     2.4045     0.1541
  896.5000   -32.2514    13.4426    12.1465     8.2212    59.4737     0.0292     2.3990     0.1588
  897.0000   -32.3449    13.4440    12.0328     8.2220    59.7204     0.0309     2.3964     0.1542
  897.5000   -32.4474    13.3549    11.9503     8.2229    59.8256     0.0323     2.4044     0.1469
  898.0000   -32.5469    13.2324    11.8616     8.2236    62.0112     0.0320     2.4116     0.1404
  898.5000   -32.6131    13.1110    11.7735     8.2244    65.2008     0.0284     2.4244     0.1340
  899.0000   -32.4352    12.9908    11.6861     8.2251    68.7415     0.0248     2.4458     0.1276
  899.5000   -32.2538    12.8716    11.5994     8.2259    69.1232     0.0213     2.4535     0.1245
  900.0000   -32.0734    12.6598    11.5133     8.2267    69.4796     0.0172     2.4419     0.1262
  900.5000   -31.8927    12.4858    11.3840     8.2274    69.5985     0.0165     2.4487     0.1226
  901.0000   -31.5524    12.3910    11.3998     8.2282    69.7283     0.0157     2.4616     0.1181
  901.5000   -31.1432    12.2852    11.4324     8.2290    68.7541     0.0152     2.4743     0.1135
  902.0000   -30.8077    12.1803    11.4652     8.2298    67.9963     0.0145     2.4871     0.1096
  902.5000   -30.7194    12.1445    11.4980     8.2305    66.2367     0.0139     2.4843     0.1126
  903.0000   -30.6254    12.1961    11.5309     8.2313    63.2823     0.0132     2.4772     0.1175
  903.5000   -30.5305    12.2375    11.5639     8.2321    60.3831     0.0135     2.4631     0.1289
  904.0000   -30.4420    12.2790    11.5963     8.2328    59.9127     0.0154     2.4367     0.1386
  904.5000   -30.4636    12.3207    11.5965     8.2336    60.2382     0.0172     2.4175     0.1525
  905.0000   -30.4889    12.3625    11.5958     8.2344    61.0723     0.0190     2.4076     0.1505
  905.5000   -30.5137    12.3710    11.5977     8.2352    60.9681     0.0208     2.4080     0.1469
  906.0000   -30.5384    12.1635    11.4526     8.2359    59.3782     0.0226     2.4136     0.1461
  906.5000   -30.5631    11.9923    11.2727     8.2367    58.4771     0.0244     2.4149     0.1499
  907.0000   -30.5878    11.8231    11.0957     8.2375    58.4368     0.0261     2.4085     0.1532
  907.5000   -30.6125    11.6564    10.9214     8.2382    58.2285     0.0282     2.4027     0.1560
  908.0000   -30.6372    11.4920    10.7499     8.2390    58.5516     0.0265     2.3981     0.1585
  908.5000   -30.6619    11.3720    10.6583     8.2398    59.3559     0.0212     2.3953     0.1612
  909.0000   -30.6866    11.2806    10.5613     8.2406    60.1566     0.0159     2.3945     0.1591
  909.5000   -30.7113    11.1899    10.3795     8.2413    60.5714     0.0130     2.3893     0.1535
  910.0000   -30.7360    11.0729    10.3537     8.2421    60.2997     0.0144     2.3993     0.1492
  910.5000   -30.7608    11.1000    10.3173     8.2429    60.0725     0.0153     2.4103     0.1460
