~VERSION INFORMATION
 VERS.                2.0:   CWLS LOG ASCII STANDARD - VERSION 2.0
 WRAP.                 NO:   ONE LINE PER DEPTH STEP
~WELL INFORMATION
#MNEM.UNIT      DATA TYPE    INFORMATION
#----------   ------------   ------------------------------
 STRT.F            0.0000:   START DEPTH
 STOP.F         2660.0000:   STOP DEPTH
 STEP.F            0.5000:   STEP LENGTH
 NULL.          -999.2500:   NO VALUE
 COMP. FENIX & SCISSON INC:   COMPANY
 WELL.     101-20 #101-20:   WELL
 FLD .        TEAPOT DOME:   FIELD
 LOC .      S20 T39N R78W:   LOCATION
 CNTY.            NATRONA:   COUNTY
 STAT.            WYOMING:   STATE
 CTRY. UNITED STATES OF AMERICA:   COUNTRY
 SRVC.      NL McCullough:   SERVICE COMPANY
 DATE.        19-SEP-1965:   LOGDATE
 API .       490251022100:   API NUMBER
~CURVE INFORMATION
#MNEM.UNIT       API CODE    CURVE DESCRIPTION
#----------   ------------   ------------------------------
 DEPT.F                  :   
 GR  .GAPI   30 310 01 00:   GAMMA RAY
 CALI.IN     30 280 01 00:   CALIPER
~PARAMETER INFORMATION
#MNEM.UNIT          VALUE    DESCRIPTION
#----------   ------------   ------------------------------
 PD  .                 GL:   PERMANENT DATUM
 LMF .                 GL:   LOG MEASURED FROM
 DMF .                 GL:   DRILLING MEASURED FROM
 DATE.          9-19-1965:   RUN DATE
 RUN .                  1:   RUN NUMBER
 DD  .F              2661:   DEPTH DRILLER
 DL  .F              2659:   DEPTH LOGGER
 BLI .F              2657:   BOTTOM LOG INTERVAL
 TLI .F              2000:   TOP LOG INTERVAL
 CS  .IN              6.5:   CASING SIZE
 CBD .F              2619:   CASING BOTTOM DRILLER
 BSD .F              2661:   BIT SIZE AT DEPTH
 DFT .              WATER:   DRILLING FLUID TYPE
 TCS .HRS               1:   TIME CURCULATED STOPPED
 ENGI.        FITZSIMMONS:   RECORDING ENGINEER
 WITN.          JORGENSEN:   WITNESSED BY
 CLNT.            A2DTECH:   CLIENT CODE
 ORIG.           5" PRINT:   ORIGIN OF DATA
 UWI .       490251022100:   UNIQUE WELL ID
 DICO. A2D Technologies, Inc.:   DIGITIZING COMPANY
~OTHER INFORMATION
~A    DEPT      GR         CALI 
# ...
 2187.0000    78.8201     6.4896
 2187.5000    81.6601     6.4908
 2188.0000    84.1634     6.4919
 2188.5000    86.5796     6.4931
 2189.0000    86.0461     6.4942
 2189.5000    87.8170     6.4954
 2190.0000    79.6001     6.4975
 2190.5000    75.4523     6.5023
 2191.0000    73.3028     6.5047
 2191.5000    71.5105     6.4931
 2192.0000    72.2840     6.4860
 2192.5000    73.3121     6.4857
 2193.0000    79.3742     6.4854
 2193.5000    87.9395     6.4850
 2194.0000    83.4874     6.4847
 2194.5000    79.3259     6.4843
 2195.0000    80.0442     6.4840
 2195.5000    82.7287     6.4836
 2196.0000    84.6318     6.4833
 2196.5000    84.1483     6.4829
 2197.0000    83.1344     6.4826
 2197.5000    77.8189     6.4822
 2198.0000    75.8959     6.4819
 2198.5000    74.2218     6.4815
 2199.0000    74.9812     6.4812
 2199.5000    77.7695     6.4808
 2200.0000    82.0660     6.4805
 2200.5000    80.8078     6.4801
 2201.0000    79.7950     6.4798
 2201.5000    81.3173     6.4794
 2202.0000    76.1209     6.4791
 2202.5000    76.2188     6.4787
 2203.0000    81.9000     6.4784
 2203.5000    81.7063     6.4780
 2204.0000    74.9717     6.4777
 2204.5000    79.2634     6.4773
 2205.0000    82.2731     6.4770
 2205.5000    88.6852     6.4766
 2206.0000    85.6109     6.4763
 2206.5000    79.4155     6.4772
 2207.0000    78.8118     6.4786
 2207.5000    79.0608     6.4800
 2208.0000    78.9521     6.4814
 2208.5000    80.5631     6.4828
 2209.0000    80.9369     6.4843
 2209.5000    75.7525     6.4856
 2210.0000    74.5708     6.4932
 2210.5000    73.6905     6.5044
 2211.0000    71.9304     6.5185
 2211.5000    64.3070     6.5335
 2212.0000    63.5942     6.5171
 2212.5000    62.2098     6.4955
 2213.0000    72.4074     6.4942
 2213.5000    70.0160     6.4926
 2214.0000    63.6429     6.4910
 2214.5000    58.0822     6.4893
 2215.0000    56.8815     6.4877
 2215.5000    56.3609     6.4860
 2216.0000    56.2564     6.4844
 2216.5000    52.9830     6.4827
 2217.0000    52.7016     6.4811
 2217.5000    54.1813     6.4794
 2218.0000    54.6009     6.4778
 2218.5000    52.2610     6.4762
 2219.0000    52.2682     6.4762
 2219.5000    52.4337     6.4762
 2220.0000    52.6390     6.4762
 2220.5000    49.7097     6.4762
 2221.0000    50.7120     6.4762
 2221.5000    48.9064     6.4762
 2222.0000    49.9246     6.4762
 2222.5000    50.7582     6.4762
 2223.0000    50.6077     6.4762
 2223.5000    49.9789     6.4762
 2224.0000    49.6553     6.4762
 2224.5000    44.0494     6.4762
 2225.0000    44.0390     6.4762
 2225.5000    50.6305     6.4762
 2226.0000    54.1644     6.4762
 2226.5000    51.8918     6.4762
 2227.0000    50.3948     6.4762
 2227.5000    41.7251     6.4762
 2228.0000    41.2141     6.4762
 2228.5000    44.5408     6.4762
 2229.0000    48.2546     6.4762
 2229.5000    48.9787     6.4762
 2230.0000    53.1104     6.4762
 2230.5000    50.1349     6.4762
 2231.0000    45.6598     6.4767
 2231.5000    48.1064     6.4807
 2232.0000    49.4625     6.4846
 2232.5000    45.9761     6.5001
 2233.0000    42.9641     6.5153
 2233.5000    46.4329     6.5090
 2234.0000    47.5820     6.5044
 2234.5000    46.1187     6.5008
 2235.0000    45.3018     6.4972
 2235.5000    45.2141     6.4936
 2236.0000    46.3480     6.4900
 2236.5000    47.9945     6.4864
 2237.0000    51.7372     6.4910
 2237.5000    55.1951     6.4962
 2238.0000    55.5099     6.5015
 2238.5000    54.1674     6.5062
 2239.0000    65.4128     6.5063
 2239.5000    71.7618     6.5063
 2240.0000    71.5299     6.5063
 2240.5000    70.9265     6.5063
 2241.0000    70.3381     6.5063
 2241.5000    68.2506     6.5063
 2242.0000    64.9555     6.5063
 2242.5000    58.5979     6.5063
 2243.0000    56.9457     6.5063
 2243.5000    59.6461     6.5063
 2244.0000    65.7407     6.5063
 2244.5000    68.1179     6.5063
 2245.0000    63.9371     6.5063
 2245.5000    61.1850     6.5063
 2246.0000    60.4175     6.5063
 2246.5000    60.1131     6.5063
 2247.0000    60.6086     6.5063
 2247.5000    60.3402     6.5063
 2248.0000    59.6390     6.5063
 2248.5000    66.5491     6.5063
 2249.0000    58.3369     6.5062
 2249.5000    56.3920     6.5085
 2250.0000    58.8355     6.5120
 2250.5000    59.9377     6.5155
 2251.0000    59.8815     6.5189
 2251.5000    62.8542     6.5224
 2252.0000    62.0951     6.5255
 2252.5000    68.4529     6.5403
 2253.0000    68.6690     6.5553
 2253.5000    70.9368     6.5312
 2254.0000    68.3213     6.5067
 2254.5000    64.4611     6.5061
 2255.0000    67.6134     6.5066
 2255.5000    72.2262     6.5071
 2256.0000    72.4065     6.5076
 2256.5000    63.0124     6.5080
 2257.0000    61.6352     6.5085
 2257.5000    60.3922     6.5089
 2258.0000    59.8248     6.5093
 2258.5000    62.2958     6.5098
 2259.0000    64.3449     6.5103
 2259.5000    64.2712     6.5107
 2260.0000    68.8393     6.5111
 2260.5000    70.4429     6.5116
 2261.0000    69.0067     6.5120
 2261.5000    63.4188     6.5125
 2262.0000    60.5722     6.5129
 2262.5000    67.3214     6.5134
 2263.0000    71.7863     6.5138
 2263.5000    75.2420     6.5143
 2264.0000    74.9511     6.5147
 2264.5000    68.1757     6.5152
 2265.0000    66.9253     6.5156
 2265.5000    68.2703     6.5161
 2266.0000    75.6797     6.5163
 2266.5000    75.4765     6.5163
 2267.0000    66.9170     6.5163
 2267.5000    66.2809     6.5163
 2268.0000    70.7310     6.5163
 2268.5000    67.1321     6.5163
 2269.0000    63.0466     6.5163
 2269.5000    60.3108     6.5163
 2270.0000    60.0899     6.5163
 2270.5000    56.1973     6.5163
 2271.0000    51.8444     6.5141
 2271.5000    52.7158     6.4984
 2272.0000    59.2430     6.4903
 2272.5000    55.7924     6.5131
 2273.0000    55.1102     6.5353
 2273.5000    52.9272     6.5365
 2274.0000    52.5906     6.5364
 2274.5000    57.1819     6.5363
 2275.0000    62.7509     6.5363
 2275.5000    62.9815     6.5363
 2276.0000    67.7156     6.5363
 2276.5000    65.1257     6.5364
 2277.0000    66.6065     6.5365
 2277.5000    68.9787     6.5357
 2278.0000    70.1055     6.5079
 2278.5000    65.5987     6.5216
 2279.0000    60.9418     6.5378
 2279.5000    49.2896     6.5417
 2280.0000    47.5053     6.5219
 2280.5000    49.5798     6.5072
 2281.0000    53.3983     6.5165
 2281.5000    57.4411     6.5252
 2282.0000    59.5942     6.5343
 2282.5000    60.2317     6.5346
 2283.0000    60.4981     6.5294
 2283.5000    62.1851     6.5310
 2284.0000    62.7306     6.5421
 2284.5000    58.4573     6.5531
 2285.0000    66.9168     6.5646
 2285.5000    66.2163     6.5572
 2286.0000    58.9317     6.5468
 2286.5000    58.4914     6.5509
 2287.0000    54.9323     6.5555
 2287.5000    58.3411     6.5581
 2288.0000    57.8943     6.5611
 2288.5000    58.4164     6.5640
 2289.0000    53.4052     6.5670
 2289.5000    54.9087     6.5699
 2290.0000    55.2811     6.5729
 2290.5000    61.0585     6.5759
 2291.0000    62.6928     6.5789
 2291.5000    60.3018     6.5819
 2292.0000    60.3598     6.5845
 2292.5000    63.0407     6.5705
 2293.0000    56.8071     6.5327
 2293.5000    54.9826     6.5059
 2294.0000    55.5354     6.5065
 2294.5000    67.2999     6.5067
 2295.0000    60.9049     6.5070
 2295.5000    58.4980     6.5073
 2296.0000    57.5882     6.5075
 2296.5000    57.6016     6.5078
 2297.0000    57.6154     6.5081
 2297.5000    56.7043     6.5083
 2298.0000    59.0507     6.5086
 2298.5000    58.3875     6.5089
 2299.0000    58.8460     6.5091
 2299.5000    57.8595     6.5094
 2300.0000    54.7503     6.5097
 2300.5000    59.7940     6.5099
 2301.0000    62.3144     6.5102
 2301.5000    64.2674     6.5105
 2302.0000    66.4461     6.5107
 2302.5000    66.0999     6.5110
 2303.0000    68.0606     6.5113
 2303.5000    65.0796     6.5115
 2304.0000    61.7957     6.5118
 2304.5000    63.4567     6.5121
 2305.0000    65.6609     6.5123
 2305.5000    57.1465     6.5126
 2306.0000    61.2256     6.5128
 2306.5000    68.1739     6.5131
 2307.0000    67.9490     6.5134
 2307.5000    67.3663     6.5136
 2308.0000    62.1418     6.5139
