~VERSION INFORMATION
 VERS.                2.0:   CWLS LOG ASCII STANDARD - VERSION 2.0
 WRAP.                 NO:   ONE LINE PER DEPTH STEP
~WELL INFORMATION
#MNEM.UNIT      DATA TYPE    INFORMATION
#----------   ------------   ------------------------------
 STRT.F           94.0000:   START DEPTH
 STOP.F          939.0000:   STOP DEPTH
 STEP.F            0.5000:   STEP LENGTH
 NULL.          -999.2500:   NO VALUE
 COMP. U S NAVY/INTEX OIL CO:   COMPANY
 WELL.    NPR #3 #88-S-27:   WELL
 FLD .             TEAPOT:   FIELD
 LOC .      S27 T39N R78W:   LOCATION
 CNTY.            NATRONA:   COUNTY
 STAT.            WYOMING:   STATE
 CTRY. UNITED STATES OF AMERICA:   COUNTRY
 SRVC.       Schlumberger:   SERVICE COMPANY
 DATE.        30-JUL-1963:   LOGDATE
 API .       490250658100:   API NUMBER
~CURVE INFORMATION
#MNEM.UNIT       API CODE    CURVE DESCRIPTION
#----------   ------------   ------------------------------
 DEPT.F                  :   
 SPR .MV     05 010 01 00:   SPONTANEOUS POTENTIAL FROM RES.
 CILD.MMHO   05 110 46 00:   CONDUCTIVITY INDUCTION LOG DEEP
 ASN .OHMM   05 041 16 00:   AMPLIFIED SHORT NORMAL 16"
 ILD .OHMM   05 120 46 00:   INDUCTION LOG DEEP
 GR  .GAPI   30 310 01 00:   GAMMA RAY
~PARAMETER INFORMATION
#MNEM.UNIT          VALUE    DESCRIPTION
#----------   ------------   ------------------------------
 PD  .                 GL:   PERMANENT DATUM
 EPD .F              5069:   ELEVATION PERMANENT DATUM
 LMF .                 KB:   LOG MEASURED FROM
 DAPD.F                 5:   FEET ABOVE PERMANENT DATUM
 DMF .                 KB:   DRILLING MEASURED FROM
 EKB .F              5074:   KELLING BUSHING
 EGL .F              5069:   GROUND LEVEL
 DATE.          7-30-1969:   RUN DATE
 RUN .                  1:   RUN NUMBER
 DD  .F               940:   DEPTH DRILLER
 DL  .F               940:   DEPTH LOGGER
 BLI .F               939:   BOTTOM LOG INTERVAL
 TLI .F                94:   TOP LOG INTERVAL
 CS  .IN            8.625:   CASING SIZE
 CBD .F                10:   CASING BOTTOM DRILLER
 BS  .IN             6.75:   BIT SIZE
 BSD .F               940:   BIT SIZE AT DEPTH
 DFT .            GEL/OIL:   DRILLING FLUID TYPE
 DFD .                9.6:   DRILLING FLUID DENSITY
 DFV .                 40:   DRILLING FLUID VISCOSITY
 DFPH.                  9:   DRILLING FLUID PH
 DFL .                  6:   DRILLING FLUID LOSS
 MSS .          FLOW LINE:   MUD SAMPLE SOURCE
 RMS .OHMM           2.94:   RESISTIVITY MUD SAMPLE
 MST .F                89:   MUD SAMPLE TEMPERATURE
 RMF .OHMM           2.19:   RESISTIVITY MUD FILTRATE SAMPLE
 MFST.F                87:   MUD FILTRATE SAMPLE TEMPERATURE
 MFSS.           MEASURED:   MUD FILTRATE SAMPLE SOURCE
 TCS .HRS               1:   TIME CURCULATED STOPPED
 LUN .               4507:   LOGGING UNIT NUMBER
 LUL .               CSPR:   LOGGING UNIT LOCATION
 ENGI.            WINKLER:   RECORDING ENGINEER
 WITN.          JORGENSEN:   WITNESSED BY
 CLNT.            A2DTECH:   CLIENT CODE
 ORIG.           5" PRINT:   ORIGIN OF DATA
 UWI .       490250658100:   UNIQUE WELL ID
 DICO. A2D Technologies, Inc.:   DIGITIZING COMPANY
~OTHER INFORMATION
~A   DEPT      SPR        CILD         ASN        ILD       GR   
# ...
  155.0000   -50.7789   149.3338     7.9931     6.8567  -999.2500
  155.5000   -50.8605   151.4119     7.8400     6.7830  -999.2500
  156.0000   -50.9417   152.6892     7.7118     6.7775  -999.2500
  156.5000   -51.0233   153.4128     7.6689     6.7392  -999.2500
  157.0000   -51.1051   154.1364     7.6706     6.7016  -999.2500
  157.5000   -50.9610   154.8600     7.6406     6.6641  -999.2500
  158.0000   -50.7753   155.5836     7.4770     6.6268  -999.2500
  158.5000   -50.7551   156.3073     7.3399     6.5916  -999.2500
  159.0000   -50.8371   157.0309     7.5003     6.4740  -999.2500
  159.5000   -50.9051   159.9979     7.6603     6.3439  -999.2500
  160.0000   -50.9039   164.1899     7.5101     6.2134  -999.2500
  160.5000   -50.9033   168.3819     7.2806     6.0831  -999.2500
  161.0000   -50.9061   172.5739     7.1255     5.9528  -999.2500
  161.5000   -50.7343   176.7659     6.9890     5.8220  -999.2500
  162.0000   -50.4733   180.9579     6.7846     5.6927  -999.2500
  162.5000   -50.2093   181.4070     6.6091     5.6781  -999.2500
  163.0000   -49.9449   181.2097     6.5441     5.6762  -999.2500
  163.5000   -49.7026   179.3678     6.4067     5.6719  -999.2500
  164.0000   -49.6965   177.4020     6.5673     5.7966  -999.2500
  164.5000   -49.7543   175.6456     6.8590     5.8673  -999.2500
  165.0000   -49.8354   173.7763     6.9561     5.9358  -999.2500
  165.5000   -49.9174   171.9002     7.0016     6.0033  -999.2500
  166.0000   -49.9994   170.0242     7.0414     6.0708  -999.2500
  166.5000   -50.0813   168.1481     6.9349     6.1379  -999.2500
  167.0000   -50.1633   167.3367     6.8187     6.1829  -999.2500
  167.5000   -50.2443   167.3367     6.7224     6.1205  -999.2500
  168.0000   -50.3018   169.3810     6.8050     6.0428  -999.2500
  168.5000   -50.2605   171.4606     7.0257     5.9758  -999.2500
  169.0000   -50.1274   173.5577     7.0208     5.8852  -999.2500
  169.5000   -49.9956   176.5396     6.9076     5.7797  -999.2500
  170.0000   -49.8636   180.1382     6.7944     5.6828  -999.2500
  170.5000   -49.7276   183.7261     6.6814     5.5849  -999.2500
  171.0000   -49.6991   187.3141     6.5685     5.4868  -999.2500
  171.5000   -49.6987   190.9020     6.4555     5.3885  -999.2500
  172.0000   -49.6976   191.4573     6.3426     5.2902  -999.2500
  172.5000   -49.6165   191.4573     6.2594     5.2757  -999.2500
  173.0000   -49.3847   191.4573     6.2439     5.3081  -999.2500
  173.5000   -49.1550   191.4573     6.1685     5.3552  -999.2500
  174.0000   -48.9237   191.4573     6.0967     5.4028  -999.2500
  174.5000   -48.6974   188.3216     6.3476     5.4503  -999.2500
  175.0000   -48.8940   185.4271     6.7126     5.4979  -999.2500
  175.5000   -49.1001   182.5327     6.8069     5.5448  -999.2500
  176.0000   -49.0993   179.3970     6.4950     5.5783  -999.2500
  176.5000   -49.1691   180.7374     6.4741     5.5629  -999.2500
  177.0000   -49.2414   182.6035     6.5780     5.5142  -999.2500
  177.5000   -49.2983   184.4697     6.5895     5.4657  -999.2500
  178.0000   -49.3009   186.4322     6.5300     5.4175  -999.2500
  178.5000   -49.3104   185.2312     6.4688     5.3822  -999.2500
  179.0000   -49.1026   183.9648     6.4430     5.4274  -999.2500
  179.5000   -49.0999   182.6985     6.4606     5.4718  -999.2500
  180.0000   -49.2040   182.6570     6.5123     5.5158  -999.2500
  180.5000   -49.4436   182.9736     6.5002     5.5602  -999.2500
  181.0000   -49.6812   183.2902     6.4452     5.5775  -999.2500
  181.5000   -49.8981   183.4171     6.5125     5.5775  -999.2500
  182.0000   -49.9063   182.3819     6.6962     5.5801  -999.2500
  182.5000   -49.7122   179.8492     6.6182     5.6443  -999.2500
  183.0000   -49.4986   177.3166     6.5443     5.7108  -999.2500
  183.5000   -49.2853   174.7839     6.6293     5.7772  -999.2500
  184.0000   -49.1023   172.2513     6.8354     5.8426  -999.2500
  184.5000   -49.2074   171.9899     6.9070     5.8584  -999.2500
  185.0000   -49.2991   175.7012     7.0551     5.7570  -999.2500
  185.5000   -49.2449   179.6125     7.2442     5.6588  -999.2500
  186.0000   -49.0727   183.5302     6.6167     5.5608  -999.2500
  186.5000   -48.9068   187.4373     6.2128     5.4626  -999.2500
  187.0000   -48.9077   189.4472     6.5935     5.3644  -999.2500
  187.5000   -48.7009   192.7136     6.7651     5.2769  -999.2500
  188.0000   -48.6978   197.4171     6.2440     5.2759  -999.2500
  188.5000   -48.6352   202.5126     6.1986     5.2763  -999.2500
  189.0000   -48.5575   202.5126     6.1996     5.2763  -999.2500
  189.5000   -48.4856   199.5546     6.1619     5.2763  -999.2500
  190.0000   -48.7783   196.3555     6.0495     5.2768  -999.2500
  190.5000   -49.1480   193.1563     6.2841     5.3063  -999.2500
  191.0000   -49.2990   189.9572     6.5473     5.3966  -999.2500
  191.5000   -49.1255   186.7580     6.6301     5.4860  -999.2500
  192.0000   -48.9086   183.5589     6.3454     5.5754  -999.2500
  192.5000   -48.7007   180.3597     6.1863     5.6648  -999.2500
  193.0000   -48.6933   177.4171     6.5357     5.7541  -999.2500
  193.5000   -48.6938   174.8844     6.6805     5.8442  -999.2500
  194.0000   -48.6984   173.3668     6.6840     5.8788  -999.2500
  194.5000   -48.7979   173.3668     6.7052     5.8795  -999.2500
  195.0000   -48.8996   173.3668     6.7591     5.8795  -999.2500
  195.5000   -49.0012   173.3668     6.8129     5.8794  -999.2500
  196.0000   -49.0947   173.3668     6.8635     5.8791  -999.2500
  196.5000   -49.0959   173.3668     6.8665     5.8599  -999.2500
  197.0000   -49.0388   175.6006     6.7960     5.8149  -999.2500
  197.5000   -48.9122   178.2434     6.7150     5.7703  -999.2500
  198.0000   -48.7867   180.8862     6.6335     5.7256  -999.2500
  198.5000   -48.6608   183.5289     6.5533     5.6809  -999.2500
  199.0000   -48.5350   185.4271     6.5189     5.6358  -999.2500
  199.5000   -48.4091   184.4221     6.4917     5.5915  -999.2500
  200.0000   -48.2833   184.4221     6.4637     5.6154  -999.2500
  200.5000   -48.1575   184.4221     6.4616     5.7632  -999.2500
  201.0000   -48.0316   184.4221     6.4628     5.7043  -999.2500
  201.5000   -47.9058   184.4221     6.5655     5.6202  -999.2500
  202.0000   -47.7799   184.4221     6.6807     5.6008  -999.2500
  202.5000   -47.6541   184.4221     6.7833     5.6462  -999.2500
  203.0000   -47.5277   183.7760     6.7628     5.6784  -999.2500
  203.5000   -47.4029   181.6224     6.7238     5.6775  -999.2500
  204.0000   -47.3029   178.0151     6.7536     5.7071  -999.2500
  204.5000   -47.1847   173.4386     6.8140     5.9787  -999.2500
  205.0000   -47.3912   166.9778     6.9598     6.2539  -999.2500
  205.5000   -47.5902   160.5160     7.1909     6.5281  -999.2500
  206.0000   -47.7912   154.0525     7.4266     6.8048  -999.2500
  206.5000   -47.9921   147.8335     7.9541     6.8848  -999.2500
  207.0000   -48.1927   143.8119     8.3168     7.1108  -999.2500
  207.5000   -48.3937   139.7990     8.0311     7.3634  -999.2500
  208.0000   -48.4941   135.6784     8.3292     7.5857  -999.2500
  208.5000   -48.4939   134.1709     8.9306     7.3735  -999.2500
  209.0000   -48.4942   139.0285     8.6325     7.1319  -999.2500
  209.5000   -48.4948   144.4258     8.2510     6.8908  -999.2500
  210.0000   -48.4931   149.8232     8.0097     6.6511  -999.2500
  210.5000   -48.3208   155.2206     7.6472     6.4503  -999.2500
  211.0000   -48.1275   160.6179     7.3759     6.3516  -999.2500
  211.5000   -47.9338   165.1439     7.2378     6.2510  -999.2500
  212.0000   -47.7417   168.7985     7.2263     6.1511  -999.2500
  212.5000   -47.5584   171.3568     7.2259     6.0790  -999.2500
  213.0000   -47.2861   171.3568     7.2189     6.0803  -999.2500
  213.5000   -47.2910   171.3568     7.1933     6.0802  -999.2500
  214.0000   -47.3301   168.2106     7.1679     6.0777  -999.2500
  214.5000   -47.4755   164.7149     7.1648     6.2217  -999.2500
  215.0000   -47.6190   161.2191     7.3266     6.4218  -999.2500
  215.5000   -47.7626   157.7234     7.5273     6.6230  -999.2500
