~VERSION INFORMATION
 VERS.                2.0:   CWLS LOG ASCII STANDARD - VERSION 2.0
 WRAP.                 NO:   ONE LINE PER DEPTH STEP
~WELL INFORMATION
#MNEM.UNIT      DATA TYPE    INFORMATION
#----------   ------------   ------------------------------
 STRT.F           30.0000:   START DEPTH
 STOP.F         3375.5000:   STOP DEPTH
 STEP.F            0.5000:   STEP LENGTH
 NULL.          -999.2500:   NO VALUE
 COMP.       INTEX OIL CO:   COMPANY
 WELL.   NPR ##3 57-SX-34:   WELL
 FLD .             TEAPOT:   FIELD
 LOC .      S34 T39N R78W:   LOCATION
 CNTY.            NATRONA:   COUNTY
 STAT.            WYOMING:   STATE
 CTRY. UNITED STATES OF AMERICA:   COUNTRY
 SRVC.       Schlumberger:   SERVICE COMPANY
 DATE.        12-AUG-1967:   LOGDATE
 API .       490251023200:   API NUMBER
~CURVE INFORMATION
#MNEM.UNIT       API CODE    CURVE DESCRIPTION
#----------   ------------   ------------------------------
 DEPT.F                  :   
 SPR .MV     07 010 01 00:   SPONTANEOUS POTENTIAL
 ILD .OHMM   07 120 46 00:   INDUCTION LOG DEEP
 ASN .OHMM   05 041 16 00:   AMPLIFIED SHORT NORMAL 16"
 CILD.MMHO   07 110 46 00:   CONDUCTIVITY INDUCTION LOG DEEP
 LL8 .OHMM   07 220 08 00:   LATEROLOG-8 RES.
 ILM .OHMM   07 120 44 00:   INDUCTION LOG MEDIUM
 CALD.IN     45 280 60 00:   CALIPER
 GRD .GAPI   45 310 01 00:   GAMMA RAY FROM DENSITY LOG
 RHOB.G/C3   45 350 01 00:   BULK DENSITY
 DPHI.DEC    45 890 12 00:   DENSITY POROSITY SANDSTONE
 CORR.G/C3   45 356 01 00:   DENSITY CORRECTION
~PARAMETER INFORMATION
#MNEM.UNIT          VALUE    DESCRIPTION
#----------   ------------   ------------------------------
 PD  .                 GL:   PERMANENT DATUM
 EPD .F              5084:   ELEVATION PERMANENT DATUM
 LMF .                 KB:   LOG MEASURED FROM
 DAPD.F                12:   FEET ABOVE PERMANENT DATUM
 DMF .                 KB:   DRILLING MEASURED FROM
 EKB .F              5096:   KELLING BUSHING
 EGL .F              5084:   GROUND LEVEL
 DATE.            8-12-67:   RUN DATE
 RUN .                  2:   RUN NUMBER
 DD  .F              3380:   DEPTH DRILLER
 DL  .F              3371:   DEPTH LOGGER
 BLI .F              3368:   BOTTOM LOG INTERVAL
 TLI .F               630:   TOP LOG INTERVAL
 CS  .IN            10.75:   CASING SIZE
 CBD .F               643:   CASING BOTTOM DRILLER
 BS  .IN            9.875:   BIT SIZE
 BSD .F              3380:   BIT SIZE AT DEPTH
 DFT .               CHEM:   DRILLING FLUID TYPE
 DFD .                9.4:   DRILLING FLUID DENSITY
 DFV .                 48:   DRILLING FLUID VISCOSITY
 DFPH.                8.5:   DRILLING FLUID PH
 DFL .                3.6:   DRILLING FLUID LOSS
 MSS .          FLOW LINE:   MUD SAMPLE SOURCE
 RMS .OHMM           2.81:   RESISTIVITY MUD SAMPLE
 MST .F                88:   MUD SAMPLE TEMPERATURE
 RMF .OHMM            1.7:   RESISTIVITY MUD FILTRATE SAMPLE
 MFST.F                86:   MUD FILTRATE SAMPLE TEMPERATURE
 MFSS.                  M:   MUD FILTRATE SAMPLE SOURCE
 RMB .OHMM           2.03:   RESISTIVITY MUD AT BHT
 BHT .F               122:   BOTTOM HOLE TEMPERATURE
 TCS .HRS             2.5:   TIME CURCULATED STOPPED
 MRT .F               122:   MAXIMUM RECORDED TEMPERATURE
 LUN .               7030:   LOGGING UNIT NUMBER
 LUL .               CSPR:   LOGGING UNIT LOCATION
 ENGI.             SCHODE:   RECORDING ENGINEER
 WITN.                MAY:   WITNESSED BY
 CLNT.            A2DTECH:   CLIENT CODE
 ORIG.   1" 2.5" 5" PRINT:   ORIGIN OF DATA
 UWI .       490251023200:   UNIQUE WELL ID
 DICO. A2D Technologies, Inc.:   DIGITIZING COMPANY
~OTHER INFORMATION
~A   DEPT      SPR        ILD        ASN       CILD        LL8        ILM       CALD         GRD      RHOB       DPHI       CORR   
# ...
 3354.5000   -23.5008     2.7323  -999.2500  -999.2500     4.1958     3.1180    11.0512    84.1991     2.4885     0.0972     0.0486
 3355.0000   -23.6508     2.5378  -999.2500  -999.2500     4.2874     2.8331    11.0512    75.3682     2.4823     0.1001     0.0445
 3355.5000   -23.9075     2.3511  -999.2500  -999.2500     3.4833     2.5743    11.0512    40.9979     2.4771     0.1030     0.0438
 3356.0000   -24.0100     2.1979  -999.2500  -999.2500     2.7551     2.3391    11.0512    11.1323     2.4737     0.1059     0.0466
 3356.5000   -24.1124     2.1179  -999.2500  -999.2500     2.1792     2.2360    11.0512  -999.2500     2.4583     0.1127     0.0498
 3357.0000   -24.2083     2.1179  -999.2500  -999.2500     1.7676     2.2768    11.0512  -999.2500     2.4385     0.1208     0.0470
 3357.5000   -24.3031     2.1179  -999.2500  -999.2500     3.0656     2.4168    11.0511  -999.2500     2.4186     0.1295     0.0417
 3358.0000   -24.3076     2.1179  -999.2500  -999.2500     8.5237     2.5378    11.0486  -999.2500     2.4473     0.1226     0.0493
 3358.5000   -24.3097     2.2799  -999.2500  -999.2500     7.4152     2.9263    11.0458  -999.2500     2.4643     0.1146     0.0706
 3359.0000   -24.3080     2.5414  -999.2500  -999.2500     3.9168     3.3333    11.0430  -999.2500     2.4563     0.1132     0.0656
 3359.5000   -24.3086     2.9606  -999.2500  -999.2500     4.2126     3.7970    11.0402  -999.2500     2.4773     0.1063     0.0485
 3360.0000   -24.3086     3.4490  -999.2500  -999.2500     5.1395     4.2874    11.0374  -999.2500     2.5011     0.0902     0.0319
 3360.5000   -24.3087     4.0180  -999.2500  -999.2500     6.9862     4.5599    11.0346  -999.2500     2.4953     0.0921     0.0286
 3361.0000   -24.3081     4.4675  -999.2500  -999.2500     6.5696     4.8309    11.0318  -999.2500     2.5003     0.0941     0.0388
 3361.5000   -24.3094     4.6990  -999.2500  -999.2500     5.5226     5.1225    11.0290  -999.2500     2.5160     0.0784     0.0477
 3362.0000   -24.3073     4.9425  -999.2500  -999.2500     6.1489     5.4460    11.0262  -999.2500     2.5485     0.0602     0.0564
 3362.5000   -24.3078     5.1986  -999.2500  -999.2500     7.8363     5.7899    11.0234  -999.2500     2.5441     0.0659     0.0665
 3363.0000   -24.3153     5.4680  -999.2500  -999.2500     8.9989     6.1512    11.0206  -999.2500     2.5296     0.0711     0.0666
 3363.5000   -24.2012     5.7513  -999.2500  -999.2500     8.5934     6.6123    11.0178  -999.2500     2.5313     0.0720     0.0575
 3364.0000   -23.9155     6.0452  -999.2500  -999.2500     8.2160     6.6736    11.0150  -999.2500     2.5420     0.0661     0.0488
 3364.5000   -23.6134     6.0452  -999.2500  -999.2500     7.8552     6.7436    11.0122  -999.2500     2.5422     0.0626     0.0427
 3365.0000   -23.6420     6.0452  -999.2500  -999.2500     7.5103     6.7354    11.0094  -999.2500     2.5357     0.0687     0.0499
 3365.5000   -23.9139     6.0194  -999.2500  -999.2500     7.1804     6.7422    11.0066  -999.2500     2.5273     0.0748     0.0529
 3366.0000   -24.1763     5.9938  -999.2500  -999.2500     7.1137     6.7411    11.0038  -999.2500     2.5166     0.0831     0.0427
 3366.5000   -24.3186     5.9682  -999.2500  -999.2500     7.4359     6.7404    11.0010  -999.2500     2.5247     0.0813     0.0332
 3367.0000   -24.3060     5.9427  -999.2500  -999.2500     7.7781     6.6367    10.9982  -999.2500     2.5418     0.0741     0.0279
 3367.5000   -24.3079     5.9173  -999.2500  -999.2500     8.0725     6.5521    10.9954  -999.2500     2.5330     0.0658     0.0362
 3368.0000   -24.3094     5.8921  -999.2500  -999.2500     7.4127     6.4686    10.9930  -999.2500     2.5176     0.0759     0.0393
 3368.5000  -999.2500     5.8669  -999.2500  -999.2500  -999.2500     6.3861    10.9901  -999.2500     2.5005     0.0909     0.0293
 3369.0000  -999.2500     5.8419  -999.2500  -999.2500  -999.2500     6.3047    10.9886  -999.2500     2.5022     0.0893     0.0206
 3369.5000  -999.2500  -999.2500  -999.2500  -999.2500  -999.2500  -999.2500    10.9847  -999.2500     2.5060     0.0854     0.0111
 3370.0000  -999.2500  -999.2500  -999.2500  -999.2500  -999.2500  -999.2500    10.9818  -999.2500     2.4910     0.0980     0.0080
 3370.5000  -999.2500  -999.2500  -999.2500  -999.2500  -999.2500  -999.2500    10.9837  -999.2500     2.4734     0.1056     0.0078
 3371.0000  -999.2500  -999.2500  -999.2500  -999.2500  -999.2500  -999.2500    10.9682  -999.2500     2.4605     0.1133     0.0152
 3371.5000  -999.2500  -999.2500  -999.2500  -999.2500  -999.2500  -999.2500    10.9662  -999.2500     2.4502     0.1209  -999.2500
 3372.0000  -999.2500  -999.2500  -999.2500  -999.2500  -999.2500  -999.2500    10.3489  -999.2500     2.4248     0.1345  -999.2500
 3372.5000  -999.2500  -999.2500  -999.2500  -999.2500  -999.2500  -999.2500     9.5801  -999.2500     2.4038     0.1497  -999.2500
 3373.0000  -999.2500  -999.2500  -999.2500  -999.2500  -999.2500  -999.2500     8.8007  -999.2500     2.3809     0.1649  -999.2500
 3373.5000  -999.2500  -999.2500  -999.2500  -999.2500  -999.2500  -999.2500     8.7229  -999.2500     2.3624     0.1741  -999.2500
 3374.0000  -999.2500  -999.2500  -999.2500  -999.2500  -999.2500  -999.2500     8.5930  -999.2500     2.3519     0.1780  -999.2500
 3374.5000  -999.2500  -999.2500  -999.2500  -999.2500  -999.2500  -999.2500     8.5733  -999.2500  -999.2500     0.1816  -999.2500
 3375.0000  -999.2500  -999.2500  -999.2500  -999.2500  -999.2500  -999.2500     8.5688  -999.2500  -999.2500  -999.2500  -999.2500
 3375.5000  -999.2500  -999.2500  -999.2500  -999.2500  -999.2500  -999.2500     8.5693  -999.2500  -999.2500  -999.2500  -999.2500
