~VERSION INFORMATION
 VERS.                2.0:   CWLS LOG ASCII STANDARD - VERSION 2.0
 WRAP.                 NO:   ONE LINE PER DEPTH STEP
~WELL INFORMATION
#MNEM.UNIT      DATA TYPE    INFORMATION
#----------   ------------   ------------------------------
 STRT.F           31.0000:   START DEPTH
 STOP.F          662.0000:   STOP DEPTH
 STEP.F            0.5000:   STEP LENGTH
 NULL.          -999.2500:   NO VALUE
 COMP. FENIX & SCISSON INC:   COMPANY
 WELL.   NPR-3 #83SX15-15:   WELL
 FLD .             TEAPOT:   FIELD
 LOC .      S15 T38N R78W:   LOCATION
 CNTY.            NATRONA:   COUNTY
 STAT.            WYOMING:   STATE
 CTRY. UNITED STATES OF AMERICA:   COUNTRY
 SRVC.            Unknown:   SERVICE COMPANY
 DATE.        17-MAY-1978:   LOGDATE
 API .       490251062500:   API NUMBER
~CURVE INFORMATION
#MNEM.UNIT       API CODE    CURVE DESCRIPTION
#----------   ------------   ------------------------------
 DEPT.F                  :   
 SN  .OHMM   07 040 16 00:   SHORT NORMAL 16'
 ILD .OHMM   07 120 46 00:   INDUCTION LOG DEEP
 CALD.IN     45 280 60 00:   CALIPER
 GRD .GAPI   45 310 01 00:   GAMMA RAY FROM DENSITY LOG
 RHOB.G/C3   45 350 01 00:   BULK DENSITY
 DPHI.DEC    45 890 10 00:   DENSITY POROSITY SANDSTONE
 CORR.G/C3   45 356 01 00:   DENSITY CORRECTION
~PARAMETER INFORMATION
#MNEM.UNIT          VALUE    DESCRIPTION
#----------   ------------   ------------------------------
 PD  .                 GL:   PERMANENT DATUM
 EPD .F              5265:   ELEVATION PERMANENT DATUM
 LMF .                 KB:   LOG MEASURED FROM
 DMF .                 KB:   DRILLING MEASURED FROM
 EKB .F              5269:   KELLING BUSHING
 EGL .F              5265:   GROUND LEVEL
 DATE.          5-17-1978:   RUN DATE
 RUN .                  1:   RUN NUMBER
 DD  .F               670:   DEPTH DRILLER
 DL  .F               668:   DEPTH LOGGER
 BLI .F               662:   BOTTOM LOG INTERVAL
 TLI .F                40:   TOP LOG INTERVAL
 CS  .IN            8.625:   CASING SIZE
 CBD .F                40:   CASING BOTTOM DRILLER
 BS  .IN            7.875:   BIT SIZE
 BSD .F               670:   BIT SIZE AT DEPTH
 DFT .                KCL:   DRILLING FLUID TYPE
 DFD .                8.6:   DRILLING FLUID DENSITY
 DFV .                 31:   DRILLING FLUID VISCOSITY
 DFPH.                 10:   DRILLING FLUID PH
 BHT .F                75:   BOTTOM HOLE TEMPERATURE
 TCS .HRS               2:   TIME CURCULATED STOPPED
 MRT .F                75:   MAXIMUM RECORDED TEMPERATURE
 LUN .               3006:   LOGGING UNIT NUMBER
 LUL .                CPR:   LOGGING UNIT LOCATION
 ENGI.             MILLER:   RECORDING ENGINEER
 WITN.           MCGINLEY:   WITNESSED BY
 CLNT.            A2DTECH:   CLIENT CODE
 ORIG.      2" & 5" PRINT:   ORIGIN OF DATA
 UWI .       490251062500:   UNIQUE WELL ID
 DICO. A2D Technologies, Inc.:   DIGITIZING COMPANY
~OTHER INFORMATION
~A   DEPT       SN        ILD       CALD         GRD      RHOB       DPHI       CORR   
# ...
  395.0000     6.0606     5.9383     7.4923    75.8976     2.4741     0.1216     0.0439
  395.5000     6.0082     5.8966     7.4961    76.2136     2.4745     0.1222     0.0469
  396.0000     5.9562     5.8553     7.4839    78.3599     2.4747     0.1202     0.0470
  396.5000     5.9047     5.8143     7.4719    80.1371     2.4750     0.1228     0.0458
  397.0000     5.8533     5.7730     7.4605    79.5554     2.4719     0.1274     0.0426
  397.5000     5.8041     5.6979     7.4624    78.1635     2.4634     0.1319     0.0394
  398.0000     5.6508     5.5023     7.4649    76.9190     2.4540     0.1364     0.0374
  398.5000     5.4850     5.3133     7.4672    77.1947     2.4459     0.1406     0.0395
  399.0000     5.3233     5.1308     7.4696    77.4116     2.4419     0.1414     0.0404
  399.5000     5.1665     4.9547     7.4720    77.2852     2.4322     0.1516     0.0375
  400.0000     5.0144     4.7845     7.4743    75.4138     2.4160     0.1629     0.0360
  400.5000     4.8666     4.6202     7.4767    73.6317     2.4014     0.1706     0.0448
  401.0000     4.7234     4.5031     7.4790    72.0437     2.4048     0.1507     0.0490
  401.5000     4.5843     4.4774     7.4764    71.9943     2.4364     0.1486     0.0420
  402.0000     4.5607     4.4774     7.4635    71.8735     2.4451     0.1339     0.0382
  402.5000     4.5607     4.4774     7.4809    70.9066     2.4735     0.1246     0.0366
  403.0000     4.6506     4.5189     7.4768    70.0317     2.4779     0.1238     0.0350
  403.5000     5.0210     4.6455     7.4744    73.2458     2.4773     0.1245     0.0334
  404.0000     5.4209     4.9472     7.4718    77.8336     2.4765     0.1255     0.0319
  404.5000     5.7760     5.3583     7.4692    80.4132     2.4763     0.1262     0.0317
  405.0000     5.9160     5.8036     7.4667    77.4983     2.4780     0.1248     0.0335
  405.5000     6.0594     5.9333     7.4641    76.9146     2.4796     0.1217     0.0348
  406.0000     6.2063     6.0288     7.4615    79.7359     2.4808     0.1185     0.0309
  406.5000     6.3320     6.1258     7.4589    78.7584     2.4773     0.1235     0.0269
  407.0000     6.4239     6.2244     7.4563    77.6736     2.4738     0.1298     0.0257
  407.5000     6.5168     6.3246     7.4537    75.1303     2.4725     0.1302     0.0269
  408.0000     6.6110     6.4263     7.4512    72.5011     2.4761     0.1246     0.0282
  408.5000     6.7067     6.5297     7.4486    70.4525     2.4798     0.1237     0.0295
  409.0000     6.8038     6.6348     7.4460    70.9768     2.4835     0.1204     0.0308
  409.5000     6.8396     6.6568     7.4434    73.2287     2.4852     0.1172     0.0291
  410.0000     6.8396     6.6613     7.4408    74.8186     2.4856     0.1158     0.0267
  410.5000     6.8396     6.6657     7.4383    76.1837     2.4859     0.1167     0.0243
  411.0000     6.8396     6.6701     7.4357    76.2962     2.4848     0.1180     0.0232
  411.5000     6.8396     6.6746     7.4331    76.0320     2.4835     0.1192     0.0236
  412.0000     6.8396     6.6790     7.4305    73.8475     2.4823     0.1205     0.0241
  412.5000     6.8396     6.6835     7.4279    71.1318     2.4818     0.1189     0.0245
  413.0000     6.8396     6.6879     7.4253    70.5452     2.4924     0.1098     0.0250
  413.5000     6.8396     6.6924     7.4227    72.6116     2.5045     0.1022     0.0254
  414.0000     6.8396     6.6968     7.4204    74.2399     2.4972     0.1054     0.0259
  414.5000     6.8396     6.7013     7.4207    74.9649     2.4940     0.1110     0.0263
  415.0000     6.8396     6.7058     7.4082    76.7377     2.4902     0.1164     0.0268
  415.5000     6.8396     6.7105     7.3943    78.5972     2.4842     0.1192     0.0272
  416.0000     6.8396     6.7147     7.3804    77.7594     2.4826     0.1181     0.0277
  416.5000     6.8399     6.6685     7.3665    74.7780     2.4818     0.1179     0.0281
  417.0000     6.8407     6.6217     7.3527    72.6039     2.4811     0.1199     0.0286
  417.5000     6.7934     6.5753     7.3388    71.8757     2.4804     0.1213     0.0291
  418.0000     6.7495     6.5291     7.3249    71.1238     2.4796     0.1202     0.0326
  418.5000     6.7061     6.4833     7.3111    70.6777     2.4791     0.1246     0.0360
  419.0000     6.6630     6.4378     7.3038    70.8625     2.4851     0.1177     0.0394
  419.5000     6.6202     6.3926     7.3190    71.0588     2.4922     0.1099     0.0427
  420.0000     6.5776     6.3477     7.3335    74.3969     2.4970     0.1085     0.0417
  420.5000     6.5353     6.3032     7.3341    77.6021     2.4891     0.1165     0.0314
  421.0000     6.4933     6.2589     7.3125    76.2391     2.4795     0.1247     0.0214
  421.5000     6.4516     6.2150     7.2912    74.1701     2.4651     0.1349     0.0152
  422.0000     6.4125     6.1714     7.2694    73.2317     2.4505     0.1434     0.0163
  422.5000     6.2558     6.1285     7.2859    73.2608     2.4468     0.1412     0.0188
  423.0000     6.0567     5.9085     7.3274    75.5748     2.4461     0.1386     0.0284
  423.5000     5.8641     5.6785     7.3692    78.6154     2.4427     0.1433     0.0378
  424.0000     5.6775     5.4574     7.4011    80.2515     2.4352     0.1478     0.0394
  424.5000     5.4969     5.2451     7.4005    81.6348     2.4275     0.1532     0.0469
  425.0000     5.3221     5.0413     7.4004    83.0168     2.4154     0.1595     0.0470
  425.5000     5.1528     4.8450     7.4006    80.7121     2.4016     0.1645     0.0470
  426.0000     4.9888     4.6145     7.4006    78.0546     2.3853     0.1730     0.0470
  426.5000     4.6976     4.2045     7.3896    76.1586     2.3575     0.1976     0.0470
  427.0000     4.3905     3.8295     7.3157    75.8433     2.3337     0.2046     0.0470
  427.5000     4.1034     3.4890     7.2422    75.8774     2.3132     0.2182     0.0469
  428.0000     3.6937     2.7195     7.1684    76.0773     2.2928     0.2317     0.0507
  428.5000     3.2188     2.6305     7.1175    74.5993     2.2764     0.2450     0.0555
  429.0000     3.0376     2.5518     7.0793    71.2804     2.2771     0.2461     0.0603
  429.5000     3.0138     2.4802     7.0422    70.0082     2.2966     0.2247     0.0633
  430.0000     2.8879     2.4268     7.0626    69.7457     2.3465     0.1993     0.0492
  430.5000     2.8512     2.4156     7.1394    69.4706     2.3773     0.1846     0.0328
  431.0000     2.9311     2.4156     7.1941    69.3365     2.3824     0.1671     0.0480
  431.5000     3.1338     2.4856     7.2492    71.3619     2.4285     0.1504     0.0509
  432.0000     3.3991     2.8448     7.2945    75.6716     2.4359     0.1447     0.0513
  432.5000     3.6869     3.2422     7.3407    79.7991     2.4695     0.1303     0.0587
  433.0000     3.9992     3.5519     7.3869    80.6309     2.4731     0.1218     0.0594
  433.5000     4.3380     3.8911     7.4330    81.3155     2.4760     0.1202     0.0597
  434.0000     4.7055     4.2628     7.4562    81.6931     2.4756     0.1208     0.0601
  434.5000     5.0307     4.6455     7.4750    81.5391     2.4754     0.1237     0.0605
  435.0000     5.1526     4.8869     7.4938    78.9513     2.4751     0.1266     0.0609
  435.5000     5.2364     5.0470     7.5125    75.5141     2.4755     0.1241     0.0598
  436.0000     5.2364     5.0470     7.5314    74.7193     2.4752     0.1215     0.0530
  436.5000     5.2125     4.8130     7.5417    78.7512     2.4574     0.1380     0.0439
  437.0000     5.1727     4.6477     7.5454    80.8520     2.4393     0.1503     0.0388
  437.5000     5.1332     4.4887     7.5489    81.8741     2.4312     0.1514     0.0461
  438.0000     5.0940     4.3554     7.5525    84.0405     2.4430     0.1437     0.0510
  438.5000     5.0552     4.3155     7.5561    86.4736     2.4650     0.1339     0.0449
  439.0000     5.0486     4.3341     7.5596    87.1562     2.4709     0.1282     0.0400
  439.5000     5.0957     4.3803     7.5632    85.9092     2.4744     0.1270     0.0379
  440.0000     5.0951     4.4275     7.5668    83.3464     2.4769     0.1254     0.0358
