~VERSION INFORMATION
 VERS.                2.0:   CWLS LOG ASCII STANDARD - VERSION 2.0
 WRAP.                 NO:   ONE LINE PER DEPTH STEP
~WELL INFORMATION
#MNEM.UNIT      DATA TYPE    INFORMATION
#----------   ------------   ------------------------------
 STRT.F           30.0000:   START DEPTH
 STOP.F          618.0000:   STOP DEPTH
 STEP.F            0.5000:   STEP LENGTH
 NULL.          -999.2500:   NO VALUE
 COMP. FENNIX & SCISSON, INC.:   COMPANY
 WELL.       NPR #88-S-10:   WELL
 FLD .              NPR-3:   FIELD
 LOC .      S10 T38N R78W:   LOCATION
 CNTY.            NATRONA:   COUNTY
 STAT.            WYOMING:   STATE
 CTRY. UNITED STATES OF AMERICA:   COUNTRY
 SRVC.              Welex:   SERVICE COMPANY
 DATE.        22-APR-1977:   LOGDATE
 API .       490251034200:   API NUMBER
~CURVE INFORMATION
#MNEM.UNIT       API CODE    CURVE DESCRIPTION
#----------   ------------   ------------------------------
 DEPT.F                  :   
 CALD.IN     45 280 60 00:   CALIPER FROM DENSITY LOG
 GRD .GAPI   45 310 01 00:   GAMMA RAY FROM DENSITY LOG
 CORR.G/C3   45 356 01 00:   DENSITY CORRECTION
 RHOB.G/C3   45 350 01 00:   BULK DENSITY
 DPHI.DEC    45 890 12 00:   DENSITY POROSITY SANDSTONE
 ILD .OHMM   07 120 46 00:   INDUCTION LOG DEEP
 ILM .OHMM   07 120 44 00:   INDUCTION LOG MEDIUM
 SGRD.OHMM   07 220 05 00:   SHALLOW GUARD RESISTIVITY
 SPR .MV     07 010 01 00:   SPONTANEOUS POTENTIAL FROM RES.
~PARAMETER INFORMATION
#MNEM.UNIT          VALUE    DESCRIPTION
#----------   ------------   ------------------------------
 PD  .                 GL:   PERMANENT DATUM
 EPD .F              5255:   ELEVATION PERMANENT DATUM
 LMF .                 GL:   LOG MEASURED FROM
 DMF .                 GL:   DRILLING MEASURED FROM
 EGL .F              5255:   GROUND LEVEL
 DATE.        22-APR-1977:   RUN DATE
 RUN .                  1:   RUN NUMBER
 DD  .F               630:   DEPTH DRILLER
 DL  .F               620:   DEPTH LOGGER
 BLI .F               618:   BOTTOM LOG INTERVAL
 TLI .F                38:   TOP LOG INTERVAL
 CS  .IN            8.625:   CASING SIZE
 CBD .F                40:   CASING BOTTOM DRILLER
 BS  .IN            7.875:   BIT SIZE
 BSD .F               630:   BIT SIZE AT DEPTH
 DFT .            KCL GEL:   DRILLING FLUID TYPE
 DFD .                9.0:   DRILLING FLUID DENSITY
 DFV .                 40:   DRILLING FLUID VISCOSITY
 DFPH.                8.0:   DRILLING FLUID PH
 DFL .                6.4:   DRILLING FLUID LOSS
 MSS .            MUD PIT:   MUD SAMPLE SOURCE
 RMS .OHMM            .20:   RESISTIVITY MUD SAMPLE
 MST .F                65:   MUD SAMPLE TEMPERATURE
 RMF .OHMM            .18:   RESISTIVITY MUD FILTRATE SAMPLE
 MFST.F                65:   MUD FILTRATE SAMPLE TEMPERATURE
 RMC .OHMM            .28:   RESISTIVITY MUD CAKE
 MCST.F                65:   MUD CAKE SAMPLE TEMPERATURE
 MFSS.               MEAS:   MUD FILTRATE SAMPLE SOURCE
 MCSS.               MEAS:   MUD CAKE SAMPLE SOURCE
 RMB .OHMM            .18:   RESISTIVITY MUD AT BHT
 BHT .F                71:   BOTTOM HOLE TEMPERATURE
 TCS .HRS            0300:   TIME CURCULATED STOPPED
 MRT .F                71:   MAXIMUM RECORDED TEMPERATURE
 LUN .               8611:   LOGGING UNIT NUMBER
 LUL .             CASPER:   LOGGING UNIT LOCATION
 ENGI.          T. JOYNER:   RECORDING ENGINEER
 WITN.           ROB LYON:   WITNESSED BY
 CLNT.            A2DTECH:   CLIENT CODE
 ORIG.           5" PRINT:   ORIGIN OF DATA
 UWI .       490251034200:   UNIQUE WELL ID
 DICO. A2D Technologies, Inc.:   DIGITIZING COMPANY
~OTHER INFORMATION
~A   DEPT     CALD        GRD       CORR       RHOB       DPHI        ILD        ILM       SGRD        SPR   
# ...
  139.5000     7.8567   120.3907     0.0026     2.4479     0.1219     6.2580     8.4927    10.4918   -23.7468
  140.0000     7.8415   118.2933     0.0026     2.4606     0.1152     6.2996     8.3178    10.5630   -23.7505
  140.5000     7.8360   111.2559     0.0010     2.4621     0.1164     6.3852     8.1500    10.7881   -23.7535
  141.0000     7.8263   110.2065     0.0025     2.4531     0.1278     6.4276     8.1489    11.2505   -23.7565
  141.5000     7.8112   113.1990     0.0025     2.4509     0.1311     6.4702     8.3247    11.8979   -23.7595
  142.0000     7.8111   118.7951     0.0025     2.4516     0.1314     6.4684     8.7922    13.2297   -23.7624
  142.5000     7.7960   122.3876     0.0025     2.4487     0.1269     6.5113     9.1655    15.1489   -23.7654
  143.0000     7.7958   123.3883     0.0025     2.4434     0.1245     6.5095     9.5480    11.8076   -23.6188
  143.5000     7.7956   126.2688     0.0025     2.4449     0.1251     6.5078     9.8165    10.8240   -23.6226
  144.0000     7.7806   127.5629     0.0009     2.4487     0.1227     6.4613    10.0865    10.5514   -23.6255
  144.5000     7.7804   124.1073    -0.0006     2.4607     0.1152     6.4595     9.8054    11.0096   -23.6285
  145.0000     7.7803   125.8131    -0.0006     2.4569     0.1183     6.4134     9.2779    11.3013   -23.6315
  145.5000     7.7801   126.3608    -0.0006     2.4517     0.1211     6.4116     8.9622    11.4562   -23.6344
  146.0000     7.7800   122.0475    -0.0006     2.4472     0.1190     6.4542     8.7173    11.6137   -23.4879
  146.5000     7.7798   119.4716    -0.0037     2.4412     0.1225     6.5419     8.4221    11.7733   -23.4916
  147.0000     7.7797   120.2306    -0.0052     2.4381     0.1283     6.6308     8.2473    11.7717   -23.3450
  147.5000     7.7945   121.4197    -0.0052     2.4408     0.1282     6.7210     8.1906    11.5292   -23.1999
  148.0000     7.7943   123.8636    -0.0052     2.4527     0.1213     6.8123     8.4777    11.4484   -23.0541
  148.5000     7.7942   127.3997    -0.0052     2.4455     0.1199     6.9049     8.8351    11.6860   -23.0571
  149.0000     7.7940   126.3422    -0.0037     2.4368     0.1241     6.9508     9.2706    11.8470   -22.7624
  149.5000     7.8088   124.2502    -0.0022     2.4391     0.1256     6.9969     9.7951    12.0925   -22.7654
  150.0000     7.8236   119.1617    -0.0004     2.4547     0.1229     6.9950    10.3487    12.3435   -22.6188
  150.5000     7.8235   119.7620     0.0023     2.4443     0.1229     7.0249    10.8249    12.3420   -22.6225
  151.0000     7.8233   120.6617     0.0053     2.4443     0.1220     7.0424    11.3949    12.2555   -22.6255
  151.5000     7.8232   121.5614     0.0068     2.4503     0.1190     7.0418    11.7125    12.0860   -22.6285
  152.0000     7.8081   122.7605     0.0068     2.4660     0.1130     7.0413    11.5500    12.0013   -22.7803
  152.5000     7.8079   123.9596     0.0204     2.4840     0.1064     7.0408    10.9283    12.0830   -22.7833
  153.0000     7.7928   124.5599     0.0189     2.4982     0.0981     7.0403    10.2689    12.1649   -22.7863
  153.5000     7.7927   126.2081     0.0205     2.5079     0.0954     7.0886     9.7835    12.3321   -22.7887
  154.0000     7.7925   130.2515     0.0220     2.5057     0.1029     7.1864     9.4504    12.5016   -22.7917
  154.5000     7.8073   129.3548     0.0190     2.5012     0.1047     7.2857     9.3199    12.6734   -22.7946
  155.0000     7.8221   127.4102     0.0175     2.5027     0.1014     7.4887     9.7794    12.8476   -22.7976
  155.5000     7.8369   124.1183     0.0160     2.5028     0.1002     7.6973    10.4765    13.1138   -22.8006
  156.0000     7.8368   120.6767     0.0130     2.4631     0.1122     7.8575    11.2232    13.2031   -22.8036
  156.5000     7.8366   120.2290     0.0115     2.4735     0.1110     8.0210    12.1064    13.3841   -22.8065
  157.0000     7.8514   121.5779     0.0115     2.4803     0.1086     8.1317    12.8802    13.3822   -22.8095
  157.5000     7.8513   123.6752     0.0100     2.4804     0.1092     8.2441    13.3309    13.4734   -22.6637
  158.0000     7.8511   122.4791     0.0085     2.4706     0.1110     8.3005    13.0555    13.5642   -22.6667
  158.5000     7.8510   121.1333     0.0070     2.4534     0.1166     8.2998    12.5244    13.5624   -22.5208
  159.0000     7.8508   119.9372     0.0071     2.4654     0.1122     8.2992    12.0149    13.6548   -22.5238
  159.5000     7.8357   118.1423     0.0071     2.4639     0.1128     8.2986    11.4468    13.7473   -22.3780
  160.0000     7.8376   116.3474     0.0071     2.4474     0.1197     8.2411    11.0572    13.8405   -22.2321
  160.5000     7.8354   115.6000     0.0071     2.4489     0.1211     8.2405    11.3650    13.9343   -22.2352
  161.0000     7.8502   115.6019     0.0071     2.4631     0.1146     8.2400    11.2077    13.9323   -22.2382
  161.5000     7.8351   115.4537     0.0086     2.4766     0.1110     8.2963    10.9770    14.0268   -22.0923
  162.0000     7.8350   113.8085     0.0117     2.4751     0.1092     8.4690    11.9224    14.1219   -22.0953
  162.5000     7.8199   114.7082     0.0102     2.4677     0.1168     8.7050    12.3395    14.1199   -22.0983
  163.0000     7.8197   117.1049     0.0102     2.4587     0.1188     8.7647    12.1683    14.0210   -22.2501
  163.5000     7.8196   119.8010     0.0102     2.4624     0.1177     8.7640    11.7541    13.9227   -22.2531
  164.0000     7.8194   123.6947     0.0087     2.4804     0.1123     8.6435    11.7525    13.7302   -22.2561
  164.5000     7.8193   123.9953     0.0087     2.4774     0.1089     8.4661    11.9970    13.5403   -22.4079
  165.0000     7.8341   121.6019     0.0057     2.4767     0.1113     8.2354    12.0784    13.4454   -22.4109
  165.5000     7.8489   120.2561     0.0057     2.4789     0.1094     8.2348    11.4278    13.3511   -22.4139
  166.0000     7.8637   119.0600     0.0088     2.4931     0.1031     8.1777    10.7384    13.3493   -22.5657
  166.5000     7.8635   118.6121     0.0103     2.5014     0.1002     8.1772    10.3015    13.3474   -22.5687
  167.0000     7.8634   124.3026     0.0133     2.4819     0.1083     8.1766     9.9508    13.4384   -22.7205
  167.5000     7.8782   126.2502     0.0164     2.4842     0.1083     8.1760     9.8131    13.4360   -22.8723
  168.0000     7.8780   126.8505     0.0164     2.4939     0.1054     8.1755    10.0169    13.4342   -22.8753
  168.5000     7.8779   127.1514     0.0163     2.5111     0.0946     8.1188    10.2958    13.3400   -22.8783
  169.0000     7.8777   121.9134     0.0134     2.5051     0.0982     8.1182    10.5824    13.3382   -22.8813
  169.5000     7.8776   119.8191     0.0119     2.4902     0.1022     8.1177    11.1814    13.2447   -22.8843
  170.0000     7.8774   117.4254     0.0088     2.4760     0.1081     8.1171    11.7330    13.1519   -22.8873
  170.5000     7.8773   115.9298     0.0059     2.4723     0.1120     8.1165    12.0596    13.0597   -22.8902
  171.0000     7.8771   120.1230     0.0059     2.4790     0.1110     8.1160    12.2255    12.9682   -22.8932
  171.5000     7.8770   123.4179     0.0059     2.4925     0.1074     8.1154    12.1397    12.8773   -22.8962
  172.0000     7.8768   125.8146     0.0059     2.5089     0.1005     8.0592    12.0546    12.6120   -22.8992
  172.5000     7.8767   127.7622     0.0060     2.4947     0.0964     8.0586    11.6443    12.6102   -22.9022
  173.0000     7.8765   129.8595     0.0060     2.4828     0.1060     8.0027    11.2479    12.7835   -22.9052
  173.5000     7.8764   129.2622     0.0075     2.4760     0.1087     8.0023    10.9257    12.9592   -22.9082
  174.0000     7.8762   127.0182     0.0075     2.4708     0.1111     7.9468    10.7012    13.1377   -22.9112
  174.5000     7.8761   125.5223     0.0075     2.4686     0.1123     7.8917    10.5538    13.3183   -22.9142
  175.0000     7.8610   127.7697     0.0075     2.4843     0.1078     7.8370    10.4084    13.1336   -23.0660
  175.5000     7.8608   129.7173     0.0076     2.4880     0.1036     7.8906    10.3473    12.9520   -23.0690
