~VERSION INFORMATION
 VERS.                2.0:   CWLS LOG ASCII STANDARD - VERSION 2.0
 WRAP.                 NO:   ONE LINE PER DEPTH STEP
~WELL INFORMATION
#MNEM.UNIT      DATA TYPE    INFORMATION
#----------   ------------   ------------------------------
 STRT.F           95.0000:   START DEPTH
 STOP.F          922.0000:   STOP DEPTH
 STEP.F            0.5000:   STEP LENGTH
 NULL.          -999.2500:   NO VALUE
 COMP.          U.S. NAVY:   COMPANY
 WELL. RES 3 TEAPOT DOM #57S-11:   WELL
 FLD .             TEAPOT:   FIELD
 LOC .      S11 T38N R78W:   LOCATION
 CNTY.            NATRONA:   COUNTY
 STAT.            WYOMING:   STATE
 CTRY. UNITED STATES OF AMERICA:   COUNTRY
 SRVC.       Schlumberger:   SERVICE COMPANY
 DATE.        02-AUG-1961:   LOGDATE
 API .       490250632800:   API NUMBER
~CURVE INFORMATION
#MNEM.UNIT       API CODE    CURVE DESCRIPTION
#----------   ------------   ------------------------------
 DEPT.F                  :   
 GR  .GAPI   30 310 01 00:   GAMMA RAY
 SPR .MV     05 010 01 00:   SPONTANEOUS POTENTIAL FROM RES.
 CILD.MMHO   05 110 46 00:   CONDUCTIVITY INDUCTION LOG DEEP
 ASN .OHMM   05 041 16 00:   AMPLIFIED SHORT NORMAL 16"
 ILD .OHMM   05 120 46 00:   INDUCTION LOG DEEP
~PARAMETER INFORMATION
#MNEM.UNIT          VALUE    DESCRIPTION
#----------   ------------   ------------------------------
 PD  .                 GL:   PERMANENT DATUM
 EPD .F              5213:   ELEVATION PERMANENT DATUM
 LMF .                 KB:   LOG MEASURED FROM
 DAPD.F                 6:   FEET ABOVE PERMANENT DATUM
 DMF .                 KB:   DRILLING MEASURED FROM
 EKB .F              5219:   KELLING BUSHING
 EGL .F              5213:   GROUND LEVEL
 DATE.             8-2-61:   RUN DATE
 RUN .                  1:   RUN NUMBER
 DD  .F               920:   DEPTH DRILLER
 DL  .F               921:   DEPTH LOGGER
 BLI .F               920:   BOTTOM LOG INTERVAL
 TLI .F               100:   TOP LOG INTERVAL
 BS  .IN             6.75:   BIT SIZE
 BSD .F               920:   BIT SIZE AT DEPTH
 DFT .       OIL EMULSION:   DRILLING FLUID TYPE
 DFD .                9.2:   DRILLING FLUID DENSITY
 DFV .                 55:   DRILLING FLUID VISCOSITY
 MFSS.                  M:   MUD FILTRATE SAMPLE SOURCE
 MCSS.                  M:   MUD CAKE SAMPLE SOURCE
 RMB .OHMM            .75:   RESISTIVITY MUD AT BHT
 BHT .F                80:   BOTTOM HOLE TEMPERATURE
 TCS .HRS               1:   TIME CURCULATED STOPPED
 MRT .F                80:   MAXIMUM RECORDED TEMPERATURE
 LUN .               2552:   LOGGING UNIT NUMBER
 LUL .                RIV:   LOGGING UNIT LOCATION
 ENGI.             RANDLE:   RECORDING ENGINEER
 WITN.          VORGENSEN:   WITNESSED BY
 CLNT.            A2DTECH:   CLIENT CODE
 ORIG.       2", 5" PRINT:   ORIGIN OF DATA
 UWI .       490250632800:   UNIQUE WELL ID
 DICO. A2D Technologies, Inc.:   DIGITIZING COMPANY
~OTHER INFORMATION
~A   DEPT       GR        SPR       CILD        ASN        ILD   
# ...
  766.0000    47.9119   -37.8515   109.8295    10.8947     9.0723
  766.5000    49.5074   -37.9374   108.8549    11.0513     9.0831
  767.0000    48.1360   -38.0202   107.8382    11.1809     9.0527
  767.5000    49.0266   -38.1156   105.6773    11.3170     9.2702
  768.0000    45.9513   -38.3303   102.7909    11.5730     9.7457
  768.5000    45.4823   -38.5389    97.2790    12.2201    10.3048
  769.0000    46.9827   -38.7610    91.0446    12.8862    11.0266
  769.5000    39.9838   -39.0148    83.8666    13.8918    11.8174
  770.0000    35.4333   -39.3287    76.6889    15.1467    12.6888
  770.5000    30.8336   -39.6982    71.0193    16.0943    13.8297
  771.0000    28.1540   -40.1744    66.4325    16.9503    15.1193
  771.5000    28.7409   -40.7264    60.5902    17.2358    16.6520
  772.0000    30.3430   -41.2181    52.7575    17.6759    17.5080
  772.5000    31.9301   -40.9573    49.5536    17.7653    17.5439
  773.0000    33.4887   -40.4805    50.7310    17.9128    17.6799
  773.5000    34.4185   -40.2945    51.9229    18.0381    17.7040
  774.0000    32.1762   -40.2936    52.7002    18.1858    17.7073
  774.5000    30.0681   -40.3262    52.8472    18.2999    17.6124
  775.0000    31.1711   -40.0432    52.9867    18.5132    17.4877
  775.5000    32.4732   -39.6014    53.1293    18.6604    17.3643
  776.0000    29.8423   -39.1463    53.2822    18.8701    17.2449
  776.5000    27.3167   -38.9529    53.4349    18.7283    17.1168
  777.0000    29.5581   -39.2688    53.5850    18.3612    17.0096
  777.5000    30.4603   -39.5177    53.6945    18.0353    16.8317
  778.0000    29.5299   -39.8061    56.4467    17.6887    16.1928
  778.5000    34.6066   -40.0653    58.7080    17.3843    15.6257
  779.0000    32.4727   -40.0435    60.9679    17.1516    15.0080
  779.5000    31.1923   -39.9619    63.6537    16.8958    14.5281
  780.0000    35.4123   -39.8956    65.6010    16.6387    14.2046
  780.5000    36.8736   -39.8213    67.9911    16.4186    13.8464
  781.0000    36.7217   -39.7515    70.3823    15.9758    13.4943
  781.5000    39.6718   -39.6778    72.7060    15.3860    13.1413
  782.0000    42.8720   -39.6086    74.3141    14.7810    12.9529
  782.5000    45.9214   -39.5321    75.8996    14.5412    12.7094
  783.0000    46.9660   -39.4962    77.7332    14.7811    12.4839
  783.5000    48.2794   -39.5009    78.1315    14.7165    12.2507
  784.0000    45.6538   -39.4983    78.6101    14.4982    12.0150
  784.5000    38.4356   -39.5007    79.0887    14.3018    12.0371
  785.0000    35.7295   -39.4986    79.5673    14.2941    12.1194
  785.5000    35.6517   -39.5023    79.4764    14.2805    12.1867
  786.0000    32.3095   -39.4954    79.0662    14.0964    12.2614
  786.5000    31.5813   -39.5232    78.6560    13.9995    12.3321
  787.0000    36.4316   -39.7167    78.2458    14.1096    12.4050
  787.5000    42.1188   -39.9028    77.8355    14.4301    12.4812
  788.0000    47.2689   -39.7428    77.4253    14.6223    12.5311
  788.5000    47.2756   -39.5284    77.0151    14.5329    12.5807
  789.0000    48.7746   -39.3743    76.6049    14.3635    12.6316
  789.5000    45.7569   -39.1741    76.1947    14.3031    12.6812
  790.0000    42.2626   -39.1146    75.7272    14.3471    12.6604
  790.5000    43.0532   -39.3502    75.7272    14.3843    12.6225
  791.0000    44.7032   -39.5588    75.7272    14.3544    12.5887
  791.5000    45.6053   -39.8061    75.7272    14.2500    12.5526
  792.0000    44.0754   -39.8505    75.7272    14.1552    12.5183
  792.5000    40.5352   -39.6933    75.7272    14.0606    12.4822
  793.0000    37.0765   -39.5744    76.1009    13.9536    12.4486
  793.5000    34.3971   -39.3762    76.8944    13.8759    12.4094
  794.0000    36.5914   -39.0684    77.6878    13.8516    12.3803
  794.5000    39.8629   -38.8411    78.4812    13.8124    12.3671
  795.0000    43.2251   -38.7086    78.4926    13.7809    12.3497
  795.5000    46.4046   -38.5559    78.1337    13.7105    12.3338
  796.0000    43.9278   -38.3943    77.7747    13.6252    12.3178
  796.5000    45.0039   -38.2763    77.4158    13.5935    12.3003
  797.0000    43.8027   -38.1670    77.0569    13.6201    12.2916
  797.5000    44.6301   -38.0324    76.7302    13.6395    12.3306
  798.0000    43.3592   -37.9147    77.0649    13.6628    12.3718
  798.5000    46.0932   -37.7810    77.3617    13.6840    12.4126
  799.0000    40.3962   -37.6688    77.6575    13.7063    12.4533
  799.5000    39.8848   -37.5222    77.4254    13.7282    12.4944
  800.0000    42.5826   -37.6458    76.9614    13.7500    12.5349
  800.5000    43.9224   -37.9344    76.4968    13.7726    12.5758
  801.0000    42.9440   -38.1677    76.0342    13.7893    12.5895
  801.5000    44.7101   -38.4292    75.7157    13.7706    12.5878
  802.0000    46.9053   -38.6708    75.7198    13.7463    12.5885
  802.5000    45.2677   -38.7108    75.7269    13.7219    12.5888
  803.0000    42.3006   -38.6533    75.7332    13.7002    12.5834
  803.5000    42.8916   -38.4956    75.7367    13.6816    12.5096
  804.0000    46.8107   -38.3441    76.7687    13.5969    12.4193
  804.5000    46.9344   -38.1716    77.6920    13.5103    12.3321
  805.0000    48.3323   -38.1130    78.6149    13.4251    12.2436
  805.5000    50.3981   -38.1702    79.5352    13.3392    12.1557
  806.0000    43.5104   -38.2119    80.4609    13.2537    12.0677
  806.5000    41.1798   -38.2545    81.3865    13.1679    11.9788
  807.0000    42.0395   -38.3164    82.3122    13.0825    11.8937
  807.5000    40.3604   -38.4705    82.7482    12.9963    11.8836
  808.0000    37.0490   -38.6575    82.7482    12.9140    11.8858
  808.5000    34.3993   -38.5735    82.7482    12.8680    11.8848
  809.0000    32.2584   -38.3022    82.4748    12.8403    11.8862
  809.5000    29.9324   -38.1266    82.1026    12.8114    11.8953
  810.0000    33.2513   -38.2215    81.7304    12.7894    11.9069
  810.5000    36.8142   -38.3823    81.3581    12.7882    11.9178
  811.0000    39.5687   -38.5284    80.9859    12.7884    11.9293
  811.5000    44.3981   -38.6831    80.7422    12.7887    11.9399
  812.0000    42.7112   -38.7063    80.7422    12.7884    11.9518
  812.5000    43.0718   -38.6808    80.7422    12.7897    11.9612
  813.0000    36.4552   -38.4814    81.9208    12.7823    11.9758
  813.5000    38.4210   -38.2710    83.4911    12.6987    11.9687
  814.0000    43.4284   -38.0548    85.0614    12.6004    11.7899
  814.5000    49.6259   -37.9004    86.1926    12.5049    11.5995
  815.0000    47.8604   -37.8657    86.9743    12.4081    11.4214
  815.5000    45.3250   -37.8366    87.7559    12.3118    11.2311
  816.0000    43.6816   -37.8071    88.5376    12.2158    11.0892
  816.5000    45.9447   -37.7806    89.3193    12.1186    11.0502
  817.0000    46.3815   -37.7483    90.1010    12.0238    11.0046
  817.5000    47.2278   -37.7304    90.8827    11.9249    10.9625
  818.0000    50.9971   -37.6265    91.6643    11.8707    10.9169
  818.5000    53.0490   -36.8377    92.4460    11.8536    10.8838
  819.0000    45.8888   -36.4681    92.7783    11.8308    10.8820
  819.5000    46.5855   -36.5123    92.7783    11.8110    10.8825
  820.0000    37.5163   -36.4999    92.4147    11.7894    10.8821
  820.5000    33.0757   -36.6001    91.7866    11.7689    10.8834
  821.0000    32.6475   -36.6912    91.1585    11.7478    10.8810
  821.5000    35.7730   -36.7890    90.7723    11.7271    10.8854
  822.0000    33.9978   -36.8796    91.9382    11.7056    10.8768
  822.5000    29.8008   -36.6691    93.1205    11.6876    10.9066
  823.0000    29.7911   -36.3565    94.3029    11.6979    10.9896
  823.5000    34.1400   -36.0630    94.7843    11.7121    10.9197
  824.0000    33.3331   -35.7248    93.7854    11.7255    10.8801
  824.5000    34.7967   -35.3072    92.7803    11.7392    10.8837
  825.0000    38.3375   -34.7984    91.7778    11.7529    10.8826
  825.5000    41.1658   -34.3027    90.7765    11.7663    10.8821
  826.0000    37.5466   -33.7982    89.7710    11.7803    10.8847
  826.5000    41.1906   -33.3049    89.9939    11.7859    10.8607
