~VERSION INFORMATION
 VERS.                2.0:   CWLS LOG ASCII STANDARD - VERSION 2.0
 WRAP.                 NO:   ONE LINE PER DEPTH STEP
~WELL INFORMATION
#MNEM.UNIT      DATA TYPE    INFORMATION
#----------   ------------   ------------------------------
 STRT.F            2.0000:   START DEPTH
 STOP.F          518.0000:   STOP DEPTH
 STEP.F            0.5000:   STEP LENGTH
 NULL.          -999.2500:   NO VALUE
 COMP. LAWRENCE/ALLISON INC:   COMPANY
 WELL.    54-51 SX #10-10:   WELL
 FLD .             TEAPOT:   FIELD
 LOC .      S10 T38N R78W:   LOCATION
 CNTY.            NATRONA:   COUNTY
 STAT.            WYOMING:   STATE
 CTRY. UNITED STATES OF AMERICA:   COUNTRY
 SRVC.            Unknown:   SERVICE COMPANY
 DATE.        14-AUG-1984:   LOGDATE
 API .       490251098800:   API NUMBER
~CURVE INFORMATION
#MNEM.UNIT       API CODE    CURVE DESCRIPTION
#----------   ------------   ------------------------------
 DEPT.F                  :   
 CALD.IN     45 280 60 00:   CALIPER
 DEN .G/C3   45 350 01 00:   COMPENSATED BULK DENSTIY
 CORR.G/C3   45 356 01 00:   DENSITY CORRECTION
 CNC .DEC    42 890 03 00:   NEUTRON POROSITY SANDSTONE
 PORD.DEC    45 890 12 00:   POROSITY DENSITY SANDSTONE
 GRR .GAPI   07 310 01 00:   GAMMA RAY FROM RES. LOG.
 RFOC.OHMM   07 220 04 00:   RESISTIVITY FOCUSED LOG
 RILD.OHMM   07 120 46 00:   INDUCTION LOG DEEP RESISTIVITY
 RILM.OHMM   07 120 44 00:   INDUCTION LOG MEDIUM RESISTIVITY
 AC  .US/F   60 520 00 00:   ACOUSTIC SONIC
 SPR .MV     07 010 01 00:   SPONTANEOUS POTENTIAL
~PARAMETER INFORMATION
#MNEM.UNIT          VALUE    DESCRIPTION
#----------   ------------   ------------------------------
 PD  .                 GL:   PERMANENT DATUM
 EPD .F              5197:   ELEVATION PERMANENT DATUM
 LMF .                 GL:   LOG MEASURED FROM
 DMF .                 GL:   DRILLING MEASURED FROM
 EGL .F              5197:   GROUND LEVEL
 DATE.        14-AUG-1984:   RUN DATE
 RUN .                  1:   RUN NUMBER
 DD  .F               530:   DEPTH DRILLER
 DL  .F               520:   DEPTH LOGGER
 BLI .F               518:   BOTTOM LOG INTERVAL
 CS  .IN            9.625:   CASING SIZE
 CBD .F                40:   CASING BOTTOM DRILLER
 CBL .F                42:   CASING BOTTOM LOGGER
 BS  .IN            7.875:   BIT SIZE
 BSD .F               530:   BIT SIZE AT DEPTH
 DFT .          KCL WATER:   DRILLING FLUID TYPE
 MSS .           FLOWLINE:   MUD SAMPLE SOURCE
 RMS .OHMM            .19:   RESISTIVITY MUD SAMPLE
 MST .F                80:   MUD SAMPLE TEMPERATURE
 RMB .OHMM            .17:   RESISTIVITY MUD AT BHT
 BHT .F                90:   BOTTOM HOLE TEMPERATURE
 TCS .HRS               4:   TIME CURCULATED STOPPED
 MRT .F                90:   MAXIMUM RECORDED TEMPERATURE
 LUN .               6274:   LOGGING UNIT NUMBER
 LUL .               GLTE:   LOGGING UNIT LOCATION
 ENGI.             RAUTIO:   RECORDING ENGINEER
 WITN.              FIVAS:   WITNESSED BY
 CLNT.            A2DTECH:   CLIENT CODE
 ORIG.       2", 5" PRINT:   ORIGIN OF DATA
 UWI .       490251098800:   UNIQUE WELL ID
 DICO. A2D Technologies, Inc.:   DIGITIZING COMPANY
~OTHER INFORMATION
~A    DEPT    CALD        DEN       CORR        CNC       PORD         GRR      RFOC       RILD       RILM         AC        SPR   
# ...
   93.5000     8.4306     2.4032    -0.0169     0.0741     0.1649   102.0176  -999.2500     9.6256    10.0286  -999.2500   -42.3933
   94.0000     8.4306     2.4025    -0.0114     0.0740     0.1644   104.8194  -999.2500     9.6461    10.0639  -999.2500   -43.0602
   94.5000     8.4306     2.4017    -0.0057     0.0768     0.1656   106.1161  -999.2500     9.6666    10.0994  -999.2500   -44.7340
   95.0000     8.4306     2.3971    -0.0053     0.0793     0.1674   106.1535  -999.2500     9.6872    10.1350  -999.2500   -47.3032
   95.5000     8.4306     2.3946    -0.0098     0.0790     0.1693   104.3967  -999.2500     9.7079    10.1707  -999.2500   -50.0501
   96.0000     8.4306     2.4009    -0.0088     0.0786     0.1658   101.8565  -999.2500     9.7285    10.2065  -999.2500   -52.8039
   96.5000     8.4306     2.4095    -0.0009     0.0785     0.1601    99.2598  -999.2500     9.7489    10.2297  -999.2500   -55.3698
   97.0000     8.4306     2.4180     0.0010     0.0815     0.1553    96.4186  -999.2500     9.7712     9.9524  -999.2500   -56.5661
   97.5000     8.4306     2.4262    -0.0052     0.0849     0.1503    97.5013  -999.2500     9.4809     9.8114  -999.2500   -57.6036
   98.0000     8.4306     2.4256    -0.0115     0.0868     0.1507    98.9589  -999.2500     9.2147     9.5489  -999.2500   -57.6181
   98.5000     8.4306     2.4161    -0.0178     0.0832     0.1585    98.8295  -999.2500     8.9904     9.2935  -999.2500   -57.2618
   99.0000     8.4306     2.4064    -0.0242     0.0790     0.1629    99.1881  -999.2500     8.7716     9.0445  -999.2500   -56.0745
   99.5000     8.4306     2.4023    -0.0308     0.0756     0.1647   103.0339  -999.2500     8.5582     8.8021  -999.2500   -54.6504
  100.0000     8.4306     2.4073    -0.0232     0.0721     0.1624   106.7714  -999.2500     8.3490     8.5659  -999.2500   -52.4986
  100.5000     8.4306     2.4124    -0.0119     0.0687     0.1596   106.4981  -999.2500     8.2060     8.3587  -999.2500   -50.4019
  101.0000     8.4306     2.4037    -0.0008     0.0665     0.1645   105.0876  -999.2500     8.1746     8.3770  -999.2500   -48.5184
  101.5000     8.4306     2.3933     0.0064     0.0665     0.1710   103.7547  -999.2500     8.1463     8.4026  -999.2500   -47.9109
  102.0000     8.4306     2.3880    -0.0004     0.0686     0.1729   102.5220  -999.2500     8.1321     8.4286  -999.2500   -47.8040
  102.5000     8.4306     2.4002    -0.0076     0.0710     0.1650   101.8675  -999.2500     8.2051     8.4952  -999.2500   -46.7020
  103.0000     8.4306     2.4143    -0.0010     0.0713     0.1576   103.7948  -999.2500     8.2869     8.5799  -999.2500   -43.5344
  103.5000     8.4306     2.4213     0.0104     0.0710     0.1542   105.6861  -999.2500     8.3696     8.6655  -999.2500   -40.3252
  104.0000     8.4306     2.4172     0.0082     0.0707     0.1557   107.6205  -999.2500     8.4531     8.7520  -999.2500   -39.4133
  104.5000     8.4306     2.4131    -0.0009     0.0705     0.1590   107.0578  -999.2500     8.5375     8.8393  -999.2500   -40.9257
  105.0000     8.4306     2.4095    -0.0092     0.0697     0.1594   105.7230  -999.2500     8.6223     8.9275  -999.2500   -43.5317
  105.5000     8.4306     2.4143    -0.0087     0.0711     0.1571   104.5673  -999.2500     8.7074     9.0166  -999.2500   -46.1368
  106.0000     8.4306     2.4205    -0.0074     0.0734     0.1540   105.9219  -999.2500     8.7540     9.0779  -999.2500   -48.7560
  106.5000     8.4306     2.4217    -0.0062     0.0757     0.1527   107.2912  -999.2500     8.5567     8.8384  -999.2500   -51.2696
  107.0000     8.4306     2.4187    -0.0052     0.0781     0.1550   107.3289  -999.2500     8.4363     8.6736  -999.2500   -51.7144
  107.5000     8.4306     2.4164    -0.0138     0.0770     0.1562   109.0870  -999.2500     8.5902     8.8761  -999.2500   -51.8595
  108.0000     8.4306     2.4157    -0.0230     0.0751     0.1570   111.1567  -999.2500     8.7319     9.0638  -999.2500   -52.0546
  108.5000     8.4306     2.4149    -0.0282     0.0740     0.1587   110.3315  -999.2500     8.8763     9.2566  -999.2500   -50.4685
  109.0000     8.4306     2.4120    -0.0227     0.0754     0.1605   108.5097  -999.2500     9.0230     9.4534  -999.2500   -47.3740
  109.5000     8.4306     2.4085    -0.0173     0.0768     0.1622   106.5933  -999.2500     9.1722     9.6011  -999.2500   -43.2949
  110.0000     8.4306     2.4069    -0.0119     0.0783     0.1603   105.2431  -999.2500     9.2743     9.6262  -999.2500   -39.3780
  110.5000     8.4306     2.4148    -0.0064     0.0793     0.1557   103.8179  -999.2500     9.3277     9.6507  -999.2500   -35.8078
  111.0000     8.4306     2.4200    -0.0012     0.0772     0.1541   104.5104  -999.2500     9.3814     9.6820  -999.2500   -34.8457
  111.5000     8.4306     2.4206    -0.0018     0.0751     0.1536   106.5761  -999.2500     9.4191     9.6230  -999.2500   -34.2223
  112.0000     8.4306     2.4192    -0.0025     0.0731     0.1543   108.8263  -999.2500     9.2895     9.5380  -999.2500   -33.6309
  112.5000     8.4306     2.4173    -0.0055     0.0709     0.1561   110.9176  -999.2500     9.1901     9.4541  -999.2500   -33.1089
  113.0000     8.4306     2.4154    -0.0059     0.0717     0.1559   112.4360  -999.2500     9.0919     9.3710  -999.2500   -33.6043
  113.5000     8.4306     2.4147    -0.0065     0.0725     0.1570   113.8672  -999.2500     8.9950     9.2886  -999.2500   -33.8924
  114.0000     8.4306     2.4151    -0.0072     0.0724     0.1594   115.3008  -999.2500     8.8992     9.2482  -999.2500   -33.7692
  114.5000     8.4306     2.4160    -0.0141     0.0723     0.1570   115.9870  -999.2500     8.8327     9.2784  -999.2500   -33.5973
  115.0000     8.4306     2.4164    -0.0212     0.0722     0.1575   113.7656  -999.2500     8.9095     9.3392  -999.2500   -33.4221
  115.5000     8.4306     2.4113    -0.0283     0.0721     0.1614   111.2666  -999.2500     8.9799     9.4006  -999.2500   -33.2982
  116.0000     8.4306     2.4008    -0.0344     0.0731     0.1668   108.7619  -999.2500     9.0509     9.4625  -999.2500   -33.5877
  116.5000     8.4306     2.3919    -0.0215     0.0742     0.1701   106.5239  -999.2500     9.1224     9.5247  -999.2500   -33.9319
  117.0000     8.4306     2.3996    -0.0058     0.0753     0.1643   106.1610  -999.2500     9.1945     9.5937  -999.2500   -34.9123
  117.5000     8.4306     2.4092     0.0101     0.0772     0.1599   107.1151  -999.2500     9.2672     9.5937  -999.2500   -35.8504
  118.0000     8.4306     2.4181     0.0159     0.0789     0.1537   108.0378  -999.2500     9.3331     9.5565  -999.2500   -36.7806
  118.5000     8.4306     2.4267     0.0062     0.0770     0.1498   108.5165  -999.2500     9.2590     9.4824  -999.2500   -36.9559
  119.0000     8.4306     2.4276     0.0026     0.0752     0.1498   107.5596  -999.2500     9.1773     9.4089  -999.2500   -36.3786
  119.5000     8.4306     2.4254    -0.0009     0.0735     0.1514   106.1611  -999.2500     9.0963     9.3359  -999.2500   -35.8069
  120.0000     8.4306     2.4199    -0.0070     0.0738     0.1552   104.9806  -999.2500     9.0160     9.2636  -999.2500   -35.2539
  120.5000     8.4306     2.4144    -0.0146     0.0751     0.1586   105.9056  -999.2500     8.9365     9.1918  -999.2500   -34.7953
  121.0000     8.4306     2.4116    -0.0166     0.0755     0.1574   107.1390  -999.2500     8.8577     9.1205  -999.2500   -34.6030
  121.5000     8.4306     2.4160    -0.0040     0.0733     0.1550   109.5455  -999.2500     8.7795     9.0498  -999.2500   -34.4141
  122.0000     8.4306     2.4218     0.0054     0.0717     0.1526   111.9020  -999.2500     8.7021     8.9796  -999.2500   -34.3020
  122.5000     8.4306     2.4211    -0.0030     0.0727     0.1544   111.8808  -999.2500     8.6253     8.9101  -999.2500   -34.7496
  123.0000     8.4306     2.4120    -0.0121     0.0743     0.1614   109.6317  -999.2500     8.5491     8.8414  -999.2500   -35.1556
  123.5000     8.4306     2.4024    -0.0195     0.0759     0.1668   108.2433  -999.2500     8.4738     8.7725  -999.2500   -36.8097
