~VERSION INFORMATION
 VERS.                2.0:   CWLS LOG ASCII STANDARD - VERSION 2.0
 WRAP.                 NO:   ONE LINE PER DEPTH STEP
~WELL INFORMATION
#MNEM.UNIT      DATA TYPE    INFORMATION
#----------   ------------   ------------------------------
 STRT.F           36.0000:   START DEPTH
 STOP.F          557.0000:   STOP DEPTH
 STEP.F            0.5000:   STEP LENGTH
 NULL.          -999.2500:   NO VALUE
 COMP. FENIX & SCISSON U.S. NAVY:   COMPANY
 WELL.        NPR #62-S-3:   WELL
 FLD .             TEAPOT:   FIELD
 LOC .       S3 T38N R78W:   LOCATION
 CNTY.            NATRONA:   COUNTY
 STAT.            WYOMING:   STATE
 CTRY. UNITED STATES OF AMERICA:   COUNTRY
 SRVC.              Welex:   SERVICE COMPANY
 DATE.        07-MAY-1977:   LOGDATE
 API .       490251035000:   API NUMBER
~CURVE INFORMATION
#MNEM.UNIT       API CODE    CURVE DESCRIPTION
#----------   ------------   ------------------------------
 DEPT.F                  :   
 SPR .MV     07 010 01 00:   SPONTANEOUS POTENTIAL
 ILD .OHMM   07 120 46 00:   INDUCTION LOG DEEP
 ILM .OHMM   07 120 44 00:   INDUCTION LOG MEDIUM
 SGRD.OHMM   07 221 05 00:   SHALLOW SHORT GUARD RESISTIVITY
 GRD .GAPI   45 310 01 00:   GAMMA RAY FROM DENSITY LOG
 CALD.IN     45 280 60 00:   CALIPER FROM DENSITY LOG
 CORR.G/C3   45 356 01 00:   DENSITY CORRECTION
 RHOB.G/C3   45 350 01 00:   BULK DENSITY
 DPHI.DEC    45 890 12 00:   DENSITY POROSITY SANDSTONE
 NEUT.NAPI   35 330 01 00:   NEUTRON
~PARAMETER INFORMATION
#MNEM.UNIT          VALUE    DESCRIPTION
#----------   ------------   ------------------------------
 PD  .                 GL:   PERMANENT DATUM
 EPD .F              5136:   ELEVATION PERMANENT DATUM
 LMF .                 GL:   LOG MEASURED FROM
 DMF .                 GL:   DRILLING MEASURED FROM
 EGL .F              5136:   GROUND LEVEL
 DATE.        07-MAY-1977:   RUN DATE
 RUN .                  1:   RUN NUMBER
 DD  .F               560:   DEPTH DRILLER
 DL  .F               560:   DEPTH LOGGER
 BLI .F               558:   BOTTOM LOG INTERVAL
 TLI .F                35:   TOP LOG INTERVAL
 CS  .IN            8.625:   CASING SIZE
 CBD .F                40:   CASING BOTTOM DRILLER
 CBL .F                42:   CASING BOTTOM LOGGER
 BS  .IN            7.875:   BIT SIZE
 BSD .F               560:   BIT SIZE AT DEPTH
 DFT .             KCLMUD:   DRILLING FLUID TYPE
 DFD .                8.8:   DRILLING FLUID DENSITY
 MSS .           FLOWLINE:   MUD SAMPLE SOURCE
 RMS .OHMM           0.24:   RESISTIVITY MUD SAMPLE
 MST .F                60:   MUD SAMPLE TEMPERATURE
 RMF .OHMM           0.20:   RESISTIVITY MUD FILTRATE SAMPLE
 MFST.F                60:   MUD FILTRATE SAMPLE TEMPERATURE
 RMC .OHMM           0.29:   RESISTIVITY MUD CAKE
 MCST.F                60:   MUD CAKE SAMPLE TEMPERATURE
 MFSS.               MEAS:   MUD FILTRATE SAMPLE SOURCE
 MCSS.               MEAS:   MUD CAKE SAMPLE SOURCE
 RMB .OHMM             17:   RESISTIVITY MUD AT BHT
 BHT .F                71:   BOTTOM HOLE TEMPERATURE
 TCS .HRS            0230:   TIME CURCULATED STOPPED
 MRT .F                71:   MAXIMUM RECORDED TEMPERATURE
 LUN .               8611:   LOGGING UNIT NUMBER
 LUL .           GILLETTE:   LOGGING UNIT LOCATION
 ENGI.            C. DOCK:   RECORDING ENGINEER
 WITN.           ROB LYON:   WITNESSED BY
 CLNT.            A2DTECH:   CLIENT CODE
 ORIG.           5" PRINT:   ORIGIN OF DATA
 UWI .       490251035000:   UNIQUE WELL ID
 DICO. A2D Technologies, Inc.:   DIGITIZING COMPANY
~OTHER INFORMATION
~A   DEPT      SPR        ILD        ILM       SGRD        GRD       CALD       CORR       RHOB       DPHI       NEUT   
# ...
  438.0000   -29.9431    13.1669    19.4981    19.9336    84.8318     7.8370     0.0076     2.4607     0.1289   403.8107
  438.5000   -29.1861    14.0195    19.3732    21.6666    82.6093     7.8382     0.0077     2.4347     0.1409   414.6655
  439.0000   -28.4290    15.1313    18.8539    24.5509    78.8943     7.8394     0.0078     2.4132     0.1577   405.2653
  439.5000   -27.6719    16.7826    18.7308    29.6110    76.5226     7.8406     0.0079     2.3811     0.1757   403.9670
  440.0000   -27.0639    18.8731    20.7905    37.2316    71.6136     7.8567     0.0072     2.3478     0.2030   415.1842
  440.5000   -26.4558    21.9796    24.8974    42.7773    67.0030     7.8728     0.0057     2.3327     0.2057   431.0912
  441.0000   -25.8478    25.4214    27.2523    45.2241    64.1795     7.8740     0.0051     2.3353     0.1996   439.2454
  441.5000   -25.3888    32.1632    29.2176    39.3721    65.5432     7.8603     0.0051     2.3519     0.1930   443.3355
  442.0000   -24.9298    48.6945    33.5673    57.6650    67.0520     7.8615     0.0044     2.3591     0.1863   431.2476
  442.5000   -24.3218    57.8967    38.8320    59.7839    68.5609     7.8465     0.0053     2.3749     0.1770   421.8474
  443.0000   -23.8628    50.8034    29.0586    52.3437    70.5176     7.8191     0.0061     2.3936     0.1670   416.4981
  443.5000   -23.8508    42.7702    19.8756    40.5022    72.7727     7.8053     0.0077     2.4007     0.1622   415.2000
  444.0000   -23.6899    37.2719    29.2887    36.2532    74.8786     7.8065     0.0093     2.4030     0.1613   420.6665
  444.5000   -23.6780    36.7023    34.5884    40.7954    73.7009     7.7906     0.0116     2.4031     0.1621   426.1201
  445.0000   -23.8152    39.1555    32.5213    43.1289    71.9262     7.7791     0.0125     2.4032     0.1621   435.6245
  445.5000   -23.9522    41.1143    24.0019    39.1435    70.5992     7.7803     0.0125     2.4040     0.1590   455.9318
  446.0000   -24.3874    36.8322    19.9240    34.3156    69.2723     7.7668     0.0118     2.4063     0.1560   474.8886
  446.5000   -24.8226    33.4549    17.9698    32.9204    67.9453     7.7680     0.0097     2.4153     0.1500   491.1448
  447.0000   -25.4068    30.8098    16.8938    37.0463    66.9169     7.7692     0.0090     2.4364     0.1391   502.3798
  447.5000   -25.6929    28.7683    16.7835    70.6197    66.0377     7.7704     0.0098     2.4799     0.1159   510.1669
  448.0000   -26.1281    26.3114    17.3844   104.8716    65.7194     7.7563     0.0114     2.5316     0.0901   484.5626
  448.5000   -26.1162    24.3990    18.2555    61.4902    68.3092     7.7429     0.0137     2.5496     0.0822   453.5570
  449.0000   -25.8062    22.7823    19.9822    35.5561    71.4599     7.6993     0.0145     2.5145     0.0867   427.9527
  449.5000   -25.4963    21.8658    21.8722    29.6925    74.4613     7.6405     0.0101     2.4464     0.1113   410.4505
  450.0000   -25.1644    22.6448    23.3091    32.1356    76.2687     7.5674     0.0056     2.4308     0.1410   396.9992
  450.5000   -25.6617    22.0394    23.6210    33.9691    74.9463     7.4939     0.0009     2.4210     0.1544   391.6501
  451.0000   -25.9076    22.5110    23.3063    34.5925    71.8313     7.6301    -0.0033     2.4001     0.1665   391.7152
  451.5000   -25.7465    22.2122    22.3685    34.3534    72.7461     7.7211    -0.0063     2.3964     0.1677   393.1177
  452.0000   -25.5855    21.6169    21.6174    33.6460    77.9893     7.7524    -0.0076     2.3950     0.1656   394.5202
  452.5000   -25.4245    21.0375    20.8915    32.9532    78.6057     7.7241    -0.0067     2.4011     0.1625   398.6234
  453.0000   -25.2635    20.4737    20.4690    32.0516    78.6250     7.7405    -0.0051     2.4094     0.1592   404.0768
  453.5000   -25.2515    21.2023    22.7179    31.6101    79.2413     7.7569    -0.0028     2.4162     0.1541   405.4793
  454.0000   -25.0905    21.9569    23.6901    31.1746    81.0517     7.7584     0.0003     2.4222     0.1507   403.7870
  454.5000   -24.9295    22.1212    23.0535    31.6101    83.0113     7.7598     0.0018     2.4185     0.1489   396.1443
  455.0000   -24.9175    20.9397    21.2267    32.2746    84.8217     7.7613     0.0033     2.4208     0.1546   394.8331
  455.5000   -24.7565    20.9491    20.6541    32.0516    86.0350     7.7628     0.0042     2.4141     0.1582   405.7009
  456.0000   -24.5955    21.8450    23.0823    31.1746    86.6514     7.7643     0.0042     2.4097     0.1557   417.9061
  456.5000   -24.2855    22.1587    24.9169    30.1121    86.5215     7.7505     0.0035     2.4210     0.1521   423.3596
  457.0000   -24.1245    21.7142    27.2718    30.5327    85.4960     7.7370     0.0028     2.4331     0.1436   422.0526
  457.5000   -23.9635    21.1322    30.2650    30.7452    84.1721     7.7389     0.0021     2.4473     0.1367   416.7122
  458.0000   -23.8025    20.4243    21.2776    30.9592    82.4003     7.7254     0.0022     2.4477     0.1343   407.3250
  458.5000   -23.7905    19.7401    25.8365    30.7452    80.6286     7.7269     0.0008     2.4355     0.1492   399.2752
  459.0000   -23.7785    19.2109    21.8949    29.9040    79.9016     7.7433     0.0001     2.4176     0.1573   396.6136
  459.5000   -23.6175    18.8256    19.6100    28.4869    79.7717     7.7448    -0.0006     2.4079     0.1591   396.6788
  460.0000   -23.6056    19.0960    23.5583    27.5159    79.6418     7.7463    -0.0013     2.4079     0.1480   398.0813
  460.5000   -23.5936    19.5044    30.8954    27.9003    79.2109     7.7478    -0.0020     2.4297     0.1441   403.5615
  461.0000   -23.5816    19.7845    36.0783    28.2900    78.1781     7.7493    -0.0026     2.4313     0.1455   412.9131
  461.5000   -23.7187    19.9305    31.8476    28.8847    77.4610     7.7507    -0.0048     2.4193     0.1557   421.6709
  462.0000   -24.0078    19.2628    21.8066    29.0858    81.1222     7.7522    -0.0055     2.4066     0.1611   426.6600
  462.5000   -24.4399    18.8764    18.8582    29.3222    84.1045     7.7537    -0.0047     2.4015     0.1662   428.0624
  463.0000   -24.7260    18.7549    19.6736    29.9040    85.5940     7.7701    -0.0039     2.3982     0.1674   430.8153
  463.5000   -25.0151    18.7634    20.2252    30.3217    86.3622     7.7738    -0.0031     2.4000     0.1622   433.5681
  464.0000   -25.1521    18.6426    19.1413    30.2993    87.0010     7.7881    -0.0030     2.3959     0.1724   436.3388
  464.5000   -25.5842    18.1430    18.3744    29.8506    87.6000     7.7898    -0.0029     2.3815     0.1763   439.2871
  465.0000   -25.7213    17.5352    18.0046    26.8882    88.2189     7.8063    -0.0029     2.3853     0.1754   443.1899
  465.5000   -25.7093    17.0652    18.6458    27.5520    88.8104     7.8077    -0.0028     2.3846     0.1723   444.5924
  466.0000   -25.6974    16.8387    19.4438    29.6973    89.4307     7.8092    -0.0020     2.3907     0.1693   444.6445
  466.5000   -25.6854    16.8463    20.2759    27.1356    90.0471     7.8107    -0.0019     2.3915     0.1684   444.6967
  467.0000   -25.8254    17.0882    20.7096    26.3944    90.6634     7.8122    -0.0011     2.3818     0.1735   435.2965
  467.5000   -26.1085    17.2143    20.2929    26.0308    91.4290     7.7984    -0.0010     2.3766     0.1785   428.5746
  468.0000   -26.2456    17.1036    18.6848    27.3258    92.1946     7.8002    -0.0009     2.3774     0.1812   424.5981
  468.5000   -26.3827    16.6452    18.0570    28.6851    89.0796     7.7864    -0.0001     2.3790     0.1779   424.6632
  469.0000   -26.6687    16.8842    18.7004    29.0858    86.5616     7.7730    -0.0001     2.3858     0.1743   428.7664
  469.5000   -26.8088    17.1266    19.2329    29.6973    84.4865     7.7748    -0.0007     2.3874     0.1709   435.5702
  470.0000   -26.9459    17.2530    19.6442    27.3258    88.6898     7.7610    -0.0007     2.3889     0.1697   441.0237
  470.5000   -27.2319    17.2193    19.2489    25.8509    90.7987     7.7628    -0.0014     2.3942     0.1676   445.1269
  471.0000   -27.3690    17.0323    17.7236    24.4557    92.0120     7.7643    -0.0021     2.4003     0.1657   435.6730
