~VERSION INFORMATION
 VERS.                2.0:   CWLS LOG ASCII STANDARD - VERSION 2.0
 WRAP.                 NO:   ONE LINE PER DEPTH STEP
~WELL INFORMATION
#MNEM.UNIT      DATA TYPE    INFORMATION
#----------   ------------   ------------------------------
 STRT.F           95.0000:   START DEPTH
 STOP.F          914.0000:   STOP DEPTH
 STEP.F            0.5000:   STEP LENGTH
 NULL.          -999.2500:   NO VALUE
 COMP. LAWRENCE/ALLISON INC:   COMPANY
 WELL. NPR ##3 31-61 SX 2:   WELL
 FLD .             TEAPOT:   FIELD
 LOC .       S2 T38N R78W:   LOCATION
 CNTY.            NATRONA:   COUNTY
 STAT.            WYOMING:   STATE
 CTRY. UNITED STATES OF AMERICA:   COUNTRY
 SRVC.      Dresser Atlas:   SERVICE COMPANY
 DATE.        30-JAN-1986:   LOGDATE
 API .       490251106800:   API NUMBER
~CURVE INFORMATION
#MNEM.UNIT       API CODE    CURVE DESCRIPTION
#----------   ------------   ------------------------------
 DEPT.F                  :   
 RILD.OHMM   07 120 46 00:   INDUCTION LOG DEEP RESISTIVITY
 RILM.OHMM   07 120 44 00:   INDUCTION LOG MEDIUM RESISTIVITY
 CALD.IN     45 280 60 00:   CALIPER FROM DENSITY
 GRD .GAPI   45 310 01 00:   GAMMA RAY FROM DENSITY LOG
 CORR.G/C3   45 356 01 00:   DENSITY CORRECTION
 PORD.DEC    45 890 10 00:   POROSITY DENSITY LIMESTONE
 DEN .G/C3   45 350 01 00:   COMPENSATED BULK DENSITY
~PARAMETER INFORMATION
#MNEM.UNIT          VALUE    DESCRIPTION
#----------   ------------   ------------------------------
 PD  .                 GL:   PERMANENT DATUM
 EPD .F              5126:   ELEVATION PERMANENT DATUM
 LMF .                 GL:   LOG MEASURED FROM
 DMF .                 GL:   DRILLING MEASURED FROM
 EGL .F              5126:   GROUND LEVEL
 DATE.        30-JAN-1986:   RUN DATE
 RUN .                  1:   RUN NUMBER
 DD  .F               925:   DEPTH DRILLER
 DL  .F               918:   DEPTH LOGGER
 BLI .F               910:   BOTTOM LOG INTERVAL
 CS  .IN            8.625:   CASING SIZE
 CBD .F               127:   CASING BOTTOM DRILLER
 CBL .F               127:   CASING BOTTOM LOGGER
 BS  .IN             6.25:   BIT SIZE
 BSD .F               925:   BIT SIZE AT DEPTH
 DFT .                AIR:   DRILLING FLUID TYPE
 LUN .            HL-6264:   LOGGING UNIT NUMBER
 LUL .           GILLETTE:   LOGGING UNIT LOCATION
 ENGI.     P. M. FAHLSING:   RECORDING ENGINEER
 WITN.        LINOA FIVAS:   WITNESSED BY
 CLNT.            A2DTECH:   CLIENT CODE
 ORIG.           5" PRINT:   ORIGIN OF DATA
 UWI .       490251106800:   UNIQUE WELL ID
 DICO. A2D Technologies, Inc.:   DIGITIZING COMPANY
~OTHER INFORMATION
~A   DEPT     RILD       RILM       CALD         GRD      CORR       PORD        DEN   
# ...
  322.5000     8.2713     7.5536     6.8549   117.0392     0.1431     0.1131     2.4819
  323.0000     8.2131     7.5015     6.8403   117.3474     0.1415     0.1086     2.4902
  323.5000     8.0430     7.3982     6.8408   115.0876     0.1415     0.1083     2.4970
  324.0000     7.8764     7.2460     6.8412   112.0725     0.1414     0.1146     2.4902
  324.5000     7.4506     7.0479     6.8116   111.4743     0.1399     0.1222     2.4789
  325.0000     6.8551     6.7608     6.7970   111.4803     0.1338     0.1280     2.4639
  325.5000     6.1347     6.1357     6.8125   111.0332     0.1278     0.1371     2.4533
  326.0000     4.9138     5.0886     6.8280   111.0393     0.1247     0.1415     2.4428
  326.5000     3.9909     4.0765     6.8435   113.1601     0.1247     0.1400     2.4443
  327.0000     3.2865     3.3808     6.8439   117.0937     0.1246     0.1460     2.4367
  327.5000     2.7633     2.7653     6.8444   123.7462     0.1261     0.1744     2.4157
  328.0000     2.4901     2.3093     6.8448   136.4411     0.1276     0.1988     2.3494
  328.5000     2.3231     2.2000     6.8453   145.8127     0.1230     0.2224     2.2651
  329.0000     2.2908     2.1995     6.8457   146.5741     0.1184     0.2773     2.2048
  329.5000     2.3064     2.2775     6.8612   139.1783     0.1214     0.3045     2.1611
  330.0000     2.4545     2.4074     6.8617   129.6677     0.1334     0.3205     2.1384
  330.5000     2.7802     2.5990     6.8621   121.8188     0.1499     0.3077     2.1965
  331.0000     3.2829     2.9701     6.8325   117.1420     0.1544     0.2627     2.2613
  331.5000     3.9578     3.6564     6.8179   112.1632     0.1543     0.2236     2.3178
  332.0000     5.0787     4.5447     6.8033   107.6376     0.1377     0.1692     2.3983
  332.5000     6.5169     6.3178     6.8011   103.1118     0.1332     0.1413     2.4398
  333.0000     8.4206     8.1866     6.7959   104.6285     0.1481     0.1316     2.4578
  333.5000    10.5099     9.6000     6.7897   105.9940     0.1511     0.1264     2.4684
  334.0000    12.0708    11.4336     6.7902   101.1662     0.1375     0.1213     2.4759
  334.5000    13.0251    13.1427     6.8057    89.5409     0.1089     0.1181     2.4804
  335.0000    13.7658    15.1584     6.8211    77.7645     0.1066     0.1185     2.4789
  335.5000    13.6688    15.8563     6.8366    67.3475     0.1194     0.1208     2.4744
  336.0000    12.1480    13.6140     6.8219    63.2750     0.1313     0.1196     2.4759
  336.5000    10.0735    11.3693     6.8225    64.1875     0.1448     0.1184     2.4812
  337.0000     8.2956     8.9205     6.8229    72.9548     0.1538     0.1263     2.4759
  337.5000     7.1215     6.9029     6.8234    83.8370     0.1643     0.1329     2.4654
  338.0000     6.1561     5.4538     6.8087    99.2509     0.1627     0.1350     2.4563
  338.5000     5.7831     4.9839     6.8093   115.1180     0.1522     0.1350     2.4541
  339.0000     5.6633     4.8813     6.8097   130.8340     0.1416     0.1486     2.4398
  339.5000     5.6619     5.1596     6.8252   139.4503     0.1446     0.2029     2.3825
  340.0000     5.8614     5.5299     6.8557   132.5077     0.1580     0.2295     2.3065
  340.5000     6.1108     5.8858     6.8712   121.3347     0.1579     0.2165     2.2947
  341.0000     6.5515     6.3520     6.8566   109.2562     0.1519     0.1806     2.3712
  341.5000     7.2230     6.9992     6.8420   107.7517     0.1551     0.1522     2.4217
  342.0000     8.1854     7.8743     6.8273   108.3620     0.1670     0.1325     2.4495
  342.5000     8.9547     8.8589     6.8279   108.9722     0.1730     0.1331     2.4593
  343.0000     9.6593     9.5607     6.8284   107.7698     0.1647     0.1362     2.4533
  343.5000    10.2026    10.1057     6.8438   108.0780     0.1500     0.1395     2.4465
  344.0000    10.4892    10.5348     6.8443   109.5946     0.1472     0.1413     2.4405
  344.5000    10.7093    10.8309     6.8598   113.8303     0.1467     0.1476     2.4330
  345.0000    10.9214    11.0584     6.8602   112.3257     0.1365     0.1533     2.4232
  345.5000    11.0864    11.1353     6.8607   110.2170     0.1302     0.1603     2.4149
  346.0000    11.3820    11.2908     6.8611   110.8272     0.1334     0.1627     2.4096
  346.5000    11.6999    11.4483     6.8616   111.7396     0.1364     0.1636     2.4066
  347.0000    11.9440    11.5280     6.8620   111.7457     0.1228     0.1654     2.4036
  347.5000    12.0258    11.5280     6.8625   110.5433     0.1122     0.1666     2.4006
  348.0000    12.1078    11.5280     6.8629   112.3620     0.1182     0.1660     2.4021
  348.5000    12.0221    11.6081     6.8784   112.0659     0.1392     0.1608     2.4096
  349.0000    12.0205    11.7701     6.8789   109.0508     0.1467     0.1596     2.4134
  349.5000    12.1028    11.9344     6.8793   105.4315     0.1467     0.1614     2.4096
  350.0000    12.1008    12.0174     6.8810   103.3228     0.1499     0.1648     2.4044
  350.5000    12.1844    12.0157     6.8970   105.7484     0.1526     0.1642     2.3991
  351.0000    12.2683    12.0976     6.9101   108.7786     0.1540     0.1618     2.4044
  351.5000    12.3527    12.2648     6.9102   110.9035     0.1450     0.1561     2.4111
  352.0000    12.5243    12.3484     6.9104   110.9125     0.1314     0.1522     2.4187
  352.5000    12.6105    12.3467     6.9256   110.9215     0.1329     0.1519     2.4227
  353.0000    12.6973    12.4308     6.9107   111.8369     0.1358     0.1567     2.4164
  353.5000    12.7847    12.4291     6.9108   113.8096     0.1373     0.1595     2.4127
  354.0000    12.8728    12.5138     6.9110   115.1781     0.1342     0.1616     2.4096
  354.5000    12.9614    12.5991     6.9111   112.6191     0.1297     0.1616     2.4081
  355.0000    13.0506    12.6850     6.9108   109.1550     0.1221     0.1632     2.4051
  355.5000    13.1405    12.8598     6.8964   108.5598     0.1115     0.1626     2.3961
  356.0000    13.2309    12.9479     6.8965   108.5688     0.0980     0.1735     2.3885
  356.5000    13.2298    13.0362     6.8967   108.5778     0.0994     0.1759     2.3840
  357.0000    13.4138    13.2163     6.8818   108.5868     0.1189     0.1753     2.3825
  357.5000    13.5998    13.4916     6.8669   108.2936     0.1354     0.1732     2.3856
  358.0000    13.6937    13.6780     6.8671   107.0942     0.1293     0.1714     2.3886
  358.5000    13.8836    13.8675     6.8672   109.2180     0.1203     0.1705     2.3902
  359.0000    14.0764    14.2548     6.8824   112.8524     0.1217     0.1706     2.3908
  359.5000    14.3711    14.5523     6.8826   113.1635     0.1247     0.1715     2.3893
  360.0000    14.5710    14.7534     6.8677   106.8281     0.1322     0.1741     2.3840
  360.5000    14.8758    15.0613     6.8678   101.7011     0.1366     0.1777     2.3788
  361.0000    15.1875    15.2699     6.8680   101.7102     0.1291     0.1807     2.3727
  361.5000    15.6133    15.5880     6.8681   101.4170     0.1170     0.1864     2.3660
  362.0000    16.0508    16.0239     6.8683   102.0303     0.1004     0.1879     2.3614
  362.5000    16.2737    16.3583     6.8684   103.5499     0.0914     0.1834     2.3690
  363.0000    16.6145    16.5849     6.8535   105.9758     0.0823     0.1741     2.3810
  363.5000    17.1991    16.8135     6.8537   106.8911     0.0762     0.1686     2.3946
  364.0000    17.3178    16.9281     6.8388   105.0874     0.0777     0.1720     2.3893
  364.5000    17.3163    16.9258     6.8390   101.4711     0.0927     0.1753     2.3840
  365.0000    17.1955    16.8065     6.8391    97.5526     0.0911     0.1684     2.3916
  365.5000    17.0756    16.5729     6.8543    95.1447     0.0640     0.1536     2.4134
  366.0000    17.0744    16.0063     6.8544    96.3621     0.0579     0.1479     2.4307
  366.5000    16.9553    15.4590     6.8546   102.1113     0.0805     0.1649     2.4157
  367.0000    16.7208    15.2441     6.8547   109.0689     0.1060     0.1779     2.3855
  367.5000    16.2625    15.0322     6.8549   113.0054     0.1210     0.1869     2.3675
