~VERSION INFORMATION
 VERS.                2.0:   CWLS LOG ASCII STANDARD - VERSION 2.0
 WRAP.                 NO:   ONE LINE PER DEPTH STEP
~WELL INFORMATION
#MNEM.UNIT      DATA TYPE    INFORMATION
#----------   ------------   ------------------------------
 STRT.F            9.5000:   START DEPTH
 STOP.F          640.5000:   STOP DEPTH
 STEP.F            0.5000:   STEP LENGTH
 NULL.          -999.2500:   NO VALUE
 COMP. FENIX & SCISSON INC:   COMPANY
 WELL. 27-32 SX 11 WI #27-32 SX:   WELL
 FLD .            WILDCAT:   FIELD
 LOC .      S11 T38N R78W:   LOCATION
 CNTY.            NATRONA:   COUNTY
 STAT.            WYOMING:   STATE
 CTRY. UNITED STATES OF AMERICA:   COUNTRY
 SRVC.      Dresser Atlas:   SERVICE COMPANY
 DATE.        01-AUG-1980:   LOGDATE
 API .       490251083700:   API NUMBER
~CURVE INFORMATION
#MNEM.UNIT       API CODE    CURVE DESCRIPTION
#----------   ------------   ------------------------------
 DEPT.F                  :   
 SPR .MV     07 010 01 00:   SPONTANEOUS POTENTIAL
 SFL .OHMM   07 220 01 00:   SHALLOW FOCUSED LOG RESISTIVITY
 ILD .OHMM   07 120 46 00:   INDUCTION LOG DEEP
 ILM .OHMM   07 120 44 00:   INDUCTION LOG MEDIUM
 GRD .GAPI   45 310 01 00:   GAMMA RAY FROM DENSITY LOG
 CALD.IN     45 280 60 00:   CALIPER
 RHOB.G/C3   45 350 01 00:   BULK DENSITY
 CORR.G/C3   45 356 01 00:   DENSITY CORRECTION
 DPHI.DEC    45 890 12 00:   DENSITY POROSITY SANDSTONE
 NPHI.DEC    42 890 03 00:   NEUTRON POROSITY SANDSTONE
~PARAMETER INFORMATION
#MNEM.UNIT          VALUE    DESCRIPTION
#----------   ------------   ------------------------------
 PD  .                 GL:   PERMANENT DATUM
 EPD .F              5189:   ELEVATION PERMANENT DATUM
 LMF .                 KB:   LOG MEASURED FROM
 DAPD.F                 5:   FEET ABOVE PERMANENT DATUM
 DMF .                 KB:   DRILLING MEASURED FROM
 EKB .F              5194:   KELLING BUSHING
 EGL .F              5189:   GROUND LEVEL
 DATE.             8-1-80:   RUN DATE
 RUN .                  1:   RUN NUMBER
 DD  .F               625:   DEPTH DRILLER
 DL  .F               634:   DEPTH LOGGER
 BLI .F               632:   BOTTOM LOG INTERVAL
 TLI .F                12:   TOP LOG INTERVAL
 BS  .IN            7.875:   BIT SIZE
 BSD .F               625:   BIT SIZE AT DEPTH
 DFT .           CHEM GEL:   DRILLING FLUID TYPE
 DFD .                9.1:   DRILLING FLUID DENSITY
 DFV .                 44:   DRILLING FLUID VISCOSITY
 DFPH.                9.5:   DRILLING FLUID PH
 DFL .                7.6:   DRILLING FLUID LOSS
 MSS .           FLOWLINE:   MUD SAMPLE SOURCE
 RMS .OHMM            .27:   RESISTIVITY MUD SAMPLE
 MST .F                70:   MUD SAMPLE TEMPERATURE
 RMF .OHMM            .16:   RESISTIVITY MUD FILTRATE SAMPLE
 MFST.F                65:   MUD FILTRATE SAMPLE TEMPERATURE
 MFSS.               MEAS:   MUD FILTRATE SAMPLE SOURCE
 MCSS.               MEAS:   MUD CAKE SAMPLE SOURCE
 RMB .OHMM            .21:   RESISTIVITY MUD AT BHT
 BHT .F                94:   BOTTOM HOLE TEMPERATURE
 TCS .HRS            0040:   TIME CURCULATED STOPPED
 MRT .F                94:   MAXIMUM RECORDED TEMPERATURE
 LUN .               6145:   LOGGING UNIT NUMBER
 LUL .              GLTTE:   LOGGING UNIT LOCATION
 ENGI.              HENRY:   RECORDING ENGINEER
 WITN.              AMEND:   WITNESSED BY
 CLNT.            A2DTECH:   CLIENT CODE
 ORIG.     1", 2.5" PRINT:   ORIGIN OF DATA
 UWI .       490251083700:   UNIQUE WELL ID
 DICO. A2D Technologies, Inc.:   DIGITIZING COMPANY
~OTHER INFORMATION
~A    DEPT     SPR         SFL         ILD        ILM      GRD       CALD       RHOB       CORR       DPHI       NPHI   
# ...
  344.5000   -51.3736     7.6092     5.3811     5.3574    86.2748     7.9464     2.4652     0.0854     0.1296     0.2937
  345.0000   -51.4079     6.8082     5.1946     5.0867    86.1308     7.9523     2.4604     0.0850     0.1322     0.3056
  345.5000   -51.3447     6.0910     5.0146     4.9851    83.3425     7.9583     2.4593     0.0847     0.1337     0.3137
  346.0000   -51.2904     5.4737     4.8408     4.8913    81.8296     7.9642     2.4618     0.0848     0.1269     0.3241
  346.5000   -51.2356     6.1398     4.7152     4.8943    84.6473     7.9702     2.4766     0.0803     0.1183     0.3241
  347.0000   -51.1790     7.1251     4.7152     4.9865    87.1492     7.9761     2.4935     0.0720     0.1088     0.3233
  347.5000   -51.1237     8.2637     5.0596     5.3347    89.9899     7.9821     2.4961     0.0639     0.1119     0.3111
  348.0000   -51.0680     8.9000     5.4015     5.6793    88.7969     7.9880     2.4892     0.0602     0.1171     0.3032
  348.5000   -51.0123     8.9235     5.7665     6.0463    86.4151     7.9940     2.4833     0.0610     0.1197     0.3009
  349.0000   -50.9567     8.9472     6.1561     6.4369    85.6970     7.9999     2.4842     0.0615     0.1155     0.2986
  349.5000   -50.9012     8.9709     6.5720     6.8527    85.0959     8.0059     2.4955     0.0620     0.1114     0.2950
  350.0000   -50.8457     8.9946     7.1062     7.2954    84.6784     8.0119     2.5078     0.0626     0.1072     0.2890
  350.5000   -50.7901     9.0185     7.1578     7.7697    85.0234     8.0178     2.5074     0.0631     0.1032     0.2830
  351.0000   -50.7346     9.0423     7.2317     7.9563    85.4033     8.0238     2.5055     0.0636     0.1049     0.2770
  351.5000   -50.6791     9.1537     7.3066     7.9797    82.7029     8.0297     2.5082     0.0643     0.1064     0.2710
  352.0000   -50.6236     9.3750     7.3821     8.0029    82.5987     8.0361     2.5123     0.0628     0.1039     0.2704
  352.5000   -50.5679     9.6019     7.4579     8.0262    85.7441     8.0411     2.5163     0.0606     0.1016     0.2745
  353.0000   -50.5123     9.8343     7.5338     8.0496    87.5568     8.0466     2.5245     0.0579     0.0992     0.2786
  353.5000   -50.4569    10.0723     7.6101     8.0733    86.0539     8.0520     2.5345     0.0554     0.0932     0.2820
  354.0000   -50.4008    10.1272     7.6759     8.0973    84.7387     8.0575     2.5301     0.0436     0.0872     0.2801
  354.5000   -50.3459    10.1327     7.7241     8.1659    85.2406     8.0629     2.5210     0.0338     0.0942     0.2778
  355.0000   -50.2904    10.1579     7.7734     8.2357    84.8231     8.0683     2.5118     0.0232     0.1011     0.2755
  355.5000   -50.2309    10.1835     7.8230     8.3062    83.1531     8.0738     2.5029     0.0129     0.1079     0.2753
  356.0000   -50.2074    10.2091     7.8730     8.3772    83.1537     8.0792     2.4939     0.0043     0.1131     0.2761
  356.5000   -50.2291    10.2348     7.9233     8.4489    84.8808     8.0846     2.4843     0.0041     0.1166     0.2768
  357.0000   -50.2466    10.2605     7.9738     8.5211    86.5542     8.0901     2.4818     0.0057     0.1201     0.2761
  357.5000   -50.2640    10.2863     8.0247     8.5939    88.2682     8.0955     2.4847     0.0077     0.1216     0.2741
  358.0000   -50.2824    10.3122     8.0763     8.6672    89.9551     8.1009     2.4870     0.0097     0.1183     0.2722
  358.5000   -50.3001    10.3776     8.1280     8.7411    91.7059     8.1065     2.4893     0.0116     0.1151     0.2703
  359.0000   -50.3181    10.4541     8.1800     8.8156    91.9410     8.1118     2.4921     0.0135     0.1126     0.2685
  359.5000   -50.3361    10.5311     8.2490     8.8868    89.5415     8.1165     2.4944     0.0154     0.1119     0.2668
  360.0000   -50.3539    10.6088     8.2327     8.7979    86.6402     8.1127     2.5083     0.0173     0.1112     0.2725
  360.5000   -50.3718    10.6848     8.2065     8.7145    83.5555     8.1090     2.5270     0.0192     0.0999     0.2774
  361.0000   -50.3897    10.6261     8.1803     8.6320    81.6466     8.1050     2.5451     0.0212     0.0882     0.2824
  361.5000   -50.4076    10.5097     8.1542     8.5503    81.8453     8.1011     2.5636     0.0232     0.0764     0.2874
  362.0000   -50.4254    10.3946     8.1282     8.4693    83.3430     8.0972     2.5766     0.0239     0.0655     0.2924
  362.5000   -50.4433    10.2807     8.0974     8.4045    86.4140     8.0932     2.5518     0.0232     0.0663     0.2940
  363.0000   -50.4612    10.1683     7.9787     8.4045    89.6183     8.0893     2.5116     0.0226     0.0928     0.2940
  363.5000   -50.4790    10.0568     7.8339     8.4045    90.2994     8.0854     2.4892     0.0220     0.1107     0.2894
  364.0000   -50.4966     9.9466     7.6919     8.2275    88.2593     8.0814     2.5005     0.0214     0.1073     0.2833
  364.5000   -50.5142     9.8375     7.5529     8.0243    86.3540     8.0775     2.5090     0.0208     0.1032     0.2747
  365.0000   -50.5327     9.7297     7.4170     7.8262    85.5631     8.0736     2.5094     0.0201     0.1007     0.2766
  365.5000   -50.5484     9.6230     7.3311     7.6329    89.1086     8.0697     2.5064     0.0184     0.1032     0.2796
  366.0000   -50.5681     9.5758     7.1773     7.4445    90.2580     8.0658     2.5031     0.0164     0.1057     0.2826
  366.5000   -50.5881     9.5759     7.0320     7.2607    89.8748     8.0618     2.5008     0.0144     0.1079     0.2852
  367.0000   -50.5900     9.4673     6.6285     7.0814    90.5354     8.0579     2.4971     0.0124     0.1072     0.2859
  367.5000   -50.7426     8.9684     6.0903     6.9065    90.8511     8.0540     2.4937     0.0104     0.1131     0.2866
  368.0000   -50.9778     8.4955     5.5958     6.5211    89.8320     8.0501     2.4733     0.0084     0.1240     0.2889
  368.5000   -51.1969     8.0475     5.1415     6.0499    91.1797     8.0462     2.4658     0.0064     0.1248     0.2949
  369.0000   -51.4119     7.6231     4.7240     5.5767    92.2017     8.0422     2.4572     0.0044     0.1321     0.3067
  369.5000   -51.6325     7.2214     4.3404     5.0631    89.6570     8.0383     2.4258     0.0024     0.1504     0.3170
  370.0000   -51.8503     6.7671     3.9880     4.5565    87.4085     8.0344     2.3964     0.0003     0.1677     0.3273
  370.5000   -52.0686     6.2192     3.6642     4.0983    85.2329     8.0305     2.3651    -0.0015     0.1850     0.3325
  371.0000   -52.2875     5.7132     3.3667     3.6865    84.2281     8.0266     2.3332    -0.0035     0.2022     0.3358
  371.5000   -52.5060     5.2484     3.0933     3.3164    83.3533     8.0226     2.3096     0.0008     0.2194     0.3390
  372.0000   -52.7254     4.8215     2.8422     3.0137    82.9481     8.0187     2.2969     0.0102     0.2269     0.3457
  372.5000   -52.9430     4.4292     2.6114     2.6920    78.2656     8.0148     2.2862     0.0218     0.2339     0.3544
  373.0000   -53.1621     4.0689     2.4553     2.6970    74.7346     8.0108     2.2852     0.0329     0.2339     0.3641
  373.5000   -53.3840     3.7699     2.4553     2.6900    78.7825     8.0070     2.3291     0.0436     0.2235     0.3648
  374.0000   -53.5937     4.1812     2.6831     2.6952    83.7523     8.0029     2.3783     0.0546     0.1934     0.3566
  374.5000   -53.8116     4.6738     2.9519     2.7782    88.7289     7.9991     2.4293     0.0668     0.1663     0.3413
  375.0000   -53.5895     5.2244     3.2476     2.8502    91.0192     7.9962     2.4435     0.0675     0.1393     0.3220
  375.5000   -53.2265     5.6816     3.5728     3.5554    91.1648     7.9994     2.4463     0.0517     0.1380     0.3120
  376.0000   -52.8631     5.6816     3.9307     4.2777    91.4489     8.0020     2.4492     0.0372     0.1369     0.3020
  376.5000   -52.5061     6.2043     4.3244     5.0803    91.9263     8.0049     2.4578     0.0221     0.1321     0.2908
  377.0000   -52.1450     7.5094     4.7576     5.3466    90.8918     8.0077     2.4644     0.0079     0.1281     0.2820
  377.5000   -51.7866     8.8880     5.2348     5.6079    89.1788     8.0104     2.4616    -0.0067     0.1303     0.2804
