~VERSION INFORMATION
 VERS.                2.0:   CWLS LOG ASCII STANDARD - VERSION 2.0
 WRAP.                 NO:   ONE LINE PER DEPTH STEP
~WELL INFORMATION
#MNEM.UNIT      DATA TYPE    INFORMATION
#----------   ------------   ------------------------------
 STRT.F           18.0000:   START DEPTH
 STOP.F          449.0000:   STOP DEPTH
 STEP.F            0.5000:   STEP LENGTH
 NULL.          -999.2500:   NO VALUE
 COMP.   LAWRENCE-ALLISON:   COMPANY
 WELL. NPR 3 #52-51SX10OB5:   WELL
 FLD .             TEAPOT:   FIELD
 LOC .      S10 T38N R78W:   LOCATION
 CNTY.            NATRONA:   COUNTY
 STAT.            WYOMING:   STATE
 CTRY. UNITED STATES OF AMERICA:   COUNTRY
 SRVC.      Dresser Atlas:   SERVICE COMPANY
 DATE.        20-DEC-1984:   LOGDATE
 API .       490251101000:   API NUMBER
~CURVE INFORMATION
#MNEM.UNIT       API CODE    CURVE DESCRIPTION
#----------   ------------   ------------------------------
 DEPT.F                  :   
 CALD.IN     45 280 60 00:   CALIPER FROM DENSITY LOG
 CNC .DEC    42 890 03 00:   NEUTRON POROSITY SANDSTONE
 CORR.G/C3   45 356 01 00:   DENSITY CORRECTION
 DEN .G/C3   45 350 01 00:   COMPENSATED BULK DENSTIY
 GRD .GAPI   45 310 01 00:   GAMMA RAY FROM DENSITY LOG
 PORD.DEC    45 890 12 00:   POROSITY DENSITY SANDSTONE
 DT  .US/F   60 520 00 00:   INTERVAL TRANSIT TIME
~PARAMETER INFORMATION
#MNEM.UNIT          VALUE    DESCRIPTION
#----------   ------------   ------------------------------
 PD  .                 GL:   PERMANENT DATUM
 EPD .F              5159:   ELEVATION PERMANENT DATUM
 LMF .                 GL:   LOG MEASURED FROM
 DMF .                 GL:   DRILLING MEASURED FROM
 EGL .F              5159:   GROUND LEVEL
 DATE.        20-DEC-1984:   RUN DATE
 RUN .                  1:   RUN NUMBER
 DD  .F               451:   DEPTH DRILLER
 DL  .F               451:   DEPTH LOGGER
 BLI .F               449:   BOTTOM LOG INTERVAL
 TLI .F                20:   TOP LOG INTERVAL
 CS  .IN            8.625:   CASING SIZE
 CBD .F                20:   CASING BOTTOM DRILLER
 CBL .F                20:   CASING BOTTOM LOGGER
 BS  .IN             6.25:   BIT SIZE
 BSD .F               451:   BIT SIZE AT DEPTH
 DFT .          KCL/WATER:   DRILLING FLUID TYPE
 MSS .            MUDTANK:   MUD SAMPLE SOURCE
 RMS .OHMM           .141:   RESISTIVITY MUD SAMPLE
 MST .F                54:   MUD SAMPLE TEMPERATURE
 RMF .OHMM           .106:   RESISTIVITY MUD FILTRATE SAMPLE
 MFST.F                54:   MUD FILTRATE SAMPLE TEMPERATURE
 RMC .OHMM           .176:   RESISTIVITY MUD CAKE
 MCST.F                54:   MUD CAKE SAMPLE TEMPERATURE
 MFSS.               CALC:   MUD FILTRATE SAMPLE SOURCE
 MCSS.               CALC:   MUD CAKE SAMPLE SOURCE
 TCS .HRS               2:   TIME CURCULATED STOPPED
 MRT .F               100:   MAXIMUM RECORDED TEMPERATURE
 LUN .               6270:   LOGGING UNIT NUMBER
 LUL .                 FM:   LOGGING UNIT LOCATION
 ENGI.        TOM GAUGHAN:   RECORDING ENGINEER
 WITN.              LUERS:   WITNESSED BY
 CLNT.            A2DTECH:   CLIENT CODE
 ORIG.           5" PRINT:   ORIGIN OF DATA
 UWI .       490251101000:   UNIQUE WELL ID
 DICO. A2D Technologies, Inc.:   DIGITIZING COMPANY
~OTHER INFORMATION
~A   DEPT     CALD         CNC      CORR        DEN         GRD      PORD         DT   
# ...
  109.0000     6.3250     0.2718     0.0355     2.4688    92.8625     0.1225   104.2637
  109.5000     6.3113     0.2786     0.0473     2.4704    92.8810     0.1236   104.4793
  110.0000     6.2979     0.2908     0.0489     2.4780    93.4911     0.1236   104.2443
  110.5000     6.3139     0.3001     0.0535     2.4886    97.6562     0.1140   104.0114
  111.0000     6.2999     0.3025     0.0776     2.4954   100.3374     0.1080   104.2272
  111.5000     6.2865     0.3069     0.0778     2.5007   100.9476     0.1056   104.5262
  112.0000     6.2877     0.3114     0.0655     2.5023    99.9305     0.1056   105.1044
  112.5000     6.2740     0.3167     0.0482     2.4875    97.8780     0.1151   105.1705
  113.0000     6.2754     0.3227     0.0484     2.4719    97.4527     0.1223   105.3882
  113.5000     6.2766     0.3257     0.0351     2.4667    98.9550     0.1258   105.6785
  114.0000     6.2777     0.3274     0.0024     2.4638    99.7085     0.1297   106.2656
  114.5000     6.2788     0.3286    -0.0169     2.4572    96.0334     0.1330   106.8548
  115.0000     6.2652     0.3214    -0.0072     2.4505    90.7264     0.1389   106.9209
  115.5000     6.2814     0.3025     0.0313     2.4371    90.7449     0.1437   106.5364
  116.0000     6.2825     0.3004     0.0643     2.4373    90.0237     0.1449   105.4067
  116.5000     6.2837     0.2798     0.0376     2.4426    89.0066     0.1436   105.3233
  117.0000     6.2848     0.2818     0.0257     2.4494    89.6214     0.1388   105.4641
  117.5000     6.2859     0.3083     0.0259     2.4585    92.0067     0.1315   105.5302
  118.0000     6.2871     0.3350     0.0261     2.4676    93.8004     0.1244   105.5964
  118.5000     6.2885     0.3404     0.0547     2.4707    97.2212     0.1232   105.5874
  119.0000     6.2896     0.3368     0.0489     2.4648   100.3462     0.1268   105.5768
  119.5000     6.2908     0.3284     0.0266     2.4559   102.1405     0.1330   105.5682
  120.0000     6.2919     0.3248    -0.0106     2.4523   103.3463     0.1363   105.5595
  120.5000     6.2930     0.3229    -0.0151     2.4501   102.9210     0.1375   105.3267
  121.0000     6.2942     0.3188     0.0141     2.4502   101.3122     0.1386   105.2433
  121.5000     6.2660     0.2951     0.0377     2.4488   100.4385     0.1392   105.2346
  122.0000     6.2671     0.2903     0.0543     2.4489   101.0533     0.1395   105.2257
  122.5000     6.2682     0.2998     0.0574     2.4505   105.2145     0.1386   105.6636
  123.0000     6.2694     0.3091     0.0487     2.4566   105.3847     0.1346   106.4023
  123.5000     6.2705     0.3063     0.0324     2.4709   102.8884     0.1251   107.0663
  124.0000     6.2865     0.2903     0.0154     2.4740    99.0607     0.1229   107.5808
  124.5000     6.3027     0.2722     0.0163     2.4733    97.5953     0.1229   107.5722
  125.0000     6.3038     0.2809     0.0314     2.4719   101.1686     0.1241   107.5635
  125.5000     6.3049     0.2958     0.0465     2.4623   100.4521     0.1276   107.3303
  126.0000     6.3061     0.3095     0.0347     2.4504    98.8387     0.1336   107.5441
  126.5000     6.3073     0.3507     0.0229     2.4468    98.8618     0.1396   108.4323
  127.0000     6.3087     0.3818     0.0336     2.4461    97.1051     0.1386   109.3952
  127.5000     6.2947     0.4009     0.0307     2.4358    93.5733     0.1413   111.4045
  128.0000     6.2961     0.4083     0.0174     2.4112    91.2248     0.1682   116.1044
  128.5000     6.2973     0.3671     0.0116     2.3678    93.5617     0.1826   118.0389
  129.0000     6.2984     0.3530     0.0118     2.3649    97.1835     0.1885   117.7292
  129.5000     6.3144     0.3422     0.0181     2.3860   100.3085     0.1771   116.5994
  130.0000     6.3158     0.3231     0.0540     2.4287   103.8773     0.1597   114.3486
  130.5000     6.3169     0.3129     0.0512     2.4453   103.7478     0.1394   107.8377
  131.0000     6.3181     0.3039     0.0334     2.4507   101.9911     0.1358   106.8575
  131.5000     6.3192     0.2826     0.0245     2.4642   100.1366     0.1315   106.1014
  132.0000     6.3203     0.2698     0.0247     2.4838    98.7736     0.1154   105.4868
  132.5000     6.3215     0.2781     0.0249     2.4936   100.2760     0.1130   105.0356
  133.0000     6.3229     0.2915     0.0251     2.4900   100.8862     0.1135   105.0270
  133.5000     6.3240     0.3059     0.0297     2.4736   100.6088     0.1225   105.3173
  134.0000     6.3252     0.3167     0.0553     2.4617    98.5562     0.1303   105.3086
  134.5000     6.3263     0.3181     0.0420     2.4558    97.9830     0.1332   105.3000
  135.0000     6.3274     0.3157     0.0138     2.4529    97.7056     0.1344   105.0671
  135.5000     6.2979     0.3049     0.0109     2.4530    98.0245     0.1347   104.9656
  136.0000     6.2705     0.3019     0.0320     2.4561    99.2264     0.1343   104.3750
  136.5000     6.2719     0.3021     0.0322     2.4600    97.6176     0.1331   104.0674
  137.0000     6.2730     0.3024     0.0294     2.4638    97.4882     0.1307   103.7598
  137.5000     6.2741     0.3049     0.0250     2.4661    99.3812     0.1282   103.4522
  138.0000     6.2753     0.3167     0.0207     2.4685   102.2634     0.1253   103.1446
  138.5000     6.2764     0.3292     0.0149     2.4746    99.9150     0.1234   102.6128
  139.0000     6.2778     0.3280     0.0375     2.4896    98.7454     0.1186   102.2302
  139.5000     6.2790     0.3083     0.0556     2.5084    98.7685     0.1054   101.9207
  140.0000     6.2801     0.3005     0.0512     2.5168   101.1538     0.0946   101.9120
  140.5000     6.2813     0.2915     0.0499     2.5169   105.3189     0.0937   101.9034
  141.0000     6.2824     0.2903     0.0486     2.5080   104.7411     0.1024   102.1937
  141.5000     6.2836     0.2884     0.0458     2.4991   103.5807     0.1092   101.9608
  142.0000     6.2849     0.2848     0.0460     2.4932   102.8595     0.1119   101.5784
  142.5000     6.2861     0.2830     0.0491     2.4963   102.1383     0.1116   101.2705
  143.0000     6.2872     0.2908     0.0612     2.4994   101.8609     0.1095   101.2600
  143.5000     6.2884     0.3045     0.0643     2.5025   101.8802     0.1055   101.3261
  144.0000     6.2895     0.3093     0.0466     2.5026   104.2693     0.1061   102.1396
  144.5000     6.2907     0.2937     0.0153     2.4847   104.8795     0.1175   102.8036
  145.0000     6.2919     0.2808     0.0110     2.4818   101.9394     0.1189   103.0194
  145.5000     6.2930     0.2811     0.0352     2.4849    96.6324     0.1180   103.0105
  146.0000     6.2942     0.2837     0.0503     2.4872    96.0592     0.1138   103.0882
  146.5000     6.2955     0.2825     0.0355     2.4791    99.2341     0.1195   103.2174
  147.0000     6.2966     0.2870     0.0207     2.4792   102.3137     0.1218   103.2835
  147.5000     6.2978     0.3001     0.0238     2.4733   103.8115     0.1218   103.4222
  148.0000     6.2992     0.3103    -0.0044     2.4626   105.3046     0.1266   103.5651
  148.5000     6.3003     0.3090    -0.0087     2.4555   103.4046     0.1328   103.8535
  149.0000     6.3014     0.2977     0.0004     2.4534   101.3521     0.1337   104.4425
  149.5000     6.3026     0.2940     0.0080     2.4498    99.7433     0.1346   105.1791
  150.0000     6.3037     0.2940    -0.0082     2.4379   102.7250     0.1444   106.9642
  150.5000     6.3199     0.3030    -0.0155     2.4290   108.0689     0.1513   108.8987
  151.0000     6.3060     0.3028    -0.0049     2.4216   106.9039     0.1537   109.7869
  151.5000     6.3074     0.3005     0.0073     2.4185   103.3721     0.1563   110.6751
  152.0000     6.3084     0.3376     0.0194     2.4091   101.6154     0.1611   111.5634
  152.5000     6.3097     0.3985     0.0136     2.3995   100.4504     0.1682   113.3882
  153.0000     6.3108     0.4583     0.0078     2.3786    99.4380     0.1874   116.3271
  153.5000     6.3122     0.4655     0.0081     2.3600   100.3440     0.2041   119.6070
  154.0000     6.3134     0.4367     0.0381     2.3159   103.1731     0.2256   122.8868
