~VERSION INFORMATION
 VERS.                2.0:   CWLS LOG ASCII STANDARD - VERSION 2.0
 WRAP.                 NO:   ONE LINE PER DEPTH STEP
~WELL INFORMATION
#MNEM.UNIT      DATA TYPE    INFORMATION
#----------   ------------   ------------------------------
 STRT.F           18.0000:   START DEPTH
 STOP.F         2312.0000:   STOP DEPTH
 STEP.F            0.5000:   STEP LENGTH
 NULL.          -999.2500:   NO VALUE
 COMP. FENIX & SCISSON INC:   COMPANY
 WELL.  NPR 3 #51 SHX -15:   WELL
 FLD .             TEAPOT:   FIELD
 LOC .      S15 T38N R78W:   LOCATION
 CNTY.            NATRONA:   COUNTY
 STAT.            WYOMING:   STATE
 CTRY. UNITED STATES OF AMERICA:   COUNTRY
 SRVC.            Unknown:   SERVICE COMPANY
 DATE.        14-MAR-1978:   LOGDATE
 API .       490251060000:   API NUMBER
~CURVE INFORMATION
#MNEM.UNIT       API CODE    CURVE DESCRIPTION
#----------   ------------   ------------------------------
 DEPT.F                  :   
 ILD .OHMM   05 120 46 00:   INDUCTION LOG DEEP
 CILD.MMHO   05 110 46 00:   CONDUCTIVITY INDUCTION LOG DEEP
 CALD.IN     45 280 60 00:   CALIPER FROM DENSITY LOG
 GRD .GAPI   45 310 01 00:   GAMMA RAY FROM DENSITY LOG
 CORR.G/C3   45 356 01 00:   DENSITY CORRECTION
 RHOB.G/C3   45 350 01 00:   BULK DENSITY
 DPHI.DEC    45 890 12 00:   DENSITY POROSITY SANDSTONE
~PARAMETER INFORMATION
#MNEM.UNIT          VALUE    DESCRIPTION
#----------   ------------   ------------------------------
 PD  .                 GL:   PERMANENT DATUM
 EPD .F              5223:   ELEVATION PERMANENT DATUM
 LMF .                 KB:   LOG MEASURED FROM
 DAPD.F                10:   FEET ABOVE PERMANENT DATUM
 DMF .                 KB:   DRILLING MEASURED FROM
 EKB .F              5233:   KELLING BUSHING
 EGL .F              5223:   GROUND LEVEL
 DATE.            3-14-78:   RUN DATE
 RUN .                  1:   RUN NUMBER
 DD  .F              2323:   DEPTH DRILLER
 DL  .F              2314:   DEPTH LOGGER
 BLI .F              2312:   BOTTOM LOG INTERVAL
 TLI .F                20:   TOP LOG INTERVAL
 CS  .IN                9:   CASING SIZE
 CBD .F               680:   CASING BOTTOM DRILLER
 CBL .F               682:   CASING BOTTOM LOGGER
 BS  .IN            7.875:   BIT SIZE
 BSD .F              2323:   BIT SIZE AT DEPTH
 DFT .           AIR MIST:   DRILLING FLUID TYPE
 TCS .HRS               2:   TIME CURCULATED STOPPED
 LUN .               2958:   LOGGING UNIT NUMBER
 LUL .               CASP:   LOGGING UNIT LOCATION
 ENGI.             MILLER:   RECORDING ENGINEER
 WITN.           MCGINLEY:   WITNESSED BY
 CLNT.            A2DTECH:   CLIENT CODE
 ORIG.       2", 5" PRINT:   ORIGIN OF DATA
 UWI .       490251060000:   UNIQUE WELL ID
 DICO. A2D Technologies, Inc.:   DIGITIZING COMPANY
~OTHER INFORMATION
~A   DEPT      ILD       CILD       CALD         GRD      CORR       RHOB       DPHI   
# ...
 1519.5000  -999.2500  -999.2500    10.1627    84.7685     0.0624     2.5221     0.0812
 1520.0000  -999.2500  -999.2500    10.1623    84.7486     0.0607     2.5299     0.0874
 1520.5000  -999.2500  -999.2500    10.1622    80.0885     0.0582     2.5166     0.0856
 1521.0000  -999.2500  -999.2500    10.1623    74.0894     0.0572     2.5196     0.0909
 1521.5000  -999.2500  -999.2500    10.1623    77.5659     0.0623     2.4997     0.0933
 1522.0000  -999.2500  -999.2500    10.1617    82.0580     0.0753     2.5057     0.0911
 1522.5000  -999.2500  -999.2500    10.1570    84.2803     0.0880     2.5221     0.0869
 1523.0000  -999.2500  -999.2500    10.1522    81.4760     0.0869     2.5324     0.0704
 1523.5000  -999.2500  -999.2500    10.1475    78.5712     0.0734     2.5486     0.0779
 1524.0000  -999.2500  -999.2500    10.1426    78.6363     0.0624     2.5134     0.0820
 1524.5000  -999.2500  -999.2500    10.1464    79.2260     0.0627     2.5192     0.0772
 1525.0000  -999.2500  -999.2500    10.1510    80.9606     0.0619     2.5282     0.0790
 1525.5000  -999.2500  -999.2500    10.1554    81.7663     0.0450     2.5332     0.0825
 1526.0000  -999.2500  -999.2500    10.1597    79.3218     0.0407     2.5256     0.0840
 1526.5000  -999.2500  -999.2500    10.1344    72.8619     0.0413     2.5209     0.0776
 1527.0000  -999.2500  -999.2500    10.0780    69.6206     0.0421     2.5329     0.0772
 1527.5000  -999.2500  -999.2500    10.0190    79.7323     0.0447     2.5336     0.0710
 1528.0000  -999.2500  -999.2500    10.0307    88.1701     0.0537     2.5478     0.0644
 1528.5000  -999.2500  -999.2500    10.0694    85.9945     0.0452     2.5545     0.0735
 1529.0000  -999.2500  -999.2500    10.1111    83.2137     0.0214     2.5391     0.0812
 1529.5000  -999.2500  -999.2500    10.1027    81.4270     0.0088     2.5242     0.0790
 1530.0000  -999.2500  -999.2500    10.0741    78.0529     0.0132     2.5226     0.0776
 1530.5000  -999.2500  -999.2500    10.0450    77.4148     0.0140     2.5355     0.0861
 1531.0000  -999.2500  -999.2500    10.0191    88.7337     0.0133     2.5234     0.0874
 1531.5000  -999.2500  -999.2500    10.0046    88.8282     0.0125     2.5234     0.0856
 1532.0000  -999.2500  -999.2500     9.9897    91.4927     0.0171     2.5125     0.0793
 1532.5000  -999.2500  -999.2500     9.9749    93.7656     0.0226     2.5292     0.0730
 1533.0000  -999.2500  -999.2500     9.9629    89.8709     0.0224     2.5406     0.0715
 1533.5000  -999.2500  -999.2500     9.9615    85.8655     0.0191     2.5451     0.0709
 1534.0000  -999.2500  -999.2500     9.9598    81.9292     0.0156     2.5415     0.0715
 1534.5000  -999.2500  -999.2500     9.9580    79.7800     0.0116     2.5506     0.0746
 1535.0000  -999.2500  -999.2500     9.9564    78.0581     0.0084     2.5384     0.0738
 1535.5000  -999.2500  -999.2500     9.9546    76.7333     0.0071     2.5458     0.0745
 1536.0000  -999.2500  -999.2500     9.9529    80.1919     0.0117     2.5376     0.0719
 1536.5000  -999.2500  -999.2500     9.9512    83.1187     0.0195     2.5468     0.0693
 1537.0000  -999.2500  -999.2500     9.9495    83.8501     0.0240     2.5502     0.0672
 1537.5000  -999.2500  -999.2500     9.9478    84.3979     0.0264     2.5556     0.0608
 1538.0000  -999.2500  -999.2500     9.9461    80.0310     0.0233     2.5639     0.0676
 1538.5000  -999.2500  -999.2500     9.9444    72.7193     0.0210     2.5500     0.0700
 1539.0000  -999.2500  -999.2500     9.9464    65.4185     0.0241     2.5499     0.0666
 1539.5000  -999.2500  -999.2500     9.9509    61.8312     0.0257     2.5472     0.0632
 1540.0000  -999.2500  -999.2500     9.9553    71.3308     0.0206     2.5587     0.0632
 1540.5000  -999.2500  -999.2500     9.9599    78.8931     0.0172     2.5532     0.0700
 1541.0000  -999.2500  -999.2500     9.9643    86.4496     0.0202     2.5532     0.0656
 1541.5000  -999.2500  -999.2500     9.9689    89.9808     0.0128     2.5566     0.0772
 1542.0000  -999.2500  -999.2500     9.9733    85.5151     0.0064     2.5324     0.0820
 1542.5000  -999.2500  -999.2500     9.9778    81.0506     0.0085     2.5257     0.0752
 1543.0000  -999.2500  -999.2500     9.9825    84.7436     0.0030     2.5302     0.0796
 1543.5000  -999.2500  -999.2500     9.9816    87.7213     0.0014     2.5363     0.0736
 1544.0000  -999.2500  -999.2500     9.9791    83.6423     0.0046     2.5333     0.0716
 1544.5000  -999.2500  -999.2500     9.9766    78.8280     0.0122     2.5479     0.0769
 1545.0000  -999.2500  -999.2500     9.9742    84.0753     0.0070     2.5329     0.0816
 1545.5000  -999.2500  -999.2500     9.9717    94.0940     0.0112     2.5284     0.0696
 1546.0000  -999.2500  -999.2500     9.9692   101.9276     0.0125     2.5390     0.0828
 1546.5000  -999.2500  -999.2500     9.9667    94.8899     0.0125     2.5332     0.0768
 1547.0000  -999.2500  -999.2500     9.9643    87.6321     0.0125     2.5304     0.0792
 1547.5000  -999.2500  -999.2500     9.9618    87.1915     0.0142     2.5333     0.0732
 1548.0000  -999.2500  -999.2500     9.9593    87.6805     0.0162     2.5391     0.0648
 1548.5000  -999.2500  -999.2500     9.9569    88.1686     0.0099     2.5535     0.0692
 1549.0000  -999.2500  -999.2500     9.9544    87.9346     0.0006     2.5536     0.0768
 1549.5000  -999.2500  -999.2500     9.9519    86.5263    -0.0091     2.5385     0.0801
 1550.0000  -999.2500  -999.2500     9.9494    79.7684    -0.0100     2.5266     0.0838
 1550.5000  -999.2500  -999.2500     9.9470    77.9090    -0.0104     2.5178     0.0872
 1551.0000  -999.2500  -999.2500     9.9446    85.6407    -0.0109     2.5164     0.0961
 1551.5000  -999.2500  -999.2500     9.9357    91.8716    -0.0114     2.5114     0.1020
 1552.0000  -999.2500  -999.2500     9.9242    91.7962    -0.0112     2.4997     0.1035
 1552.5000  -999.2500  -999.2500     9.9124    90.1375    -0.0032     2.4892     0.0976
 1553.0000  -999.2500  -999.2500     9.8985    83.5773     0.0047     2.4904     0.0860
 1553.5000  -999.2500  -999.2500     9.8764    78.3367     0.0104     2.5022     0.0923
 1554.0000  -999.2500  -999.2500     9.8643    79.7212     0.0014     2.5129     0.1004
 1554.5000  -999.2500  -999.2500     9.8643    80.8129    -0.0057     2.5107     0.0968
 1555.0000  -999.2500  -999.2500     9.8642    79.6405    -0.0038     2.5070     0.1032
 1555.5000  -999.2500  -999.2500     9.8642    77.8035     0.0047     2.5033     0.1032
 1556.0000  -999.2500  -999.2500     9.8642    76.4083     0.0132     2.5009     0.0968
 1556.5000  -999.2500  -999.2500     9.8643    71.5141     0.0154     2.5091     0.0894
 1557.0000  -999.2500  -999.2500     9.8645    73.4536     0.0137     2.5242     0.0860
 1557.5000  -999.2500  -999.2500     9.8890    76.7924     0.0142     2.5129     0.0916
 1558.0000  -999.2500  -999.2500     9.9502    78.1911     0.0182     2.5233     0.0792
 1558.5000  -999.2500  -999.2500    10.0116    83.3190     0.0098     2.5355     0.0788
 1559.0000  -999.2500  -999.2500    10.0231    84.4796     0.0005     2.5292     0.0849
 1559.5000  -999.2500  -999.2500    10.0233    89.6314    -0.0006     2.5179     0.0808
 1560.0000  -999.2500  -999.2500    10.0236    87.1735     0.0005     2.5246     0.0842
 1560.5000  -999.2500  -999.2500    10.0126    90.0889     0.0018     2.5281     0.0904
 1561.0000  -999.2500  -999.2500     9.9993    92.1009     0.0074     2.5036     0.0935
 1561.5000  -999.2500  -999.2500     9.9858    87.7564     0.0242     2.5288     0.0825
 1562.0000  -999.2500  -999.2500     9.9723    84.2019     0.0203     2.5273     0.0741
 1562.5000  -999.2500  -999.2500     9.9626    81.1643     0.0141     2.5361     0.0779
 1563.0000  -999.2500  -999.2500     9.9604    73.2131     0.0083     2.5260     0.0853
 1563.5000  -999.2500  -999.2500     9.9580    63.9532     0.0187     2.5148     0.0893
 1564.0000  -999.2500  -999.2500     9.9557    63.0772     0.0259     2.5404     0.0727
 1564.5000  -999.2500  -999.2500     9.9533    71.3603     0.0248     2.5338     0.0791
