~VERSION INFORMATION
 VERS.                2.0:   CWLS LOG ASCII STANDARD - VERSION 2.0
 WRAP.                 NO:   ONE LINE PER DEPTH STEP
~WELL INFORMATION
#MNEM.UNIT      DATA TYPE    INFORMATION
#----------   ------------   ------------------------------
 STRT.F           43.0000:   START DEPTH
 STOP.F          466.0000:   STOP DEPTH
 STEP.F            0.5000:   STEP LENGTH
 NULL.          -999.2500:   NO VALUE
 COMP. JOHn BROWN E & C INC:   COMPANY
 WELL. NPR # #3 64-25-SX-10:   WELL
 FLD .        TEAPOT DOME:   FIELD
 LOC .      S10 T38N R78W:   LOCATION
 CNTY.            NATRONA:   COUNTY
 STAT.            WYOMING:   STATE
 CTRY. UNITED STATES OF AMERICA:   COUNTRY
 SRVC.       Schlumberger:   SERVICE COMPANY
 DATE.        26-SEP-1990:   LOGDATE
 API .       490251132200:   API NUMBER
~CURVE INFORMATION
#MNEM.UNIT       API CODE    CURVE DESCRIPTION
#----------   ------------   ------------------------------
 DEPT.F                  :   
 ILD .OHMM   07 120 46 00:   INDUCTION LOG DEEP RESISTIVITY
 ILM .OHMM   07 120 44 00:   INDUCTION LOG MEDIUM
 GRR .GAPI   07 310 01 00:   GAMMA RAY FROM RES. LOG.
~PARAMETER INFORMATION
#MNEM.UNIT          VALUE    DESCRIPTION
#----------   ------------   ------------------------------
 PD  .                 GL:   PERMANENT DATUM
 EPD .F              5190:   ELEVATION PERMANENT DATUM
 LMF .                 KB:   LOG MEASURED FROM
 DAPD.F                10:   FEET ABOVE PERMANENT DATUM
 DMF .                 KB:   DRILLING MEASURED FROM
 EKB .F              5200:   KELLING BUSHING
 EDF .F              5199:   DRILLING FLOOR
 EGL .F              5190:   GROUND LEVEL
 DATE.            9-29-90:   RUN DATE
 RUN .                  1:   RUN NUMBER
 DD  .F               470:   DEPTH DRILLER
 DL  .F               473:   DEPTH LOGGER
 BLI .F               467:   BOTTOM LOG INTERVAL
 TLI .F                46:   TOP LOG INTERVAL
 CS  .IN            8.625:   CASING SIZE
 CBL .F                55:   CASING BOTTOM LOGGER
 BS  .IN            7.875:   BIT SIZE
 BSD .F               470:   BIT SIZE AT DEPTH
 DFT .                AIR:   DRILLING FLUID TYPE
 TCS .HRS            1900:   TIME CURCULATED STOPPED
 TLAB.HRS            2000:   TIME LOGGER AT BOTTOM
 LUN .               5982:   LOGGING UNIT NUMBER
 LUL .               CODY:   LOGGING UNIT LOCATION
 ENGI.             FISHER:   RECORDING ENGINEER
 WITN.             STRONG:   WITNESSED BY
 CLNT.            A2DTECH:   CLIENT CODE
 ORIG.       2", 5" PRINT:   ORIGIN OF DATA
 UWI .       490251132200:   UNIQUE WELL ID
 DICO. A2D Technologies, Inc.:   DIGITIZING COMPANY
~OTHER INFORMATION
~A   DEPT      ILD        ILM         GRR  
# ...
  316.0000    15.0283    14.5322    96.4605
  316.5000    14.7911    14.3075    96.4601
  317.0000    14.5576    14.0863    97.7094
  317.5000    14.3279    13.8684    99.2062
  318.0000    14.1506    13.6540   100.6877
  318.5000    13.9389    13.4429   101.9154
  319.0000    13.7304    13.2350   103.5609
  319.5000    13.5250    13.0303   105.1610
  320.0000    13.4327    12.8561   104.9015
  320.5000    13.3835    12.8561   104.3752
  321.0000    13.3436    12.8561   105.3566
  321.5000    13.3436    12.8561   103.5663
  322.0000    14.2707    13.0851    99.9793
  322.5000    15.2033    14.0936    95.3124
  323.0000    16.2226    15.4729    94.4817
  323.5000    18.4836    17.3379    94.2581
  324.0000    20.8260    19.5402    92.5463
  324.5000    23.4652    21.8910    89.5536
  325.0000    26.0724    24.7722    86.5498
  325.5000    29.9770    28.2486    83.5355
  326.0000    32.3731    30.7915    81.0611
  326.5000    34.2712    33.2593    83.5861
  327.0000    35.9465    35.4760    87.2064
  327.5000    36.7556    35.8163    88.8584
  328.0000    37.1452    36.1598    88.3084
  328.5000    37.2496    36.5066    86.5955
  329.0000    37.3536    36.7855    84.8624
  329.5000    37.4707    36.5050    83.1226
  330.0000    36.8354    36.2734    82.8590
  330.5000    36.4448    36.0434    82.8593
  331.0000    36.7855    35.8147    82.2413
  331.5000    37.4763    35.5875    81.0007
  332.0000    36.5460    35.0241    79.7664
  332.5000    35.7451    33.8734    80.0136
  333.0000    34.9617    33.2072    82.0933
  333.5000    34.1955    33.5176    84.1762
  334.0000    33.4461    32.9415    84.4797
  334.5000    32.5797    32.0980    82.6818
  335.0000    31.6737    31.3168    80.9536
  335.5000    30.7930    30.3333    83.3112
  336.0000    29.9367    28.9196    86.0077
  336.5000    29.3779    28.1836    87.2186
  337.0000    29.2437    27.4594    88.7091
  337.5000    28.9558    26.9089    91.7383
  338.0000    28.1319    26.5653    93.6199
  338.5000    27.3378    26.2262    92.5277
  339.0000    26.6574    25.8913    90.8074
  339.5000    26.0724    25.5608    89.3339
  340.0000    26.5819    25.3548    89.4737
  340.5000    27.2672    25.9844    87.8775
  341.0000    28.0870    26.4536    88.2137
  341.5000    27.8269    26.9313    89.6488
  342.0000    28.0352    27.5692    89.7505
  342.5000    28.1630    27.3748    88.1867
  343.0000    28.2913    27.0962    86.9334
  343.5000    28.5523    26.8104    88.2542
  344.0000    28.9264    27.0353    89.5770
  344.5000    29.1519    27.3148    90.8905
  345.0000    28.8966    27.2407    92.1060
  345.5000    28.6469    27.1266    91.9463
  346.0000    28.3994    26.8238    91.7282
  346.5000    28.0870    26.3359    92.6535
  347.0000    28.3122    25.8310    93.6898
  347.5000    28.6257    25.3548    93.8465
  348.0000    28.8819    25.5918    92.9956
  348.5000    28.2874    25.3072    92.1437
  349.0000    27.7029    25.0886    91.2060
  349.5000    27.1304    24.8874    92.4077
  350.0000    26.7150    24.0782    93.5282
  350.5000    26.3261    23.3472    94.3834
  351.0000    25.9729    22.6383    94.9673
  351.5000    25.2946    21.9510    94.9659
  352.0000    24.6342    21.2841    95.2943
  352.5000    23.9902    20.6374    96.1292
  353.0000    23.3632    20.1610    95.7891
  353.5000    22.7525    19.8892    94.6148
  354.0000    22.6035    19.5402    94.1057
  354.5000    22.5210    19.5625    95.6906
  355.0000    22.4391    19.6070    96.9638
  355.5000    22.3571    19.6515    96.1560
  356.0000    22.2753    19.6961    93.3976
  356.5000    22.1466    19.7228    91.4108
  357.0000    22.0064    19.4211    90.6490
  357.5000    21.8671    19.2088    89.8720
  358.0000    21.7286    18.9988    89.1747
  358.5000    21.5918    18.7911    88.9189
  359.0000    21.4465    18.5636    89.9498
  359.5000    20.9432    18.2936    90.8945
  360.0000    20.4176    18.0273    93.6133
  360.5000    19.9072    17.7651    95.9880
  361.0000    19.4610    17.5083    95.7576
  361.5000    19.0271    17.3143    93.6576
  362.0000    18.6026    16.9784    91.5657
  362.5000    18.3082    16.6649    89.9055
  363.0000    17.9183    16.3572    88.7233
  363.5000    17.5703    16.0551    88.7849
  364.0000    17.2290    15.7586    90.4685
  364.5000    16.8944    15.4676    92.5687
  365.0000    16.5662    15.1820    92.9498
  365.5000    16.2445    14.9016    92.9255
  366.0000    15.8984    14.6446    94.7988
  366.5000    15.6141    14.6269    97.6081
  367.0000    15.5584    14.5903    97.9680
  367.5000    15.5027    14.5538    96.0913
  368.0000    15.4476    14.5173    94.1529
  368.5000    15.3926    14.3746    93.9569
  369.0000    15.3377    14.7814    94.9687
  369.5000    15.2830    14.7445    95.9988
  370.0000    15.2296    14.7140    96.5749
  370.5000    15.1307    14.6836    96.5688
  371.0000    14.9881    14.6534    96.6467
  371.5000    14.8459    14.5303    97.3611
  372.0000    14.7052    14.3715    98.7585
  372.5000    14.5658    14.2208    99.3773
  373.0000    14.4277    14.1034    99.4245
  373.5000    14.2909    13.9871   100.3365
  374.0000    14.1554    13.8717   101.2765
  374.5000    14.0211    13.7573   101.6464
  375.0000    13.8882    13.6778   100.9122
  375.5000    13.7565    13.5305    99.0382
  376.0000    13.6261    13.3848    98.9774
  376.5000    13.4969    13.2407   100.3975
  377.0000    13.3639    13.0976   102.1400
  377.5000    13.2302    12.9321   104.0984
  378.0000    13.0981    12.7284   106.0690
  378.5000    12.9763    12.6249   107.7402
  379.0000    13.0122    12.7336   105.6796
  379.5000    13.0536    12.7101   103.7594
  380.0000    13.0980    12.6983   105.1414
  380.5000    13.0160    12.6865   108.2788
  381.0000    12.9068    12.6747   110.3059
  381.5000    12.7987    12.6628   109.8442
  382.0000    12.7259    12.6510   107.4419
  382.5000    12.6995    12.6392   105.0590
  383.0000    12.6733    12.6275   102.9811
  383.5000    12.6472    12.6160   101.3010
  384.0000    12.6194    12.5891   101.0196
  384.5000    12.5219    12.5618   103.0769
  385.0000    12.4186    12.5346   105.2970
  385.5000    12.3162    12.5075   106.8501
  386.0000    12.2146    12.3550   105.8546
  386.5000    12.1118    12.1754   102.9802
  387.0000    12.0073    11.9980   102.3580
  387.5000    11.9038    11.8239   104.4387
  388.0000    11.8012    11.6515   105.5715
  388.5000    11.6994    11.6056   105.8869
  389.0000    11.5985    11.5286   106.1428
  389.5000    11.4981    11.3713   108.3553
  390.0000    11.3177    11.2099   111.0316
  390.5000    11.1394    11.0502   113.2249
  391.0000    10.9639    10.8962   112.3020
  391.5000    10.7769    10.6399   108.7901
  392.0000    10.5779    10.3801   106.0781
  392.5000    10.3826    10.1250   105.1639
  393.0000    10.1908     9.8765   106.9293
  393.5000    10.0005     9.5984   108.6467
  394.0000     9.5439     9.2697   110.3712
  394.5000     9.1088     8.8234   112.0934
  395.0000     8.4188     7.9590   113.5939
  395.5000     7.4861     7.1855   114.9268
  396.0000     6.8428     6.4866   117.1434
  396.5000     6.2748     5.8557   122.4037
  397.0000     6.2828     5.2582   130.1113
  397.5000     6.2806     5.5544   134.8147
  398.0000     6.3254     5.9679   133.4141
  398.5000     6.6651     6.4110   128.5607
  399.0000     7.1817     6.8859   122.2953
  399.5000     7.7416     7.3568   117.6873
  400.0000     8.3446     8.0431   115.8585
  400.5000     8.9943     8.7395   116.1571
  401.0000     9.6215     9.5459   116.1179
  401.5000    10.1360     9.9160   115.0221
  402.0000    10.4766    10.0939   114.4338
  402.5000    10.4766    10.1522   115.2373
  403.0000    10.4766    10.2125   114.6982
  403.5000    10.5299    10.2731   113.4446
  404.0000    10.7734    10.5526   114.4922
  404.5000    11.0226    10.9600   118.4451
  405.0000    11.2774    11.2872   120.7694
  405.5000    11.5385    11.5146   116.4369
  406.0000    11.8031    11.7464   110.4942
  406.5000    12.1333    11.9854   106.5945
