~VERSION INFORMATION
 VERS.                2.0:   CWLS LOG ASCII STANDARD - VERSION 2.0
 WRAP.                 NO:   ONE LINE PER DEPTH STEP
~WELL INFORMATION
#MNEM.UNIT      DATA TYPE    INFORMATION
#----------   ------------   ------------------------------
 STRT.F           30.0000:   START DEPTH
 STOP.F          481.0000:   STOP DEPTH
 STEP.F            0.5000:   STEP LENGTH
 NULL.          -999.2500:   NO VALUE
 COMP. FENIX & SCISSON INC:   COMPANY
 WELL.       NPR-3 #47-10:   WELL
 FLD .             TEAPOT:   FIELD
 LOC .      S10 T38N R78W:   LOCATION
 CNTY.            NATRONA:   COUNTY
 STAT.            WYOMING:   STATE
 CTRY. UNITED STATES OF AMERICA:   COUNTRY
 SRVC.           BIRDWELL:   SERVICE COMPANY
 DATE.        16-JUN-1978:   LOGDATE
 API .       490251064800:   API NUMBER
~CURVE INFORMATION
#MNEM.UNIT       API CODE    CURVE DESCRIPTION
#----------   ------------   ------------------------------
 DEPT.F                  :   
 SPR .MV     05 010 01 00:   SPONTANEOUS POTENTIAL FROM RES.
 SN  .OHMM   05 040 16 00:   SHORT NORMAL 16"
 ILD .OHMM   05 120 46 00:   INDUCTION LOG DEEP
 CALD.IN     45 280 60 00:   CALIPER FROM DENSITY LOG
 GRD .GAPI   45 310 01 00:   GAMMA RAY FROM DENSITY LOG
 CORR.G/C3   45 356 01 00:   DENSITY CORRECTION
 DPHI.DEC    45 890 12 00:   DENSITY POROSITY SANDSTONE
 DEN .G/C3   45 350 01 00:   COMPENSATED BULK DENSITY
~PARAMETER INFORMATION
#MNEM.UNIT          VALUE    DESCRIPTION
#----------   ------------   ------------------------------
 PD  .                 GL:   PERMANENT DATUM
 EPD .F              5200:   ELEVATION PERMANENT DATUM
 LMF .                 KB:   LOG MEASURED FROM
 DAPD.F                 4:   FEET ABOVE PERMANENT DATUM
 DMF .                 KB:   DRILLING MEASURED FROM
 EKB .F              5204:   KELLING BUSHING
 EGL .F              5200:   GROUND LEVEL
 DATE.        16-JUN-1978:   RUN DATE
 RUN .                  1:   RUN NUMBER
 DD  .F               513:   DEPTH DRILLER
 DL  .F               481:   DEPTH LOGGER
 BLI .F               475:   BOTTOM LOG INTERVAL
 TLI .F                40:   TOP LOG INTERVAL
 CS  .IN            8.625:   CASING SIZE
 CBD .F                40:   CASING BOTTOM DRILLER
 CBL .F                40:   CASING BOTTOM LOGGER
 BS  .IN            7.875:   BIT SIZE
 BSD .F               513:   BIT SIZE AT DEPTH
 DFT .                KCL:   DRILLING FLUID TYPE
 DFD .                8.6:   DRILLING FLUID DENSITY
 DFV .                 30:   DRILLING FLUID VISCOSITY
 DFPH.                 10:   DRILLING FLUID PH
 DFL .                 16:   DRILLING FLUID LOSS
 MSS .           FLOWLINE:   MUD SAMPLE SOURCE
 RMS .OHMM            .36:   RESISTIVITY MUD SAMPLE
 MST .F                72:   MUD SAMPLE TEMPERATURE
 RMF .OHMM            .34:   RESISTIVITY MUD FILTRATE SAMPLE
 MFST.F                70:   MUD FILTRATE SAMPLE TEMPERATURE
 RMC .OHMM            .52:   RESISTIVITY MUD CAKE
 MCST.F                72:   MUD CAKE SAMPLE TEMPERATURE
 MFSS.               MEAS:   MUD FILTRATE SAMPLE SOURCE
 MCSS.               MEAS:   MUD CAKE SAMPLE SOURCE
 RMB .OHMM            .32:   RESISTIVITY MUD AT BHT
 BHT .F                82:   BOTTOM HOLE TEMPERATURE
 TCS .HRS            0400:   TIME CURCULATED STOPPED
 MRT .F                82:   MAXIMUM RECORDED TEMPERATURE
 LUN .               2958:   LOGGING UNIT NUMBER
 LUL .               CASP:   LOGGING UNIT LOCATION
 ENGI.           REYNOLDS:   RECORDING ENGINEER
 WITN.           MCGINLEY:   WITNESSED BY
 CLNT.            A2DTECH:   CLIENT CODE
 ORIG.           5" PRINT:   ORIGIN OF DATA
 UWI .       490251064800:   UNIQUE WELL ID
 DICO. A2D Technologies, Inc.:   DIGITIZING COMPANY
~OTHER INFORMATION
~A   DEPT      SPR         SN        ILD       CALD         GRD      CORR       DPHI        DEN   
# ...
  394.5000   -44.9960    17.0662    13.3864     6.9496    82.4077     0.0099     0.1681     2.4014
  395.0000   -45.1506    17.1801    13.3367     6.9361    84.9566     0.0115     0.1698     2.4015
  395.5000   -45.3052    17.1726    13.2869     6.9374    86.9085     0.0131     0.1701     2.4016
  396.0000   -45.6100    17.1667    13.2372     6.9238    87.2186     0.0147     0.1707     2.4024
  396.5000   -45.7647    17.1608    13.1874     6.8510    81.8571     0.0163     0.1706     2.4032
  397.0000   -46.2196    17.2753    13.1377     6.7481    83.5105     0.0164     0.1700     2.4122
  397.5000   -46.2241    17.2679    13.0880     6.7194    84.7314     0.0166     0.1568     2.4310
  398.0000   -46.0774    17.2619    13.0382     6.6909    84.8770     0.0167     0.1502     2.4430
  398.5000   -46.0830    17.2559    12.9997     6.6925    84.2916     0.0153     0.1442     2.4550
  399.0000   -46.0875    17.3711    13.0853     6.7087    86.5449     0.0139     0.1371     2.4618
  399.5000   -46.0920    17.3636    13.1715     6.7398    87.6013     0.0126     0.1328     2.4648
  400.0000   -46.1141    17.5266    13.4427     6.7560    87.2036     0.0127     0.1261     2.4821
  400.5000   -46.2269    18.0918    13.9939     6.7777    84.6976     0.0083     0.0959     2.5135
  401.0000   -46.3397    18.7182    14.5939     6.8187    80.7740    -0.0005     0.0750     2.5555
  401.5000   -46.4056    19.6404    14.9990     6.8843    78.6977     0.0011     0.0663     2.5653
  402.0000   -46.5587    20.8948    15.4127     6.7479    74.8304     0.0057     0.0647     2.5661
  402.5000   -46.7119    22.2292    15.5156     6.7496    71.8586     0.0133     0.0653     2.5602
  403.0000   -46.8650    22.8475    15.6164     6.7661    71.8719     0.0059     0.0754     2.5281
  403.5000   -46.8680    22.9995    15.3968     6.7379    71.8852     0.0001     0.0877     2.5244
  404.0000   -46.8710    21.6054    14.7665     6.6800    73.1136     0.0049     0.0991     2.5178
  404.5000   -46.8740    19.3389    14.0644     6.7560    85.4039     0.0095     0.1068     2.4820
  405.0000   -46.8770    18.1679    13.3035     6.7874    86.5522     0.0097     0.1109     2.4738
  405.5000   -46.8800    17.0679    12.5838     6.8485    86.4159     0.0155     0.1280     2.4470
  406.0000   -46.8830    16.5944    11.9855     6.8948    86.2800     0.0216     0.1433     2.4411
  406.5000   -46.8859    16.0617    11.6548     6.9708    85.9981     0.0262     0.1476     2.4404
  407.0000   -46.8889    15.5884    11.5706     7.0468    85.8588     0.0248     0.1485     2.4413
  407.5000   -46.8919    15.4768    11.6478     7.0629    86.0247     0.0249     0.1494     2.4512
  408.0000   -46.7448    15.5809    11.7245     7.0203    87.5305     0.0235     0.1350     2.4609
  408.5000   -46.7477    15.5755    11.6388     7.0070    88.5885     0.0251     0.1338     2.4618
  409.0000   -46.7507    15.5713    11.4751     6.9938    87.8556     0.0267     0.1334     2.4633
  409.5000   -46.9039    15.6760    11.2358     6.9656    85.0330     0.0269     0.1310     2.4656
  410.0000   -46.9069    15.6706    11.1546     6.9375    80.7146     0.0270     0.1259     2.4679
  410.5000   -47.0601    15.5584    11.0740     6.9235    83.1193     0.0271     0.1264     2.4679
  411.0000   -47.0631    15.2350    11.0702     6.9110    83.1326     0.0257     0.1288     2.4538
  411.5000   -47.2162    14.8157    10.9902     6.9127    83.2952     0.0199     0.1333     2.4539
  412.0000   -47.3694    14.2101    10.9864     6.9146    84.3532     0.0111     0.1365     2.4525
  412.5000   -47.5225    13.9148    10.9826     6.9162    85.8590     0.0082     0.1395     2.4481
  413.0000   -47.5255    13.8151    10.9788     6.9178    86.1708     0.0068     0.1419     2.4429
  413.5000   -47.5291    13.8113    10.9751     6.9195    86.6319     0.0055     0.1457     2.4415
  414.0000   -47.5321    13.8076    10.9713     6.9211    89.7795     0.0087     0.1433     2.4416
  414.5000   -47.5351    13.8038    10.9675     6.9227    91.4346     0.0117     0.1448     2.4424
  415.0000   -47.5381    13.8000    10.9637     6.9392    90.8509     0.0147     0.1468     2.4484
  415.5000   -47.5411    13.7962    10.9600     6.9557    89.9686     0.0194     0.1384     2.4567
  416.0000   -47.5441    13.7924    10.9562     6.9722    90.1314     0.0225     0.1360     2.4598
  416.5000   -47.5471    13.7886    10.9524     6.9887    90.1448     0.0077     0.1332     2.4614
  417.0000   -47.5500    13.8813    10.9487     6.9903    89.8592     0.0078     0.1308     2.4599
  417.5000   -47.5530    14.0703    10.9449     6.9919    88.3929     0.0079     0.1333     2.4563
  418.0000   -47.5560    14.1643    11.0171     6.9787    87.1992     0.0065     0.1410     2.4451
  418.5000   -47.7092    14.2585    11.0896     6.9803    90.0517     0.0067     0.1430     2.4452
  419.0000   -47.7121    14.3535    11.1626     6.9819    93.7963     0.0053     0.1427     2.4460
  419.5000   -47.7151    14.2497    11.2361     6.9686    90.8245     0.0054     0.1427     2.4461
  420.0000   -47.7178    14.2458    11.2323     6.9702    89.4945     0.0055     0.1426     2.4454
  420.5000   -47.5705    14.1438    11.2284     6.9570    89.0601     0.0071     0.1423     2.4448
  421.0000   -47.5739    14.1399    11.2245     6.9437    86.6853     0.0072     0.1423     2.4441
  421.5000   -47.5766    14.0387    11.1434     6.9304    84.4598     0.0103     0.1443     2.4442
  422.0000   -47.5799    13.9379    11.0628     6.9325    84.6223     0.0134     0.1497     2.4458
  422.5000   -47.5832    13.8384    11.0590     6.9490    89.7102     0.0136     0.1437     2.4600
  423.0000   -47.5859    13.7394    10.9790     6.9506    90.1713     0.0137     0.1344     2.4646
  423.5000   -47.5889    13.6410    10.9753     6.9820    90.4831     0.0138     0.1334     2.4669
  424.0000   -47.5919    13.6373    10.9715     6.9985    92.7352     0.0018     0.1265     2.4677
  424.5000   -47.5949    13.5396    10.9677     6.9848    94.0917    -0.0026     0.1253     2.4626
  425.0000   -47.5978    13.6298    10.9638     6.9715    94.1050    -0.0037     0.1322     2.4544
  425.5000   -47.3005    13.6260    10.8846     6.9587    94.1183    -0.0081     0.1348     2.4500
  426.0000   -46.7029    13.7167    11.0315     6.9603    93.6839    -0.0124     0.1369     2.4411
  426.5000   -46.1053    13.7128    11.1812     6.9619    90.5627    -0.0153     0.1413     2.4410
  427.0000   -45.6578    13.7091    11.4114     6.9635    90.5761    -0.0107     0.1437     2.4153
  427.5000   -45.2096    13.9057    11.8904     6.9056    90.5896    -0.0001     0.1567     2.3898
  428.0000   -44.3125    14.2070    12.4753     6.8179    90.4534     0.0104     0.1737     2.3697
  428.5000   -43.5647    14.8963    13.3632     6.8642    84.2115     0.0165     0.1822     2.3548
  429.0000   -42.8169    15.8854    14.0206     6.9253    79.7074     0.0256     0.1925     2.3407
  429.5000   -41.9190    17.0028    14.6090     6.9716    78.8548     0.0331     0.2148     2.3153
  430.0000   -41.4715    18.0437    15.1173     7.0179    69.0174     0.0392     0.2237     2.3102
  430.5000   -41.4746    18.5442    15.4286     7.0641    72.0157     0.0408     0.2255     2.3140
  431.0000   -41.4775    18.6664    15.5316     6.9899    75.3126     0.0424     0.2204     2.3223
  431.5000   -41.4805    18.6612    15.4180     6.9015    75.4751     0.0396     0.2167     2.3313
  432.0000   -41.4835    18.5276    14.9926     6.9950    76.5332     0.0352     0.2092     2.3321
  432.5000   -41.4865    18.2683    14.5789     7.0412    79.5316     0.0398     0.2095     2.3330
  433.0000   -41.4895    18.0127    14.1766     7.0726    79.6941     0.0444     0.2074     2.3398
  433.5000   -41.4925    17.7606    13.6905     7.0742    79.4089     0.0445     0.2055     2.3451
  434.0000   -41.4955    17.5120    13.3127     7.0461    76.5864     0.0446     0.2010     2.3437
  434.5000   -41.4985    17.2669    13.2165     6.9882    77.0474     0.0430     0.1980     2.3429
