~VERSION INFORMATION
 VERS.                2.0:   CWLS LOG ASCII STANDARD - VERSION 2.0
 WRAP.                 NO:   ONE LINE PER DEPTH STEP
~WELL INFORMATION
#MNEM.UNIT      DATA TYPE    INFORMATION
#----------   ------------   ------------------------------
 STRT.F           42.0000:   START DEPTH
 STOP.F         3145.0000:   STOP DEPTH
 STEP.F            0.5000:   STEP LENGTH
 NULL.          -999.2500:   NO VALUE
 COMP. LAWRENCE/ALLISON INC:   COMPANY
 WELL.      46 STX #34-34:   WELL
 FLD .             TEAPOT:   FIELD
 LOC .      S34 T39N R78W:   LOCATION
 CNTY.            NATRONA:   COUNTY
 STAT.            WYOMING:   STATE
 CTRY. UNITED STATES OF AMERICA:   COUNTRY
 SRVC.              Welex:   SERVICE COMPANY
 DATE.        01-MAY-1977:   LOGDATE
 API .       490251104800:   API NUMBER
~CURVE INFORMATION
#MNEM.UNIT       API CODE    CURVE DESCRIPTION
#----------   ------------   ------------------------------
 DEPT.F                  :   
 ILD .OHMM   07 120 46 00:   INDUCTION LOG DEEP
 ILM .OHMM   07 120 44 00:   INDUCTION LOG MEDIUM
 SGRD.OHMM   07 221 05 00:   SHALLOW SHORT GUARD RESISTIVITY
 SPR .MV     07 010 01 00:   SPONTANEOUS POTENTIAL
 GR  .GAPI   81 310 01 00:   GAMMA RAY
~PARAMETER INFORMATION
#MNEM.UNIT          VALUE    DESCRIPTION
#----------   ------------   ------------------------------
 PD  .                 GL:   PERMANENT DATUM
 EPD .F              5120:   ELEVATION PERMANENT DATUM
 LMF .                 GL:   LOG MEASURED FROM
 DMF .                 GL:   DRILLING MEASURED FROM
 EGL .F              5120:   GROUND LEVEL
 DATE.        01-MAY-1977:   RUN DATE
 RUN .                  1:   RUN NUMBER
 DD  .F               660:   DEPTH DRILLER
 DL  .F               661:   DEPTH LOGGER
 BLI .F               659:   BOTTOM LOG INTERVAL
 TLI .F                40:   TOP LOG INTERVAL
 CS  .IN            8.625:   CASING SIZE
 CBD .F                40:   CASING BOTTOM DRILLER
 CBL .F                42:   CASING BOTTOM LOGGER
 BS  .IN            7.875:   BIT SIZE
 BSD .F               660:   BIT SIZE AT DEPTH
 DFT .             KCLMUD:   DRILLING FLUID TYPE
 DFD .                8.7:   DRILLING FLUID DENSITY
 DFV .                 31:   DRILLING FLUID VISCOSITY
 DFPH.                  9:   DRILLING FLUID PH
 DFL .                  5:   DRILLING FLUID LOSS
 MSS .           FLOWLINE:   MUD SAMPLE SOURCE
 RMS .OHMM            .23:   RESISTIVITY MUD SAMPLE
 MST .F                62:   MUD SAMPLE TEMPERATURE
 RMF .OHMM            .17:   RESISTIVITY MUD FILTRATE SAMPLE
 MFST.F                62:   MUD FILTRATE SAMPLE TEMPERATURE
 RMC .OHMM            .32:   RESISTIVITY MUD CAKE
 MCST.F                62:   MUD CAKE SAMPLE TEMPERATURE
 MFSS.           MEASURED:   MUD FILTRATE SAMPLE SOURCE
 MCSS.           MEASURED:   MUD CAKE SAMPLE SOURCE
 RMB .OHMM             .2:   RESISTIVITY MUD AT BHT
 BHT .F                71:   BOTTOM HOLE TEMPERATURE
 TCS .HRS             1.5:   TIME CURCULATED STOPPED
 MRT .F                71:   MAXIMUM RECORDED TEMPERATURE
 LUL .             CASPER:   LOGGING UNIT LOCATION
 ENGI.          T. JOYNER:   RECORDING ENGINEER
 WITN.            R. LYON:   WITNESSED BY
 CLNT.            A2DTECH:   CLIENT CODE
 ORIG.        2" 5" PRINT:   ORIGIN OF DATA
 UWI .       490251104800:   UNIQUE WELL ID
 DICO. A2D Technologies, Inc.:   DIGITIZING COMPANY
~OTHER INFORMATION
~A   DEPT      ILD        ILM       SGRD        SPR         GR   
# ...
  591.0000    12.6766    16.2338    16.8450   -32.0842  -999.2500
  591.5000    12.5828    16.2248    16.8599   -32.0872  -999.2500
  592.0000    12.5767    16.2159    17.0656   -32.0902  -999.2500
  592.5000    12.5705    16.4372    17.1857   -32.2427  -999.2500
  593.0000    12.5643    16.8865    17.4073   -32.2451  -999.2500
  593.5000    12.6471    17.2323    17.5198   -32.2696  -999.2500
  594.0000    12.7289    16.8676    17.5112   -32.4006  -999.2500
  594.5000    12.7211    16.3965    17.3816   -32.4141  -999.2500
  595.0000    12.7149    16.2739    17.0153   -32.5561  -999.2500
  595.5000    12.7086    16.1523    16.6568   -32.5590  -999.2500
  596.0000    12.6146    16.2579    16.4192   -32.7115  -999.2500
  596.5000    12.6084    16.2465    16.1851   -32.7146  -999.2500
  597.0000    12.5151    16.1251    16.1771   -32.7176  -999.2500
  597.5000    12.4238    16.0046    16.1692   -32.8701  -999.2500
  598.0000    12.3319    15.9956    16.1613   -32.8731  -999.2500
  598.5000    12.2407    15.8760    16.0417   -32.8761  -999.2500
  599.0000    12.1502    15.8671    15.9230   -32.8791  -999.2500
  599.5000    12.0604    15.7485    15.9151   -32.8821  -999.2500
  600.0000    11.9712    15.6076    15.9012   -33.0658  -999.2500
  600.5000    11.8769    15.3066    15.8058   -33.2555  -999.2500
  601.0000    11.7960    15.0056    15.7104   -33.4452  -999.2500
  601.5000    11.7096    14.8712    15.6151   -33.8205  -999.2500
  602.0000    11.5435    14.7621    15.6643   -33.9825  -999.2500
  602.5000    11.3797    14.6539    15.5479   -34.2940  -999.2500
  603.0000    11.1407    14.5477    15.2214   -34.4561  -999.2500
  603.5000    10.8313    14.4410    14.7988   -34.7676  -999.2500
  604.0000    10.5306    14.3352    14.3878   -35.0791  -999.2500
  604.5000    10.2382    14.1196    14.0857   -35.2412  -999.2500
  605.0000     9.6815    13.9214    13.6946   -35.7021  -999.2500
  605.5000     9.0919    13.5368    13.5003   -36.0137  -999.2500
  606.0000     8.2471    13.2544    13.2167   -36.3252  -999.2500
  606.5000     7.5329    12.8909    12.8497   -36.6367  -999.2500
  607.0000     6.9767    12.5327    12.4929   -36.8261  -999.2500
  607.5000     6.4615    12.1845    11.9787   -37.1076  -999.2500
  608.0000     5.7008    11.8459    11.3275   -37.4190  -999.2500
  608.5000     5.0999    11.2794    10.7116   -37.5810  -999.2500
  609.0000     4.5941    10.3019    10.0592   -37.5934  -999.2500
  609.5000     4.4357     8.6572     8.9367   -37.6059  -999.2500
  610.0000     4.4342     6.4207     8.4517   -37.3194  -999.2500
  610.5000     4.5311     5.6250     8.6858   -37.0329  -999.2500
  611.0000     4.7311     5.8212     9.1766   -36.5971  -999.2500
  611.5000     4.9965     7.5225    10.2493   -36.3104  -999.2500
  612.0000     5.4252    10.4923    12.9811   -35.8744  -999.2500
  612.5000     5.8941    11.3988    14.2874   -35.7374  -999.2500
  613.0000     6.6275    12.2129    13.8764   -35.3021  -999.2500
  613.5000     7.4994    12.8156    13.5869   -35.0157  -999.2500
  614.0000     8.3089    13.1708    13.4992   -34.7262  -999.2500
  614.5000     8.9003    13.2584    13.5956   -34.4429  -999.2500
  615.0000     9.4696    13.4381    13.8738   -34.3028  -999.2500
  615.5000     9.8678    13.6188    14.1576   -34.0196  -999.2500
  616.0000    10.2828    13.8995    14.2456   -33.7332  -999.2500
  616.5000    10.6412    13.9905    14.3388   -33.5931  -999.2500
  617.0000    11.0120    14.1816    14.4326   -33.4562  -999.2500
  617.5000    11.3958    14.2744    14.6280   -33.4719  -999.2500
  618.0000    11.6308    14.3678    14.8261   -33.1855  -999.2500
  618.5000    11.8704    14.5625    15.1315   -33.0455  -999.2500
  619.0000    12.1146    14.7584    15.4432   -32.9086  -999.2500
  619.5000    12.3641    14.9584    15.7613   -32.7748  -999.2500
  620.0000    12.6201    15.0578    15.9747   -32.7873  -999.2500
  620.5000    12.8801    15.1548    16.3038   -32.6473  -999.2500
  621.0000    13.0531    15.3602    16.5246   -32.5104  -999.2500
  621.5000    13.3220    15.4623    16.7487   -32.5261  -999.2500
  622.0000    13.4091    15.6719    16.9770   -32.5062  -999.2500
  622.5000    13.4982    15.7744    17.2069   -32.3986  -999.2500
  623.0000    13.5850    15.8776    17.4400   -32.2617  -999.2500
  623.5000    13.5793    16.0911    17.4309   -32.1247  -999.2500
  624.0000    13.6695    16.1981    17.1836   -31.9878  -999.2500
  624.5000    13.6624    16.3041    17.0577   -31.8509  -999.2500
  625.0000    13.6567    16.2970    16.9327   -31.7140  -999.2500
  625.5000    13.6509    16.4039    17.1638   -31.4275  -999.2500
  626.0000    13.6452    16.3970    17.5155   -31.4402  -999.2500
  626.5000    13.7359    16.5043    17.6319   -31.4527  -999.2500
  627.0000    13.7287    16.3832    17.8688   -31.4653  -999.2500
  627.5000    13.7230    16.2631    17.8613   -31.4779  -999.2500
  628.0000    13.7172    16.1439    17.6079   -31.4904  -999.2500
  628.5000    13.8083    16.0256    17.2381   -31.5030  -999.2500
  629.0000    13.7057    15.9080    17.1118   -31.6650  -999.2500
  629.5000    13.7000    15.7914    16.8691   -31.6776  -999.2500
  630.0000    13.5996    15.6756    16.9811   -31.8396  -999.2500
  630.5000    13.5000    15.6690    16.9723   -32.0017  -999.2500
  631.0000    13.2165    15.6625    16.9652   -32.1637  -999.2500
  631.5000    13.1207    15.6559    16.8409   -32.1762  -999.2500
  632.0000    13.0090    15.6494    16.7175   -32.1888  -999.2500
  632.5000    12.8265    15.6428    16.5950   -32.2014  -999.2500
  633.0000    12.5592    15.6363    16.1342   -32.3634  -999.2500
  633.5000    12.3063    15.5216    15.9053   -32.3760  -999.2500
  634.0000    12.1250    15.4078    15.6796   -32.3885  -999.2500
  634.5000    11.8723    15.2948    15.5648   -32.4011  -999.2500
  635.0000    11.6248    15.0776    15.3439   -32.4137  -999.2500
  635.5000    11.3826    14.9671    15.2041   -32.4262  -999.2500
  636.0000    11.1443    14.8573    15.1066   -32.4388  -999.2500
  636.5000    10.9103    14.5451    15.0090   -32.4513  -999.2500
  637.0000    10.6811    14.1409    14.8997   -32.4614  -999.2500
  637.5000    10.5296    13.9401    14.7905   -32.4738  -999.2500
  638.0000    10.3085    13.6471    14.3798   -32.4863  -999.2500
  638.5000    10.1622    13.4534    13.7879   -32.6482  -999.2500
  639.0000     9.9488    13.2624    13.3124   -32.6707  -999.2500
  639.5000     9.8076    13.0740    13.0329   -32.8226  -999.2500
  640.0000     9.6685    13.0686    13.1181   -32.8351  -999.2500
  640.5000     9.5313    13.0631    13.2052   -32.8476  -999.2500
  641.0000     9.3311    13.2401    13.1983   -32.8602  -999.2500
  641.5000     9.2628    13.2346    13.3771   -33.0222  -999.2500
  642.0000     9.1949    13.1376    13.3715   -33.0348  -999.2500
  642.5000     9.1910    13.1321    13.4603   -33.0474  -999.2500
  643.0000     9.1237    13.1266    13.3603   -33.2094  -999.2500
  643.5000     9.1199    13.0303    13.2624   -33.2220  -999.2500
  644.0000     9.1161    12.9348    13.1653   -33.2345  -999.2500
  644.5000     9.1123    12.9293    13.1597   -33.2471  -999.2500
  645.0000     9.1084    12.8345    12.9562   -33.2596  -999.2500
  645.5000     9.0417    12.8292    12.7901   -33.2722  -999.2500
  646.0000     8.9134    12.8083    12.6964   -33.2848  -999.2500
  646.5000     8.7262    12.7309    12.5912   -33.4468  -999.2500
  647.0000     8.6024    12.6376    12.4246   -33.6088  -999.2500
  647.5000     8.5394    12.5449    12.4109   -33.7709  -999.2500
  648.0000     8.4182    12.4449    12.2365   -33.9329  -999.2500
  648.5000     8.2988    12.1853    11.9812   -34.3939  -999.2500
  649.0000     8.1810    11.9312    11.7345   -35.4528  -999.2500
  649.5000     8.0650    11.5213    11.4881   -36.8107  -999.2500
  650.0000     8.0557    11.1255    11.4039   -38.4675  -999.2500
  650.5000     7.9757    10.7282    11.2308   -39.9748  -999.2500
  651.0000     8.0328    10.7162    11.2928   -40.4358  -999.2500
  651.5000     7.9077    10.7760    11.3592   -40.7473  -999.2500
