~VERSION INFORMATION
 VERS.                2.0:   CWLS LOG ASCII STANDARD - VERSION 2.0
 WRAP.                 NO:   ONE LINE PER DEPTH STEP
~WELL INFORMATION
#MNEM.UNIT      DATA TYPE    INFORMATION
#----------   ------------   ------------------------------
 STRT.F           40.0000:   START DEPTH
 STOP.F          876.5000:   STOP DEPTH
 STEP.F            0.5000:   STEP LENGTH
 NULL.          -999.2500:   NO VALUE
 COMP. FENIX & SCISSON INC:   COMPANY
 WELL.     NPR 3 #41-S-14:   WELL
 FLD .             TEAPOT:   FIELD
 LOC .      S14 T38N R78W:   LOCATION
 CNTY.            NATRONA:   COUNTY
 STAT.            WYOMING:   STATE
 CTRY. UNITED STATES OF AMERICA:   COUNTRY
 SRVC.            Unknown:   SERVICE COMPANY
 DATE.        12-MAR-1978:   LOGDATE
 API .       490251060200:   API NUMBER
~CURVE INFORMATION
#MNEM.UNIT       API CODE    CURVE DESCRIPTION
#----------   ------------   ------------------------------
 DEPT.F                  :   
 CALD.IN     45 280 60 00:   CALIPER FROM DENSITY LOG
 GRD .GAPI   45 310 01 00:   GAMMA RAY FROM DENSITY LOG
 RHOB.G/C3   45 350 01 00:   BULK DENSITY
 DPHI.DEC    45 890 12 00:   DENSITY POROSITY SANDSTONE
 CORR.G/C3   45 356 01 00:   DENSITY CORRECTION
 SPR .MV     05 010 01 00:   SPONTANEOUS POTENTIAL FROM RES.
 IL  .OHMM   05 120 00 00:   INDUCTION LOG
 SN  .OHMM   05 040 16 00:   SHORT NORMAL 16"
~PARAMETER INFORMATION
#MNEM.UNIT          VALUE    DESCRIPTION
#----------   ------------   ------------------------------
 PD  .                 GL:   PERMANENT DATUM
 EPD .F              5211:   ELEVATION PERMANENT DATUM
 LMF .                 KB:   LOG MEASURED FROM
 DMF .                 KB:   DRILLING MEASURED FROM
 EKB .F              5215:   KELLING BUSHING
 EGL .F              5211:   GROUND LEVEL
 DATE.            3-12-78:   RUN DATE
 RUN .                  1:   RUN NUMBER
 DD  .F               870:   DEPTH DRILLER
 DL  .F               872:   DEPTH LOGGER
 BLI .F               866:   BOTTOM LOG INTERVAL
 TLI .F                50:   TOP LOG INTERVAL
 CS  .IN            8.625:   CASING SIZE
 CBD .F                40:   CASING BOTTOM DRILLER
 CBL .F                40:   CASING BOTTOM LOGGER
 BS  .IN            7.875:   BIT SIZE
 BSD .F               870:   BIT SIZE AT DEPTH
 DFT .                KCL:   DRILLING FLUID TYPE
 DFD .                8.6:   DRILLING FLUID DENSITY
 DFV .                 33:   DRILLING FLUID VISCOSITY
 DFPH.                 10:   DRILLING FLUID PH
 DFL .               12.1:   DRILLING FLUID LOSS
 MSS .           FLOWLINE:   MUD SAMPLE SOURCE
 RMS .OHMM            .32:   RESISTIVITY MUD SAMPLE
 MST .F                54:   MUD SAMPLE TEMPERATURE
 RMF .OHMM            .36:   RESISTIVITY MUD FILTRATE SAMPLE
 MFST.F                55:   MUD FILTRATE SAMPLE TEMPERATURE
 RMC .OHMM             .5:   RESISTIVITY MUD CAKE
 MCST.F                56:   MUD CAKE SAMPLE TEMPERATURE
 MFSS.           MEASURED:   MUD FILTRATE SAMPLE SOURCE
 MCSS.           MEASURED:   MUD CAKE SAMPLE SOURCE
 RMB .OHMM            .24:   RESISTIVITY MUD AT BHT
 BHT .F                72:   BOTTOM HOLE TEMPERATURE
 TCS .HRS               4:   TIME CURCULATED STOPPED
 MRT .F                72:   MAXIMUM RECORDED TEMPERATURE
 LUN .               2958:   LOGGING UNIT NUMBER
 LUL .               CASP:   LOGGING UNIT LOCATION
 ENGI.             MILLER:   RECORDING ENGINEER
 WITN.         HARRINGTON:   WITNESSED BY
 CLNT.            A2DTECH:   CLIENT CODE
 ORIG.        2" 5" PRINT:   ORIGIN OF DATA
 UWI .       490251060200:   UNIQUE WELL ID
 DICO. A2D Technologies, Inc.:   DIGITIZING COMPANY
~OTHER INFORMATION
~A   DEPT     CALD         GRD      RHOB       DPHI       CORR        SPR         IL         SN   
# ...
  202.0000     8.2441    90.4001     2.3229     0.1832    -0.0017   -59.3908     3.4980     4.1972
  202.5000     8.2441    93.4671     2.3025     0.1978     0.0019   -59.7164     3.3089     3.9536
  203.0000     8.2441    97.3812     2.2836     0.2048     0.0057   -59.8338     3.2408     3.7241
  203.5000     8.2441    99.7970     2.2710     0.2108     0.0099   -59.9099     3.2709     3.6208
  204.0000     8.2441    96.4152     2.2689     0.2136     0.0020   -59.9256     3.2795     3.6886
  204.5000     8.2441    87.0380     2.3010     0.1945     0.0003   -59.4529     3.2878     3.8535
  205.0000     8.2441    78.0454     2.3327     0.1749     0.0007   -57.8681     3.2962     4.0258
  205.5000     8.2441    78.3433     2.3533     0.1654    -0.0091   -57.5747     3.3782     4.2058
  206.0000     8.2441    80.7387     2.3576     0.1621    -0.0078   -57.5689     3.5814     4.3939
  206.5000     8.2441    83.6545     2.3542     0.1641    -0.0047   -57.5712     3.7969     4.5102
  207.0000     8.2441    86.3854     2.3509     0.1658    -0.0016   -57.6058     4.0254     4.6064
  207.5000     8.2441    87.9484     2.3570     0.1607    -0.0012   -57.6637     4.2267     4.7086
  208.0000     8.2441    88.2141     2.3655     0.1588    -0.0007   -57.7208     4.4368     4.8359
  208.5000     8.2441    89.1409     2.3652     0.1584    -0.0002   -57.7243     4.4655     4.9667
  209.0000     8.2441    89.7669     2.3700     0.1538     0.0004   -57.3571     4.4962     5.0494
  209.5000     8.2441    88.5533     2.3808     0.1495     0.0009   -57.4321     4.5271     4.9965
  210.0000     8.2441    87.3151     2.3848     0.1480     0.0014   -57.9236     4.5583     4.9569
  210.5000     8.2441    86.0121     2.3804     0.1499     0.0020   -58.4144     4.5615     4.9177
  211.0000     8.2441    84.7004     2.3750     0.1513     0.0025   -58.9043     4.5615     4.8787
  211.5000     8.2441    83.3850     2.3716     0.1554     0.0031   -59.2543     4.3807     4.7301
  212.0000     8.2441    82.1870     2.3613     0.1593     0.0036   -59.0627     4.2198     4.5359
  212.5000     8.2441    82.4119     2.3526     0.1633     0.0041   -58.5722     4.0648     4.3779
  213.0000     8.2441    82.7349     2.3472     0.1677     0.0047   -58.6670     3.9156     4.3070
  213.5000     8.2441    83.8258     2.3423     0.1721     0.0052   -58.7329     3.7718     4.2372
  214.0000     8.2441    85.9724     2.3367     0.1740     0.0058   -59.2773     3.5545     4.1169
  214.5000     8.2441    86.0899     2.3291     0.1805     0.0062   -59.7944     3.5798     3.9329
  215.0000     8.2441    85.8387     2.3125     0.1913     0.0044   -59.8712     3.6544     3.7571
  215.5000     8.2441    85.2245     2.2955     0.1955    -0.0027   -59.9512     3.5480     3.6883
  216.0000     8.2441    80.4223     2.2932     0.1985    -0.0098   -60.0270     3.4191     3.6784
  216.5000     8.2441    79.1765     2.2984     0.1965    -0.0091   -60.1026     3.2948     3.6617
  217.0000     8.2441    79.3495     2.2954     0.1971    -0.0059   -60.1786     3.1751     3.6449
  217.5000     8.2441    79.6132     2.2922     0.1997    -0.0026   -60.2546     3.0904     3.6283
  218.0000     8.2441    82.5555     2.2834     0.2045     0.0008   -60.3305     3.0321     3.5096
  218.5000     8.2441    87.1600     2.2738     0.2104     0.0020   -60.4066     2.9637     3.3147
  219.0000     8.2441    90.3589     2.2643     0.2164     0.0011   -60.4836     2.8246     3.1305
  219.5000     8.2441    88.9472     2.2567     0.2197     0.0013   -60.5616     2.6921     2.9855
  220.0000     8.2441    86.9213     2.2521     0.2233     0.0048   -60.5102     2.5658     2.9084
  220.5000     8.2441    84.8970     2.2480     0.2267     0.0083   -60.4480     2.4561     2.9008
  221.0000     8.2441    82.5857     2.2448     0.2266     0.0118   -60.3820     2.4560     2.9469
  221.5000     8.2441    79.3421     2.2506     0.2229     0.0097   -60.4414     2.5971     2.9841
  222.0000     8.2441    77.6518     2.2606     0.2098     0.0051   -60.5553     2.7115     3.0117
  222.5000     8.2441    79.2113     2.2871     0.1942     0.0005   -60.3552     2.8307     3.3087
  223.0000     8.2441    80.7399     2.3173     0.1785    -0.0036   -59.9361     3.0114     3.6148
  223.5000     8.2441    80.7639     2.3481     0.1618    -0.0031   -59.5187     3.2369     3.9494
  224.0000     8.2441    81.2309     2.3632     0.1573    -0.0026   -59.3697     3.4793     4.1580
  224.5000     8.2441    82.4508     2.3643     0.1561    -0.0022   -59.3679     3.7398     4.1468
  225.0000     8.2441    83.0298     2.3571     0.1629    -0.0018   -59.3677     3.8573     4.1204
  225.5000     8.2441    83.7734     2.3470     0.1666    -0.0013   -59.3680     3.8353     4.0939
  226.0000     8.2441    85.8565     2.3475     0.1666    -0.0009   -59.3681     3.7656     4.0674
  226.5000     8.2441    86.2135     2.3468     0.1644    -0.0004   -59.3681     3.6971     4.0407
  227.0000     8.2441    88.8475     2.3424     0.1686     0.0000   -59.3681     3.6616     4.0144
  227.5000     8.2441    89.8989     2.3373     0.1756     0.0005   -59.3681     3.7571     3.9053
  228.0000     8.2441    88.7425     2.3271     0.1817     0.0009   -59.3681     3.6041     3.7736
  228.5000     8.2441    87.2607     2.3169     0.1865     0.0013   -59.3681     3.3396     3.6464
  229.0000     8.2441    87.7342     2.3075     0.1912     0.0018   -59.3681     3.0946     3.5234
  229.5000     8.2440    88.6308     2.3014     0.1979     0.0022   -59.3677     2.8675     3.4047
  230.0000     8.2440    91.9844     2.2877     0.2052     0.0028   -59.3699     2.6570     3.2899
  230.5000     8.2363    96.5092     2.2714     0.2125     0.0091   -59.3763     2.5964     3.1790
  231.0000     8.2209    98.9008     2.2575     0.2198     0.0197   -59.3324     2.6701     3.1233
  231.5000     8.2054    99.4078     2.2487     0.2249     0.0310   -59.5279     2.7754     3.1671
  232.0000     8.1892    97.6234     2.2424     0.2219     0.0306   -58.4226     2.8849     3.3332
  232.5000     8.1847    94.2927     2.2764     0.1967     0.0095   -57.3382     2.9988     3.5080
  233.0000     8.1845    88.6298     2.3196     0.1714     0.0076   -57.0311     3.1171     3.6919
  233.5000     8.1845    86.8534     2.3631     0.1508     0.0132   -57.0078     3.2964     4.1364
  234.0000     8.1845    85.8592     2.3957     0.1412     0.0188   -57.1759     3.6907     4.6907
  234.5000     8.1845    85.7217     2.4035     0.1335     0.0205   -57.3423     4.1321     5.1459
  235.0000     8.1845    86.4242     2.4095     0.1286     0.0205   -57.3441     4.6264     5.2881
  235.5000     8.1845    87.1056     2.4133     0.1280     0.0187   -57.2738     5.0494     5.4329
  236.0000     8.1845    85.5608     2.4152     0.1276     0.0133   -57.2028     5.0435     5.5817
  236.5000     8.1845    83.9720     2.4166     0.1260     0.0083   -57.1733     5.0281     5.7346
  237.0000     8.1845    82.9414     2.4136     0.1297     0.0075   -57.1736     5.0052     5.8917
  237.5000     8.1845    83.3457     2.4083     0.1360     0.0090   -57.1744     5.0659     6.0085
  238.0000     8.1845    85.4259     2.4036     0.1324     0.0105   -57.1691     5.2485     6.0915
  238.5000     8.1845    87.6294     2.4141     0.1237     0.0090   -57.0264     5.4376     6.2963
  239.0000     8.1845    87.6997     2.4277     0.1173     0.0069   -56.5146     5.6336     6.6184
  239.5000     8.1845    88.4904     2.4357     0.1149     0.0074   -56.0217     5.8366     6.8913
  240.0000     8.1845    89.0855     2.4328     0.1184     0.0086   -55.7783     6.0469     7.0412
  240.5000     8.1845    87.9098     2.4310     0.1168     0.0098   -55.7770     6.2447     7.0357
  241.0000     8.1845    86.8972     2.4319     0.1174     0.0110   -55.7756     6.3028     7.0287
  241.5000     8.1845    85.5272     2.4295     0.1186     0.0122   -55.7759     6.2744     7.0218
  242.0000     8.1845    83.9495     2.4267     0.1196     0.0119   -55.7761     6.2484     7.0149
