~VERSION INFORMATION
 VERS.                2.0:   CWLS LOG ASCII STANDARD - VERSION 2.0
 WRAP.                 NO:   ONE LINE PER DEPTH STEP
~WELL INFORMATION
#MNEM.UNIT      DATA TYPE    INFORMATION
#----------   ------------   ------------------------------
 STRT.F           88.0000:   START DEPTH
 STOP.F          919.0000:   STOP DEPTH
 STEP.F            0.5000:   STEP LENGTH
 NULL.          -999.2500:   NO VALUE
 COMP. U S NAVY-INTEX OIL:   COMPANY
 WELL. RES 3 TEAPOT DOM #51S-11:   WELL
 FLD .             TEAPOT:   FIELD
 LOC .      S11 T38N R78W:   LOCATION
 CNTY.            NATRONA:   COUNTY
 STAT.            WYOMING:   STATE
 CTRY. UNITED STATES OF AMERICA:   COUNTRY
 SRVC.      NL McCullough:   SERVICE COMPANY
 DATE.        08-AUG-1961:   LOGDATE
 API .       490250638400:   API NUMBER
~CURVE INFORMATION
#MNEM.UNIT       API CODE    CURVE DESCRIPTION
#----------   ------------   ------------------------------
 DEPT.F                  :   
 NEUT.CPS    35 330 30 00:   NEUTRON
 GRN .MG/TON 35 310 01 00:   GAMMA RAY
~PARAMETER INFORMATION
#MNEM.UNIT          VALUE    DESCRIPTION
#----------   ------------   ------------------------------
 PD  .                 GL:   PERMANENT DATUM
 EPD .F              5176:   ELEVATION PERMANENT DATUM
 LMF .                 KB:   LOG MEASURED FROM
 DAPD.F                 6:   FEET ABOVE PERMANENT DATUM
 DMF .                 KB:   DRILLING MEASURED FROM
 EKB .F              5182:   KELLING BUSHING
 EGL .F              5176:   GROUND LEVEL
 DATE.           8-8-1961:   RUN DATE
 RUN .                  1:   RUN NUMBER
 DD  .F               920:   DEPTH DRILLER
 DL  .F             920.5:   DEPTH LOGGER
 BLI .F               919:   BOTTOM LOG INTERVAL
 TLI .F                90:   TOP LOG INTERVAL
 BSD .F               920:   BIT SIZE AT DEPTH
 DFT .       OIL EMULSION:   DRILLING FLUID TYPE
 DFD .                  9:   DRILLING FLUID DENSITY
 TCS .HRS               2:   TIME CURCULATED STOPPED
 ENGI.            JACKSON:   RECORDING ENGINEER
 WITN.          JORGENSEN:   WITNESSED BY
 CLNT.            A2DTECH:   CLIENT CODE
 ORIG.      2" & 5" PRINT:   ORIGIN OF DATA
 UWI .       490250638400:   UNIQUE WELL ID
 DICO. A2D Technologies, Inc.:   DIGITIZING COMPANY
~OTHER INFORMATION
~A   DEPT     NEUT          GRN 
# ...
  817.0000   626.3280     4.2497
  817.5000   633.8209     4.0434
  818.0000   640.5711     3.8677
  818.5000   620.1105     3.7300
  819.0000   607.2084     3.9811
  819.5000   598.8414     4.1789
  820.0000   591.7869     4.4756
  820.5000   619.9004     4.5362
  821.0000   616.0685     4.4517
  821.5000   601.6548     4.5047
  822.0000   606.8932     4.7482
  822.5000   555.4380     4.8544
  823.0000   608.2955     4.8845
  823.5000   632.4305     4.6859
  824.0000   620.2842     4.8530
  824.5000   598.3119     4.8526
  825.0000   583.1422     4.8217
  825.5000   561.9257     4.7746
  826.0000   559.6055     4.6834
  826.5000   576.1819     4.5001
  827.0000   583.6880     4.3243
  827.5000   568.5183     3.9580
  828.0000   574.5127     3.7670
  828.5000   583.5304     3.8808
  829.0000   574.4077     4.0405
  829.5000   624.4209     4.1163
  830.0000   637.7946     4.3902
  830.5000   643.0287     4.2602
  831.0000   675.4781     4.2292
  831.5000   685.0780     4.1144
  832.0000   646.6505     4.1521
  832.5000   631.8962     4.3193
  833.0000   638.2618     4.3418
  833.5000   625.3289     4.2498
  834.0000   616.3517     4.5161
  834.5000   598.7689     4.3328
  835.0000   596.9780     4.4466
  835.5000   602.7371     4.4157
  836.0000   612.9380     4.4228
  836.5000   614.1050     4.5824
  837.0000   605.3090     4.7041
  837.5000   659.6783     4.6350
  838.0000   611.9935     4.7640
  838.5000   614.2086     4.6797
  839.0000   606.5975     4.4734
  839.5000   639.8027     4.6178
  840.0000   614.8069     4.6478
  840.5000   598.8814     4.5535
  841.0000   589.0159     4.6546
  841.5000   618.4418     4.6770
  842.0000   585.1315     4.5013
  842.5000   603.9755     4.7370
  843.0000   625.8297     4.8662
  843.5000   616.7069     5.0715
  844.0000   632.5274     4.8644
  844.5000   621.1370     4.8490
  845.0000   607.4790     4.7416
  845.5000   615.7410     4.7114
  846.0000   651.2138     4.4531
  846.5000   630.0104     4.1617
  847.0000   658.6674     4.2070
  847.5000   658.6148     4.4199
  848.0000   661.5858     4.4804
  848.5000   632.0547     4.8153
  849.0000   650.1428     4.7234
  849.5000   672.0102     4.6315
  850.0000   678.0045     4.8266
  850.5000   645.1483     5.1033
  851.0000   618.2789     5.0951
  851.5000   579.1990     5.0033
  852.0000   593.9309     5.2238
  852.5000   605.0398     4.9261
  853.0000   622.6395     5.0247
  853.5000   635.4591     5.0348
  854.0000   596.1245     4.8090
  854.5000   587.7876     4.5355
  855.0000   602.1115     4.4893
  855.5000   603.6006     4.8112
  856.0000   591.4769     4.9238
  856.5000   599.0056     5.0062
  857.0000   586.8743     4.7313
  857.5000   591.3795     4.8833
  858.0000   620.8279     4.7609
  858.5000   590.5637     4.2880
  859.0000   568.6138     4.7830
  859.5000   606.3767     4.6986
  860.0000   631.2900     4.6372
  860.5000   634.2910     4.2251
  861.0000   626.7024     4.1179
  861.5000   659.9227     4.2394
  862.0000   655.3575     3.9798
  862.5000   625.8491     3.8118
  863.0000   637.9128     4.0399
  863.5000   690.7929     4.0013
  864.0000   715.7062     4.1000
  864.5000   656.7193     4.0157
  865.0000   664.2479     4.0381
  865.5000   647.5375     4.1138
  866.0000   619.8488     3.9293
  866.5000   639.8187     4.0321
  867.0000   651.5269     4.0755
  867.5000   652.0043     4.2597
  868.0000   640.6289     4.3554
  868.5000   664.0306     4.2178
  869.0000   696.5024     4.1792
  869.5000   685.8904     4.2016
  870.0000   669.9875     4.3536
  870.5000   634.4321     4.6427
  871.0000   630.6304     4.5356
  871.5000   645.7175     4.3828
  872.0000   638.1290     3.8335
  872.5000   672.8684     4.1379
  873.0000   659.2255     4.2214
  873.5000   637.2757     4.0151
  874.0000   585.0915     3.9080
  874.5000   566.1725     4.1590
  875.0000   595.4287     4.6083
  875.5000   674.9486     5.0422
  876.0000   666.6042     5.1713
  876.5000   633.3165     4.8964
  877.0000   608.3506     4.8045
  877.5000   639.3033     4.9260
  878.0000   619.6210     5.0170
  878.5000   621.1028     4.9861
  879.0000   624.1980     5.1609
  879.5000   620.2870     4.9699
  880.0000   613.4542     4.5960
  880.5000   620.9828     4.2449
  881.0000   620.9524     4.4655
  881.5000   584.3388     4.6861
  882.0000   604.5645     4.8229
  882.5000   599.6989     4.4032
  883.0000   628.3915     4.4637
  883.5000   620.7955     4.5013
  884.0000   599.6089     4.6153
  884.5000   637.3719     4.7825
  885.0000   596.5256     4.8057
  885.5000   614.6287     4.8273
  886.0000   626.6924     4.5726
  886.5000   599.4515     4.4720
  887.0000   584.3119     4.3152
  887.5000   605.4385     4.5281
  888.0000   643.9572     4.8630
  888.5000   649.9816     4.9465
  889.0000   613.6704     4.7402
  889.5000   640.8438     4.6178
  890.0000   656.6868     4.5260
  890.5000   631.7211     4.6703
  891.0000   645.2965     4.5327
  891.5000   627.1185     4.4635
  892.0000   637.6705     4.3945
  892.5000   648.8546     4.2721
  893.0000   626.2726     4.3631
  893.5000   595.2524     4.6980
  894.0000   592.7558     4.7018
  894.5000   574.6564     4.7581
  895.0000   596.6743     4.8643
  895.5000   612.5939     4.8182
  896.0000   646.0480     4.8634
  896.5000   666.1232     4.8291
  897.0000   651.7347     4.6796
  897.5000   680.0470     4.7858
  898.0000   686.4414     4.8143
  898.5000   604.7713     4.6248
  899.0000   633.4639     4.6700
  899.5000   658.3772     4.6926
  900.0000   669.6926     4.7129
  900.5000   668.5927     4.7912
  901.0000   669.6901     5.0579
  901.5000   622.8269     4.7683
  902.0000   613.0007     4.8978
  902.5000   603.9305     5.2638
  903.0000   628.1179     5.4619
  903.5000   608.4656     5.6982
  904.0000   610.7332     5.6753
  904.5000   628.1179     5.3857
  905.0000   637.1882     5.3476
  905.5000   636.4324     5.3933
  906.0000   622.0710     5.1417
  906.5000   607.7098     5.4467
  907.0000   556.3114     5.4772
  907.5000   565.3817     5.4259
  908.0000   591.0809     5.4924
  908.5000   583.5223     5.6296
  909.0000   630.3855     5.7134
  909.5000   637.9441     5.4314
  910.0000   628.1179     5.5381
  910.5000   589.5692     5.5610
  911.0000   541.1943     5.4995
  911.5000   519.2744     5.4847
  912.0000   562.3583     5.5763
  912.5000   573.6962     5.6295
  913.0000   584.2781     5.5686
  913.5000   574.4520  -999.2500
  914.0000   580.4988  -999.2500
  914.5000   562.3583  -999.2500
  915.0000   554.7997  -999.2500
  915.5000   600.1512  -999.2500
  916.0000   676.4928  -999.2500
  916.5000   711.3948  -999.2500
  917.0000   701.4362  -999.2500
  917.5000   701.3412  -999.2500
  918.0000   715.7974  -999.2500
  918.5000   718.8209  -999.2500
  919.0000   801.2094  -999.2500
