~VERSION INFORMATION
 VERS.                2.0:   CWLS LOG ASCII STANDARD - VERSION 2.0
 WRAP.                 NO:   ONE LINE PER DEPTH STEP
~WELL INFORMATION
#MNEM.UNIT      DATA TYPE    INFORMATION
#----------   ------------   ------------------------------
 STRT.F           35.0000:   START DEPTH
 STOP.F          977.0000:   STOP DEPTH
 STEP.F            0.5000:   STEP LENGTH
 NULL.          -999.2500:   NO VALUE
 COMP. FENIX & SCISSON INC:   COMPANY
 WELL.  NPR-3 "SX" #52-14:   WELL
 FLD .             TEAPOT:   FIELD
 LOC .      S14 T38N R78W:   LOCATION
 CNTY.            NATRONA:   COUNTY
 STAT.            WYOMING:   STATE
 CTRY. UNITED STATES OF AMERICA:   COUNTRY
 SRVC.            Unknown:   SERVICE COMPANY
 DATE.        13-MAR-1978:   LOGDATE
 API .       490251059900:   API NUMBER
~CURVE INFORMATION
#MNEM.UNIT       API CODE    CURVE DESCRIPTION
#----------   ------------   ------------------------------
 DEPT.F                  :   
 CALD.IN     45 280 60 00:   CALIPER FROM DENSITY LOG
 GRD .GAPI   45 310 01 00:   GAMMA RAY FROM DENSITY LOG
 CORR.G/C3   45 356 01 00:   DENSITY CORRECTION
 RHOB.G/C3   45 350 01 00:   BULK DENSITY
 DPHI.DEC    45 890 12 00:   DENSITY POROSITY SANDSTONE
 SPR .MV     07 010 01 00:   SPONTANEOUS POTENTIAL FROM RES. LOG
 ILD .OHMM   07 120 46 00:   INDUCTION LOG DEEP
 SN  .OHMM   07 040 16 00:   SHORT NORMAL 16'
~PARAMETER INFORMATION
#MNEM.UNIT          VALUE    DESCRIPTION
#----------   ------------   ------------------------------
 PD  .                 GL:   PERMANENT DATUM
 EPD .F              5223:   ELEVATION PERMANENT DATUM
 LMF .                 KB:   LOG MEASURED FROM
 DAPD.F                 4:   FEET ABOVE PERMANENT DATUM
 DMF .                 KB:   DRILLING MEASURED FROM
 EKB .F              5227:   KELLING BUSHING
 EGL .F              5223:   GROUND LEVEL
 DATE.            3-13-78:   RUN DATE
 RUN .                  1:   RUN NUMBER
 DD  .F               975:   DEPTH DRILLER
 DL  .F               977:   DEPTH LOGGER
 BLI .F               971:   BOTTOM LOG INTERVAL
 TLI .F                50:   TOP LOG INTERVAL
 CS  .IN            8.625:   CASING SIZE
 CBD .F                40:   CASING BOTTOM DRILLER
 CBL .F                40:   CASING BOTTOM LOGGER
 BS  .IN            7.875:   BIT SIZE
 BSD .F               975:   BIT SIZE AT DEPTH
 DFT .                KCL:   DRILLING FLUID TYPE
 DFD .                8.6:   DRILLING FLUID DENSITY
 DFV .                 33:   DRILLING FLUID VISCOSITY
 DFPH.               10.5:   DRILLING FLUID PH
 DFL .               11.6:   DRILLING FLUID LOSS
 MSS .          FLOW LINE:   MUD SAMPLE SOURCE
 RMS .OHMM            .34:   RESISTIVITY MUD SAMPLE
 MST .F                60:   MUD SAMPLE TEMPERATURE
 RMF .OHMM            .36:   RESISTIVITY MUD FILTRATE SAMPLE
 MFST.F                62:   MUD FILTRATE SAMPLE TEMPERATURE
 RMC .OHMM            .75:   RESISTIVITY MUD CAKE
 MCST.F                59:   MUD CAKE SAMPLE TEMPERATURE
 MFSS.               MEAS:   MUD FILTRATE SAMPLE SOURCE
 MCSS.               MEAS:   MUD CAKE SAMPLE SOURCE
 RMB .OHMM            .27:   RESISTIVITY MUD AT BHT
 BHT .F                75:   BOTTOM HOLE TEMPERATURE
 TCS .HRS               4:   TIME CURCULATED STOPPED
 MRT .F                75:   MAXIMUM RECORDED TEMPERATURE
 LUN .               2958:   LOGGING UNIT NUMBER
 LUL .               CASP:   LOGGING UNIT LOCATION
 ENGI.             MILLER:   RECORDING ENGINEER
 WITN.            RHOADES:   WITNESSED BY
 CLNT.            A2DTECH:   CLIENT CODE
 ORIG.       2", 5" PRINT:   ORIGIN OF DATA
 UWI .       490251059900:   UNIQUE WELL ID
 DICO. A2D Technologies, Inc.:   DIGITIZING COMPANY
~OTHER INFORMATION
~A   DEPT     CALD         GRD      CORR       RHOB       DPHI        SPR        ILD         SN   
# ...
   75.5000     8.0109    82.2411     0.0546     2.3760     0.1677   -53.2921     6.0033     7.1729
   76.0000     7.9816    81.2712     0.0851     2.3689     0.1605   -53.5870     6.1304     7.1358
   76.5000     7.9548    84.5335     0.1150     2.3719     0.1448   -51.6875     6.1083     7.0984
   77.0000     7.9566    88.2404     0.0947     2.3944     0.1389   -52.5726     6.0856     7.0612
   77.5000     8.0023    88.7860     0.0553     2.4032     0.1368   -52.4454     6.0630     7.0239
   78.0000     8.0515    87.4744     0.0312     2.4026     0.1308   -52.3743     6.0406     6.9770
   78.5000     8.1011    86.2134     0.0202     2.3996     0.1472   -53.7530     6.0181     6.9989
   79.0000     8.1160    84.0391     0.0237     2.3966     0.1437   -53.7968     5.9958     7.0307
   79.5000     8.1053    81.8235     0.0276     2.3934     0.1398   -52.7082     5.9735     7.0626
   80.0000     8.0701    80.3448     0.0314     2.3972     0.1369   -51.7734     5.9514     7.0945
   80.5000     8.0356    82.4081     0.0352     2.4030     0.1348   -53.1260     5.9293     7.1265
   81.0000     8.0176    85.7525     0.0366     2.4105     0.1327   -53.0972     5.9084     7.1587
   81.5000     8.0218    88.7301     0.0365     2.4171     0.1321   -51.9991     5.9860     7.1910
   82.0000     8.0257    88.0898     0.0311     2.4210     0.1390   -51.8881     6.0620     7.2234
   82.5000     8.0297    88.8655     0.0250     2.4166     0.1467   -52.0352     6.1390     7.2561
   83.0000     8.0340    88.4421     0.0217     2.4040     0.1509   -52.1765     6.2172     7.2888
   83.5000     8.0532    87.8471     0.0207     2.3915     0.1535   -52.3226     6.2964     7.3217
   84.0000     8.0937    81.9274     0.0259     2.3850     0.1544   -51.7499     6.3765     7.3548
   84.5000     8.1343    76.8924     0.0311     2.3906     0.1484   -51.0551     6.4804     7.3880
   85.0000     8.1267    77.4046     0.0346     2.3961     0.1428   -51.6155     6.4795     7.4213
   85.5000     8.1156    77.9905     0.0341     2.4016     0.1373   -52.0215     6.4802     7.4548
   86.0000     8.1048    79.1588     0.0314     2.3955     0.1336   -51.4260     6.4798     7.4885
   86.5000     8.0940    79.5724     0.0318     2.3908     0.1355   -51.3480     6.4798     7.5223
   87.0000     8.0834    75.7463     0.0367     2.3941     0.1383   -51.9892     6.4798     7.5562
   87.5000     8.0757    76.2544     0.0452     2.4000     0.1410   -51.8735     6.4798     7.5819
   88.0000     8.0746    81.3456     0.0502     2.4042     0.1438   -50.8918     6.5454     7.5818
   88.5000     8.0733    79.9377     0.0492     2.3996     0.1464   -50.8924     6.6935     7.5818
   89.0000     8.0722    78.7124     0.0537     2.3952     0.1458   -51.5946     6.8357     7.5819
   89.5000     8.0710    79.3311     0.0658     2.3945     0.1448   -51.5754     6.9809     7.5821
   90.0000     8.0698    79.9882     0.0668     2.4007     0.1461   -52.2575     7.0416     7.5816
   90.5000     8.0686    82.4769     0.0532     2.4071     0.1510   -53.0019     6.8167     7.4323
   91.0000     8.0674    85.1445     0.0395     2.3912     0.1570   -53.1913     6.5946     7.3077
   91.5000     8.0662    87.8055     0.0347     2.3815     0.1581   -51.6127     6.3798     7.1852
   92.0000     8.0650    89.3684     0.0337     2.3777     0.1544   -51.9274     6.1719     7.0644
   92.5000     8.0638    83.8155     0.0192     2.3872     0.1601   -52.7931     6.0740     6.9133
   93.0000     8.0626    75.7468     0.0174     2.3782     0.1472   -52.3804     6.0880     6.9520
   93.5000     8.0614    74.4791     0.0164     2.3743     0.1508   -51.5485     6.0987     7.0081
   94.0000     8.0602    76.0914     0.0153     2.3915     0.1557   -50.8555     6.1094     7.0647
   94.5000     8.0590    77.1755     0.0155     2.3862     0.1544   -51.8346     6.1193     7.1627
   95.0000     8.0578    77.1381     0.0198     2.3886     0.1502   -50.5876     6.1291     7.3836
   95.5000     8.0566    79.2344     0.0240     2.4015     0.1445   -51.6450     6.2474     7.6112
   96.0000     8.0558    81.1797     0.0281     2.4133     0.1388   -52.3775     6.3919     7.6818
   96.5000     8.0552    80.1387     0.0296     2.4210     0.1340   -52.1567     6.5396     7.7181
   97.0000     8.0546    79.9803     0.0274     2.4201     0.1339   -51.9318     6.6182     7.7545
   97.5000     8.0541    80.2013     0.0252     2.4196     0.1348   -51.6972     6.6636     7.7912
   98.0000     8.0535    82.3870     0.0230     2.4219     0.1360   -51.6635     6.7093     7.8280
   98.5000     8.0529    85.1600     0.0208     2.4208     0.1368   -51.8284     6.7553     7.8671
   99.0000     8.0524    87.0288     0.0186     2.4171     0.1365   -51.8120     6.8218     7.9616
   99.5000     8.0518    85.6582     0.0164     2.4134     0.1377   -51.5942     6.9303     8.0632
  100.0000     8.0512    79.3509     0.0128     2.4097     0.1407   -51.5944     7.0405     8.1660
  100.5000     8.0506    73.1230     0.0092     2.4060     0.1437   -51.3981     7.1525     8.2485
  101.0000     8.0501    71.6928     0.0085     2.4023     0.1466   -50.5891     7.2663     8.2802
  101.5000     8.0495    72.2346     0.0085     2.3987     0.1478   -50.9583     7.3818     8.3121
  102.0000     8.0489    75.0805     0.0085     2.3965     0.1479   -51.7696     7.5092     8.3441
  102.5000     8.0484    77.8733     0.0085     2.3942     0.1479   -51.7436     7.4928     8.3924
  103.0000     8.0478    81.4324     0.0088     2.3926     0.1496   -51.4002     7.4713     8.3694
  103.5000     8.0472    83.3498     0.0114     2.3911     0.1500   -51.5981     7.4497     8.3226
  104.0000     8.0466    84.2280     0.0141     2.3933     0.1457   -51.3346     7.4282     8.2760
  104.5000     8.0461    82.9814     0.0168     2.3973     0.1464   -51.0363     7.4068     8.2296
  105.0000     8.0455    81.5765     0.0195     2.4008     0.1430   -51.4708     7.3855     8.1835
  105.5000     8.0449    81.7115     0.0221     2.4031     0.1405   -51.8177     7.3643     8.1376
  106.0000     8.0443    84.0862     0.0248     2.4049     0.1428   -51.4567     7.3431     8.0920
  106.5000     8.0438    83.5552     0.0275     2.4049     0.1398   -51.1978     7.3220     8.0466
  107.0000     8.0432    82.2570     0.0286     2.4079     0.1364   -51.3716     7.3009     8.0138
  107.5000     8.0426    82.5894     0.0284     2.4169     0.1350   -51.3073     7.2799     8.0306
  108.0000     8.0421    83.9380     0.0200     2.4237     0.1384   -51.3840     7.2590     8.0438
  108.5000     8.0415    86.2799     0.0142     2.4211     0.1379   -51.5332     7.2395     8.0571
  109.0000     8.0409    87.4723     0.0135     2.4186     0.1358   -51.2634     7.2476     8.0704
  109.5000     8.0403    84.5053     0.0128     2.4161     0.1357   -51.7935     7.2551     8.0838
  110.0000     8.0398    88.1275     0.0121     2.4138     0.1381   -52.6707     7.2628     8.0883
  110.5000     8.0392    91.4958     0.0114     2.4114     0.1381   -52.7160     7.2704     8.0882
  111.0000     8.0386    91.4807     0.0105     2.4161     0.1358   -52.6009     7.2780     8.0882
  111.5000     8.0380    87.9181     0.0145     2.4169     0.1344   -52.4849     7.2856     8.0882
  112.0000     8.0375    85.3803     0.0194     2.4188     0.1340   -52.3953     7.2933     8.0882
  112.5000     8.0369    84.7534     0.0225     2.4246     0.1327   -52.7138     7.3012     8.0882
  113.0000     8.0363    85.6408     0.0221     2.4245     0.1304   -53.4201     7.3062     8.0877
  113.5000     8.0358    86.8170     0.0218     2.4352     0.1291   -53.5766     7.2671     8.0722
  114.0000     8.0352    87.4787     0.0215     2.4293     0.1292   -53.5322     7.2355     8.0568
  114.5000     8.0346    87.5834     0.0212     2.4245     0.1313   -53.4815     7.2042     8.0416
  115.0000     8.0340    85.5377     0.0209     2.4199     0.1361   -53.4314     7.1729     8.0264
  115.5000     8.0335    82.8488     0.0206     2.4165     0.1354   -53.3934     7.1418     8.0112
