~VERSION INFORMATION
 VERS.                2.0:   CWLS LOG ASCII STANDARD - VERSION 2.0
 WRAP.                 NO:   ONE LINE PER DEPTH STEP
~WELL INFORMATION
#MNEM.UNIT      DATA TYPE    INFORMATION
#----------   ------------   ------------------------------
 STRT.F            0.0000:   START DEPTH
 STOP.F          825.0000:   STOP DEPTH
 STEP.F            0.5000:   STEP LENGTH
 NULL.          -999.2500:   NO VALUE
 COMP. BROWN JOHN E&C INC:   COMPANY
 WELL. NAVAL PETROLEUM RESERVE 3 SHX- #21-1-2:   WELL
 FLD .             TEAPOT:   FIELD
 LOC .       S2 T38N R78W:   LOCATION
 CNTY.            NATRONA:   COUNTY
 STAT.            WYOMING:   STATE
 CTRY. UNITED STATES OF AMERICA:   COUNTRY
 SRVC.     Atlas Wireline:   SERVICE COMPANY
 DATE.        11-NOV-1991:   LOGDATE
 API .       490252247600:   API NUMBER
~CURVE INFORMATION
#MNEM.UNIT       API CODE    CURVE DESCRIPTION
#----------   ------------   ------------------------------
 DEPT.F                  :   
 GRR .GAPI   07 310 01 00:   GAMMA RAY
 RFOC.OHMM   07 220 04 00:   RESISTIVITY FOCUSED LOG
 RILD.OHMM   07 120 46 00:   INDUCTION LOG DEEP RESISTIVITY
 RILM.OHMM   07 120 44 00:   INDUCTION LOG MEDIUM RESISTIVITY
 SPR .MV     07 010 01 00:   SPONTANEOUS POTENTIAL
~PARAMETER INFORMATION
#MNEM.UNIT          VALUE    DESCRIPTION
#----------   ------------   ------------------------------
 PD  .                 GL:   PERMANENT DATUM
 EPD .F              5110:   ELEVATION PERMANENT DATUM
 LMF .                 KB:   LOG MEASURED FROM
 DAPD.F                10:   FEET ABOVE PERMANENT DATUM
 DMF .                 KB:   DRILLING MEASURED FROM
 EKB .F              5120:   KELLING BUSHING
 EGL .F              5110:   GROUND LEVEL
 DATE.        11-NOV-1991:   RUN DATE
 RUN .                  1:   RUN NUMBER
 DD  .F               830:   DEPTH DRILLER
 DL  .F               527:   DEPTH LOGGER
 BLI .F               525:   BOTTOM LOG INTERVAL
 CS  .IN            9.625:   CASING SIZE
 CBD .F                58:   CASING BOTTOM DRILLER
 CBL .F                58:   CASING BOTTOM LOGGER
 BS  .IN             8.75:   BIT SIZE
 BSD .F               830:   BIT SIZE AT DEPTH
 DFT .          KCL WATER:   DRILLING FLUID TYPE
 RMS .OHMM          0.248:   RESISTIVITY MUD SAMPLE
 MST .F                93:   MUD SAMPLE TEMPERATURE
 BHT .F               104:   BOTTOM HOLE TEMPERATURE
 TCS .HRS               2:   TIME CURCULATED STOPPED
 MRT .F               104:   MAXIMUM RECORDED TEMPERATURE
 LUN .            HL 6274:   LOGGING UNIT NUMBER
 LUL .             CASPER:   LOGGING UNIT LOCATION
 ENGI.       P. RASMUSSEN:   RECORDING ENGINEER
 WITN.        GARY STRONG:   WITNESSED BY
 CLNT.            A2DTECH:   CLIENT CODE
 ORIG.           5" PRINT:   ORIGIN OF DATA
 UWI .       490252247600:   UNIQUE WELL ID
 DICO. A2D Technologies, Inc.:   DIGITIZING COMPANY
~OTHER INFORMATION
~A    DEPT       GRR     RFOC       RILD       RILM        SPR   
# ...
  366.0000   111.0882     8.8518     8.4786     8.0618   -63.1605
  366.5000   108.3849     8.7889     8.4167     8.0035   -63.4768
  367.0000   108.6756     8.6640     8.3553     7.9455   -63.7733
  367.5000   112.8585     8.5409     8.3518     7.8880   -64.0790
  368.0000   115.5444     8.4196     8.3477     7.7724   -64.2347
  368.5000   116.1347     8.4156     8.2867     7.5610   -63.7907
  369.0000   116.4311     8.4117     8.2834     7.6116   -63.1969
  369.5000   118.6838     8.5841     8.1662     7.6084   -62.9014
  370.0000   117.9026     8.6996     8.0506     7.4494   -63.6583
  370.5000   113.7023     8.5750     7.8819     7.1932   -64.1225
  371.0000   111.8971     8.1657     7.8243     7.0428   -64.2711
  371.5000   114.8824     7.6162     7.6057     6.8007   -63.2274
  372.0000   121.1612     7.3030     7.3388     6.5215   -62.3322
  372.5000   120.5536     7.1003     7.1413     6.2972   -62.7893
  373.0000   119.9441     6.9512     7.0892     6.2080   -64.2943
  373.5000   119.3386     6.9000     7.0374     6.2059   -64.7499
  374.0000   119.9287     6.8967     6.9860     6.2475   -64.9057
  374.5000   119.6184     6.9888     7.0324     6.3760   -65.0680
  375.0000   116.3163     7.2314     7.1269     6.4628   -65.3923
  375.5000   112.7148     7.7997     7.2234     6.5964   -65.6742
  376.0000   110.9096     8.1275     7.3721     6.7328   -65.6800
  376.5000   110.9009     7.8465     7.5230     6.9199   -65.6858
  377.0000   111.1916     7.7887     7.6779     7.1176   -65.6917
  377.5000   112.4152     7.8391     7.8367     7.4106   -65.6975
  378.0000   112.9706     8.0049     8.0527     7.6163   -65.5534
  378.5000   111.7621     8.2204     8.2755     7.8822   -65.5592
  379.0000   110.5558     8.4462     8.5045     7.9902   -65.2651
  379.5000   109.3494     8.2688     8.5603     7.7148   -64.9726
  380.0000   106.9455     8.0393     8.3808     7.5535   -64.8285
  380.5000   103.6434     7.8704     8.1985     7.3956   -64.0846
  381.0000   105.1317     7.7051     8.0324     7.2900   -63.1909
  381.5000   108.2716     7.6484     7.9738     7.1885   -61.9973
  382.0000   113.1981     7.6447     7.9155     7.0866   -62.1531
  382.5000   111.6902     7.6403     7.8577     7.0842   -63.2134
  383.0000   108.0887     7.6367     7.8546     7.1311   -64.1350
  383.5000   107.1818     7.6870     7.8514     7.1789   -64.7193
  384.0000   111.9635     7.7896     7.9028     7.3272   -63.8270
  384.5000   115.5479     7.8409     7.9545     7.5300   -63.6814
  385.0000   115.5388     8.0007     8.0157     7.6856   -64.1385
  385.5000   114.8773     8.1647     8.2844     7.9015   -64.8939
  386.0000   111.0282     8.4551     8.5137     8.1183   -65.6494
  386.5000   103.8339     9.3667     8.6898     8.1720   -65.6552
  387.0000    95.1425     9.9639     8.7466     8.2260   -65.3423
  387.5000    94.2378     9.4229     8.6220     8.1658   -65.0686
  388.0000    97.8197     8.5488     8.3830     8.1066   -65.0744
  388.5000   108.5895     8.2542     8.1507     7.9372   -64.9288
  389.0000   109.7784     7.9697     7.9247     7.8253   -64.7862
  389.5000   109.7924     7.8565     7.8662     7.5562   -64.7920
  390.0000   112.4533     7.8528     7.9184     7.2930   -64.6477
  390.5000   113.3450     8.0138     7.9702     7.0939   -64.3538
  391.0000   111.2383     8.0647     8.0224     7.1409   -63.7431
  391.5000   110.3314     8.0614     8.0183     7.2381   -64.0671
  392.0000   109.1251     8.0575     8.0151     7.3877   -64.5227
  392.5000   110.6134     8.1093     8.0676     7.5403   -64.6770
  393.0000   113.8981     8.1055     8.0642     7.7497   -64.2345
  393.5000   120.7756     8.0827     8.0053     7.8086   -64.2403
  394.0000   121.0663     8.0419     7.9461     7.6378   -65.2956
  394.5000   120.7560     7.9819     7.9429     7.4781   -66.5008
  395.0000   120.1485     7.9231     7.8849     7.4234   -66.0420
  395.5000   114.1517     7.8648     7.8817     7.3139   -65.7628
  396.0000   106.9574     7.7896     7.8786     7.2156   -65.6201
  396.5000   106.0527     7.7496     7.8524     7.1633   -65.6260
  397.0000   111.7304     7.7458     7.8179     7.0623   -65.4818
  397.5000   113.5181     7.7421     7.7607     7.0112   -65.3363
  398.0000   109.0458     7.7383     7.7569     6.9124   -64.7439
  398.5000   102.1212     7.7340     7.7002     6.8623   -64.1500
  399.0000   101.5137     7.7849     7.6971     6.8650   -63.5432
  399.5000   103.9002     7.7803     7.6940     7.0995   -62.8137
  400.0000   111.3765     7.7234     7.6909     7.0398   -61.9200
  400.5000   113.7630     7.7194     7.6878     6.9481   -61.0263
  401.0000   110.7603     7.6098     7.6317     6.8978   -61.0321
  401.5000   108.0459     7.5513     7.6286     6.8479   -62.2373
  402.0000   110.3351     7.4980     7.5728     6.8456   -64.1926
  402.5000   115.1918     7.3907     7.5168     6.7960   -65.0980
  403.0000   115.4803     7.3873     7.4619     6.8409   -66.0034
  403.5000   115.4621     7.3838     7.4589     6.7909   -66.3090
  404.0000   115.7506     7.3803     7.4045     6.9312   -66.4648
  404.5000   115.7324     7.3769     7.5480     7.0745   -66.6207
  405.0000   115.7178     7.4762     7.5964     7.2206   -66.6278
  405.5000   115.4039     7.5768     7.6451     7.4211   -66.4822
  406.0000   113.8763     7.7321     7.8003     7.6802   -66.4895
  406.5000   111.0568     8.1111     7.9598     7.8389   -66.3440
  407.0000   105.7757     8.4013     8.1225     7.9456   -66.2013
  407.5000   102.1684     8.9375     8.1745     7.9423   -65.9073
  408.0000    97.3634     8.9281     8.0567     7.8304   -65.3134
  408.5000    95.5524     8.5662     7.9968     7.7200   -64.0910
  409.0000    98.2325     8.1016     8.0480     7.5586   -63.9757
  409.5000   111.0922     7.9871     8.0437     7.5039   -64.5827
  410.0000   118.8620     7.8741     8.0952     7.4495   -64.8883
  410.5000   120.3445     7.8709     8.0909     7.3956   -65.1940
  411.0000   119.6826     7.8677     8.0308     7.3931   -65.3497
  411.5000   116.1201     7.8646     8.0259     7.3309   -65.3556
  412.0000   112.5164     7.8072     7.9666     7.0866   -65.2114
  412.5000   114.8934     7.7501     7.9064     7.0353   -64.9174
  413.0000   116.6752     7.6929     7.7935     7.0825   -64.6234
  413.5000   117.8583     7.6367     7.7355     7.1293   -64.4793
  414.0000   117.8922     7.5287     7.5724     7.1263   -65.8359
  414.5000   109.1465     7.4738     7.4127     7.0747   -65.9902
  415.0000   110.1295     7.4193     7.2564     6.9268   -65.8461
  415.5000   116.8982     7.3651     7.1033     6.7746   -65.7034
  416.0000   115.0872     7.2900     6.9986     6.5938   -65.7092
  416.5000   112.3781     7.2080     6.9496     6.4114   -65.7150
  417.0000   112.3635     7.1517     6.9451     6.2340   -65.4225
  417.5000   112.9478     7.0535     6.9414     6.1461   -65.1284
  418.0000   114.7296     7.0020     6.9377     6.2298   -64.8344
  418.5000   118.9067     6.9992     6.9831     6.3146   -64.6888
  419.0000   121.2873     7.0449     7.0757     6.4451   -64.6961
  419.5000   122.1710     7.0917     7.1210     6.5135   -65.0018
  420.0000   120.6558     7.2368     7.1172     6.5366   -65.7572
  420.5000   115.5514     7.4369     7.1628     6.5739   -66.2214
  421.0000   112.5428     7.5899     7.1086     6.6629   -66.6699
  421.5000   109.5379     7.4792     7.2038     6.7075   -66.6757
  422.0000   113.7113     7.4277     7.4022     6.7988   -66.8314
  422.5000   115.7926     7.5276     7.5535     6.9388   -66.6859
  423.0000   117.5744     7.6824     7.8154     7.0825   -66.5417
  423.5000   121.1527     7.7871     7.9752     7.2350   -66.0993
  424.0000   122.6028     7.8924     8.0821     7.3269   -65.2055
  424.5000   116.0301     7.9984     8.1932     7.2736   -64.3118
  425.0000   112.4227     8.0508     8.3001     7.2708   -64.1677
  425.5000   114.5040     8.1033     8.2945     7.2184   -64.0236
  426.0000   117.7828     8.0985     8.2329     7.1659   -64.0308
  426.5000   115.9719     7.9853     8.1717     7.1140   -64.0367
