~VERSION INFORMATION
 VERS.                2.0:   CWLS LOG ASCII STANDARD - VERSION 2.0
 WRAP.                 NO:   ONE LINE PER DEPTH STEP
~WELL INFORMATION
#MNEM.UNIT      DATA TYPE    INFORMATION
#----------   ------------   ------------------------------
 STRT.F            2.0000:   START DEPTH
 STOP.F          482.5000:   STOP DEPTH
 STEP.F            0.5000:   STEP LENGTH
 NULL.          -999.2500:   NO VALUE
 COMP. LAWRENCE/ALLISON INC:   COMPANY
 WELL. NPR 3 #52-45-SX-10:   WELL
 FLD .             TEAPOT:   FIELD
 LOC .      S10 T38N R78W:   LOCATION
 CNTY.            NATRONA:   COUNTY
 STAT.            WYOMING:   STATE
 CTRY. UNITED STATES OF AMERICA:   COUNTRY
 SRVC.           Gearhart:   SERVICE COMPANY
 DATE.        30-MAY-1988:   LOGDATE
 API .       490251122800:   API NUMBER
~CURVE INFORMATION
#MNEM.UNIT       API CODE    CURVE DESCRIPTION
#----------   ------------   ------------------------------
 DEPT.F                  :   
 GRR .GAPI   07 310 01 00:   GAMMA RAY FROM RES. LOG.
 RILD.OHMM   07 120 46 00:   INDUCTION LOG DEEP RESISTIVITY
 RILM.OHMM   07 120 44 00:   INDUCTION LOG MEDIUM RESISTIVITY
~PARAMETER INFORMATION
#MNEM.UNIT          VALUE    DESCRIPTION
#----------   ------------   ------------------------------
 PD  .                 GL:   PERMANENT DATUM
 EPD .F              5176:   ELEVATION PERMANENT DATUM
 LMF .                 KB:   LOG MEASURED FROM
 DAPD.F                10:   FEET ABOVE PERMANENT DATUM
 DMF .                 KB:   DRILLING MEASURED FROM
 EKB .F              5186:   KELLING BUSHING
 EGL .F              5176:   GROUND LEVEL
 DATE.            5-30-88:   RUN DATE
 RUN .                  1:   RUN NUMBER
 DD  .F               490:   DEPTH DRILLER
 DL  .F               491:   DEPTH LOGGER
 BLI .F               483:   BOTTOM LOG INTERVAL
 TLI .F                49:   TOP LOG INTERVAL
 CS  .IN            8.625:   CASING SIZE
 CBD .F                49:   CASING BOTTOM DRILLER
 CBL .F                49:   CASING BOTTOM LOGGER
 BS  .IN            7.875:   BIT SIZE
 BSD .F               490:   BIT SIZE AT DEPTH
 DFT .                AIR:   DRILLING FLUID TYPE
 TCS .HRS            0148:   TIME CURCULATED STOPPED
 MRT .F                70:   MAXIMUM RECORDED TEMPERATURE
 LUN .               7597:   LOGGING UNIT NUMBER
 LUL .           GILLETTE:   LOGGING UNIT LOCATION
 ENGI.          HUCKFELDT:   RECORDING ENGINEER
 WITN.             STRONG:   WITNESSED BY
 CLNT.            A2DTECH:   CLIENT CODE
 ORIG. 1", 2.5", 5" PRINT:   ORIGIN OF DATA
 UWI .       490251122800:   UNIQUE WELL ID
 DICO. A2D Technologies, Inc.:   DIGITIZING COMPANY
~OTHER INFORMATION
~A    DEPT      GRR      RILD       RILM   
# ...
   93.0000   104.6785    10.1329     9.6018
   93.5000   102.5479    10.1484     9.6545
   94.0000   104.8244    10.1640     9.7078
   94.5000   106.8884    10.1796     9.7612
   95.0000   106.3307    10.1953     9.8148
   95.5000   103.7891    10.2157     9.8443
   96.0000   101.9384    10.1693     9.8443
   96.5000   103.9790    10.1005     9.8443
   97.0000   106.7796    10.0321     9.7607
   97.5000   109.5920     9.9642     9.5155
   98.0000   109.1804     9.7812     9.2766
   98.5000   107.7135     9.5204     9.0436
   99.0000   107.0990     9.2667     8.8165
   99.5000   110.3224     9.0196     8.5951
  100.0000   114.9025     8.7791     8.3792
  100.5000   119.5516     8.5451     8.1685
  101.0000   119.6774     8.3173     7.9598
  101.5000   116.7774     8.1036     7.7427
  102.0000   113.7643     8.1790     7.8627
  102.5000   112.4520     8.2783     7.9460
  103.0000   112.7348     8.3914     8.0301
  103.5000   113.0778     8.5060     8.1152
  104.0000   113.0245     8.6217     8.1814
  104.5000   112.4568     8.7284     8.1906
  105.0000   112.0556     8.7269     8.1998
  105.5000   111.4631     8.7407     8.2091
  106.0000   110.8544     8.7548     8.2183
  106.5000   110.9776     8.7689     8.2276
  107.0000   113.3890     8.7832     8.2370
  107.5000   115.7364     8.7970     8.2468
  108.0000   118.0676     8.7998     8.2519
  108.5000   119.8289     8.8903     8.3815
  109.0000   120.0994     8.9770     8.5055
  109.5000   118.3029     9.0758     8.6313
  110.0000   116.3282     9.1756     8.7590
  110.5000   114.4716     9.2767     8.8886
  111.0000   113.5029     9.3793     9.0566
  111.5000   112.5761     9.4861     9.0264
  112.0000   111.7073     9.4861     8.9848
  112.5000   112.4993     9.3885     8.9434
  113.0000   114.4513     9.3188     8.9023
  113.5000   116.2572     9.2496     8.8664
  114.0000   117.0574     9.1809     8.8205
  114.5000   117.6622     9.1127     8.7748
  115.0000   117.2509     9.0450     8.7294
  115.5000   115.9525     8.9731     8.6842
  116.0000   114.6811     9.0068     8.6466
  116.5000   113.5263     9.0433     8.7220
  117.0000   112.8274     9.0799     8.7872
  117.5000   112.0993     9.1166     8.8530
  118.0000   111.6983     9.1535     8.9193
  118.5000   112.0411     9.1905     8.9731
  119.0000   112.3603     9.2260     8.9026
  119.5000   113.0816     9.2263     8.8440
  120.0000   113.9809     9.1607     8.7857
  120.5000   114.8570     9.0346     8.7278
  121.0000   114.7366     8.8862     8.6704
  121.5000   114.5686     8.8945     8.6133
  122.0000   114.7211     8.7835     8.5565
  122.5000   115.1905     8.7597     8.5002
  123.0000   115.6674     8.7340     8.4442
  123.5000   116.0453     8.7084     8.3886
  124.0000   114.9547     8.6829     8.3333
  124.5000   113.8558     8.6574     8.2784
  125.0000   112.7661     8.6466     8.1859
  125.5000   111.6768     8.4056     8.0079
  126.0000   110.5744     8.1713     7.8333
  126.5000   109.6328     7.9435     7.6626
  127.0000   110.3734     7.7221     7.4819
  127.5000   111.6640     7.5069     7.2441
  128.0000   112.9533     7.2976     7.0138
  128.5000   114.1370     7.1177     6.8332
  129.0000   114.2701     7.1177     6.7328
  129.5000   114.4160     7.1177     6.8231
  130.0000   115.5230     7.2936     6.8702
  130.5000   117.1223     7.5121     6.9219
  131.0000   118.6455     7.7392     7.0618
  131.5000   118.9151     7.9071     7.2179
  132.0000   117.9832     7.9750     7.3777
  132.5000   116.8798     8.0435     7.5412
  133.0000   117.0272     8.1126     7.7087
  133.5000   117.2018     8.1823     7.8828
  134.0000   117.2859     8.2525     7.8809
  134.5000   116.2618     8.3234     7.8816
  135.0000   113.9333     8.3322     7.8814
  135.5000   112.3366     8.2447     7.8814
  136.0000   111.7984     8.1783     7.8419
  136.5000   111.9501     8.1124     7.8013
  137.0000   111.2721     8.0472     7.7609
  137.5000   109.7270     7.9825     7.7207
  138.0000   110.0701     7.9173     7.6807
  138.5000   111.3142     7.8211     7.4456
  139.0000   112.4883     7.5523     7.1010
  139.5000   112.8483     7.2966     6.7724
  140.0000   112.1060     6.9517     6.4590
  140.5000   112.0815     6.5518     6.1601
  141.0000   112.4911     6.1752     5.8750
  141.5000   113.1580     5.8051     5.6031
  142.0000   111.2359     5.8051     5.3438
  142.5000   107.6641     5.8866     5.0987
  143.0000   105.6585     5.9584     5.0499
  143.5000   107.4481     6.0309     5.4394
  144.0000   110.3698     6.1823     5.7308
  144.5000   113.1813     6.5018     6.0369
  145.0000   112.8494     6.8376     6.3595
  145.5000   112.3836     7.1906     6.6707
  146.0000   112.2726     7.5617     6.9687
  146.5000   113.9027     7.8597     7.2558
  147.0000   114.8390     8.0024     7.5549
  147.5000   114.5206     8.1478     7.7236
  148.0000   114.2309     8.2957     7.8154
  148.5000   114.6859     8.4464     7.9083
  149.0000   116.4904     8.5998     8.0022
  149.5000   118.2490     8.7560     8.0974
  150.0000   119.0611     8.8285     8.1936
  150.5000   119.5308     8.8708     8.2910
  151.0000   120.0162     8.9134     8.3895
  151.5000   119.6552     8.9561     8.4893
  152.0000   118.3679     8.9991     8.5901
  152.5000   117.0872     9.0422     8.6821
  153.0000   117.0270     9.0856     8.7623
  153.5000   117.6173     9.1291     8.8432
  154.0000   118.1125     9.1729     8.9249
  154.5000   117.1587     9.2169     9.0074
  155.0000   116.1111     9.2611     9.0566
  155.5000   115.9466     9.3119     8.9838
  156.0000   116.3564     9.2540     8.9324
  156.5000   116.2687     9.1869     8.8813
  157.0000   115.9374     9.1203     8.8305
  157.5000   115.8472     9.0542     8.7662
  158.0000   116.3576     8.9886     8.6916
  158.5000   117.8524     8.9234     8.6177
  159.0000   118.4331     8.8588     8.5445
  159.5000   118.9261     8.7945     8.4721
  160.0000   118.9123     8.7271     8.4087
  160.5000   118.8971     8.6827     8.4088
  161.0000   118.4841     8.4210     8.4594
  161.5000   118.7314     8.1672     8.4878
  162.0000   119.4378     7.9211     8.3889
  162.5000   119.5221     7.6824     8.0185
  163.0000   118.4130     7.3381     7.6645
  163.5000   117.3138     6.7874     7.3261
  164.0000   116.2367     6.2792     6.9338
  164.5000   115.4804     5.8047     6.4173
  165.0000   114.8968     5.2693     5.9393
  165.5000   115.1053     4.7243     5.4969
  166.0000   115.2731     4.2381     4.9646
  166.5000   114.7778     3.8017     4.3854
  167.0000   114.1640     3.4926     3.8709
  167.5000   113.4249     3.3384     3.4172
  168.0000   112.6806     3.1910     3.0167
  168.5000   111.2662     3.0501     2.6903
  169.0000   109.1898     2.9987     2.6655
  169.5000   106.9002     2.9243     2.6655
  170.0000   106.7246     3.0417     2.7833
  170.5000   109.0161     3.1703     2.9127
  171.0000   112.4751     3.2986     3.0493
  171.5000   117.0129     3.6225     3.1870
  172.0000   119.3205     3.9630     3.5765
  172.5000   120.6367     4.3355     4.0467
  173.0000   121.3469     4.7429     4.4673
  173.5000   121.8935     5.1886     4.8349
  174.0000   122.3345     5.6781     5.2327
  174.5000   126.9868     6.1154     5.6633
  175.0000   128.9725     6.5329     6.1293
  175.5000   127.8280     6.9276     6.4279
  176.0000   126.5125     6.9268     6.4642
  176.5000   125.2243     6.9224     6.5482
  177.0000   124.4238     6.7130     6.3937
  177.5000   124.1425     6.4617     6.2063
  178.0000   124.0187     6.2189     6.0244
  178.5000   128.2921     5.9687     5.8478
  179.0000   133.0345     5.8380     5.6764
  179.5000   136.5840     5.7001     5.5100
  180.0000   136.0751     5.5654     5.3485
  180.5000   131.2387     5.4405     5.1917
  181.0000   126.0901     5.4911     5.0518
  181.5000   121.3731     5.4405     5.0518
  182.0000   121.3977     5.6848     5.3639
  182.5000   123.4529     5.9632     5.6159
  183.0000   125.4453     6.2552     5.8796
  183.5000   127.4250     6.5615     6.1558
