~VERSION INFORMATION
 VERS.                2.0:   CWLS LOG ASCII STANDARD - VERSION 2.0
 WRAP.                 NO:   ONE LINE PER DEPTH STEP
~WELL INFORMATION
#MNEM.UNIT      DATA TYPE    INFORMATION
#----------   ------------   ------------------------------
 STRT.F           43.0000:   START DEPTH
 STOP.F          973.0000:   STOP DEPTH
 STEP.F            0.5000:   STEP LENGTH
 NULL.          -999.2500:   NO VALUE
 COMP. LAWRENCE/ALLISON INC:   COMPANY
 WELL.    68-11 SX #11-11:   WELL
 FLD .           NPR NO 3:   FIELD
 LOC .      S11 T38N R78W:   LOCATION
 CNTY.            NATRONA:   COUNTY
 STAT.            WYOMING:   STATE
 CTRY. UNITED STATES OF AMERICA:   COUNTRY
 SRVC.           Gearhart:   SERVICE COMPANY
 DATE.        15-MAY-1986:   LOGDATE
 API .       490251105800:   API NUMBER
~CURVE INFORMATION
#MNEM.UNIT       API CODE    CURVE DESCRIPTION
#----------   ------------   ------------------------------
 DEPT.F                  :   
 GRN .GAPI   42 310 01 00:   GAMMA RAY FROM COMPENSATED NEUTRON LOG
 CNS .DEC    42 890 01 00:   NEUTRON POROSITY LIMESTONE
~PARAMETER INFORMATION
#MNEM.UNIT          VALUE    DESCRIPTION
#----------   ------------   ------------------------------
 PD  .                 GL:   PERMANENT DATUM
 LMF .                 KB:   LOG MEASURED FROM
 DMF .                 KB:   DRILLING MEASURED FROM
 DATE.        15-MAY-1986:   RUN DATE
 RUN .                  1:   RUN NUMBER
 DD  .F               974:   DEPTH DRILLER
 DL  .F               974:   DEPTH LOGGER
 BLI .F               973:   BOTTOM LOG INTERVAL
 TLI .F                39:   TOP LOG INTERVAL
 CS  .IN              4.5:   CASING SIZE
 BS  .IN             7.87:   BIT SIZE
 BSD .F               974:   BIT SIZE AT DEPTH
 DFT .              WATER:   DRILLING FLUID TYPE
 DFD .               8.34:   DRILLING FLUID DENSITY
 BHT .F                66:   BOTTOM HOLE TEMPERATURE
 LUN .               6084:   LOGGING UNIT NUMBER
 LUL .           GILLETTE:   LOGGING UNIT LOCATION
 ENGI.              BAUER:   RECORDING ENGINEER
 WITN.       STRONG/FIVAS:   WITNESSED BY
 CLNT.            A2DTECH:   CLIENT CODE
 ORIG.           5" PRINT:   ORIGIN OF DATA
 UWI .       490251105800:   UNIQUE WELL ID
 DICO. A2D Technologies, Inc.:   DIGITIZING COMPANY
 R1  . POROSITY WITH LIMESTONE:   REMARKS 1
~OTHER INFORMATION
~A   DEPT       GRN       CNS   
# ...
  407.5000    81.0339     0.2549
  408.0000    81.0459     0.2527
  408.5000    81.0579     0.2503
  409.0000    80.7659     0.2558
  409.5000    80.4739     0.2621
  410.0000    81.0942     0.2772
  410.5000    82.6286     0.2879
  411.0000    85.0722     0.3097
  411.5000    91.1632     0.3391
  412.0000    98.2089     0.3658
  412.5000    98.7255     0.3444
  413.0000    97.3682     0.3167
  413.5000    89.0845     0.2904
  414.0000    84.5372     0.2835
  414.5000    84.8531     0.2782
  415.0000    86.6888     0.2752
  415.5000    87.0048     0.2759
  416.0000    86.1049     0.2753
  416.5000    82.4695     0.2726
  417.0000    81.2627     0.2696
  417.5000    79.1500     0.2666
  418.0000    74.2988     0.2660
  418.5000    74.0038     0.2699
  419.0000    74.3227     0.2669
  419.5000    75.5505     0.2681
  420.0000    74.9546     0.2768
  420.5000    74.3587     0.2901
  421.0000    75.3112     0.2991
  421.5000    79.6127     0.2985
  422.0000    82.6018     0.2870
  422.5000    82.6163     0.2797
  423.0000    80.8046     0.2699
  423.5000    80.2057     0.2646
  424.0000    81.1325     0.2608
  424.5000    81.7524     0.2587
  425.0000    81.1565     0.2581
  425.5000    79.0408     0.2620
  426.0000    77.8340     0.2680
  426.5000    82.1043     0.2737
  427.0000    85.1558     0.2743
  427.5000    87.5994     0.2698
  428.0000    88.2675     0.2611
  428.5000    83.3681     0.2599
  429.0000    81.8603     0.2647
  429.5000    81.8756     0.2692
  430.0000    84.0730     0.2674
  430.5000    85.8856     0.2620
  431.0000    85.5015     0.2595
  431.5000    83.1391     0.2586
  432.0000    82.5402     0.2646
  432.5000    83.4670     0.2653
  433.0000    83.1750     0.2604
  433.5000    82.5791     0.2583
  434.0000    81.0714     0.2601
  434.5000    79.8675     0.2601
  435.0000    76.5361     0.2586
  435.5000    75.6332     0.2526
  436.0000    76.2561     0.2405
  436.5000    75.3562     0.2266
  437.0000    73.5445     0.1995
  437.5000    71.7328     0.1771
  438.0000    71.4407     0.1684
  438.5000    73.5897     0.1639
  439.0000    74.2003     0.1678
  439.5000    73.9084     0.1835
  440.0000    75.7471     0.2018
  440.5000    80.6223     0.2251
  441.0000    82.4580     0.2381
  441.5000    83.6858     0.2516
  442.0000    83.6978     0.2776
  442.5000    84.9256     0.2803
  443.0000    85.5455     0.2761
  443.5000    85.5574     0.2742
  444.0000    84.6576     0.2791
  444.5000    83.4538     0.2881
  445.0000    82.2499     0.2935
  445.5000    81.0461     0.2887
  446.0000    80.4502     0.2779
  446.5000    82.5899     0.2709
  447.0000    85.9453     0.2721
  447.5000    89.9699     0.2807
  448.0000    94.5771     0.3116
  448.5000    98.6423     0.3206
  449.0000   100.8899     0.3164
  449.5000    99.0782     0.3038
  450.0000    96.5984     0.2899
  450.5000    95.9044     0.2902
  451.0000    95.4666     0.2965
  451.5000    95.7826     0.3074
  452.0000    96.0985     0.3167
  452.5000    95.8035     0.3122
  453.0000    95.5115     0.3080
  453.5000    95.8304     0.3141
  454.0000    95.8423     0.3409
  454.5000    95.5501     0.3475
  455.0000    95.2584     0.3496
  455.5000    94.0344     0.3367
  456.0000    91.8176     0.3225
  456.5000    90.1271     0.3176
  457.0000    91.0539     0.3128
  457.5000    92.8895     0.3089
  458.0000    93.8133     0.3104
  458.5000    94.1293     0.3183
  459.0000    93.8343     0.3152
  459.5000    93.5423     0.2968
  460.0000    94.1651     0.2869
  460.5000    95.6968     0.2870
  461.0000    95.7088     0.2924
  461.5000    95.7208     0.2884
  462.0000    96.0367     0.2851
  462.5000    96.3526     0.2821
  463.0000    97.5805     0.2814
  463.5000    97.8963     0.2878
  464.0000    95.1756     0.3068
  464.5000    92.4520     0.3255
  465.0000    93.3759     0.3451
  465.5000    95.5155     0.3563
  466.0000    95.2235     0.3641
  466.5000    93.1078     0.3517
  467.0000    91.5970     0.3336
  467.5000    93.1317     0.3116
  468.0000    94.3595     0.3043
  468.5000    95.8912     0.2985
  469.0000    95.5988     0.2947
  469.5000    95.0032     0.2965
  470.0000    93.7994     0.3065
  470.5000    93.5074     0.3020
  471.0000    94.4721     0.2956
  471.5000    95.3580     0.2926
  472.0000    93.5463     0.2944
  472.5000    92.0355     0.2911
  473.0000    92.9623     0.2899
  473.5000    94.1900     0.2947
  474.0000    92.9862     0.2971
  474.5000    92.0833     0.2845
  475.0000    93.3141     0.2757
  475.5000    93.9339     0.2853
  476.0000    91.8182     0.2965
  476.5000    88.4867     0.3032
  477.0000    87.2827     0.3074
  477.5000    88.2067     0.3140
  478.0000    91.3193     0.3255
  478.5000    93.0942     0.3303
  479.0000    93.4127     0.3237
  479.5000    94.9444     0.3098
  480.0000    96.1722     0.2821
  480.5000    96.4881     0.2760
  481.0000    95.5882     0.2802
  481.5000    94.3814     0.2908
  482.0000    93.7854     0.3056
  482.5000    94.7122     0.3113
  483.0000    96.2440     0.3082
  483.5000    95.3441     0.3000
  484.0000    89.5809     0.2902
  484.5000    86.5534     0.2893
  485.0000    87.4772     0.2857
  485.5000    91.8056     0.2827
  486.0000    95.1813     0.2814
  486.5000    96.6346     0.2802
  487.0000    96.3396     0.2814
  487.5000    95.1388     0.2893
  488.0000    94.5398     0.3056
  488.5000    94.8587     0.3192
  489.0000    94.8707     0.3196
  489.5000    93.9708     0.3155
  490.0000    93.0709     0.3101
  490.5000    91.5631     0.3055
  491.0000    91.5751     0.2978
  491.5000    91.8910     0.2923
  492.0000    92.2069     0.2887
  492.5000    92.8267     0.2872
  493.0000    94.0750     0.2938
  493.5000    95.9716     0.3056
  494.0000    96.8170     0.3089
  494.5000    97.1329     0.3110
  495.0000    98.3606     0.3237
  495.5000   100.8042     0.3439
  496.0000   100.2083     0.3596
  496.5000    95.3570     0.3514
  497.0000    93.8462     0.3351
  497.5000    93.5542     0.3116
  498.0000    96.6087     0.3021
  498.5000   100.2681     0.2894
  499.0000    99.0642     0.2836
  499.5000    97.5564     0.2854
  500.0000    96.0486     0.2974
  500.5000    95.6306     0.3077
  501.0000    95.2126     0.3170
  501.5000    94.8875     0.3076
  502.0000    94.9061     0.3007
  502.5000    94.6201     0.3049
  503.0000    94.0301     0.3083
  503.5000    92.7517     0.3127
  504.0000    91.9383     0.3272
  504.5000    93.1765     0.3410
  505.0000    95.3221     0.3498
  505.5000    96.2519     0.3440
  506.0000    96.2699     0.3271
  506.5000    96.5918     0.3075
  507.0000    96.6097     0.2969
  507.5000    96.3192     0.2903
  508.0000    95.1258     0.2860
  508.5000    93.9235     0.2914
  509.0000    96.6814     0.3017
  509.5000   101.2587     0.3083
  510.0000   102.4924     0.2916
  510.5000    98.5390     0.2805
  511.0000    96.3688     0.2775
  511.5000    95.2514     0.2868
  512.0000    96.1857     0.2910
  512.5000    99.8510     0.2904
  513.0000    97.1334     0.2898
  513.5000    94.7197     0.2913
  514.0000    92.3060     0.2949
  514.5000    89.5884     0.3039
  515.0000    86.8708     0.3271
  515.5000    86.2763     0.3519
  516.0000    85.0830     0.3575
  516.5000    84.4930     0.3512
  517.0000    82.6872     0.3445
  517.5000    81.4894     0.3272
  518.0000    87.4648     0.2954
  518.5000    92.5087     0.2981
  519.0000    92.1860     0.3135
  519.5000    90.3757     0.3183
  520.0000    91.6139     0.3122
  520.5000    94.9753     0.3155
  521.0000    96.8170     0.3203
  521.5000    96.5310     0.3164
  522.0000    95.9410     0.3070
  522.5000    94.4392     0.2965
  523.0000    92.9374     0.2904
  523.5000    90.2197     0.2859
  524.0000    90.1965     0.2895
  524.5000    92.0793     0.2953
  525.0000    93.9210     0.2976
  525.5000    93.9392     0.2921
  526.0000    93.3489     0.2900
  526.5000    93.0629     0.2927
  527.0000    92.7769     0.2981
  527.5000    93.1033     0.2927
  528.0000    93.7291     0.2815
  528.5000    97.6984     0.2812
