~VERSION INFORMATION
 VERS.                2.0:   CWLS LOG ASCII STANDARD - VERSION 2.0
 WRAP.                 NO:   ONE LINE PER DEPTH STEP
~WELL INFORMATION
#MNEM.UNIT      DATA TYPE    INFORMATION
#----------   ------------   ------------------------------
 STRT.F            2.0000:   START DEPTH
 STOP.F          482.5000:   STOP DEPTH
 STEP.F            0.5000:   STEP LENGTH
 NULL.          -999.2500:   NO VALUE
 COMP. LAWRENCE/ALLISON INC:   COMPANY
 WELL. NPR 3 #52-45-SX-10:   WELL
 FLD .             TEAPOT:   FIELD
 LOC .      S10 T38N R78W:   LOCATION
 CNTY.            NATRONA:   COUNTY
 STAT.            WYOMING:   STATE
 CTRY. UNITED STATES OF AMERICA:   COUNTRY
 SRVC.           Gearhart:   SERVICE COMPANY
 DATE.        30-MAY-1988:   LOGDATE
 API .       490251122800:   API NUMBER
~CURVE INFORMATION
#MNEM.UNIT       API CODE    CURVE DESCRIPTION
#----------   ------------   ------------------------------
 DEPT.F                  :   
 GRR .GAPI   07 310 01 00:   GAMMA RAY FROM RES. LOG.
 RILD.OHMM   07 120 46 00:   INDUCTION LOG DEEP RESISTIVITY
 RILM.OHMM   07 120 44 00:   INDUCTION LOG MEDIUM RESISTIVITY
~PARAMETER INFORMATION
#MNEM.UNIT          VALUE    DESCRIPTION
#----------   ------------   ------------------------------
 PD  .                 GL:   PERMANENT DATUM
 EPD .F              5176:   ELEVATION PERMANENT DATUM
 LMF .                 KB:   LOG MEASURED FROM
 DAPD.F                10:   FEET ABOVE PERMANENT DATUM
 DMF .                 KB:   DRILLING MEASURED FROM
 EKB .F              5186:   KELLING BUSHING
 EGL .F              5176:   GROUND LEVEL
 DATE.            5-30-88:   RUN DATE
 RUN .                  1:   RUN NUMBER
 DD  .F               490:   DEPTH DRILLER
 DL  .F               491:   DEPTH LOGGER
 BLI .F               483:   BOTTOM LOG INTERVAL
 TLI .F                49:   TOP LOG INTERVAL
 CS  .IN            8.625:   CASING SIZE
 CBD .F                49:   CASING BOTTOM DRILLER
 CBL .F                49:   CASING BOTTOM LOGGER
 BS  .IN            7.875:   BIT SIZE
 BSD .F               490:   BIT SIZE AT DEPTH
 DFT .                AIR:   DRILLING FLUID TYPE
 TCS .HRS            0148:   TIME CURCULATED STOPPED
 MRT .F                70:   MAXIMUM RECORDED TEMPERATURE
 LUN .               7597:   LOGGING UNIT NUMBER
 LUL .           GILLETTE:   LOGGING UNIT LOCATION
 ENGI.          HUCKFELDT:   RECORDING ENGINEER
 WITN.             STRONG:   WITNESSED BY
 CLNT.            A2DTECH:   CLIENT CODE
 ORIG. 1", 2.5", 5" PRINT:   ORIGIN OF DATA
 UWI .       490251122800:   UNIQUE WELL ID
 DICO. A2D Technologies, Inc.:   DIGITIZING COMPANY
~OTHER INFORMATION
~A    DEPT      GRR      RILD       RILM   
# ...
  366.0000    81.4531    19.1095    18.5706
  366.5000    83.1859    18.8763    18.3176
  367.0000    85.4675    18.6460    18.0682
  367.5000    86.5481    18.4184    17.8221
  368.0000    86.7029    18.1938    17.5793
  368.5000    85.7462    17.9779    17.3399
  369.0000    84.4959    17.7888    17.1160
  369.5000    82.6220    17.6068    16.9299
  370.0000    81.4618    17.4266    16.7457
  370.5000    82.8364    17.2483    16.5636
  371.0000    84.9060    17.0718    16.3834
  371.5000    86.7379    16.8972    16.2052
  372.0000    86.4055    16.7243    16.0290
  372.5000    86.1142    16.5531    15.8546
  373.0000    85.8262    16.3837    15.6822
  373.5000    85.5276    16.2161    15.5116
  374.0000    86.0546    16.0501    15.3429
  374.5000    86.6728    15.8855    15.1760
  375.0000    87.2820    15.7234    15.0110
  375.5000    88.4968    15.5926    14.8477
  376.0000    90.0501    15.4909    14.6862
  376.5000    91.6225    15.3898    14.5277
  377.0000    92.0612    15.2894    14.5277
  377.5000    91.5566    15.2166    14.5277
  378.0000    91.1840    15.2166    14.5277
  378.5000    91.7954    15.2166    14.5277
  379.0000    92.3621    15.2166    14.5277
  379.5000    92.3545    15.2166    14.5277
  380.0000    92.3553    15.2167    14.5278
  380.5000    92.3582    15.2172    14.5283
  381.0000    92.3274    15.2184    14.5295
  381.5000    91.6892    15.1131    14.4267
  382.0000    92.2481    15.0031    14.3194
  382.5000    94.4595    14.8939    14.2129
  383.0000    96.6925    14.7856    14.1072
  383.5000    98.4218    14.6779    14.0022
  384.0000    97.8958    14.5711    13.8980
  384.5000    96.4551    14.4649    13.7947
  385.0000    95.3455    14.3593    13.6921
  385.5000    93.9630    14.2611    13.6153
  386.0000    92.5492    14.3035    13.6542
  386.5000    92.4098    14.3439    13.6854
  387.0000    93.6881    14.3845    13.7168
  387.5000    94.7659    14.4252    13.7481
  388.0000    94.5124    14.4660    13.7796
  388.5000    94.6473    14.5079    13.8113
  389.0000    95.3481    14.5277    13.8427
  389.5000    96.0425    14.3630    13.8699
  390.0000    96.7683    14.2535    13.7664
  390.5000    97.9558    14.1448    13.6760
  391.0000    99.2780    14.0370    13.5861
  391.5000    99.9617    13.9300    13.4969
  392.0000    97.6159    13.8238    13.4083
  392.5000    95.2381    13.7185    13.3202
  393.0000    96.3404    13.6139    13.2328
  393.5000    97.1882    13.5101    13.1459
  394.0000    96.6643    13.4072    13.0596
  394.5000    96.1207    13.3050    12.9989
  395.0000    96.4660    13.2035    12.8419
  395.5000    97.3128    13.0962    12.6710
  396.0000    98.3214    12.9572    12.5024
  396.5000    99.3244    12.8198    12.3361
  397.0000   100.3323    12.6838    12.1720
  397.5000   101.3482    12.5492    12.0100
  398.0000   102.0305    12.4160    11.8502
  398.5000   101.6952    12.2839    11.6925
  399.0000   101.3621    12.1243    11.5035
  399.5000   101.0255    11.8553    11.2006
  400.0000   100.6890    11.5939    10.9058
  400.5000   100.3984    11.3381    10.6017
  401.0000   100.8986    11.0879    10.3111
  401.5000   102.3758    10.8433    10.1608
  402.0000   104.1663    10.5750    10.0092
  402.5000   106.4688    10.3073     9.8600
  403.0000   108.7616    10.0284     9.2803
  403.5000   111.1678     9.6699     8.5708
  404.0000   110.1583     8.7212     7.9156
  404.5000   108.8531     7.8662     7.3104
  405.0000   110.0410     7.0940     6.7515
  405.5000   117.3530     6.3977     6.4279
  406.0000   125.2424     5.7701     6.4593
  406.5000   132.5210     5.0918     6.4876
  407.0000   133.3843     5.1015     6.5160
  407.5000   126.8439     5.5797     6.5446
  408.0000   118.1909     6.1369     7.0207
  408.5000   109.5081     6.7463     7.6027
  409.0000   104.5068     7.4848     8.2331
  409.5000   104.9543     8.3041     8.9157
  410.0000   106.8255     9.2130     9.6548
  410.5000   107.7482    10.1238    10.4553
  411.0000   106.8372    10.2119    10.8305
  411.5000   105.9281    10.3087    11.0167
  412.0000   106.6205    10.4071    11.2061
  412.5000   108.1020    10.6480    11.3987
  413.0000   109.6090    10.8918    11.5947
  413.5000   110.9149    11.1411    11.7940
  414.0000   111.3069    11.3961    11.9967
  414.5000   111.4895    11.6569    12.2030
  415.0000   111.7037    11.9237    12.4128
  415.5000   111.9214    12.1966    12.6261
  416.0000   112.0751    12.4758    12.8432
  416.5000   111.8881    12.7614    13.0640
  417.0000   111.2140    13.0259    13.2886
  417.5000   108.3839    13.1729    13.5170
  418.0000   105.4390    13.3216    13.7494
  418.5000   102.4738    13.4719    13.9209
  419.0000   101.3228    13.6239    14.0259
  419.5000   100.9007    13.7776    14.1317
  420.0000   100.4879    13.8946    14.2383
  420.5000   100.0607    13.9554    14.3457
  421.0000   100.3372    14.0166    14.4539
  421.5000   100.7652    14.0780    14.5290
  422.0000    99.9907    14.1397    14.5273
  422.5000    98.8513    14.2018    14.4907
  423.0000    99.2708    14.2611    14.4431
  423.5000    99.8001    14.2615    14.3959
  424.0000   100.3256    14.2612    14.3487
  424.5000   100.4031    14.1509    14.3018
  425.0000   100.3983    14.0330    14.2549
  425.5000   100.4157    13.9161    14.2083
  426.0000   101.3764    13.8002    14.1618
  426.5000   102.3735    13.7421    14.1294
  427.0000   102.0463    13.7421    14.1295
  427.5000   101.6600    13.7421    14.1294
  428.0000   101.6023    13.7419    14.1294
  428.5000   101.9217    13.7407    14.1294
  429.0000   102.3663    13.7422    13.9230
  429.5000   102.7742    13.4617    13.6898
  430.0000   103.9424    13.2118    13.4604
  430.5000   105.3556    12.9666    13.2349
  431.0000   106.7708    12.7259    13.0131
  431.5000   108.1902    12.4897    12.7951
  432.0000   108.9086    12.2578    12.5807
  432.5000   109.0478    12.0303    12.3749
  433.0000   109.1729    11.8070    12.1742
  433.5000   109.2975    11.5878    11.9768
  434.0000   109.4234    11.3728    11.7826
  434.5000   109.5476    11.1616    11.5915
  435.0000   109.6664    10.9545    11.4035
  435.5000   110.0287    10.7511    11.2186
  436.0000   110.4254    10.5516    11.0366
  436.5000   110.8215    10.3111    10.8576
  437.0000   111.2170    10.2543    10.7004
  437.5000   111.6125    10.2016    10.6695
  438.0000   112.0084    10.1492    10.6268
  438.5000   112.4042    10.0970    10.5843
  439.0000   112.8085    10.0451    10.5420
  439.5000   112.7505    10.0284    10.4998
  440.0000   112.5447    10.0284    10.4578
  440.5000   112.3353    10.0284    10.4160
  441.0000   112.1188    10.0279    10.4071
  441.5000   112.0758    10.0284    10.3567
  442.0000   112.3445     9.9242    10.2424
  442.5000   113.0944     9.7078    10.1293
  443.0000   113.8334     9.4963    10.0177
  443.5000   114.6635     9.2892     9.9060
  444.0000   115.5225     9.0524     9.8000
  444.5000   116.3908     9.0605     9.6041
  445.0000   117.2705     8.9565     9.3986
  445.5000   118.0337     8.9326     9.2260
  446.0000   116.4369     8.9087     9.2260
  446.5000   114.9282     8.8083     9.2260
  447.0000   114.7973     8.8903     9.2260
  447.5000   117.5092     8.4684     8.9491
  448.0000   119.0434     8.2083     8.6978
  448.5000   118.1794     7.9563     8.4531
  449.0000   117.3598     7.7120     8.2155
  449.5000   117.0622     7.4752     7.9850
  450.0000   117.8179     7.2456     7.9548
  450.5000   118.5453     7.0520     7.9729
  451.0000   119.2736     7.1828     7.9984
  451.5000   119.9828     7.4255     8.0241
  452.0000   121.2187     7.6765     8.3370
  452.5000   122.1820     7.9358     8.7304
  453.0000   120.8780     8.2025     9.1435
  453.5000   119.2546     8.6524     9.5754
  454.0000   117.6356     9.2832    10.0279
  454.5000   116.0207     9.9605    10.1555
  455.0000   114.3853    10.4071    10.1980
  455.5000   113.2687    10.4572    10.2409
  456.0000   113.7709    10.5153    10.2839
  456.5000   115.0434    10.5738    10.3114
