~VERSION INFORMATION
 VERS.                2.0:   CWLS LOG ASCII STANDARD - VERSION 2.0
 WRAP.                 NO:   ONE LINE PER DEPTH STEP
~WELL INFORMATION
#MNEM.UNIT      DATA TYPE    INFORMATION
#----------   ------------   ------------------------------
 STRT.F         1099.5000:   START DEPTH
 STOP.F         2700.0000:   STOP DEPTH
 STEP.F            0.5000:   STEP LENGTH
 NULL.          -999.2500:   NO VALUE
 COMP. LAWRENCE/ALLISON INC NPR #3:   COMPANY
 WELL.   47 STX 14 #47-14:   WELL
 FLD .             TEAPOT:   FIELD
 LOC .      S14 T38N R78W:   LOCATION
 CNTY.            NATRONA:   COUNTY
 STAT.            WYOMING:   STATE
 CTRY. UNITED STATES OF AMERICA:   COUNTRY
 SRVC.            Unknown:   SERVICE COMPANY
 DATE.        01-SEP-1988:   LOGDATE
 API .       490251124400:   API NUMBER
~CURVE INFORMATION
#MNEM.UNIT       API CODE    CURVE DESCRIPTION
#----------   ------------   ------------------------------
 DEPT.F                  :   
 ROP .MIN/FT 91 810 01 00:   RATE OF DRILLING PENETRATION
 TGAS.UNITS  91 830 01 00:   TOTAL GAS FROM HOTWIRE
~PARAMETER INFORMATION
#MNEM.UNIT          VALUE    DESCRIPTION
#----------   ------------   ------------------------------
 EKB .F              5286:   KELLING BUSHING
 EGL .F              5276:   GROUND LEVEL
 DATE.             9-1-88:   RUN DATE
 DD  .F              2700:   DEPTH DRILLER
 CBD .F              1088:   CASING BOTTOM DRILLER
 TCS .HRS            1200:   TIME CURCULATED STOPPED
 TLAB.HRS            1223:   TIME LOGGER AT BOTTOM
 ENGI.               HUSK:   RECORDING ENGINEER
 WITN.           PETERSON:   WITNESSED BY
 CLNT.            A2DTECH:   CLIENT CODE
 ORIG.           5" PRINT:   ORIGIN OF DATA
 UWI .       490251124400:   UNIQUE WELL ID
 DICO. A2D Technologies, Inc.:   DIGITIZING COMPANY
~OTHER INFORMATION
~A  DEPT       ROP       TGAS   
# ...
 2436.0000     0.3967   250.6010
 2436.5000     0.4117   250.4976
 2437.0000     0.4751   250.3942
 2437.5000     0.5417   250.2908
 2438.0000     0.6219   250.1875
 2438.5000     0.5887   250.0841
 2439.0000     0.5463   249.9807
 2439.5000     0.5149   249.8773
 2440.0000     0.4931   249.7740
 2440.5000     0.4730   249.6706
 2441.0000     0.4638   249.5672
 2441.5000     0.4633   249.4638
 2442.0000     0.4602   249.3604
 2442.5000     0.4520   249.2571
 2443.0000     0.4514   249.1537
 2443.5000     0.4545   249.0503
 2444.0000     0.4725   248.9469
 2444.5000     0.4912   248.8436
 2445.0000     0.4287   248.7402
 2445.5000     0.4075   248.6368
 2446.0000     0.3967   248.5334
 2446.5000     0.3855   248.4300
 2447.0000     0.3750   248.3267
 2447.5000     0.3858   248.2233
 2448.0000     0.3986   248.1199
 2448.5000     0.4349   248.0165
 2449.0000     0.4943   247.9132
 2449.5000     0.5296   247.8098
 2450.0000     0.5346   247.7064
 2450.5000     0.5119   247.9128
 2451.0000     0.4484   248.1192
 2451.5000     0.4083   248.3257
 2452.0000     0.4004   248.5321
 2452.5000     0.3998   248.7385
 2453.0000     0.4013   248.9449
 2453.5000     0.4089   249.1514
 2454.0000     0.4112   249.3578
 2454.5000     0.4180   249.5642
 2455.0000     0.4174   249.7706
 2455.5000     0.4167   249.9771
 2456.0000     0.4118   250.1835
 2456.5000     0.4052   250.3899
 2457.0000     0.4045   250.5963
 2457.5000     0.3985   250.8028
 2458.0000     0.3930   251.0092
 2458.5000     0.3924   251.2156
 2459.0000     0.3852   251.4220
 2459.5000     0.3739   251.6285
 2460.0000     0.3626   251.8349
 2460.5000     0.3589   252.0413
 2461.0000     0.3662   272.9266
 2461.5000     0.4402   252.4827
 2462.0000     0.5222   242.3600
 2462.5000     0.5526   242.5582
 2463.0000     0.5520   238.2682
 2463.5000     0.5514   210.0802
 2464.0000     0.5508   201.8807
 2464.5000     0.5398   202.0871
 2465.0000     0.6012   202.5220
 2465.5000     0.6731   203.4992
 2466.0000     0.7699   204.4764
 2466.5000     0.7373   205.4536
 2467.0000     0.6645   206.4308
 2467.5000     0.5877   207.4079
 2468.0000     0.5458   208.3851
 2468.5000     0.5358   209.3623
 2469.0000     0.5506   210.3395
 2469.5000     0.5607   211.3167
 2470.0000     0.5708   212.2939
 2470.5000     0.5840   213.2711
 2471.0000     0.5111   214.2482
 2471.5000     0.4588   215.2254
 2472.0000     0.4169   216.2026
 2472.5000     0.4163   217.1798
 2473.0000     0.4211   218.1570
 2473.5000     0.4254   219.1342
 2474.0000     0.4248   220.1113
 2474.5000     0.4307   221.0885
 2475.0000     0.4339   222.0657
 2475.5000     0.4333   223.0429
 2476.0000     0.4032   224.0201
 2476.5000     0.3554   224.9973
 2477.0000     0.3120   225.9744
 2477.5000     0.2756   226.9516
 2478.0000     0.2502   227.9288
 2478.5000     0.2606   228.9060
 2479.0000     0.3120   229.8832
 2479.5000     0.3805   230.8604
 2480.0000     0.4601   231.8376
 2480.5000     0.4922   232.8147
 2481.0000     0.4384   233.7919
 2481.5000     0.4211   234.7691
 2482.0000     0.4199   235.7463
 2482.5000     0.4300   236.7235
 2483.0000     0.4401   237.7007
 2483.5000     0.4563   238.6778
 2484.0000     0.4640   239.6550
 2484.5000     0.4497   240.6322
 2485.0000     0.4205   241.6094
 2485.5000     0.3726   242.5866
 2486.0000     0.3264   243.5638
 2486.5000     0.2852   244.5409
 2487.0000     0.2743   245.5181
 2487.5000     0.3150   246.4953
 2488.0000     0.3764   247.4725
 2488.5000     0.4274   248.4497
 2489.0000     0.4682   249.4269
 2489.5000     0.4884   250.4041
 2490.0000     0.4980   251.3812
 2490.5000     0.4835   252.3584
 2491.0000     0.4388   253.3356
 2491.5000     0.3864   254.3128
 2492.0000     0.3489   254.7247
 2492.5000     0.3422   265.2911
 2493.0000     0.3496   286.1317
 2493.5000     0.3490   296.6512
 2494.0000     0.3483   296.8494
 2494.5000     0.3477   297.0478
 2495.0000     0.3512   307.5688
 2495.5000     0.3613   308.2789
 2496.0000     0.3811   319.2310
 2496.5000     0.4126   328.8044
 2497.0000     0.4496   308.3604
 2497.5000     0.4917   308.6009
 2498.0000     0.5276   308.8073
 2498.5000     0.5395   315.0900
 2499.0000     0.5175   322.9432
 2499.5000     0.4955   305.5490
 2500.0000     0.4855   299.3119
 2500.5000     0.4913   301.2400
 2501.0000     0.5014   305.3643
 2501.5000     0.5043   309.4885
 2502.0000     0.5037   313.6127
 2502.5000     0.5031   317.7369
 2503.0000     0.5127   324.9080
 2503.5000     0.5121   330.2752
 2504.0000     0.5115   330.2752
 2504.5000     0.5109   330.2752
 2505.0000     0.5000   330.2752
 2505.5000     0.4684   330.2752
 2506.0000     0.4367   330.2752
 2506.5000     0.4155   330.2752
 2507.0000     0.4173   330.2752
 2507.5000     0.4454   330.2752
 2508.0000     0.4467   330.2752
 2508.5000     0.4567   330.2752
 2509.0000     0.4640   330.2752
 2509.5000     0.4664   330.2752
 2510.0000     0.4731   330.2752
 2510.5000     0.4725   330.2752
 2511.0000     0.4642   330.2752
 2511.5000     0.4340   330.2752
 2512.0000     0.3953   330.2752
 2512.5000     0.3581   330.2752
 2513.0000     0.3251   330.2752
 2513.5000     0.3245   330.2752
 2514.0000     0.3563   330.2752
 2514.5000     0.3923   330.2752
 2515.0000     0.4174   330.2752
 2515.5000     0.4250   330.2752
 2516.0000     0.4244   330.2752
 2516.5000     0.4238   330.2752
 2517.0000     0.4231   330.2752
 2517.5000     0.4225   330.2752
 2518.0000     0.4219   330.2752
 2518.5000     0.4213   330.2752
 2519.0000     0.4207   330.2752
 2519.5000     0.4200   330.2752
 2520.0000     0.4194   330.2752
 2520.5000     0.4120   330.2752
 2521.0000     0.4079   326.5592
 2521.5000     0.4072   315.8424
 2522.0000     0.4066   309.6330
 2522.5000     0.4119   309.6330
 2523.0000     0.4432   309.6330
 2523.5000     0.4744   309.6330
 2524.0000     0.4971   309.6330
 2524.5000     0.4965   309.6330
 2525.0000     0.4959   316.5120
 2525.5000     0.4952   312.6791
 2526.0000     0.4946   317.3058
 2526.5000     0.4940   319.9541
 2527.0000     0.4934   309.6330
 2527.5000     0.4879   309.6330
 2528.0000     0.4766   288.9908
 2528.5000     0.4654   288.9908
 2529.0000     0.4599   288.9908
 2529.5000     0.4593   288.9908
 2530.0000     0.4778   288.9908
 2530.5000     0.5157   288.9908
 2531.0000     0.5784   290.2986
 2531.5000     0.6522   299.3119
 2532.0000     0.7351   299.3119
 2532.5000     0.6931   299.3119
 2533.0000     0.6512   302.2047
 2533.5000     0.5990   312.9198
 2534.0000     0.5358   319.9541
 2534.5000     0.4841   319.9541
 2535.0000     0.4835   319.9541
 2535.5000     0.4829   319.9541
 2536.0000     0.4848   319.9541
 2536.5000     0.5101   319.9541
 2537.0000     0.5589   319.9541
 2537.5000     0.5880   319.9541
 2538.0000     0.6062   319.9541
 2538.5000     0.6080   319.9541
 2539.0000     0.5770   319.9541
 2539.5000     0.5332   319.9541
 2540.0000     0.5114   319.9541
 2540.5000     0.4972   319.9541
 2541.0000     0.4967   319.9541
 2541.5000     0.4961   319.9541
 2542.0000     0.4955   319.9541
 2542.5000     0.4948   319.9541
 2543.0000     0.4942   319.9541
 2543.5000     0.4936   319.9541
 2544.0000     0.4930   319.9541
 2544.5000     0.5466   319.9541
 2545.0000     0.6006   319.9541
 2545.5000     0.6555   319.9541
 2546.0000     0.7149   319.9541
 2546.5000     0.6550   319.9541
 2547.0000     0.5925   319.9541
 2547.5000     0.5195   319.9541
 2548.0000     0.4673   319.9541
 2548.5000     0.4471   319.9541
 2549.0000     0.4481   319.9541
 2549.5000     0.4492   319.9541
 2550.0000     0.4502   319.9541
 2550.5000     0.4512   323.4543
 2551.0000     0.4522   327.2591
 2551.5000     0.4507   331.0639
 2552.0000     0.4440   334.8688
 2552.5000     0.4809   338.6736
 2553.0000     0.5371   342.4785
 2553.5000     0.6040   346.2833
 2554.0000     0.6666   350.0881
 2554.5000     0.5695   353.8929
 2555.0000     0.4885   357.6978
 2555.5000     0.4267   361.5026
 2556.0000     0.3736   352.1757
 2556.5000     0.3763   352.2744
 2557.0000     0.3824   342.0520
