~VERSION INFORMATION
 VERS.                2.0:   CWLS LOG ASCII STANDARD - VERSION 2.0
 WRAP.                 NO:   ONE LINE PER DEPTH STEP
~WELL INFORMATION
#MNEM.UNIT      DATA TYPE    INFORMATION
#----------   ------------   ------------------------------
 STRT.F          834.5000:   START DEPTH
 STOP.F         1644.0000:   STOP DEPTH
 STEP.F            0.5000:   STEP LENGTH
 NULL.          -999.2500:   NO VALUE
 COMP. LAWRENCE/ALLISON INC:   COMPANY
 WELL.      85 STX #15-15:   WELL
 FLD .            WILDCAT:   FIELD
 LOC .      S15 T38N R78W:   LOCATION
 CNTY.            NATRONA:   COUNTY
 STAT.            WYOMING:   STATE
 CTRY. UNITED STATES OF AMERICA:   COUNTRY
 SRVC.            Unknown:   SERVICE COMPANY
 DATE.        06-SEP-1987:   LOGDATE
 API .       490251116000:   API NUMBER
~CURVE INFORMATION
#MNEM.UNIT       API CODE    CURVE DESCRIPTION
#----------   ------------   ------------------------------
 DEPT.F                  :   
 TGAS.UNITS  91 830 01 00:   TOTAL GAS FROM HOTWIRE
 ROP .MIN/FT 91 810 01 00:   RAT OF DRILLING PENETRATION
~PARAMETER INFORMATION
#MNEM.UNIT          VALUE    DESCRIPTION
#----------   ------------   ------------------------------
 DATE.             9-6-87:   RUN DATE
 BLI .F              1644:   BOTTOM LOG INTERVAL
 TLI .F               834:   TOP LOG INTERVAL
 LUN .              T-146:   LOGGING UNIT NUMBER
 ENGI.               HUSK:   RECORDING ENGINEER
 WITN.              TOWER:   WITNESSED BY
 CLNT.            A2DTECH:   CLIENT CODE
 ORIG.           5" PRINT:   ORIGIN OF DATA
 UWI .       490251116000:   UNIQUE WELL ID
 DICO. A2D Technologies, Inc.:   DIGITIZING COMPANY
~OTHER INFORMATION
~A   DEPT       TGAS        ROP 
# ...
 1320.5000    61.8096     0.2975
 1321.0000    61.8094     0.2973
 1321.5000    61.8092     0.2970
 1322.0000    61.8091     0.2967
 1322.5000    61.8089     0.2965
 1323.0000    61.8087     0.2962
 1323.5000    61.8085     0.2959
 1324.0000    61.8084     0.2957
 1324.5000    61.8082     0.2954
 1325.0000    61.8080     0.2951
 1325.5000    61.8079     0.2949
 1326.0000    61.8077     0.2946
 1326.5000    61.8075     0.2943
 1327.0000    61.8073     0.2941
 1327.5000    61.8072     0.2938
 1328.0000    61.8070     0.2935
 1328.5000    61.8068     0.2933
 1329.0000    61.8067     0.2930
 1329.5000    61.8065     0.2927
 1330.0000    61.8063     0.2925
 1330.5000    61.8061     0.2922
 1331.0000    61.8060     0.2919
 1331.5000    61.8058     0.2917
 1332.0000    61.8056     0.2914
 1332.5000    61.8055     0.2911
 1333.0000    61.8053     0.2909
 1333.5000    61.8051     0.2906
 1334.0000    61.8049     0.2903
 1334.5000    61.8048     0.2901
 1335.0000    61.8046     0.2898
 1335.5000    61.8044     0.2896
 1336.0000    61.8043     0.2893
 1336.5000    61.8041     0.2890
 1337.0000    61.8039     0.2888
 1337.5000    61.8037     0.2885
 1338.0000    61.8036     0.2882
 1338.5000    61.8034     0.2880
 1339.0000    61.8032     0.2877
 1339.5000    61.8031     0.2874
 1340.0000    61.8047     0.2874
 1340.5000    61.8155     0.2876
 1341.0000    61.8263     0.2879
 1341.5000    61.8371     0.2881
 1342.0000    61.8480     0.2884
 1342.5000    61.8588     0.2887
 1343.0000    61.8696     0.2889
 1343.5000    61.8804     0.2892
 1344.0000    61.8912     0.2894
 1344.5000    61.9021     0.2897
 1345.0000    61.9129     0.2900
 1345.5000    61.9237     0.2902
 1346.0000    61.9345     0.2905
 1346.5000    61.9454     0.2907
 1347.0000    61.9562     0.2910
 1347.5000    61.9670     0.2913
 1348.0000    61.9778     0.2915
 1348.5000    61.9886     0.2918
 1349.0000    61.9995     0.2920
 1349.5000    62.0103     0.2923
 1350.0000    62.0211     0.2926
 1350.5000    62.0319     0.2928
 1351.0000    62.0427     0.2931
 1351.5000    62.0536     0.2933
 1352.0000    62.0644     0.2936
 1352.5000    62.0752     0.2939
 1353.0000    62.0860     0.2941
 1353.5000    62.0968     0.2944
 1354.0000    62.1077     0.2946
 1354.5000    62.1185     0.2949
 1355.0000    62.1293     0.2951
 1355.5000    62.1401     0.2954
 1356.0000    62.1510     0.2957
 1356.5000    62.1618     0.2959
 1357.0000    62.1726     0.2962
 1357.5000    62.1834     0.2964
 1358.0000    62.1942     0.2967
 1358.5000    62.2051     0.2970
 1359.0000    62.2159     0.2972
 1359.5000    62.2267     0.2975
 1360.0000    62.2393     0.2977
 1360.5000    62.2215     0.2975
 1361.0000    62.2002     0.2972
 1361.5000    62.1789     0.2970
 1362.0000    62.1577     0.2967
 1362.5000    62.1364     0.2965
 1363.0000    62.1152     0.2962
 1363.5000    62.0939     0.2959
 1364.0000    62.0726     0.2957
 1364.5000    62.0514     0.2954
 1365.0000    62.0301     0.2952
 1365.5000    62.0088     0.2949
 1366.0000    61.9876     0.2947
 1366.5000    61.9663     0.2944
 1367.0000    61.9450     0.2942
 1367.5000    61.9238     0.2939
 1368.0000    61.9025     0.2936
 1368.5000    61.8812     0.2934
 1369.0000    61.8600     0.2931
 1369.5000    61.8387     0.2929
 1370.0000    61.8174     0.2926
 1370.5000    61.7962     0.2924
 1371.0000    61.7749     0.2921
 1371.5000    61.7536     0.2918
 1372.0000    61.7324     0.2916
 1372.5000    61.7111     0.2913
 1373.0000    61.6898     0.2911
 1373.5000    61.6686     0.2908
 1374.0000    61.6473     0.2906
 1374.5000    61.6260     0.2903
 1375.0000    61.6048     0.2901
 1375.5000    61.5835     0.2898
 1376.0000    61.5622     0.2895
 1376.5000    61.5410     0.2893
 1377.0000    61.5197     0.2890
 1377.5000    61.4984     0.2888
 1378.0000    61.4772     0.2885
 1378.5000    61.4559     0.2883
 1379.0000    61.4346     0.2880
 1379.5000    61.4134     0.2878
 1380.0000    61.3921     0.2773
 1380.5000    61.4339     0.2781
 1381.0000    61.4756     0.2788
 1381.5000    61.5174     0.2796
 1382.0000    61.5592     0.2804
 1382.5000    61.6009     0.2811
 1383.0000    61.6427     0.2921
 1383.5000    61.6845     0.3031
 1384.0000    61.7262     0.3039
 1384.5000    61.7680     0.3047
 1385.0000    61.8097     0.3054
 1385.5000    61.8515     0.3064
 1386.0000    61.8933     0.3071
 1386.5000    61.9350     0.3079
 1387.0000    61.9768     0.3086
 1387.5000    62.0186     0.3094
 1388.0000    62.0603     0.3101
 1388.5000    62.1021     0.3109
 1389.0000    62.1439     0.3116
 1389.5000    62.1856     0.3124
 1390.0000    62.2274     0.3131
 1390.5000    62.2691     0.3139
 1391.0000    62.3109     0.3147
 1391.5000    62.3527     0.3156
 1392.0000    62.3944     0.3163
 1392.5000    62.4362     0.3171
 1393.0000    62.4780     0.3179
 1393.5000    62.5197     0.3186
 1394.0000    62.5615     0.3194
 1394.5000    62.6033     0.3201
 1395.0000    62.6450     0.3209
 1395.5000    62.6868     0.3216
 1396.0000    62.7285     0.3224
 1396.5000    62.7703     0.3232
 1397.0000    62.8121     0.3239
 1397.5000    62.8538     0.3248
 1398.0000    62.8956     0.3256
 1398.5000    62.9374     0.3263
 1399.0000    62.9791     0.3271
 1399.5000    63.0209     0.3279
 1400.0000    63.0593     0.3284
 1400.5000    63.0594     0.3275
 1401.0000    63.0596     0.3268
 1401.5000    63.0598     0.3260
 1402.0000    63.0599     0.3252
 1402.5000    63.0601     0.3245
 1403.0000    63.0603     0.3237
 1403.5000    63.0604     0.3229
 1404.0000    63.0606     0.3222
 1404.5000    63.0608     0.3214
 1405.0000    63.0609     0.3207
 1405.5000    63.0611     0.3199
 1406.0000    63.0613     0.3191
 1406.5000    63.0614     0.3184
 1407.0000    63.0616     0.3176
 1407.5000    63.0618     0.3168
 1408.0000    63.0619     0.3161
 1408.5000    63.0621     0.3153
 1409.0000    63.0623     0.3145
 1409.5000    63.0625     0.3138
 1410.0000    63.0626     0.3130
 1410.5000    62.1300     0.3123
 1411.0000    62.2569     0.3115
 1411.5000    62.3585     0.3107
 1412.0000    62.4600     0.3100
 1412.5000    62.5616     0.3092
 1413.0000    62.6636     0.3084
 1413.5000    62.7687     0.3077
 1414.0000    62.8916     0.3069
 1414.5000    62.9931     0.3061
 1415.0000    63.0947     0.3054
 1415.5000    72.6589     0.3046
 1416.0000    97.9940     0.3039
 1416.5000   109.7208     0.3031
 1417.0000   143.1518     0.3023
 1417.5000   155.0997     0.3016
 1418.0000   156.2527     0.3008
 1418.5000   156.3542     0.3000
 1419.0000   157.5072     0.2993
 1419.5000   157.6087     0.2985
 1420.0000   157.6227     0.2977
 1420.5000   157.5465     0.2980
 1421.0000   157.4703     0.2983
 1421.5000   157.3941     0.2985
 1422.0000   157.3179     0.2988
 1422.5000   157.2417     0.2990
 1423.0000   157.1656     0.2993
 1423.5000   157.0894     0.2995
 1424.0000   157.0132     0.2998
 1424.5000   156.9370     0.3001
 1425.0000   156.8608     0.3003
 1425.5000   156.7846     0.3006
 1426.0000   156.7084     0.3008
 1426.5000   156.6322     0.3011
 1427.0000   156.5560     0.3013
 1427.5000   156.4798     0.3016
 1428.0000   156.4037     0.3018
 1428.5000   156.3275     0.3021
 1429.0000   156.2513     0.3024
 1429.5000   156.1751     0.3026
 1430.0000   156.0989     0.3029
 1430.5000   156.0227     0.3031
 1431.0000   155.9465     0.3034
 1431.5000   155.8703     0.3036
 1432.0000   155.7941     0.3039
 1432.5000   155.7179     0.3042
 1433.0000   155.6417     0.3044
 1433.5000   155.5656     0.3047
 1434.0000   155.4894     0.3049
 1434.5000   155.4132     0.3052
 1435.0000   155.3370     0.3054
 1435.5000   155.2608     0.3057
 1436.0000   155.1846     0.3060
 1436.5000   155.1084     0.3062
 1437.0000   155.0322     0.3065
 1437.5000   154.9560     0.3067
 1438.0000   154.8798     0.3070
 1438.5000   154.8036     0.3072
 1439.0000   154.7274     0.3075
 1439.5000   154.6513     0.3078
 1440.0000   154.5689     0.3080
 1440.5000   154.5195     0.3088
 1441.0000   154.4657     0.3095
 1441.5000   154.4120     0.3103
