~VERSION INFORMATION
 VERS.                2.0:   CWLS LOG ASCII STANDARD - VERSION 2.0
 WRAP.                 NO:   ONE LINE PER DEPTH STEP
~WELL INFORMATION
#MNEM.UNIT      DATA TYPE    INFORMATION
#----------   ------------   ------------------------------
 STRT.F           30.0000:   START DEPTH
 STOP.F          502.0000:   STOP DEPTH
 STEP.F            0.5000:   STEP LENGTH
 NULL.          -999.2500:   NO VALUE
 COMP.   FLUOR DANIEL INC:   COMPANY
 WELL. NPR 3  74-66 SX-1 #66-10:   WELL
 FLD .             TEAPOT:   FIELD
 LOC .      S10 T38N R78W:   LOCATION
 CNTY.            NATRONA:   COUNTY
 STAT.            WYOMING:   STATE
 CTRY. UNITED STATES OF AMERICA:   COUNTRY
 SRVC.           Gearhart:   SERVICE COMPANY
 DATE.        19-JUL-1987:   LOGDATE
 API .       490251114700:   API NUMBER
~CURVE INFORMATION
#MNEM.UNIT       API CODE    CURVE DESCRIPTION
#----------   ------------   ------------------------------
 DEPT.F                  :   
 RLL .OHMM   07 220 00 00:   LATEROLOG RESISTIVITY
 RILD.OHMM   07 120 46 00:   INDUCTION LOG DEEP RESISTIVITY
 RILM.OHMM   07 120 44 00:   INDUCTION LOG MEDIUM RESISTIVITY
 GRR .GAPI   07 310 01 00:   GAMMA RAY FROM RES. LOG
 SPR .MV     07 010 01 00:   SPONTANEOUS POTENTIAL FROM RES. LOG
~PARAMETER INFORMATION
#MNEM.UNIT          VALUE    DESCRIPTION
#----------   ------------   ------------------------------
 PD  .                 GL:   PERMANENT DATUM
 EPD .F              5163:   ELEVATION PERMANENT DATUM
 LMF .                 KB:   LOG MEASURED FROM
 DAPD.F                 8:   FEET ABOVE PERMANENT DATUM
 DMF .                 KB:   DRILLING MEASURED FROM
 EKB .F              5171:   KELLING BUSHING
 EDF .F              5169:   DRILLING FLOOR
 EGL .F              5163:   GROUND LEVEL
 DATE.            7-19-87:   RUN DATE
 RUN .                  1:   RUN NUMBER
 DD  .F               500:   DEPTH DRILLER
 DL  .F               502:   DEPTH LOGGER
 BLI .F               500:   BOTTOM LOG INTERVAL
 TLI .F                30:   TOP LOG INTERVAL
 CS  .IN            8.625:   CASING SIZE
 CBD .F                40:   CASING BOTTOM DRILLER
 CBL .F                48:   CASING BOTTOM LOGGER
 BS  .IN            7.875:   BIT SIZE
 BSD .F               500:   BIT SIZE AT DEPTH
 DFT .                MUD:   DRILLING FLUID TYPE
 DFD .                8.9:   DRILLING FLUID DENSITY
 DFV .                 40:   DRILLING FLUID VISCOSITY
 MSS .            MUD PIT:   MUD SAMPLE SOURCE
 RMS .OHMM             .4:   RESISTIVITY MUD SAMPLE
 MST .F                70:   MUD SAMPLE TEMPERATURE
 RMF .OHMM             .3:   RESISTIVITY MUD FILTRATE SAMPLE
 MFST.F                70:   MUD FILTRATE SAMPLE TEMPERATURE
 RMC .OHMM            .32:   RESISTIVITY MUD CAKE
 MCST.F                70:   MUD CAKE SAMPLE TEMPERATURE
 MFSS.              CHART:   MUD FILTRATE SAMPLE SOURCE
 MCSS.              CHART:   MUD CAKE SAMPLE SOURCE
 RMB .OHMM            .35:   RESISTIVITY MUD AT BHT
 BHT .F                80:   BOTTOM HOLE TEMPERATURE
 TCS .HRS            2230:   TIME CURCULATED STOPPED
 TLAB.HRS            2330:   TIME LOGGER AT BOTTOM
 MRT .F                80:   MAXIMUM RECORDED TEMPERATURE
 LUN .               7597:   LOGGING UNIT NUMBER
 LUL .           GILLETTE:   LOGGING UNIT LOCATION
 ENGI.         WEATHERMON:   RECORDING ENGINEER
 WITN.             STRONG:   WITNESSED BY
 CLNT.            A2DTECH:   CLIENT CODE
 ORIG.       2", 5" PRINT:   ORIGIN OF DATA
 UWI .       490251114700:   UNIQUE WELL ID
 DICO. A2D Technologies, Inc.:   DIGITIZING COMPANY
~OTHER INFORMATION
~A   DEPT      RLL       RILD       RILM         GRR       SPR   
# ...
   91.0000    47.9470     8.4866     7.9053   117.0102   -87.4663
   91.5000    49.7267     8.3193     7.7674   119.0210   -87.3570
   92.0000    46.9054     8.1421     7.6321   120.5136   -87.2457
   92.5000    43.7066     8.1001     7.4992   119.8889   -87.1896
   93.0000    41.0240     8.0784     7.3685   119.3152   -87.5927
   93.5000    39.0885     8.0575     7.2402   119.2290   -87.9824
   94.0000    37.2443     7.9770     7.1140   120.2001   -88.3684
   94.5000    36.5924     7.8228     6.9972   122.4293   -88.6639
   95.0000    36.3382     7.8361     6.9898   126.4070   -88.9761
   95.5000    35.4707     7.8488     6.9745   128.9069   -89.5801
   96.0000    33.8264     7.8614     6.9592   129.0683   -91.5835
   96.5000    31.7864     7.8741     6.9442   123.9264   -94.0790
   97.0000    29.2478     7.8871     6.9331   118.8104   -97.8673
   97.5000    26.0587     7.9170     7.0842   115.5955   -94.2374
   98.0000    23.2174     7.9955     7.2070   116.0271   -90.1633
   98.5000    20.6858     8.0507     7.2719   116.8905   -87.2226
   99.0000    18.4025     8.0897     7.2983   115.3579   -90.7231
   99.5000    16.7562     8.1191     7.3249   113.5008   -93.1034
  100.0000    16.1203     8.4662     7.3515   113.0892   -89.1960
  100.5000    15.5511     8.8306     7.3782   113.3429   -89.9017
  101.0000    15.0759     8.8272     7.4050   114.8664   -90.9872
  101.5000    14.6946     8.8466     7.4319   116.3439   -88.9168
  102.0000    14.6022     8.8576     7.4589   117.1418   -86.8398
  102.5000    14.5083     8.8686     7.5258   117.9822  -100.0929
  103.0000    14.3738     8.8796     7.6140   118.5651   -96.8548
  103.5000    14.1613     8.8907     7.7029   118.6662   -90.1933
  104.0000    13.9192     8.9017     7.8228   116.5396   -91.7030
  104.5000    14.2383     8.9094     7.7201   113.3016   -92.4840
  105.0000    14.5813     8.8968     7.6544   110.6023   -86.1838
  105.5000    14.5027     8.8866     7.5893   109.8543   -85.5177
  106.0000    14.3878     8.8763     7.5373   109.1672   -85.3720
  106.5000    14.0923     8.8661     7.7455   108.4724   -85.4848
  107.0000    13.4836     8.8559     7.9240   108.3870   -85.1706
  107.5000    12.4551     8.8457     8.1191   109.4728   -84.5782
  108.0000    11.8466     8.8353     8.1191   111.9044   -86.0419
  108.5000    11.5242     8.8283     8.1191   113.1051   -86.3975
  109.0000    11.3453     8.8631     8.1191   113.0916   -84.3387
  109.5000    11.3453     8.8926     8.1191   111.2017   -84.6062
  110.0000    11.3453     8.9223     8.1217   110.2400   -84.8987
  110.5000    11.3453     8.9517     8.0420   110.1406   -85.1674
  111.0000    11.3453     8.9830     8.0580   111.6067   -84.8566
  111.5000    11.3831     9.1318     8.0915   113.0398   -84.3428
  112.0000    11.4682     9.3571     8.1191   114.5077   -83.4437
  112.5000    11.5581     9.5865     8.2313   114.4133   -83.0984
  113.0000    11.8216     9.8216     8.3407   113.4586   -81.7725
  113.5000    12.2453    10.0543     8.4516   110.0825   -79.3693
  114.0000    12.6473    10.1605     8.5640   105.7071   -80.5846
  114.5000    13.0093    10.2646     8.6886   102.1491   -81.6941
  115.0000    13.2871    10.3697     8.9016   102.6391   -81.7521
  115.5000    13.2871    10.5000     9.1197   107.1211   -81.8689
  116.0000    12.9010    10.6709     9.3432   108.8436   -81.9843
  116.5000    12.4549    10.9298     9.7260   108.4513   -82.1046
  117.0000    13.2451    11.2405    10.2085   108.2879   -81.9643
  117.5000    13.9192    11.5601    10.7299   109.2829   -81.7240
  118.0000    14.1803    11.8887    10.6963   109.9893   -81.5608
  118.5000    15.5614    12.2267    10.6618   108.6159   -81.9592
  119.0000    14.8548    12.5744    10.6306   106.7106   -81.8951
  119.5000    15.1766    12.9318    10.9734   104.8206   -81.3363
  120.0000    15.7067    13.1800    11.2403   102.9241   -80.7758
  120.5000    15.5614    13.2715    11.0956   102.0443   -80.4872
  121.0000    15.8770    13.2871    10.9501   104.8541   -80.3061
  121.5000    16.1508    13.1642    10.6016   106.4863   -80.1309
  122.0000    15.8306    13.0613    10.2347   106.7085   -79.9560
  122.5000    15.4860    12.9193    10.1480   103.9028   -79.7805
  123.0000    15.4175    12.7788    10.2125   101.1875   -79.6079
  123.5000    15.4175    12.6398    10.2597    99.9094   -79.5383
  124.0000    14.4638    12.5025    10.3071    99.7098   -79.6441
  124.5000    13.7446    12.3655    10.3547   100.2742   -79.8669
  125.0000    13.6628    12.2998    10.4026   101.8178   -79.6482
  125.5000    13.8303    12.2541    10.4507   103.3712   -79.4554
  126.0000    13.9526    12.2085    10.4990   102.3096   -79.4239
  126.5000    14.0760    12.1631    10.5323    99.2762   -80.1244
  127.0000    14.1808    12.1179    10.4621    97.0928   -79.7779
  127.5000    13.8459    12.0729    10.4089    98.7831   -79.3925
  128.0000    13.2541    12.0280    10.3560   100.3717   -79.6665
  128.5000    12.6285    11.9959    10.3033    99.7604   -78.7516
  129.0000    12.3350    11.9138    10.2509    99.7576   -79.3562
  129.5000    12.3350    11.8230    10.1988   100.3409   -80.1874
  130.0000    12.3350    11.7330    10.1469   100.1730   -82.4842
  130.5000    12.6027    11.6503    10.0954    99.3303   -85.6640
  131.0000    13.2280    11.5878    10.0440    97.2199   -87.9793
  131.5000    13.7904    11.4850     9.9930    95.9645   -82.9059
  132.0000    13.2871    11.3468     9.9038    97.1883   -81.1526
  132.5000    13.0977    11.2103     9.7517   100.0112   -80.2034
  133.0000    12.9218    11.0754     9.6015   103.2536   -79.2843
  133.5000    11.9802    10.9423     9.4539   106.4275   -79.0042
  134.0000    11.1617    10.8093     9.3085   108.4439   -78.8898
  134.5000    10.8301    10.6981     9.2473   108.2434   -79.1003
  135.0000    11.3434    10.5320     9.2473   107.0285   -79.3190
  135.5000    10.9314    10.5136     9.2473   105.8560   -79.6610
  136.0000    12.2209    10.4964     9.2473   104.6512   -79.3898
  136.5000    12.2209    10.4790     9.2116   104.9560   -78.9662
  137.0000    12.2209    10.4615     9.1108   105.5967   -78.5090
  137.5000    12.4420    10.4441     9.0111   105.8963   -77.1233
  138.0000    12.9218    10.4200     8.9130   104.1480   -74.2591
  138.5000    12.3305    10.3885     8.8046   102.0771   -73.5716
  139.0000    11.9494    10.3571     8.6326   101.4043   -79.4330
  139.5000    11.8215    10.3258     8.4629   100.7325   -81.5821
  140.0000    11.1363    10.2945     8.2970    98.5962   -82.1952
  140.5000    11.5526    10.2632     8.1191    96.8075   -79.5204
  141.0000    12.1079    10.2429     8.1191    95.5979   -79.6186
  141.5000    12.1814    10.2426     8.1191    96.1122   -79.6914
  142.0000    12.3132    10.2427     8.2450    96.6142   -79.6976
  142.5000    12.5446    10.2427     8.4062    95.7291   -79.6976
  143.0000    12.9218    10.2427     8.5865    95.1402   -79.6976
  143.5000    12.7110    10.2427     8.5857    95.1619   -79.6593
  144.0000    12.1101    10.2431     8.5355    95.8974   -79.4193
  144.5000    11.7489    10.2418     8.4829    99.4014   -79.1816
  145.0000    11.3074    10.2471     8.4353   101.6700   -78.9442
  145.5000    10.3904     9.9047     8.2745   103.6209   -78.7064
  146.0000    10.2427     9.4366     8.1731   102.9822   -78.4688
  146.5000     9.7098     9.1559     8.0711   102.4750   -78.2711
  147.0000     9.4374     9.1264     7.9704   103.5965   -78.1990
  147.5000     9.3336     9.0970     7.8710   104.7931   -79.3611
  148.0000     9.9611     9.0009     7.7016   104.5144   -80.6053
  148.5000     9.8331     8.7663     7.4696   101.6046   -81.8539
  149.0000     9.7776     8.5378     7.2446   100.6474   -83.7040
  149.5000    10.2530     8.3149     7.0264   100.9907   -86.1124
  150.0000    10.6642     8.1187     6.9972   101.3600   -82.9510
  150.5000    11.0333     8.1328     7.1951   101.6189   -79.7129
  151.0000    11.1363     8.1605     7.3332   101.6084   -79.6074
  151.5000    11.1363     8.1920     7.4736   101.6497   -79.5386
