~VERSION INFORMATION
 VERS.                2.0:   CWLS LOG ASCII STANDARD - VERSION 2.0
 WRAP.                 NO:   ONE LINE PER DEPTH STEP
~WELL INFORMATION
#MNEM.UNIT      DATA TYPE    INFORMATION
#----------   ------------   ------------------------------
 STRT.F           84.0000:   START DEPTH
 STOP.F          849.5000:   STOP DEPTH
 STEP.F            0.5000:   STEP LENGTH
 NULL.          -999.2500:   NO VALUE
 COMP. U S NAVY/INTEX OIL CO:   COMPANY
 WELL.     NPR 3 #81-S-34:   WELL
 FLD .        TEAPOT DOME:   FIELD
 LOC .      S34 T39N R78W:   LOCATION
 CNTY.            NATRONA:   COUNTY
 STAT.            WYOMING:   STATE
 CTRY. UNITED STATES OF AMERICA:   COUNTRY
 SRVC.       Schlumberger:   SERVICE COMPANY
 DATE.        29-JUL-1963:   LOGDATE
 API .       490250656700:   API NUMBER
~CURVE INFORMATION
#MNEM.UNIT       API CODE    CURVE DESCRIPTION
#----------   ------------   ------------------------------
 DEPT.F                  :   
 CALS.IN     60 280 50 00:   CALIPER FROM SONIC LOG
 DT  .US/F   60 520 33 00:   INTERVAL TRANSIT TIME
 SPR .MV     05 010 01 00:   SPONTANEOUS POTENTIAL FROM RES.
 ILD .OHMM   05 120 46 00:   INDUCTION LOG DEEP
 ASN .OHMM   05 041 16 00:   AMPLIFIED SHORT NORMAL 16"
 CILD.MMHO   05 110 46 00:   CONDUCTIVITY INDUCTION LOG DEEP
 GR  .GAPI   30 310 01 00:   GAMMA RAY FROM RES.
~PARAMETER INFORMATION
#MNEM.UNIT          VALUE    DESCRIPTION
#----------   ------------   ------------------------------
 PD  .                 GL:   PERMANENT DATUM
 EPD .F              5067:   ELEVATION PERMANENT DATUM
 LMF .                 KB:   LOG MEASURED FROM
 DAPD.F                 5:   FEET ABOVE PERMANENT DATUM
 DMF .                 KB:   DRILLING MEASURED FROM
 EKB .F              5072:   KELLING BUSHING
 EGL .F              5067:   GROUND LEVEL
 DATE.          7-29-1963:   RUN DATE
 RUN .                  1:   RUN NUMBER
 DD  .F               850:   DEPTH DRILLER
 DL  .F               850:   DEPTH LOGGER
 BLI .F               849:   BOTTOM LOG INTERVAL
 TLI .F                90:   TOP LOG INTERVAL
 CS  .IN            8.625:   CASING SIZE
 CBD .F                10:   CASING BOTTOM DRILLER
 BS  .IN            7.875:   BIT SIZE
 BSD .F               850:   BIT SIZE AT DEPTH
 DFT .            GEL-OIL:   DRILLING FLUID TYPE
 DFD .                9.4:   DRILLING FLUID DENSITY
 DFV .                 40:   DRILLING FLUID VISCOSITY
 DFPH.                  9:   DRILLING FLUID PH
 DFL .                8.4:   DRILLING FLUID LOSS
 MSS .           FLOWLINE:   MUD SAMPLE SOURCE
 RMS .OHMM           3.08:   RESISTIVITY MUD SAMPLE
 MST .F                79:   MUD SAMPLE TEMPERATURE
 RMF .OHMM           2.39:   RESISTIVITY MUD FILTRATE SAMPLE
 MFST.F                79:   MUD FILTRATE SAMPLE TEMPERATURE
 RMC .OHMM           3.29:   RESISTIVITY MUD CAKE
 MCST.F                79:   MUD CAKE SAMPLE TEMPERATURE
 MFSS.                 MP:   MUD FILTRATE SAMPLE SOURCE
 MCSS.                 MP:   MUD CAKE SAMPLE SOURCE
 TCS .HRS               1:   TIME CURCULATED STOPPED
 LUN .               4507:   LOGGING UNIT NUMBER
 LUL .              CSPR.:   LOGGING UNIT LOCATION
 ENGI.             KNOBEL:   RECORDING ENGINEER
 WITN.          JORGENSON:   WITNESSED BY
 CLNT.            A2DTECH:   CLIENT CODE
 ORIG.           5" PRINT:   ORIGIN OF DATA
 UWI .       490250656700:   UNIQUE WELL ID
 DICO. A2D Technologies, Inc.:   DIGITIZING COMPANY
~OTHER INFORMATION
~A   DEPT     CALS         DT        SPR        ILD        ASN       CILD         GR   
# ...
  220.5000     7.7928   107.1108   -39.4622     6.7248     7.0210   151.5063  -999.2500
  221.0000     7.8541   107.6195   -39.6326     6.8026     7.0901   148.8808  -999.2500
  221.5000     7.9128   105.9551   -39.8040     6.8804     7.2159   146.2552  -999.2500
  222.0000     7.9269   105.4136   -39.9725     6.9579     7.4335   143.6297  -999.2500
  222.5000     7.9140   104.6339   -39.9804     7.0386     7.6068   142.3640  -999.2500
  223.0000     7.9009   103.2473   -39.9801     6.9634     7.6658   144.6145  -999.2500
  223.5000     7.8876   102.1414   -39.9758     6.8260     7.6529   149.1318  -999.2500
  224.0000     7.8762   102.5571   -39.8509     6.6824     7.5412   153.9453  -999.2500
  224.5000     7.8763   103.3719   -39.7191     6.5998     7.3827   158.7587  -999.2500
  225.0000     7.8861   104.1868   -39.5877     6.3628     7.1645   163.5722  -999.2500
  225.5000     7.8958   105.0485   -39.4565     6.1182     6.9448   168.7418  -999.2500
  226.0000     7.8932   105.9303   -39.3250     5.8713     6.7228   177.0513  -999.2500
  226.5000     7.8891   108.9143   -39.1944     5.6241     6.5029   183.7535  -999.2500
  227.0000     7.8851   109.7112   -39.0210     5.3769     6.3273   189.9452  -999.2500
  227.5000     7.8811   108.9143   -38.8250     5.1298     6.1502   196.1646  -999.2500
  228.0000     7.8770   110.8207   -38.6289     4.8827     5.9731   205.4653  -999.2500
  228.5000     7.8762   112.2012   -38.5169     4.6356     5.7765   221.4285  -999.2500
  229.0000     7.8762   112.8920   -38.5179     4.3889     5.5588   237.3916  -999.2500
  229.5000     7.8762   113.0904   -38.5177     4.1407     5.3426   253.3548  -999.2500
  230.0000     7.8762   114.7353   -38.5177     3.9479     5.0858   269.3180  -999.2500
  230.5000     7.8762   117.8785   -38.5177     3.8144     4.7513   280.8577  -999.2500
  231.0000     7.8787   117.6847   -38.5177     3.8173     4.4874   278.9928  -999.2500
  231.5000     7.8993   116.5050   -38.5177     3.8180     4.5581   277.4925  -999.2500
  232.0000     7.9197   115.6074   -38.5164     3.8161     4.6907   275.9922  -999.2500
  232.5000     7.9278   115.5588   -38.5136     3.8107     4.6192   273.1433  -999.2500
  233.0000     7.8943   113.1455   -38.5425     3.9777     4.4826   268.2531  -999.2500
  233.5000     7.8622   109.6673   -39.0952     4.2097     4.8374   251.2938  -999.2500
  234.0000     7.8364   110.5956   -39.1888     4.5342     5.1344   233.1204  -999.2500
  234.5000     7.8471   110.1547   -39.0671     4.8576     5.3276   215.6523  -999.2500
  235.0000     7.8575   109.2729   -38.9480     5.0714     5.4358   203.1530  -999.2500
  235.5000     7.8675   109.2132   -38.8336     5.2756     5.5095   195.6515  -999.2500
  236.0000     7.8765   109.4651   -38.7191     5.2731     5.5538   191.9770  -999.2500
  236.5000     7.8729   108.8681   -38.6045     5.2540     5.5991   190.2552  -999.2500
  237.0000     7.8669   108.0745   -38.4900     5.2356     5.6231   192.3557  -999.2500
  237.5000     7.8609   107.2809   -38.3754     5.2175     5.6342   194.4561  -999.2500
  238.0000     7.8548   107.8187   -38.2608     5.1994     5.6224   196.5565  -999.2500
  238.5000     7.8488   107.4482   -38.1463     5.1817     5.5953   198.6509  -999.2500
  239.0000     7.8427   107.6076   -38.0313     5.1496     5.5325   200.7368  -999.2500
  239.5000     7.8369   108.4798   -37.9128     5.1159     5.4398   202.8866  -999.2500
  240.0000     7.8373   108.8232   -37.9477     5.0893     5.3024   208.3188  -999.2500
  240.5000     7.8520   109.1666   -38.0196     4.6800     5.0978   226.3320  -999.2500
  241.0000     7.8669   109.7559   -38.0924     4.2013     4.8952   250.2889  -999.2500
  241.5000     7.8763   110.5275   -38.1653     3.7203     4.6902   278.2373  -999.2500
  242.0000     7.8656   108.9143   -38.2392     3.2418     4.3927   317.8747  -999.2500
  242.5000     7.8473   118.4584   -38.2994     2.8437     4.0497   357.2252  -999.2500
  243.0000     7.8289   123.0328   -38.0715     2.7312     3.7110   396.6004  -999.2500
  243.5000     7.8108   125.6166   -37.8328     2.6153     3.4310   428.3577  -999.2500
  244.0000     7.7981   126.5398   -37.5952     2.4964     3.2686   433.5774  -999.2500
  244.5000     7.8462   124.3450   -37.3580     2.5167     3.3370   427.8240  -999.2500
  245.0000     7.9285   120.0262   -37.1191     2.6020     3.3626   417.7798  -999.2500
  245.5000     7.7840   115.7093   -36.8741     2.6872     3.3286   403.6183  -999.2500
  246.0000     7.7710   111.3903   -37.1276     2.7920     3.2844   366.6318  -999.2500
  246.5000     7.7293   108.2895   -37.4593     3.2529     3.6216   325.0488  -999.2500
  247.0000     7.7244   107.1369   -37.7925     3.7095     4.1063   286.1035  -999.2500
  247.5000     7.7864   109.7161   -38.0982     4.1634     4.5562   253.0858  -999.2500
  248.0000     7.8484   110.5842   -37.9565     4.6228     4.6909   225.4184  -999.2500
  248.5000     7.8487   111.3885   -37.7613     4.7382     4.7437   210.7741  -999.2500
  249.0000     7.8213   111.4672   -37.4908     4.7126     4.7954   210.8359  -999.2500
  249.5000     7.8582   111.0263   -37.5664     4.6840     4.8087   218.2866  -999.2500
  250.0000     7.8689   111.0562   -37.6246     4.6556     4.7822   224.1185  -999.2500
  250.5000     7.8551   110.5777   -37.7017     4.6275     4.8735   228.2991  -999.2500
  251.0000     7.8409   110.7915   -38.0558     4.5998     4.8682   230.6187  -999.2500
  251.5000     7.8364   111.4810   -38.1014     4.5706     4.7949   233.5774  -999.2500
  252.0000     7.8706   112.1016   -38.0676     4.4950     4.6487   240.4812  -999.2500
  252.5000     7.9144   114.0812   -38.0187     4.2454     4.5453   249.4247  -999.2500
  253.0000     7.9024   114.5312   -37.9676     4.0034     4.4409   266.0411  -999.2500
  253.5000     7.8895   114.7934   -37.9134     3.7618     4.3278   289.1890  -999.2500
  254.0000     7.8768   115.0872   -37.6396     3.5197     4.2019   312.3369  -999.2500
  254.5000     7.8641   116.2832   -37.4988     3.2786     4.0243   335.2510  -999.2500
  255.0000     7.8518   118.4263   -37.3549     3.0812     3.8631   350.2877  -999.2500
  255.5000     7.8405   120.9163   -37.2070     3.0628     3.7293   359.3522  -999.2500
  256.0000     7.8484   123.6554   -37.0592     3.0262     3.5940   354.1918  -999.2500
  256.5000     7.8975   122.6096   -36.9108     2.9848     3.6255   340.8208  -999.2500
  257.0000     7.9472   121.1155   -36.7635     3.1469     3.7884   326.8828  -999.2500
  257.5000     7.9886   119.7460   -36.6709     3.3614     3.8563   314.4613  -999.2500
  258.0000     7.8252   116.9904   -36.9231     3.6235     3.9350   293.1311  -999.2500
  258.5000     7.7908   113.5873   -37.1723     3.9769     4.2580   268.9679  -999.2500
  259.0000     7.8417   110.7943   -37.4211     4.3294     4.6492   244.8047  -999.2500
  259.5000     7.8938   109.7112   -37.6689     4.6819     4.9599   221.6826  -999.2500
  260.0000     7.9107   111.0060   -37.9090     5.0325     5.0490   206.8409  -999.2500
  260.5000     7.8986   110.2147   -38.0059     5.2874     5.1433   199.0662  -999.2500
  261.0000     7.8865   109.7151   -38.1089     5.2827     5.2865   199.1142  -999.2500
  261.5000     7.8759   109.9319   -38.2132     5.2832     5.2700   200.5203  -999.2500
  262.0000     7.8761   109.3093   -38.3020     5.2543     5.2692   201.8828  -999.2500
  262.5000     7.8813   108.6243   -38.1815     5.2100     5.3342   203.2454  -999.2500
  263.0000     7.8880   109.1205   -38.0587     5.0797     5.3110   214.5311  -999.2500
  263.5000     7.8948   110.1166   -37.9369     4.6067     5.1593   230.2144  -999.2500
  264.0000     7.9015   111.4676   -37.8153     4.1457     4.9632   256.3024  -999.2500
  264.5000     7.9084   112.7988   -37.6941     3.6837     4.7151   282.1653  -999.2500
  265.0000     7.9152   115.4694   -37.5722     3.3256     4.4031   308.0544  -999.2500
  265.5000     7.9059   118.5370   -37.4235     3.0704     4.0922   331.1043  -999.2500
