~VERSION INFORMATION
 VERS.                2.0:   CWLS LOG ASCII STANDARD - VERSION 2.0
 WRAP.                 NO:   ONE LINE PER DEPTH STEP
~WELL INFORMATION
#MNEM.UNIT      DATA TYPE    INFORMATION
#----------   ------------   ------------------------------
 STRT.F           36.0000:   START DEPTH
 STOP.F          493.0000:   STOP DEPTH
 STEP.F            0.5000:   STEP LENGTH
 NULL.          -999.2500:   NO VALUE
 COMP.    FENIX & SCISSON:   COMPANY
 WELL.       NPR #68-S-10:   WELL
 FLD .             TEAPOT:   FIELD
 LOC .      S10 T38N R78W:   LOCATION
 CNTY.            NATRONA:   COUNTY
 STAT.            WYOMING:   STATE
 CTRY. UNITED STATES OF AMERICA:   COUNTRY
 SRVC.              Welex:   SERVICE COMPANY
 DATE.        18-APR-1977:   LOGDATE
 API .       490251033500:   API NUMBER
~CURVE INFORMATION
#MNEM.UNIT       API CODE    CURVE DESCRIPTION
#----------   ------------   ------------------------------
 DEPT.F                  :   
 SPR .MV     07 010 01 00:   SPONTANEOUS POTENTIAL
 ILD .OHMM   07 120 46 00:   INDUCTION LOG DEEP
 ILM .OHMM   07 120 44 00:   INDUCTION LOG MEDIUM
 SGRD.OHMM   07 221 05 00:   SHALLOW SHORT GUARD RESISTIVITY
 CALD.IN     45 280 60 00:   CALIPER FROM DENSITY LOG
 GRD .GAPI   45 310 01 00:   GAMMA RAY FROM DENSITY LOG
 CORR.G/C3   45 356 01 00:   DENSITY CORRECTION
 RHOB.G/C3   45 350 01 00:   BULK DENSITY
 DPHI.DEC    45 890 12 00:   DENSITY POROSITY SANDSTONE
~PARAMETER INFORMATION
#MNEM.UNIT          VALUE    DESCRIPTION
#----------   ------------   ------------------------------
 PD  .                 GL:   PERMANENT DATUM
 EPD .F              5198:   ELEVATION PERMANENT DATUM
 LMF .                 GL:   LOG MEASURED FROM
 DMF .                 GL:   DRILLING MEASURED FROM
 EGL .F              5198:   GROUND LEVEL
 DATE.        18-APR-1977:   RUN DATE
 RUN .                  1:   RUN NUMBER
 DD  .F               505:   DEPTH DRILLER
 DL  .F               492:   DEPTH LOGGER
 BLI .F               490:   BOTTOM LOG INTERVAL
 TLI .F                32:   TOP LOG INTERVAL
 CS  .IN            8.625:   CASING SIZE
 CBD .F                40:   CASING BOTTOM DRILLER
 CBL .F                42:   CASING BOTTOM LOGGER
 BS  .IN            7.875:   BIT SIZE
 BSD .F               505:   BIT SIZE AT DEPTH
 DFT .            KCL MUD:   DRILLING FLUID TYPE
 DFV .                 36:   DRILLING FLUID VISCOSITY
 MSS .           FLOWLINE:   MUD SAMPLE SOURCE
 RMS .OHMM           2.46:   RESISTIVITY MUD SAMPLE
 MST .F                52:   MUD SAMPLE TEMPERATURE
 RMF .OHMM           2.30:   RESISTIVITY MUD FILTRATE SAMPLE
 MFST.F                52:   MUD FILTRATE SAMPLE TEMPERATURE
 RMC .OHMM           2.66:   RESISTIVITY MUD CAKE
 MCST.F                52:   MUD CAKE SAMPLE TEMPERATURE
 MFSS.               MEAS:   MUD FILTRATE SAMPLE SOURCE
 MCSS.               MEAS:   MUD CAKE SAMPLE SOURCE
 RMB .OHMM           1.97:   RESISTIVITY MUD AT BHT
 BHT .F                65:   BOTTOM HOLE TEMPERATURE
 TCS .HRS            0400:   TIME CURCULATED STOPPED
 MRT .F                65:   MAXIMUM RECORDED TEMPERATURE
 LUN .               8611:   LOGGING UNIT NUMBER
 LUL .             CASPER:   LOGGING UNIT LOCATION
 ENGI.               DOAK:   RECORDING ENGINEER
 WITN.            R. LYON:   WITNESSED BY
 CLNT.            A2DTECH:   CLIENT CODE
 ORIG.           5" PRINT:   ORIGIN OF DATA
 UWI .       490251033500:   UNIQUE WELL ID
 DICO. A2D Technologies, Inc.:   DIGITIZING COMPANY
~OTHER INFORMATION
~A   DEPT      SPR        ILD        ILM       SGRD         CALD       GRD      CORR       RHOB       DPHI   
# ...
   72.5000   -53.2451     8.4430     9.4286    13.1218     7.9830   108.3950     0.0107     2.4257     0.1301
   73.0000   -53.2318     8.3908     9.3702    12.7716     7.9844   111.0915     0.0079     2.4227     0.1334
   73.5000   -53.2186     8.3391     9.1844    12.6933     7.9857   114.0855     0.0095     2.4363     0.1261
   74.0000   -53.0574     8.3448     9.0027    13.1516     8.0020   116.0379     0.0111     2.4378     0.1252
   74.5000   -53.0441     8.3506     9.0089    12.9810     8.0033   117.0975     0.0127     2.4244     0.1291
   75.0000   -53.0309     8.3563     9.0151    13.1715     8.0046   118.7522     0.0083     2.4132     0.1333
   75.5000   -53.0176     8.3621     9.0837    13.5505     8.0060   120.1094     0.0039     2.4028     0.1422
   76.0000   -53.0044     8.4258     9.1529    13.4672     8.0073   120.8668    -0.0005     2.3924     0.1494
   76.5000   -52.9911     8.4316     9.2226    13.3847     8.0087   119.1035    -0.0019     2.3895     0.1550
   77.0000   -53.1291     8.3218     9.2929    13.2111     8.0100   120.1630     0.0012     2.4007     0.1514
   77.5000   -53.1125     8.2132     9.4285    13.1302     8.0113   118.9904     0.0088     2.4083     0.1448
   78.0000   -52.9513     8.1626     9.5003    13.0498     8.0127   114.2464     0.0134     2.4113     0.1394
   78.5000   -53.0893     8.1682     9.5726    12.7920     8.0140   110.0931     0.0195     2.4106     0.1394
   79.0000   -53.0728     8.1738     9.7796    12.5392     8.0154   113.9845     0.0196     2.4114     0.1396
   79.5000   -53.0595     8.1795     9.7863    12.4623     8.0018   116.5321     0.0197     2.4160     0.1357
   80.0000   -53.0462     8.2418     9.9291    12.5641     8.0031   118.0381     0.0183     2.4265     0.1303
   80.5000   -52.5892     8.3621    10.0740    12.9198     8.0045   117.3119     0.0199     2.4325     0.1258
   81.0000   -52.4280     8.4841    10.1508    13.1197     8.0207   118.6691     0.0200     2.4415     0.1218
   81.5000   -52.4147     8.6079    10.2989    13.2227     8.0221   117.0500     0.0201     2.4491     0.1188
   82.0000   -52.2536     8.7940    10.3797    13.4041     8.0082   113.6453     0.0218     2.4514     0.1185
   82.5000   -52.3915     8.9841    10.6047    13.3215     7.9949   112.6215     0.0219     2.4537     0.1179
   83.0000   -52.3750     9.0525    10.6823    13.8024     7.9810   112.3373     0.0235     2.4560     0.1172
   83.5000   -52.3617     9.0587    10.3191    13.9059     7.9675   112.3596     0.0236     2.4583     0.1166
   84.0000   -52.3484     9.1278     9.9109    13.7256     7.9691   112.8239     0.0237     2.4598     0.1157
   84.5000   -52.3352     9.2610     9.6472    13.6414     7.9705   113.4370     0.0223     2.4621     0.1145
   85.0000   -52.4705     9.2673     9.5263    13.6543     7.9718   114.3478     0.0254     2.4659     0.1123
   85.5000   -52.4566     9.2737     9.7448    13.9506     7.9881   113.9192     0.0285     2.4742     0.1063
   86.0000   -52.5917     9.2801    10.0186    14.1553     8.0192   111.4073     0.0346     2.4854     0.0937
   86.5000   -52.4301     9.2865    10.1578    14.3629     8.0355   110.2347     0.0422     2.5005     0.0820
   87.0000   -52.4168     9.2929    10.1648    14.4734     8.0517   109.9505     0.0483     2.5043     0.0811
   87.5000   -52.2556     9.2353     9.9638    14.1874     8.0530   111.7586     0.0499     2.5065     0.0816
   88.0000   -52.2424     9.0523     9.8340    14.0978     8.0544   111.6276     0.0470     2.5059     0.0834
   88.5000   -52.2291     8.8731     9.6389    14.4037     8.0405   110.7482     0.0456     2.5029     0.0858
   89.0000   -52.3638     8.6376     9.4479    13.7345     8.0422   110.6172     0.0427     2.4992     0.0888
   89.5000   -52.7943     8.4665     9.3249    13.3704     8.0286   110.9372     0.0398     2.4933     0.0938
   90.0000   -53.0769     8.2987     9.2672    13.3831     8.0448   111.6991     0.0339     2.4821     0.1052
   90.5000   -53.2140     8.1344     9.2738    13.3010     8.0462   112.3122     0.0280     2.4590     0.1126
   91.0000   -53.3463     8.1400     9.2162    13.0382     8.0323   113.5206     0.0221     2.4471     0.1192
   91.5000   -53.3328     8.0895     9.0964    12.7806     8.0340   114.7289     0.0162     2.4397     0.1231
   92.0000   -53.3195     7.9842     8.9777    12.6998     8.0353   116.3837     0.0133     2.4367     0.1255
   92.5000   -53.3062     7.9348     8.9841    12.4512     8.0065   117.2900     0.0150     2.4413     0.1227
   93.0000   -53.2929     7.9403     8.9283    12.2897     7.9929   115.0801     0.0166     2.4435     0.1224
   93.5000   -53.2796     7.8911     8.9346    12.3842     7.9794   114.8004     0.0182     2.4406     0.1239
   94.0000   -53.2663     7.8966     8.9408    12.2236     7.9810   113.1814     0.0198     2.4481     0.1205
   94.5000   -53.2530     7.9020     9.0089    12.0628     7.9672   111.1159     0.0199     2.4609     0.1157
   95.0000   -53.2397     8.0728     9.0151    11.9889     7.9688   109.9433     0.0215     2.4669     0.1109
   95.5000   -53.0784     8.2473     9.0213    12.7695     7.9702   109.6591     0.0231     2.4707     0.1070
   96.0000   -52.7666     8.4256     9.2163    13.2280     7.9864   110.2767     0.0232     2.4730     0.1034
   96.5000   -52.6054     8.4327     9.4807    13.2380     7.9878   112.9731     0.0248     2.4746     0.1009
   97.0000   -52.5921     8.2644     9.7527    12.9764     7.9891   115.9672     0.0264     2.4791     0.1021
   97.5000   -52.5789     8.2132     9.7621    12.8966     7.9904   116.4270     0.0265     2.4702     0.1081
   98.0000   -52.5656     8.2758     9.4350    13.5457     7.9918   113.7708     0.0266     2.4650     0.1152
   98.5000   -52.5524     8.4547     9.1845    13.7576     8.0080   111.7053     0.0252     2.4591     0.1182
   99.0000   -52.5391     8.6973     9.0648    13.1967     8.0094   112.6161     0.0253     2.4561     0.1173
   99.5000   -52.5258     8.9506     9.2608    12.8468     8.0107   114.4196     0.0269     2.4532     0.1163
  100.0000   -52.5148     9.0032     9.8608    13.4021     7.9968   115.4747     0.0285     2.4517     0.1184
  100.5000   -52.4971     9.0205    10.1452    13.4123     8.0137   119.3643     0.0286     2.4533     0.1196
  101.0000   -52.4808     9.0261    10.3660    13.5155     8.0152   119.3807     0.0288     2.4541     0.1184
  101.5000   -52.4645     9.0317    10.3746    13.8089     8.0167   118.9507     0.0289     2.4444     0.1219
  102.0000   -52.4482     8.9752    10.1704    13.8194     8.0032   118.0742     0.0290     2.4340     0.1249
  102.5000   -52.2840     8.9808     9.9019    13.5439     8.0047   118.0906     0.0292     2.4266     0.1276
  103.0000   -52.2677     8.9209     9.8418    13.3709     8.0062   118.7022     0.0277     2.4296     0.1294
  103.5000   -52.2514     8.8077    10.1258    13.4738     8.0077   119.1650     0.0279     2.4447     0.1218
  104.0000   -52.0872     8.7525    10.4177    13.8616     8.0092   119.7766     0.0295     2.4589     0.1134
  104.5000   -52.0709     8.7581    10.4986    14.2606     8.0107   120.2395     0.0296     2.4612     0.1101
  105.0000   -51.9067     8.7031    10.4348    14.6683     8.0122   120.9999     0.0297     2.4598     0.1107
  105.5000   -51.8904     8.7087    10.0896    13.7603     8.0137   121.1651     0.0298     2.4621     0.1110
  106.0000   -51.8741     8.7744     9.9593    13.9692     7.9999   118.9493     0.0315     2.4674     0.1088
  106.5000   -51.8578     8.8486     9.9679    14.8042     8.0018   116.1383     0.0316     2.4682     0.1067
  107.0000   -51.8415     8.9690    10.3978    14.5829     7.9876   115.8571     0.0317     2.4682     0.1064
  107.5000   -51.8252     8.9746    10.4065    13.9331     7.9750   115.4270     0.0303     2.4675     0.1079
  108.0000   -51.8089     9.0423    10.4151    13.6469     7.9616   114.2530     0.0274     2.4586     0.1141
  108.5000   -51.7926     9.1106    10.7896    13.5742     7.9631   112.1860     0.0231     2.4355     0.1231
