~VERSION INFORMATION
 VERS.                2.0:   CWLS LOG ASCII STANDARD - VERSION 2.0
 WRAP.                 NO:   ONE LINE PER DEPTH STEP
~WELL INFORMATION
#MNEM.UNIT      DATA TYPE    INFORMATION
#----------   ------------   ------------------------------
 STRT.F            4.0000:   START DEPTH
 STOP.F          470.0000:   STOP DEPTH
 STEP.F            0.5000:   STEP LENGTH
 NULL.          -999.2500:   NO VALUE
 COMP. BROWN JOHN E&C INC:   COMPANY
 WELL. NPR 3 SX-10 #74-1-10:   WELL
 FLD .             TEAPOT:   FIELD
 LOC .      S10 T38N R78W:   LOCATION
 CNTY.            NATRONA:   COUNTY
 STAT.            WYOMING:   STATE
 CTRY. UNITED STATES OF AMERICA:   COUNTRY
 SRVC.     Atlas Wireline:   SERVICE COMPANY
 DATE.        21-SEP-1983:   LOGDATE
 API .       490251094000:   API NUMBER
~CURVE INFORMATION
#MNEM.UNIT       API CODE    CURVE DESCRIPTION
#----------   ------------   ------------------------------
 DEPT.F                  :   
 GRR .GAPI   07 310 01 00:   GAMMA RAY FROM RES. LOG.
 RILD.OHMM   07 120 46 00:   INDUCTION LOG DEEP RESISTIVITY
 RILM.OHMM   07 120 44 00:   INDUCTION LOG MEDIUM RESISTIVITY
~PARAMETER INFORMATION
#MNEM.UNIT          VALUE    DESCRIPTION
#----------   ------------   ------------------------------
 PD  .                 GL:   PERMANENT DATUM
 EPD .F              5183:   ELEVATION PERMANENT DATUM
 LMF .                 KB:   LOG MEASURED FROM
 DAPD.F                10:   FEET ABOVE PERMANENT DATUM
 DMF .                 KB:   DRILLING MEASURED FROM
 EKB .F              5193:   KELLING BUSHING
 EGL .F              5183:   GROUND LEVEL
 DATE.        21-SEP-1991:   RUN DATE
 RUN .                  1:   RUN NUMBER
 DD  .F               480:   DEPTH DRILLER
 DL  .F               478:   DEPTH LOGGER
 BLI .F               470:   BOTTOM LOG INTERVAL
 CS  .IN                7:   CASING SIZE
 CBD .F                90:   CASING BOTTOM DRILLER
 CBL .F                90:   CASING BOTTOM LOGGER
 BS  .IN             6.25:   BIT SIZE
 BSD .F               480:   BIT SIZE AT DEPTH
 DFT .                AIR:   DRILLING FLUID TYPE
 TCS .HRS               1:   TIME CURCULATED STOPPED
 MRT .F                80:   MAXIMUM RECORDED TEMPERATURE
 LUN .             HL6307:   LOGGING UNIT NUMBER
 LUL .             CASPER:   LOGGING UNIT LOCATION
 ENGI.             RAUTIO:   RECORDING ENGINEER
 WITN.             STRONG:   WITNESSED BY
 CLNT.            A2DTECH:   CLIENT CODE
 ORIG.     1", 2.5" PRINT:   ORIGIN OF DATA
 UWI .       490251094000:   UNIQUE WELL ID
 DICO. A2D Technologies, Inc.:   DIGITIZING COMPANY
~OTHER INFORMATION
~A    DEPT       GRR     RILD       RILM   
# ...
  368.0000    98.0557    19.2303    20.2039
  368.5000    98.2673    18.7036    19.5449
  369.0000    98.4568    18.1333    18.9074
  369.5000    98.8296    17.4774    18.2907
  370.0000    99.2033    16.8451    17.6942
  370.5000   101.2394    16.2358    17.1171
  371.0000   102.6730    15.6485    16.5588
  371.5000   102.7327    15.2612    16.0187
  372.0000   102.7855    14.9326    15.6302
  372.5000   102.6566    14.6110    15.3336
  373.0000   103.5303    14.2963    15.0426
  373.5000   105.0316    14.0293    14.7571
  374.0000   105.8847    13.8070    14.6158
  374.5000   105.7612    13.5884    14.5285
  375.0000   105.8125    13.3731    14.4418
  375.5000   105.7732    13.3731    14.3871
  376.0000   104.9814    13.3731    14.3527
  376.5000   101.8375    13.3738    14.3184
  377.0000    99.3569    13.3735    14.2841
  377.5000   101.0155    13.3733    14.2500
  378.0000   105.2559    13.3733    14.2159
  378.5000   106.2514    13.3734    14.1819
  379.0000   106.0473    13.3735    14.1421
  379.5000   105.8203    13.3735    14.0434
  380.0000   106.4579    13.3385    13.9252
  380.5000   107.0170    13.2112    13.8080
  381.0000   107.0510    13.0850    13.6918
  381.5000   108.5091    12.9600    13.5765
  382.0000   110.0877    12.8363    13.4623
  382.5000   110.5449    12.7138    13.3490
  383.0000   107.3445    12.6014    13.2366
  383.5000   105.7323    12.5015    13.1252
  384.0000   107.7097    12.4029    13.0147
  384.5000   109.9816    12.3038    12.9052
  385.0000   112.5477    12.2060    12.7965
  385.5000   115.8445    12.1089    12.6888
  386.0000   118.5580    12.0126    12.5555
  386.5000   118.5787    11.7375    12.4061
  387.0000   118.6154    11.7668    12.1832
  387.5000   118.6125    11.7950    12.2350
  388.0000   117.7669    11.8233    12.3420
  388.5000   116.5204    11.8533    12.4484
  389.0000   115.2811    11.8808    12.5578
  389.5000   114.4233    11.9089    12.6388
  390.0000   114.7627    11.9515    12.6073
  390.5000   115.0758    11.9373    12.5757
  391.0000   115.4569    11.8560    12.5442
  391.5000   115.5518    11.7753    12.5127
  392.0000   115.4851    11.6944    12.4810
  392.5000   114.9793    11.6147    12.4496
  393.0000   114.3883    11.5208    12.4124
  393.5000   114.6503    11.4250    12.3161
  394.0000   115.9862    11.3083    12.1987
  394.5000   116.0854    11.1929    12.0824
  395.0000   114.1256    11.0786    11.9672
  395.5000   112.5123    10.8943    11.8531
  396.0000   110.9125    10.9093    11.7375
  396.5000   114.0259    10.9567    11.6463
  397.0000   117.3398    11.0044    11.5537
  397.5000   119.2521    11.0525    11.4619
  398.0000   117.3337    11.0969    11.3707
  398.5000   114.9850    10.9049    11.3080
  399.0000   114.0320    10.7308    11.3080
  399.5000   111.1014    10.5590    11.3080
  400.0000   107.5968    10.3891    11.0277
  400.5000   106.4174    10.2210    10.5634
  401.0000   112.5675    10.0550    10.1187
  401.5000   118.3292     9.9135     9.6927
  402.0000   123.8901     9.2468     9.2847
  402.5000   130.3618     8.6997     8.8938
  403.0000   130.6852     8.2296     8.5502
  403.5000   130.8805     7.2312     7.7595
  404.0000   130.7910     6.4167     7.0950
  404.5000   131.2633     5.6920     6.3630
  405.0000   132.5174     4.9802     5.3657
  405.5000   138.0198     5.1048     5.3846
  406.0000   153.0956     5.2493     5.4223
  406.5000   151.4122     5.3867     5.4666
  407.0000   151.4312     5.4863     6.1753
  407.5000   141.5701     5.5877     6.6855
  408.0000   129.7007     5.6742     7.0201
  408.5000   119.5702     6.4067     7.3659
  409.0000   115.5178     7.1134     8.2965
  409.5000   117.5331     7.8337     9.2120
  410.0000   119.4505     8.5534     9.3029
  410.5000   119.2196     8.9803     9.3859
  411.0000   117.8498     9.1649     9.4696
  411.5000   119.1575     9.3532     9.5618
  412.0000   121.2176     9.5455     9.9402
  412.5000   122.7018     9.7417    10.3741
  413.0000   122.2175     9.9110    10.8943
  413.5000   121.1775    10.0833    11.0983
  414.0000   122.8040    10.2586    11.3418
  414.5000   124.3311    10.4369    11.5906
  415.0000   123.9378    10.6184    11.8180
  415.5000   123.1308    10.8036    12.0120
  416.0000   122.4443    10.9698    12.2086
  416.5000   125.4387    11.1174    12.4081
  417.0000   128.1796    11.2668    12.6439
  417.5000   129.4256    11.4181    12.8335
  418.0000   128.7221    11.5607    13.0635
  418.5000   127.1377    11.6819    13.2979
  419.0000   124.8858    11.8041    13.5366
  419.5000   122.4496    11.9276    13.7198
  420.0000   123.3236    12.0526    13.8695
  420.5000   125.8336    12.1829    14.0208
  421.0000   129.5953    12.2717    14.1706
  421.5000   128.1793    12.3642    14.3097
  422.0000   125.5677    12.4574    14.4501
  422.5000   122.0900    12.5512    14.6792
  423.0000   118.5228    12.6459    14.6033
  423.5000   117.8178    12.6459    14.4101
  424.0000   118.9766    12.6459    14.2195
  424.5000   116.4112    12.6459    14.0314
  425.0000   117.8106    12.6459    13.8810
  425.5000   121.4916    12.5304    13.7574
  426.0000   125.0232    12.4341    13.6544
  426.5000   126.9740    12.3386    13.5522
  427.0000   126.4951    12.2439    13.4508
  427.5000   124.6980    12.1498    13.3565
  428.0000   122.7636    12.0565    13.2843
  428.5000   121.4239    11.9583    13.2124
  429.0000   120.7298    11.7851    13.1409
  429.5000   122.7724    11.6034    12.8934
  430.0000   123.3885    11.4245    12.6061
  430.5000   124.6524    11.2484    12.3252
  431.0000   125.2434    11.0750    12.0505
  431.5000   125.5882    10.9043    11.7375
  432.0000   127.3615    10.7361    11.6110
  432.5000   131.5112    10.5706    11.4608
  433.0000   136.0389    10.4403    11.3125
  433.5000   137.4501    10.3388    11.1662
  434.0000   134.8857    10.2383    11.0217
  434.5000   132.7491    10.1388    10.8943
  435.0000   132.5143    10.0403    10.7481
  435.5000   131.8292     9.9427    10.6177
  436.0000   131.4424     9.8461    10.4888
  436.5000   130.9334     9.7417    10.3616
  437.0000   133.5193     9.6754    10.2139
  437.5000   136.5895     9.6030    10.0490
  438.0000   139.5847     9.5312     9.8868
  438.5000   141.5892     9.4598     9.7275
  439.0000   137.6954     9.3853     9.5704
  439.5000   133.9887     9.3492     9.4157
  440.0000   131.8309     9.3112     9.3852
  440.5000   132.0943     9.2734     9.3849
  441.0000   131.2541     9.2358     9.3844
  441.5000   129.5992     9.1627     9.3841
  442.0000   127.9044     9.0294     9.3838
  442.5000   130.6719     8.8981     9.3853
  443.0000   132.7470     8.7687     9.2223
  443.5000   132.6194     8.6412     9.0734
  444.0000   132.6759     8.5155     9.0130
  444.5000   135.1832     8.3917     8.9764
  445.0000   140.4298     8.2697     8.9399
  445.5000   142.8366     8.2079     8.9036
  446.0000   139.2514     8.1680     8.8494
  446.5000   132.8756     8.1282     8.7284
  447.0000   129.5156     8.0853     8.6074
  447.5000   131.7552     7.8477     8.4129
  448.0000   133.5206     7.5964     8.1589
  448.5000   135.5243     7.3531     7.9121
  449.0000   135.8067     7.1176     7.6732
  449.5000   138.3809     6.9653     7.4423
  450.0000   139.9511     6.9653     7.0964
  450.5000   141.2046     6.9653     7.2400
  451.0000   142.6078     6.9653     7.5959
  451.5000   144.1071     7.1606     7.9693
  452.0000   143.7289     7.3385     8.3611
  452.5000   143.2041     7.6992     8.7721
  453.0000   143.3827     8.0777     9.2034
  453.5000   144.3940     8.4748     9.6558
  454.0000  -999.2500     8.8915    10.0478
  454.5000  -999.2500     9.2542    10.3413
  455.0000  -999.2500     9.4171    10.5161
  455.5000  -999.2500     9.5829    10.5582
  456.0000  -999.2500     9.7516    10.6005
  456.5000  -999.2500     9.9249    10.6430
  457.0000  -999.2500     9.9249    10.6931
  457.5000  -999.2500     9.9249    10.6509
  458.0000  -999.2500     9.9249    10.5999
  458.5000  -999.2500     9.9249    10.5491
