~VERSION INFORMATION
 VERS.                2.0:   CWLS LOG ASCII STANDARD - VERSION 2.0
 WRAP.                 NO:   ONE LINE PER DEPTH STEP
~WELL INFORMATION
#MNEM.UNIT      DATA TYPE    INFORMATION
#----------   ------------   ------------------------------
 STRT.F           60.0000:   START DEPTH
 STOP.F          482.0000:   STOP DEPTH
 STEP.F            0.5000:   STEP LENGTH
 NULL.          -999.2500:   NO VALUE
 COMP. BROWN JOHN E&C INC:   COMPANY
 WELL. NPR 3 68 SX-3 #68-1-3:   WELL
 FLD .             TEAPOT:   FIELD
 LOC .       S3 T38N R78W:   LOCATION
 CNTY.            NATRONA:   COUNTY
 STAT.            WYOMING:   STATE
 CTRY. UNITED STATES OF AMERICA:   COUNTRY
 SRVC.     Atlas Wireline:   SERVICE COMPANY
 DATE.        29-SEP-1991:   LOGDATE
 API .       490252244800:   API NUMBER
~CURVE INFORMATION
#MNEM.UNIT       API CODE    CURVE DESCRIPTION
#----------   ------------   ------------------------------
 DEPT.F                  :   
 CALD.IN     45 280 60 00:   CALIPER FROM DENSITY LOG
 CNC .DEC    42 890 03 00:   NEUTRON POROSITY SANDSTONE
 CORR.G/C3   45 356 01 00:   DENSITY CORRECTION
 GRD .GAPI   45 310 01 00:   GAMMA RAY FROM DENSITY LOG
 PORD.DEC    45 890 12 00:   POROSITY DENSITY SANDSTONE
 RHOB.G/C3   45 350 01 00:   BULK DENSITY
 RFOC.OHMM   07 220 04 00:   RESISTIVITY FOCUSED LOG
 RILD.OHMM   07 120 46 00:   RESISTIVITY INDUCTION LOG DEEP
 RILM.OHMM   07 120 44 00:   RESISTIVITY INDUCTION LOG MEDIUM
~PARAMETER INFORMATION
#MNEM.UNIT          VALUE    DESCRIPTION
#----------   ------------   ------------------------------
 PD  .                 GL:   PERMANENT DATUM
 EPD .F              5153:   ELEVATION PERMANENT DATUM
 LMF .                 KB:   LOG MEASURED FROM
 DAPD.F                10:   FEET ABOVE PERMANENT DATUM
 DMF .                 KB:   DRILLING MEASURED FROM
 EKB .F              5163:   KELLING BUSHING
 EGL .F              5153:   GROUND LEVEL
 DATE.        29-SEP-1991:   RUN DATE
 RUN .                  1:   RUN NUMBER
 DD  .F               485:   DEPTH DRILLER
 DL  .F               485:   DEPTH LOGGER
 BLI .F               482:   BOTTOM LOG INTERVAL
 CS  .IN            8.625:   CASING SIZE
 CBD .F                98:   CASING BOTTOM DRILLER
 CBL .F               100:   CASING BOTTOM LOGGER
 BS  .IN            7.875:   BIT SIZE
 BSD .F               485:   BIT SIZE AT DEPTH
 DFT .           CHEM GEL:   DRILLING FLUID TYPE
 DFD .               15.4:   DRILLING FLUID DENSITY
 DFV .                 38:   DRILLING FLUID VISCOSITY
 DFPH.                9.0:   DRILLING FLUID PH
 DFL .                8.0:   DRILLING FLUID LOSS
 MSS .           FLOWLINE:   MUD SAMPLE SOURCE
 RMS .OHMM           1.65:   RESISTIVITY MUD SAMPLE
 MST .F                90:   MUD SAMPLE TEMPERATURE
 RMF .OHMM           1.32:   RESISTIVITY MUD FILTRATE SAMPLE
 MFST.F                90:   MUD FILTRATE SAMPLE TEMPERATURE
 RMC .OHMM           2.06:   RESISTIVITY MUD CAKE
 MCST.F                90:   MUD CAKE SAMPLE TEMPERATURE
 MFSS.               CALC:   MUD FILTRATE SAMPLE SOURCE
 MCSS.               CALC:   MUD CAKE SAMPLE SOURCE
 RMB .OHMM           1.65:   RESISTIVITY MUD AT BHT
 BHT .F                90:   BOTTOM HOLE TEMPERATURE
 TCS .HRS               1:   TIME CURCULATED STOPPED
 MRT .F                90:   MAXIMUM RECORDED TEMPERATURE
 LUN .            HL 6272:   LOGGING UNIT NUMBER
 LUL .             CASPER:   LOGGING UNIT LOCATION
 ENGI. WADDELL/ OTTERHOLT:   RECORDING ENGINEER
 WITN.             STRONG:   WITNESSED BY
 CLNT.            A2DTECH:   CLIENT CODE
 ORIG.           5" PRINT:   ORIGIN OF DATA
 UWI .       490252244800:   UNIQUE WELL ID
 DICO. A2D Technologies, Inc.:   DIGITIZING COMPANY
~OTHER INFORMATION
~A   DEPT     CALD        CNC       CORR         GRD      PORD       RHOB       RFOC       RILD       RILM   
# ...
  388.5000     8.0663     0.2643     0.0002    79.9483     0.1122     2.4661    12.9043    11.9216    11.7396
  389.0000     8.0504     0.2664     0.0018    82.0634     0.1085     2.4737    12.7310    11.9257    11.7427
  389.5000     8.0345     0.2658     0.0064    83.8759     0.1019     2.4851    12.7372    11.9355    11.6635
  390.0000     8.0031     0.2640     0.0079    85.0832     0.0982     2.4920    12.6557    12.0183    11.6675
  390.5000     7.9562     0.2624     0.0095    85.7155     0.0964     2.4950    12.5734    11.9387    11.5888
  391.0000     7.9094     0.2612     0.0095    85.9850     0.0946     2.4958    12.3180    11.9428    11.5121
  391.5000     7.8316     0.2602     0.0095    85.9813     0.0933     2.4948    12.2365    11.9468    11.5153
  392.0000     7.7539     0.2594     0.0095    85.9784     0.0933     2.4882    12.3298    11.7033    11.5120
  392.5000     7.7534     0.2745     0.0096    84.4626     0.0982     2.4836    12.4223    11.4647    11.2054
  393.0000     7.7530     0.2754     0.0187    78.4082     0.1025     2.4829    12.3415    11.3097    11.2084
  393.5000     7.7680     0.2739     0.0416    76.5898     0.0993     2.4912    12.2559    11.3144    11.2114
  394.0000     7.7832     0.2711     0.0264    76.2843     0.0902     2.5057    11.9298    11.2386    11.2145
  394.5000     7.8482     0.2708    -0.0041    77.7942     0.0844     2.5156    11.8509    11.2429    11.1388
  395.0000     7.9365     0.2738    -0.0269    80.5144     0.0768     2.5225    11.8579    11.2471    11.0343
  395.5000     7.9671     0.2731    -0.0314    82.9621     0.0762     2.5179    11.9469    11.2509    10.9149
  396.0000     7.9820     0.2683    -0.0086    84.4419     0.0871     2.5057    11.9525    11.2547    10.9943
  396.5000     7.9971     0.2683    -0.0009    84.7415     0.0960     2.4927    11.7906    11.2586    10.9973
  397.0000     7.9811     0.2704     0.0006    84.4360     0.0986     2.4890    11.7976    11.2625    11.0779
  397.5000     7.9807     0.2719     0.0022    84.7356     0.0974     2.4912    11.9697    11.1881    11.1584
  398.0000     7.9957     0.2707     0.0053    83.5216     0.0928     2.4943    12.1443    11.1925    11.1615
  398.5000     8.0107     0.2695     0.0286    82.9135     0.0894     2.4973    12.1513    11.1963    11.0862
  399.0000     8.0102     0.2685     0.0296    81.0952     0.0879     2.5011    11.9867    11.2001    11.0899
  399.5000     8.0251     0.2676     0.0175    81.0922     0.0873     2.5065    11.9087    11.2039    11.0929
  400.0000     8.0247     0.2670     0.0084    81.9970     0.0873     2.5080    12.1018    11.4886    11.2175
  400.5000     7.9915     0.2652     0.0053    86.2271     0.0876     2.5065    12.1070    11.4146    11.2241
  401.0000     7.9472     0.2670     0.0053    85.5653     0.0881     2.5042    12.0291    11.3423    11.1528
  401.5000     7.9472     0.2695     0.0038    84.7009     0.0878     2.5041    11.7850    11.2694    11.1611
  402.0000     7.9471     0.2706     0.0023    84.6949     0.0872     2.5034    11.4643    11.2753    11.0886
  402.5000     7.9624     0.2688     0.0008    85.2941     0.0857     2.5072    11.5507    11.2025    11.0197
  403.0000     7.9469     0.2673     0.0008    87.1036     0.0823     2.5148    11.8001    11.1303    10.9481
  403.5000     7.9468     0.2682    -0.0008    88.3095     0.0786     2.5165    11.8877    11.0586    10.9562
  404.0000     7.9467     0.2697    -0.0008    88.9087     0.0832     2.5132    11.8089    10.9110    10.8110
  404.5000     7.9466     0.2682    -0.0023    88.2962     0.0880     2.5086    11.5704    10.8407    10.6677
  405.0000     7.9465     0.2597    -0.0008    88.8954     0.0905     2.5040    11.4948    10.6231    10.5264
  405.5000     7.9464     0.2437     0.0008    89.4946     0.0907     2.5033    11.2609    10.4813    10.3869
  406.0000     7.9500     0.2603     0.0038    90.0938     0.0892     2.5101    11.1102    10.2696    10.1796
  406.5000     7.9617     0.2618     0.0068    89.4826     0.0856     2.5162    10.9609    10.3562    10.1134
  407.0000     7.9615     0.2634     0.0084    90.8382     0.0810     2.5207    10.8136    10.4986    10.1917
  407.5000     7.9615     0.2649     0.0068    93.1017     0.0782     2.5222    10.5941    10.2852    10.1978
  408.0000     7.9768     0.2670     0.0038    90.9763     0.0788     2.5146    10.5250    10.1493    10.1315
  408.5000     7.9767     0.2700     0.0038    85.8267     0.0825     2.5085    10.3846    10.0125    10.2813
  409.0000     7.9660     0.2758     0.0084    86.7285     0.0858     2.5070    10.3157     9.7433    10.3593
  409.5000     7.9611     0.2785     0.0160    89.4457     0.0846     2.5146    10.1782     9.4802    10.2179
  410.0000     7.9610     0.2815     0.0282    92.1629     0.0794     2.5222    10.0412     9.3537     9.9936
  410.5000     7.9609     0.2879     0.0312    93.0662     0.0773     2.5230     9.9064     9.2270     9.7485
  411.0000     7.9608     0.2924     0.0233    93.0588     0.0788     2.5183     9.8418     9.0336     9.6851
  411.5000     7.9607     0.2964     0.0160    96.9863     0.0839     2.5083     9.7775     8.7993     9.6236
  412.0000     7.9606     0.3034     0.0099    98.1906     0.0866     2.5069     9.7828     8.2109     9.6307
  412.5000     7.9605     0.3182     0.0068    98.2098     0.0860     2.5046     9.7869     7.1958     9.6364
  413.0000     7.9604     0.3254     0.0068    98.8341     0.0866     2.4969     9.7911     6.4395     9.6421
  413.5000     7.9603     0.3394     0.0053   106.0382     0.0884     2.4573     9.3283     5.8436     9.4483
  414.0000     7.9757     0.3706     0.0068   110.8735     0.0962     2.4276     7.9486     5.5294     9.2541
  414.5000     7.9910     0.3848     0.0099   112.9855     0.1374     2.4124     5.9321     5.3426     4.9842
  415.0000     7.9909     0.3799     0.0129   111.7693     0.1444     2.4169     5.1257     5.1969     4.4298
  415.5000     7.9908     0.3454     0.0160   106.0145     0.1401     2.4626     4.9868     5.1649     4.6865
  416.0000     7.9979     0.3121     0.0160    96.0237     0.1136     2.4976     5.2753     5.2774     5.6205
  416.5000     8.0061     0.2927     0.0143    90.2689     0.0901     2.5128     7.8754     5.6613     6.2001
  417.0000     8.0060     0.2824     0.0129    85.7244     0.0822     2.5189    10.1704     6.3327     6.8393
  417.5000     8.0214     0.2791     0.0129    86.9288     0.0798     2.5227    11.3798     7.3863     7.4921
  418.0000     8.0213     0.2797     0.0160    87.5280     0.0779     2.5265    10.7677     8.0911     8.2073
  418.5000     8.0212     0.2767     0.0160    88.7323     0.0749     2.5290    10.4030     8.8017     8.8057
  419.0000     8.0211     0.2761     0.0145    89.0791     0.0712     2.5341    10.1209     9.3113     9.3303
  419.5000     7.9879     0.2767     0.0129    90.2319     0.0664     2.5379     9.9849     9.7215     9.7877
  420.0000     7.9590     0.2767     0.0114    91.1337     0.0667     2.5417    10.0591     9.9362    10.0003
  420.5000     7.9435     0.2767     0.0084    91.4318     0.0676     2.5401    10.1339    10.1407    10.2176
  421.0000     7.9434     0.2755     0.0084    91.7277     0.0700     2.5386    10.2092    10.2883    10.3671
  421.5000     7.9278     0.2715     0.0084    91.4184     0.0721     2.5356    10.4296    10.4381    10.5924
  422.0000     7.8968     0.2658     0.0084    91.4125     0.0736     2.5325    10.5807    10.6641    10.7474
  422.5000     7.8813     0.2661     0.0084    92.0117     0.0742     2.5279    10.7341    10.8951    10.9809
  423.0000     7.8348     0.2703     0.0068    92.7373     0.0742     2.5263    10.9668    11.0537    11.2195
  423.5000     7.8193     0.2764     0.0068    93.3490     0.0735     2.5286    11.2036    11.2931    11.3046
  424.0000     7.7728     0.2773     0.0068    93.8094     0.0729     2.5309    11.3659    11.4629    11.2328
  424.5000     7.7882     0.2767     0.0084    93.1730     0.0710     2.5317    11.3707    11.7071    11.3197
