~VERSION INFORMATION
 VERS.                2.0:   CWLS LOG ASCII STANDARD - VERSION 2.0
 WRAP.                 NO:   ONE LINE PER DEPTH STEP
~WELL INFORMATION
#MNEM.UNIT      DATA TYPE    INFORMATION
#----------   ------------   ------------------------------
 STRT.F           38.0000:   START DEPTH
 STOP.F          890.0000:   STOP DEPTH
 STEP.F            0.5000:   STEP LENGTH
 NULL.          -999.2500:   NO VALUE
 COMP. FENIX & SCISSON INC:   COMPANY
 WELL.       43 SX #14-14:   WELL
 FLD .             TEAPOT:   FIELD
 LOC .      S14 T38N R78W:   LOCATION
 CNTY.            NATRONA:   COUNTY
 STAT.            WYOMING:   STATE
 CTRY. UNITED STATES OF AMERICA:   COUNTRY
 SRVC.            Unknown:   SERVICE COMPANY
 DATE.        28-APR-1978:   LOGDATE
 API .       490251063600:   API NUMBER
~CURVE INFORMATION
#MNEM.UNIT       API CODE    CURVE DESCRIPTION
#----------   ------------   ------------------------------
 DEPT.F                  :   
 SPR .MV     05 010 01 00:   SPONTANEOUS POTENTIAL FROM RES.
 SN  .OHMM   05 040 16 00:   SHORT NORMAL 16"
 ILD .OHMM   05 120 46 00:   INDUCTION LOG DEEP
 CILD.MMHO   05 110 46 00:   CONDUCTIVITY INDUCTION LOG DEEP
 CALD.IN     45 280 60 00:   CALIPER FROM DENSITY LOG
 GRD .GAPI   45 310 01 00:   GAMMA RAY FROM DENSITY LOG
 CORR.G/C3   45 356 01 00:   DENSITY CORRECTION
 DPHI.DEC    45 890 12 00:   DENSITY POROSITY SANDSTONE
 DEN .G/C3   45 350 01 00:   COMPENSATED BULK DENSTIY
~PARAMETER INFORMATION
#MNEM.UNIT          VALUE    DESCRIPTION
#----------   ------------   ------------------------------
 PD  .                 GL:   PERMANENT DATUM
 EPD .F              5217:   ELEVATION PERMANENT DATUM
 LMF .                 KB:   LOG MEASURED FROM
 DMF .                 KB:   DRILLING MEASURED FROM
 EKB .F              5221:   KELLING BUSHING
 EGL .F              5217:   GROUND LEVEL
 DATE.        28-APR-1978:   RUN DATE
 RUN .                  1:   RUN NUMBER
 DD  .F               890:   DEPTH DRILLER
 DL  .F               890:   DEPTH LOGGER
 BLI .F               884:   BOTTOM LOG INTERVAL
 TLI .F                40:   TOP LOG INTERVAL
 CS  .IN            8.625:   CASING SIZE
 CBD .F                40:   CASING BOTTOM DRILLER
 CBL .F                40:   CASING BOTTOM LOGGER
 BS  .IN            7.875:   BIT SIZE
 BSD .F               890:   BIT SIZE AT DEPTH
 DFT .                KCL:   DRILLING FLUID TYPE
 DFD .                8.7:   DRILLING FLUID DENSITY
 DFV .                 34:   DRILLING FLUID VISCOSITY
 DFL .                4.8:   DRILLING FLUID LOSS
 MSS .            MUD PIT:   MUD SAMPLE SOURCE
 RMS .OHMM             .4:   RESISTIVITY MUD SAMPLE
 MST .F                56:   MUD SAMPLE TEMPERATURE
 RMF .OHMM            .38:   RESISTIVITY MUD FILTRATE SAMPLE
 MFST.F                64:   MUD FILTRATE SAMPLE TEMPERATURE
 RMC .OHMM              1:   RESISTIVITY MUD CAKE
 MCST.F                66:   MUD CAKE SAMPLE TEMPERATURE
 MFSS.               MEAS:   MUD FILTRATE SAMPLE SOURCE
 RMB .OHMM             .3:   RESISTIVITY MUD AT BHT
 BHT .F                74:   BOTTOM HOLE TEMPERATURE
 TCS .HRS            0100:   TIME CURCULATED STOPPED
 MRT .F                74:   MAXIMUM RECORDED TEMPERATURE
 LUN .               2958:   LOGGING UNIT NUMBER
 LUL .               CASP:   LOGGING UNIT LOCATION
 ENGI.             MILLER:   RECORDING ENGINEER
 WITN.           MCGINLEY:   WITNESSED BY
 CLNT.            A2DTECH:   CLIENT CODE
 ORIG.           5" PRINT:   ORIGIN OF DATA
 UWI .       490251063600:   UNIQUE WELL ID
 DICO. A2D Technologies, Inc.:   DIGITIZING COMPANY
~OTHER INFORMATION
~A   DEPT      SPR         SN        ILD       CILD       CALD        GRD       CORR       DPHI        DEN   
# ...
  476.0000   -36.1835     7.6517     7.7516   127.2306     8.0610    86.3079     0.0333     0.0918     2.4716
  476.5000   -36.1746     7.6028     7.7015   128.6686     8.0474    85.5701     0.0334     0.0879     2.4877
  477.0000   -36.1656     7.5543     7.7055   129.3575     8.0490    84.9821     0.0290     0.0963     2.4898
  477.5000   -36.1560     7.5589     7.7087   129.2824     8.0504    85.1439     0.0262     0.0950     2.4772
  478.0000   -36.1478     7.5625     7.7119   129.2223     8.0517    85.4555     0.0233     0.0914     2.4750
  478.5000   -36.1381     7.5662     7.7151   129.1621     8.0530    85.6172     0.0234     0.0905     2.4788
  479.0000   -36.1299     7.5698     7.7183   129.1020     8.0543    85.6290     0.0236     0.0904     2.4864
  479.5000   -35.9726     7.6253     7.7215   128.2928     8.0557    84.2915     0.0239     0.0904     2.4843
  480.0000   -35.9636     7.7355     7.7247   127.4836     8.0570    84.0030     0.0269     0.0883     2.4836
  480.5000   -35.8063     7.8467     7.7814   126.6744     8.0430    83.8651     0.0285     0.0862     2.4927
  481.0000   -35.6490     7.9048     7.7846   124.3671     7.7602    84.3278     0.0301     0.0858     2.4876
  481.5000   -35.4917     8.0185     7.8417   122.8089     7.7316    85.1114     0.0318     0.0771     2.4876
  482.0000   -35.4828     8.0779     7.8993   120.5015     7.6731    85.8501     0.0319     0.0791     2.4937
  482.5000   -35.4738     8.0818     7.9573   118.9433     7.5846    85.8644     0.0350     0.0821     2.5179
  483.0000   -35.4649     8.0857     8.0157   117.3850     7.3464    85.7233     0.0412     0.0815     2.5097
  483.5000   -35.4560     8.0896     8.1304   117.3249     7.3817    85.7380     0.0488     0.0815     2.5000
  484.0000   -35.4470     8.0927     8.1901   116.5157     7.5739    85.7498     0.0534     0.0820     2.5009
  484.5000   -35.4381     8.0967     8.2502   116.4556     7.7848    85.7616     0.0550     0.0850     2.5002
  485.0000   -35.4291     8.1568     8.3101   116.3955     7.9508    85.7734     0.0597     0.0841     2.4980
  485.5000   -35.5701     8.1503     8.3711   116.3354     7.9222    83.6862     0.0598     0.0808     2.4965
  486.0000   -35.5479     8.1086     8.4325   116.2752     7.8933    81.8989     0.0584     0.0867     2.4945
  486.5000   -35.5182     8.1686     8.4944   116.2151     7.8949    81.0082     0.0586     0.0888     2.5006
  487.0000   -35.4884     8.1726     8.4980   116.9191     7.8962    81.0229     0.0635     0.0855     2.4856
  487.5000   -35.4586     8.1763     8.5015   116.8439     7.8826    81.6344     0.0739     0.0719     2.4865
  488.0000   -35.4289     8.1805     8.5050   116.7838     7.8839    82.9955     0.0755     0.0611     2.5061
  488.5000   -35.3991     8.1786     8.5085   117.4878     7.8852    83.9156     0.0711     0.0647     2.5288
  489.0000   -35.3694     8.1743     8.4534   118.9258     7.8866    84.5187     0.0473     0.0749     2.5349
  489.5000   -35.3502     8.1701     8.4570   119.6147     7.9328    84.9829     0.0354     0.0923     2.5365
  490.0000   -35.6380     8.1658     8.4022   120.3036     7.9491    85.2945     0.0325     0.0946     2.4944
  490.5000   -35.7774     8.1615     8.3479   120.2285     7.9654    85.1564     0.0311     0.0958     2.4892
  491.0000   -35.7685     8.1573     8.2940   120.1684     7.9817    84.7184     0.0298     0.0993     2.4833
  491.5000   -35.9080     8.1522     8.2975   120.1082     7.9983    84.7302     0.0269     0.0996     2.4767
  492.0000   -35.8990     8.1562     8.2438   119.2990     8.0146    84.5891     0.0286     0.0969     2.4722
  492.5000   -35.8900     8.1602     8.3044   118.3521     8.0309    84.4539     0.0362     0.0905     2.4708
  493.0000   -35.7327     8.1641     8.3653   116.8040     8.3316    83.4162     0.0393     0.0827     2.4747
  493.5000   -35.5754     8.2815     8.4267   115.2560     8.3928    79.9797     0.0395     0.0833     2.4921
  494.0000   -35.2697     8.3420     8.4888   112.0900     8.3942    79.2419     0.0396     0.0787     2.4975
  494.5000   -34.6673     8.3566     8.6145   107.6654     8.3955    78.9535     0.0382     0.0742     2.4976
  495.0000   -34.2133     8.4757     8.7374   105.2684     8.3968    79.1155     0.0354     0.0772     2.5094
  495.5000   -33.7592     8.6560     8.9234   102.9814     8.3852    79.1274     0.0340     0.0838     2.5142
  496.0000   -33.4536     8.9013     9.1133   100.7739     8.3411    79.1394     0.0417     0.0801     2.5076
  496.5000   -33.4446     9.1462     9.3043    97.7978     8.2969    79.2850     0.0448     0.0750     2.4933
  497.0000   -33.4357     9.3418     9.4401    97.7378     8.2826    80.3510     0.0449     0.0741     2.5062
  497.5000   -33.4267     9.4815     9.6411    97.6779     8.2237    83.0736     0.0435     0.0710     2.5161
  498.0000   -33.4178     9.6123     9.7768    97.5781     8.1645    85.4950     0.0407     0.0659     2.5139
  498.5000   -33.4089     9.6868     9.9182    92.2847     8.1192    85.9586     0.0393     0.0665     2.5230
  499.0000   -33.3999     9.8249    10.0597    88.5094     8.0587    82.8078     0.0350     0.0778     2.5299
  499.5000   -33.3902     9.9638    10.2032    88.4494     8.0019    79.5063     0.0291     0.0820     2.5255
  500.0000   -33.3843    10.1769    10.3487    88.3895     7.9580    78.4639     0.0308     0.0880     2.5023
  500.5000   -33.4277    10.2268    10.3976    87.8241     7.9437    78.7907     0.0309     0.0879     2.4896
  501.0000   -33.4649    10.3254    10.4295    87.2587     7.9299    79.2681     0.0311     0.0915     2.4889
  501.5000   -33.5022    10.4724    10.4339    86.7116     7.9310    79.5564     0.0312     0.0993     2.4897
  502.0000   -33.6611    10.5486    10.5106    86.6517     7.9320    77.1585     0.0313     0.1017     2.4688
  502.5000   -33.8050    10.5523    10.5878    86.5918     7.9330    74.4594     0.0315     0.1019     2.4756
  503.0000   -33.8005    10.5559    10.5183    86.5311     7.9190    72.9652     0.0316     0.1019     2.4712
  503.5000   -33.7960    10.4862    10.5230    86.4702     7.9200    73.2782     0.0333     0.1025     2.4608
  504.0000   -33.7915    10.4908    10.5273    86.4093     7.9060    73.7418     0.0379     0.0967     2.4609
  504.5000   -33.7869    10.3498    10.5316    86.3485     7.8920    74.0548     0.0381     0.0955     2.4738
  505.0000   -33.7834    10.2117    10.4636    86.2876     7.8933    74.0666     0.0382     0.0984     2.4707
  505.5000   -33.7789    10.1459    10.3960    86.2267     7.8943    74.0783     0.0384     0.1002     2.4730
  506.0000   -33.7745     9.9417    10.2578    86.9148     7.8953    74.0904     0.0386     0.1011     2.4673
  506.5000   -33.6217     9.8769    10.1915    86.8540     7.8964    73.9513     0.0402     0.1004     2.4643
  507.0000   -33.4684     9.7442     9.9871    87.5421     7.8821    73.6648     0.0403     0.0965     2.4720
  507.5000   -33.3159     9.6806     9.9216    87.4812     7.8834    73.6766     0.0405     0.0962     2.4728
  508.0000   -33.3114     9.5514     9.7908    88.1694     7.8844    73.8390     0.0406     0.0943     2.4744
  508.5000   -33.3069     9.4239     9.7265    88.1085     7.8854    73.8508     0.0453     0.0922     2.4827
  509.0000   -33.1540     9.4272     9.6637    88.8119     7.9015    74.0132     0.0469     0.0918     2.4828
  509.5000   -32.8528     9.4305     9.6688    88.7510     7.9628    74.1756     0.0471     0.0924     2.4829
  510.0000   -32.8483     9.4338     9.6053    89.4392     8.0090    74.3379     0.0457     0.0976     2.4830
  510.5000   -32.8438     9.4371     9.5433    90.1274     7.7691    74.9521     0.0444     0.0998     2.4793
  511.0000   -32.6909     9.4404     9.4817    90.0665     7.5897    75.7169     0.0510     0.0920     2.4734
  511.5000   -32.6864     9.4437     9.4205    90.0056     7.2443    76.1913     0.0642     0.0826     2.4769
  512.0000   -32.8314     9.3812     9.4245    90.6966     7.2755    76.4940     0.0673     0.0775     2.4955
