~VERSION INFORMATION
 VERS.                2.0:   CWLS LOG ASCII STANDARD - VERSION 2.0
 WRAP.                 NO:   ONE LINE PER DEPTH STEP
~WELL INFORMATION
#MNEM.UNIT      DATA TYPE    INFORMATION
#----------   ------------   ------------------------------
 STRT.F           66.0000:   START DEPTH
 STOP.F         1030.5000:   STOP DEPTH
 STEP.F            0.5000:   STEP LENGTH
 NULL.          -999.2500:   NO VALUE
 COMP. U S NAVY/INTEX OIL CO:   COMPANY
 WELL.      NRP-3 #68S-11:   WELL
 FLD .             TEAPOT:   FIELD
 LOC .      S11 T38N R78W:   LOCATION
 CNTY.            NATRONA:   COUNTY
 STAT.            WYOMING:   STATE
 CTRY. UNITED STATES OF AMERICA:   COUNTRY
 SRVC.       Schlumberger:   SERVICE COMPANY
 DATE.        07-JUL-1962:   LOGDATE
 API .       490250632700:   API NUMBER
~CURVE INFORMATION
#MNEM.UNIT       API CODE    CURVE DESCRIPTION
#----------   ------------   ------------------------------
 DEPT.F                  :   
 SPR .MV     05 010 01 00:   SPONTANEOUS POTENTIAL FROM RES.
 ASN .OHMM   05 041 16 00:   AMPLIFIED SHORT NORMAL 16"
 ILD .OHMM   05 120 46 00:   INDUCTION LOG DEEP
 CILD.MMHO   05 110 46 00:   CONDUCTIVITY INDUCTION LOG DEEP
 GRN .GAPI   35 310 30 00:   GAMMA RAY
 GR  .GAPI   81 310 01 00:   GAMMA RAY
~PARAMETER INFORMATION
#MNEM.UNIT          VALUE    DESCRIPTION
#----------   ------------   ------------------------------
 LMF .                 KB:   LOG MEASURED FROM
 DMF .                 KB:   DRILLING MEASURED FROM
 EKB .F              5226:   KELLING BUSHING
 EGL .F              5221:   GROUND LEVEL
 DATE.           7-7-1962:   RUN DATE
 RUN .                  1:   RUN NUMBER
 DD  .F              1030:   DEPTH DRILLER
 DL  .F              1031:   DEPTH LOGGER
 BLI .F              1030:   BOTTOM LOG INTERVAL
 TLI .F                90:   TOP LOG INTERVAL
 CBD .F                10:   CASING BOTTOM DRILLER
 BS  .IN             6.75:   BIT SIZE
 BSD .F              1030:   BIT SIZE AT DEPTH
 DFT .            GEL-OIL:   DRILLING FLUID TYPE
 DFD .               10.2:   DRILLING FLUID DENSITY
 DFV .                 50:   DRILLING FLUID VISCOSITY
 DFL .                3.6:   DRILLING FLUID LOSS
 RMS .OHMM           5.06:   RESISTIVITY MUD SAMPLE
 MST .F                71:   MUD SAMPLE TEMPERATURE
 RMF .OHMM           4.89:   RESISTIVITY MUD FILTRATE SAMPLE
 MFST.F                71:   MUD FILTRATE SAMPLE TEMPERATURE
 RMC .OHMM           4.85:   RESISTIVITY MUD CAKE
 MCST.F                71:   MUD CAKE SAMPLE TEMPERATURE
 MFSS.                  M:   MUD FILTRATE SAMPLE SOURCE
 MCSS.                  M:   MUD CAKE SAMPLE SOURCE
 RMB .OHMM           4.54:   RESISTIVITY MUD AT BHT
 BHT .F                82:   BOTTOM HOLE TEMPERATURE
 TCS .HRS               1:   TIME CURCULATED STOPPED
 MRT .F                82:   MAXIMUM RECORDED TEMPERATURE
 LUN .               2503:   LOGGING UNIT NUMBER
 LUL .              CSPR.:   LOGGING UNIT LOCATION
 ENGI.             KNOBEL:   RECORDING ENGINEER
 WITN.          JORGENSEN:   WITNESSED BY
 CLNT.            A2DTECH:   CLIENT CODE
 ORIG.      2" & 5" PRINT:   ORIGIN OF DATA
 UWI .       490250632700:   UNIQUE WELL ID
 DICO. A2D Technologies, Inc.:   DIGITIZING COMPANY
~OTHER INFORMATION
~A   DEPT      SPR        ASN        ILD       CILD        GRN          GR  
# ...
  326.0000   -43.5995     5.3070     4.7959   212.0218  -999.2500   102.1347
  326.5000   -43.3975     5.2951     4.7516   215.3940  -999.2500   103.2380
  327.0000   -43.6205     5.2846     4.7506   217.7339  -999.2500   106.4340
  327.5000   -43.9543     5.2734     4.7510   217.7632  -999.2500   109.8108
  328.0000   -43.8906     5.2836     4.7510   217.8018  -999.2500   113.2480
  328.5000   -43.8348     5.3008     4.7508   215.4552  -999.2500   112.4055
  329.0000   -43.7807     5.3183     4.7514   213.0648  -999.2500   108.9429
  329.5000   -43.7266     5.3381     4.7783   210.5337  -999.2500   107.5073
  330.0000   -43.6724     5.3665     4.8897   208.0572  -999.2500   106.4243
  330.5000   -43.6183     5.4274     4.9965   205.5190  -999.2500   102.5347
  331.0000   -43.5642     5.4918     5.1031   203.7998  -999.2500    98.8205
  331.5000   -43.5101     5.5549     5.2098   202.2426  -999.2500   100.0570
  332.0000   -43.4556     5.6179     5.3164   200.9212  -999.2500   103.5708
  332.5000   -43.4007     5.6487     5.4232   199.5828  -999.2500   107.2896
  333.0000   -43.3587     5.6492     5.5308   198.2675  -999.2500   107.5758
  333.5000   -43.4925     5.6495     5.6415   196.9498  -999.2500   108.1084
  334.0000   -43.6219     5.6571     5.6407   195.6322  -999.2500   110.4168
  334.5000   -43.7500     5.6887     5.6318   194.3145  -999.2500   112.7380
  335.0000   -43.8781     5.7190     5.6235   192.8650  -999.2500   114.7707
  335.5000   -44.0076     5.7493     5.6153   192.5450  -999.2500   111.2464
  336.0000   -44.1422     5.7811     5.6071   192.1895  -999.2500   107.5444
  336.5000   -44.0705     5.7810     5.5990   191.8340  -999.2500   104.4256
  337.0000   -43.9834     5.7705     5.5908   191.4796  -999.2500   106.6310
  337.5000   -43.8969     5.7597     5.5827   191.1260  -999.2500   109.2916
  338.0000   -43.8111     5.7489     5.5745   190.8739  -999.2500   111.9098
  338.5000   -43.7127     5.7381     5.5664   189.6835  -999.2500   110.8237
  339.0000   -43.5660     5.7270     5.5580   188.6014  -999.2500   106.8425
  339.5000   -43.4240     5.7172     5.5506   187.5192  -999.2500   102.8704
  340.0000   -43.2823     5.7396     5.4969   186.4371  -999.2500   100.5344
  340.5000   -43.1409     5.8675     5.4268   187.1405  -999.2500   107.5133
  341.0000   -42.9895     5.9370     5.3556   189.8107  -999.2500   115.5580
  341.5000   -43.1105     5.9568     5.2847   192.0526  -999.2500   119.6442
  342.0000   -43.3223     5.9298     5.2152   194.8429  -999.2500   122.5207
  342.5000   -43.5382     5.7588     5.1333   203.5632  -999.2500   120.7034
  343.0000   -43.7501     5.5506     4.8667   211.4419  -999.2500   114.7367
  343.5000   -43.9801     5.2826     4.6059   219.7574  -999.2500   108.3151
  344.0000   -44.5038     5.0995     4.3456   228.1294  -999.2500   106.8171
  344.5000   -45.4466     4.9897     4.0852   235.6748  -999.2500   110.7165
  345.0000   -46.8711     4.9245     3.8622   235.6748  -999.2500   115.5908
  345.5000   -48.0681     4.9993     4.1342   232.5849  -999.2500   118.5588
  346.0000   -46.4294     5.0941     4.3944   227.8415  -999.2500   120.1069
  346.5000   -44.8464     5.1887     4.6515   220.2993  -999.2500   117.6418
  347.0000   -43.2373     5.2841     4.9086   212.2096  -999.2500   112.1014
  347.5000   -43.2037     5.4525     5.1663   204.0514  -999.2500   106.6363
  348.0000   -43.2817     5.6492     5.4250   195.8932  -999.2500   105.5908
  348.5000   -43.3532     5.8488     5.7479   187.7351  -999.2500   108.8320
  349.0000   -43.4221     6.0554     6.0805   179.5769  -999.2500   113.9774
  349.5000   -43.4913     6.1962     6.4221   171.4187  -999.2500   112.2145
  350.0000   -43.5462     6.3034     6.5577   166.2654  -999.2500   107.9791
  350.5000   -43.4079     6.2155     6.6801   162.4000  -999.2500   101.9074
  351.0000   -43.2750     6.3402     6.7515   158.5345  -999.2500   101.4617
  351.5000   -43.1532     6.4644     6.7698   155.0332  -999.2500   104.0004
  352.0000   -43.3268     6.5884     6.7883   152.6173  -999.2500   109.7991
  352.5000   -43.5546     6.6515     6.8070   151.5020  -999.2500   112.1201
  353.0000   -43.2104     6.6814     6.8266   153.0545  -999.2500   111.5405
  353.5000   -42.7226     6.6133     6.8315   154.6070  -999.2500   110.8850
  354.0000   -42.3634     6.5308     6.6278   156.0288  -999.2500   109.2078
  354.5000   -42.5811     6.3903     6.4274   162.4407  -999.2500   105.8127
  355.0000   -42.7916     6.2263     6.2285   168.3549  -999.2500   102.4270
  355.5000   -42.9989     6.0539     6.0299   174.2691  -999.2500    99.1996
  356.0000   -43.1402     5.8787     5.8321   180.1833  -999.2500   101.4446
  356.5000   -43.0521     5.6985     5.6380   188.5318  -999.2500   104.1882
  357.0000   -42.9694     5.5080     5.4238   197.2257  -999.2500   106.9248
  357.5000   -42.8870     5.3182     4.9425   211.1836  -999.2500   105.3018
  358.0000   -42.8032     5.1288     4.3522   234.0506  -999.2500   102.0537
  358.5000   -42.6597     4.9458     3.7513   258.5730  -999.2500    98.7554
  359.0000   -42.4312     4.6150     3.4538   292.4226  -999.2500    97.6987
  359.5000   -42.2086     4.2720     3.2973   306.2997  -999.2500   103.9184
  360.0000   -41.8274     3.9548     3.1433   313.3297  -999.2500   110.7324
  360.5000   -41.4210     3.9751     3.0905   312.3938  -999.2500   114.6184
  361.0000   -41.0180     4.1188     3.1623   310.9744  -999.2500   106.7569
  361.5000   -40.8785     4.0157     3.2320   309.5550  -999.2500   102.6608
  362.0000   -41.1495     3.8783     3.3046   300.8651  -999.2500   102.6973
  362.5000   -41.4146     3.9439     3.4499   281.7450  -999.2500   104.4947
  363.0000   -41.6814     4.3552     3.8833   251.4407  -999.2500   106.3244
  363.5000   -41.9470     4.6362     4.3029   226.5387  -999.2500   108.1594
  364.0000   -42.1763     4.8562     4.8213   209.1327  -999.2500   110.0020
  364.5000   -42.2192     4.9769     5.2682   194.2290  -999.2500   111.5896
  365.0000   -42.2660     5.0478     5.3058   186.8518  -999.2500   109.2943
  365.5000   -42.3143     5.0632     5.3504   188.8827  -999.2500   109.6371
  366.0000   -42.3544     5.0507     5.3953   192.0563  -999.2500   112.0736
  366.5000   -42.1491     5.0378     5.4420   195.1135  -999.2500   112.7973
  367.0000   -41.9283     5.0250     5.3809   197.0428  -999.2500   111.7041
  367.5000   -41.7104     5.0110     5.2775   197.4945  -999.2500   110.6258
  368.0000   -41.5542     4.9643     5.1742   199.5453  -999.2500   110.8753
  368.5000   -41.5245     4.8135     5.0798   206.9972  -999.2500   113.6872
  369.0000   -41.4922     4.6457     4.5536   229.2035  -999.2500   117.1541
  369.5000   -41.4605     4.4736     3.9530   259.5686  -999.2500   120.6524
  370.0000   -41.4291     4.2663     3.3499   299.2636  -999.2500   124.2684
  370.5000   -41.3973     3.8716     2.7600   370.9436  -999.2500   128.0348
  371.0000   -41.3257     3.5051     2.3175   408.8385  -999.2500   125.7445
  371.5000   -40.9970     3.2676     1.9921   438.7721  -999.2500   120.3353
  372.0000   -40.6676     3.0529     1.8631   458.6803  -999.2500   114.8562
  372.5000   -40.3363     3.1460     1.9315   455.5139  -999.2500   114.4304
  373.0000   -40.1808     3.2771     1.9999   449.8810  -999.2500   116.5836
  373.5000   -40.2040     3.2598     2.0685   434.8040  -999.2500   112.3728
  374.0000   -40.4256     3.1605     2.1321   409.4365  -999.2500   106.1232
  374.5000   -40.6497     3.2413     2.5045   368.2028  -999.2500   100.4645
  375.0000   -40.8730     3.7926     3.0626   325.1133  -999.2500   101.3068
  375.5000   -41.0963     4.3267     3.6248   274.4742  -999.2500   105.1298
  376.0000   -41.3203     4.5776     4.1892   237.6783  -999.2500   107.9465
  376.5000   -41.5414     4.5963     4.7360   214.5558  -999.2500   108.6335
  377.0000   -41.5994     4.5687     4.8363   204.5730  -999.2500   109.3714
  377.5000   -41.6436     4.5392     4.9180   205.4342  -999.2500   110.2175
