~VERSION INFORMATION
 VERS.                2.0:   CWLS LOG ASCII STANDARD - VERSION 2.0
 WRAP.                 NO:   ONE LINE PER DEPTH STEP
~WELL INFORMATION
#MNEM.UNIT      DATA TYPE    INFORMATION
#----------   ------------   ------------------------------
 STRT.F          110.5000:   START DEPTH
 STOP.F         1944.0000:   STOP DEPTH
 STEP.F            0.5000:   STEP LENGTH
 NULL.          -999.2500:   NO VALUE
 COMP.    FENIX & SCISSON:   COMPANY
 WELL.   NPR 3 SHX #34-10:   WELL
 FLD .             TEAPOT:   FIELD
 LOC .      S10 T38N R78W:   LOCATION
 CNTY.            NATRONA:   COUNTY
 STAT.            WYOMING:   STATE
 CTRY. UNITED STATES OF AMERICA:   COUNTRY
 SRVC.            Unknown:   SERVICE COMPANY
 DATE.        14-APR-1978:   LOGDATE
 API .       490251061800:   API NUMBER
~CURVE INFORMATION
#MNEM.UNIT       API CODE    CURVE DESCRIPTION
#----------   ------------   ------------------------------
 DEPT.F                  :   
 ILD .OHMM   05 120 46 00:   INDUCTION LOG DEEP
 CILD.MMHO   05 110 00 00:   CONDUCTIVITY INDUCTION LOG
 NPHI.DEC    42 890 01 00:   NEUTRON POROSITY LIMESTONE
 GRD .GAPI   45 310 01 00:   GAMMA RAY FROM DENSITY LOG
~PARAMETER INFORMATION
#MNEM.UNIT          VALUE    DESCRIPTION
#----------   ------------   ------------------------------
 PD  .                 GL:   PERMANENT DATUM
 EPD .F              5244:   ELEVATION PERMANENT DATUM
 LMF .                 KB:   LOG MEASURED FROM
 DMF .                 KB:   DRILLING MEASURED FROM
 EKB .F              5252:   KELLING BUSHING
 EGL .F              5244:   GROUND LEVEL
 DATE.          4-14-1978:   RUN DATE
 RUN .                  1:   RUN NUMBER
 DD  .F              1953:   DEPTH DRILLER
 DL  .F              1950:   DEPTH LOGGER
 BLI .F              1944:   BOTTOM LOG INTERVAL
 TLI .F               715:   TOP LOG INTERVAL
 CS  .IN            9.625:   CASING SIZE
 CBD .F               708:   CASING BOTTOM DRILLER
 CBL .F               712:   CASING BOTTOM LOGGER
 BS  .IN             8.75:   BIT SIZE
 BSD .F              1953:   BIT SIZE AT DEPTH
 DFT .                OIL:   DRILLING FLUID TYPE
 TCS .HRS               5:   TIME CURCULATED STOPPED
 LUN .               2958:   LOGGING UNIT NUMBER
 LUL .               CASP:   LOGGING UNIT LOCATION
 ENGI.             MILLER:   RECORDING ENGINEER
 CLNT.            A2DTECH:   CLIENT CODE
 ORIG.           5" PRINT:   ORIGIN OF DATA
 UWI .       490251061800:   UNIQUE WELL ID
 DICO. A2D Technologies, Inc.:   DIGITIZING COMPANY
~OTHER INFORMATION
~A   DEPT      ILD       CILD       NPHI        GRD   
# ...
 1351.5000    11.2872    98.1282  -999.2500  -999.2500
 1352.0000    11.3012    98.1999  -999.2500  -999.2500
 1352.5000    11.3158    98.2717  -999.2500  -999.2500
 1353.0000    11.3249    98.3434  -999.2500  -999.2500
 1353.5000    11.2173    98.4151  -999.2500  -999.2500
 1354.0000    11.1049    98.4868  -999.2500  -999.2500
 1354.5000    11.0926    98.5585  -999.2500  -999.2500
 1355.0000    11.0972    98.6302  -999.2500  -999.2500
 1355.5000    11.1020    98.7019  -999.2500  -999.2500
 1356.0000    11.1067    98.7736  -999.2500  -999.2500
 1356.5000    11.1113    98.8454  -999.2500  -999.2500
 1357.0000    11.1160    98.9171  -999.2500  -999.2500
 1357.5000    11.1208    98.9888  -999.2500  -999.2500
 1358.0000    11.1253    99.9554  -999.2500  -999.2500
 1358.5000    11.1103   101.1832  -999.2500  -999.2500
 1359.0000    11.0049   102.4110  -999.2500  -999.2500
 1359.5000    10.9012   103.6388  -999.2500  -999.2500
 1360.0000    10.7979   104.8666  -999.2500  -999.2500
 1360.5000    10.6945   106.0944  -999.2500  -999.2500
 1361.0000    10.5911   106.9613  -999.2500  -999.2500
 1361.5000    10.4878   106.9316  -999.2500  -999.2500
 1362.0000    10.3844   106.9043  -999.2500  -999.2500
 1362.5000    10.2810   106.8765  -999.2500  -999.2500
 1363.0000    10.1776   106.8496  -999.2500  -999.2500
 1363.5000    10.0740   106.8226  -999.2500  -999.2500
 1364.0000     9.9709   106.7957  -999.2500  -999.2500
 1364.5000     9.8900   106.7688  -999.2500  -999.2500
 1365.0000     9.9023   106.7418  -999.2500  -999.2500
 1365.5000     9.9125   106.7149  -999.2500  -999.2500
 1366.0000     9.9219   106.6879  -999.2500  -999.2500
 1366.5000     9.9395   106.6610  -999.2500  -999.2500
 1367.0000     9.9862   106.6341  -999.2500  -999.2500
 1367.5000    10.0070   106.6071  -999.2500  -999.2500
 1368.0000    10.0262   106.5802  -999.2500  -999.2500
 1368.5000    10.0455   106.5532  -999.2500  -999.2500
 1369.0000    10.0649   106.5263  -999.2500  -999.2500
 1369.5000    10.0843   106.4994  -999.2500  -999.2500
 1370.0000    10.1036   106.4724  -999.2500  -999.2500
 1370.5000    10.1232   106.4455  -999.2500  -999.2500
 1371.0000    10.1281   106.4185  -999.2500  -999.2500
 1371.5000    10.1256   106.3916  -999.2500  -999.2500
 1372.0000    10.1229   106.3647  -999.2500  -999.2500
 1372.5000    10.1202   106.3377  -999.2500  -999.2500
 1373.0000    10.1176   106.3108  -999.2500  -999.2500
 1373.5000    10.1150   106.2839  -999.2500  -999.2500
 1374.0000    10.1123   106.2569  -999.2500  -999.2500
 1374.5000    10.1097   106.2300  -999.2500  -999.2500
 1375.0000    10.1070   106.2030  -999.2500  -999.2500
 1375.5000    10.1044   106.1761  -999.2500  -999.2500
 1376.0000    10.1018   106.1491  -999.2500  -999.2500
 1376.5000    10.0991   106.1222  -999.2500  -999.2500
 1377.0000    10.0964   106.0953  -999.2500  -999.2500
 1377.5000    10.0941   106.0683  -999.2500  -999.2500
 1378.0000    10.0890   106.0414  -999.2500  -999.2500
 1378.5000    10.1638   106.0145  -999.2500  -999.2500
 1379.0000    10.2635   105.9875  -999.2500  -999.2500
 1379.5000    10.3663   106.0130  -999.2500  -999.2500
 1380.0000    10.4047   106.1333  -999.2500  -999.2500
 1380.5000    10.3983   106.2541  -999.2500  -999.2500
 1381.0000    10.3910   106.3748  -999.2500  -999.2500
 1381.5000    10.3837   106.4954  -999.2500  -999.2500
 1382.0000    10.3764   106.6160  -999.2500  -999.2500
 1382.5000    10.3691   106.7366  -999.2500  -999.2500
 1383.0000    10.3619   106.8571  -999.2500  -999.2500
 1383.5000    10.3546   106.9777  -999.2500  -999.2500
 1384.0000    10.3473   107.0983  -999.2500  -999.2500
 1384.5000    10.3401   107.2189  -999.2500  -999.2500
 1385.0000    10.3325   107.3395  -999.2500  -999.2500
 1385.5000    10.3589   107.4601  -999.2500  -999.2500
 1386.0000    10.4094   107.5807  -999.2500  -999.2500
 1386.5000    10.4596   107.7013  -999.2500  -999.2500
 1387.0000    10.4642   107.8218  -999.2500  -999.2500
 1387.5000    10.4025   107.9424  -999.2500  -999.2500
 1388.0000    10.3417   108.4229  -999.2500  -999.2500
 1388.5000    10.2806   108.9655  -999.2500  -999.2500
 1389.0000    10.2195   109.5082  -999.2500  -999.2500
 1389.5000    10.1585   110.0508  -999.2500  -999.2500
 1390.0000    10.0975   110.5935  -999.2500  -999.2500
 1390.5000    10.0364   110.9212  -999.2500  -999.2500
 1391.0000     9.9755   110.8632  -999.2500  -999.2500
 1391.5000     9.9140   110.8001  -999.2500  -999.2500
 1392.0000     9.8905   110.7376  -999.2500  -999.2500
 1392.5000     9.8900   110.6757  -999.2500  -999.2500
 1393.0000     9.8902   110.6137  -999.2500  -999.2500
 1393.5000     9.8909   110.5518  -999.2500  -999.2500
 1394.0000     9.8625   110.4898  -999.2500  -999.2500
 1394.5000     9.8305   110.4279  -999.2500  -999.2500
 1395.0000     9.7985   110.3660  -999.2500  -999.2500
 1395.5000     9.7665   110.3040  -999.2500  -999.2500
 1396.0000     9.7346   110.2421  -999.2500  -999.2500
 1396.5000     9.7026   110.1801  -999.2500  -999.2500
 1397.0000     9.6707   110.1181  -999.2500  -999.2500
 1397.5000     9.6388   110.0562  -999.2500  -999.2500
 1398.0000     9.6068   109.9942  -999.2500  -999.2500
 1398.5000     9.5749   109.9323  -999.2500  -999.2500
 1399.0000     9.5429   109.8704  -999.2500  -999.2500
 1399.5000     9.5109   109.8084  -999.2500  -999.2500
 1400.0000     9.4789   109.7465  -999.2500  -999.2500
 1400.5000     9.4497   109.6845  -999.2500  -999.2500
 1401.0000     9.4504   109.6226  -999.2500  -999.2500
 1401.5000     9.4505   109.5606  -999.2500  -999.2500
 1402.0000     9.4506   109.4987  -999.2500  -999.2500
 1402.5000     9.4506   109.4367  -999.2500  -999.2500
 1403.0000     9.4505   109.3748  -999.2500  -999.2500
 1403.5000     9.4505   109.3128  -999.2500  -999.2500
 1404.0000     9.4508   109.2509  -999.2500  -999.2500
 1404.5000     9.4689   109.1889  -999.2500  -999.2500
 1405.0000     9.5177   109.1270  -999.2500  -999.2500
 1405.5000     9.5661   109.0650  -999.2500  -999.2500
 1406.0000     9.6146   109.0031  -999.2500  -999.2500
 1406.5000     9.6628   108.9552  -999.2500  -999.2500
 1407.0000     9.6919   109.0499  -999.2500  -999.2500
 1407.5000     9.6950   109.1418  -999.2500  -999.2500
 1408.0000     9.6983   109.2337  -999.2500  -999.2500
 1408.5000     9.7015   109.3256  -999.2500  -999.2500
 1409.0000     9.7048   109.4175  -999.2500  -999.2500
 1409.5000     9.7080   109.5095  -999.2500  -999.2500
 1410.0000     9.7113   109.6014  -999.2500  -999.2500
 1410.5000     9.7145   109.6933  -999.2500  -999.2500
 1411.0000     9.7178   109.7852  -999.2500  -999.2500
 1411.5000     9.7210   109.8771  -999.2500  -999.2500
 1412.0000     9.7242   109.9691  -999.2500  -999.2500
 1412.5000     9.7275   110.0610  -999.2500  -999.2500
 1413.0000     9.7361   110.1529  -999.2500  -999.2500
 1413.5000     9.7751   110.2448  -999.2500  -999.2500
 1414.0000     9.8140   110.3367  -999.2500  -999.2500
 1414.5000     9.8528   110.4286  -999.2500  -999.2500
 1415.0000     9.8917   110.5206  -999.2500  -999.2500
 1415.5000     9.9305   110.6125  -999.2500  -999.2500
 1416.0000     9.9693   110.7044  -999.2500  -999.2500
 1416.5000    10.0081   110.7963  -999.2500  -999.2500
 1417.0000    10.0469   110.8882  -999.2500  -999.2500
 1417.5000    10.0859   110.9802  -999.2500  -999.2500
 1418.0000    10.1251   111.0721  -999.2500  -999.2500
 1418.5000    10.1164   111.1640  -999.2500  -999.2500
 1419.0000    10.1005   111.2559  -999.2500  -999.2500
 1419.5000    10.0845   111.3478  -999.2500  -999.2500
 1420.0000    10.0686   111.4398  -999.2500  -999.2500
 1420.5000    10.0527   111.5317  -999.2500  -999.2500
 1421.0000    10.0368   111.6236  -999.2500  -999.2500
 1421.5000    10.0210   111.7155  -999.2500  -999.2500
 1422.0000    10.0051   111.8074  -999.2500  -999.2500
 1422.5000     9.9892   111.8993  -999.2500  -999.2500
 1423.0000     9.9733   111.9925  -999.2500  -999.2500
 1423.5000     9.9575   112.0867  -999.2500  -999.2500
 1424.0000     9.9416   112.1810  -999.2500  -999.2500
