~VERSION INFORMATION
 VERS.                2.0:   CWLS LOG ASCII STANDARD - VERSION 2.0
 WRAP.                 NO:   ONE LINE PER DEPTH STEP
~WELL INFORMATION
#MNEM.UNIT      DATA TYPE    INFORMATION
#----------   ------------   ------------------------------
 STRT.F           20.0000:   START DEPTH
 STOP.F          678.0000:   STOP DEPTH
 STEP.F            0.5000:   STEP LENGTH
 NULL.          -999.2500:   NO VALUE
 COMP. FENIX & SCISSON INC:   COMPANY
 WELL. 27-42 SX 11 WO #27-11:   WELL
 FLD .        TEAPOT DOME:   FIELD
 LOC .      S11 T38N R78W:   LOCATION
 CNTY.            NATRONA:   COUNTY
 STAT.            WYOMING:   STATE
 CTRY. UNITED STATES OF AMERICA:   COUNTRY
 SRVC.      Dresser Atlas:   SERVICE COMPANY
 DATE.        13-AUG-1985:   LOGDATE
 API .       490251083800:   API NUMBER
~CURVE INFORMATION
#MNEM.UNIT       API CODE    CURVE DESCRIPTION
#----------   ------------   ------------------------------
 DEPT.F                  :   
 RHOB.G/C3   45 350 01 00:   BULK DENSITY
 CORR.G/C3   45 356 01 00:   DENSITY CORRECTION
 CALD.IN     45 280 60 00:   CALIPER
 GRD .GAPI   45 310 01 00:   GAMMA RAY FROM DENSITY LOG
 DPOR.DEC    45 890 12 00:   DENSITY POROSITY SANDSTONE
 NPOR.DEC    42 890 03 00:   NEUTRON POROSITY SANDSTONE
 SPR .MV     07 010 01 00:   SPONTANEOUS POTENTIAL
 SFL .OHMM   07 220 01 00:   SHALLOW FOCUSED LOG RESISTIVITY
 ILD .OHMM   07 120 46 00:   INDUCTION LOG DEEP
 ILM .OHMM   07 120 44 00:   INDUCTION LOG MEDIUM
~PARAMETER INFORMATION
#MNEM.UNIT          VALUE    DESCRIPTION
#----------   ------------   ------------------------------
 PD  .                 GL:   PERMANENT DATUM
 EPD .F              5188:   ELEVATION PERMANENT DATUM
 LMF .                 KB:   LOG MEASURED FROM
 DAPD.F                 5:   FEET ABOVE PERMANENT DATUM
 DMF .                 KB:   DRILLING MEASURED FROM
 EKB .F              5193:   KELLING BUSHING
 EGL .F              5188:   GROUND LEVEL
 DATE.          8-13-1985:   RUN DATE
 RUN .                  8:   RUN NUMBER
 DD  .F               632:   DEPTH DRILLER
 BLI .F               598:   BOTTOM LOG INTERVAL
 TLI .F               303:   TOP LOG INTERVAL
 CBL .F               303:   CASING BOTTOM LOGGER
 BS  .IN              .75:   BIT SIZE
 BSD .F               632:   BIT SIZE AT DEPTH
 DFT .          KCL WATER:   DRILLING FLUID TYPE
 LUN .            HL-6274:   LOGGING UNIT NUMBER
 LUL .           GILLETTE:   LOGGING UNIT LOCATION
 ENGI.             RAUTIO:   RECORDING ENGINEER
 WITN.            SCHULTE:   WITNESSED BY
 CLNT.            A2DTECH:   CLIENT CODE
 ORIG.           2" PRINT:   ORIGIN OF DATA
 UWI .       490251083800:   UNIQUE WELL ID
 DICO. A2D Technologies, Inc.:   DIGITIZING COMPANY
~OTHER INFORMATION
~A   DEPT     RHOB       CORR       CALD        GRD       DPOR       NPOR        SPR        SFL        ILD          ILM 
# ...
  522.5000     2.4798     0.0725     8.8486   100.3169     0.1319     0.2941    -3.6352    10.6201     9.3956     9.5529
  523.0000     2.4588     0.0591     8.8485    99.3436     0.1432     0.2870    -3.5423    10.6201     9.4643     9.6469
  523.5000     2.4402     0.0473     8.8489   100.6133     0.1406     0.2838    -3.4410    10.6944     9.5133     9.7418
  524.0000     2.4450     0.0543     8.8488   104.4925     0.1367     0.2784    -3.4085    10.9506     9.5129     9.8377
  524.5000     2.4529     0.0608     8.8487   102.7694     0.1343     0.2716    -3.5027    11.2128     9.5127     9.9345
  525.0000     2.4550     0.0606     8.8487   100.5162     0.1343     0.2740    -3.5858    11.6405     9.5127    10.0514
  525.5000     2.4534     0.0515     8.8487   101.6113     0.1300     0.2786    -3.6697    11.4877     9.5129    10.0514
  526.0000     2.4677     0.0425     8.8489   100.6184     0.1120     0.2746    -3.7591    11.2211     9.5131    10.0514
  526.5000     2.4852     0.0394     8.8484   100.0477     0.1160     0.2677    -3.7633    11.6918     9.5132    10.0514
  527.0000     2.4924     0.0424     8.8480   100.6617     0.1239     0.2609    -3.6750    12.2991     9.4879     9.8947
  527.5000     2.4709     0.0484     8.8294   100.1846     0.1303     0.2540    -3.5907    11.6955     9.4089     9.6767
  528.0000     2.4595     0.0539     8.8091    98.1992     0.1287     0.2571    -3.5055    11.0796     9.3307     9.4635
  528.5000     2.4635     0.0592     8.7884    96.4920     0.1311     0.2627    -3.4185    10.6201     9.2530     9.2550
  529.0000     2.4623     0.0653     8.7676    95.5567     0.1248     0.2654    -3.3850    10.4270     9.1761     9.0512
  529.5000     2.4595     0.0686     8.7473    97.7657     0.1287     0.2637    -3.4562    10.4270     9.0997     8.8518
  530.0000     2.4703     0.0720     8.7298    99.7012     0.1256     0.2613    -3.5415    10.4270     9.0240     8.6792
  530.5000     2.4686     0.0678     8.7329   100.2383     0.1274     0.2590    -3.6273    10.4270     9.0036     8.6792
  531.0000     2.4631     0.0643     8.7355    99.6076     0.1319     0.2646    -3.7128    10.4270     9.0036     8.6792
  531.5000     2.4550     0.0600     8.7390   101.7909     0.1363     0.2699    -3.7981    10.4256     9.0036     8.6792
  532.0000     2.4506     0.0586     8.7423   103.1438     0.1361     0.2727    -3.8844    10.4256     9.0036     8.7163
  532.5000     2.4537     0.0572     8.7454   102.3400     0.1327     0.2702    -3.9693    10.4464     9.0036     8.8724
  533.0000     2.4514     0.0558     8.7487   100.3276     0.1413     0.2715    -4.0551    10.4916     9.0553     9.0313
  533.5000     2.4427     0.0545     8.7520    99.2953     0.1485     0.2711    -4.1443    10.5374     9.2284     9.1703
  534.0000     2.4335     0.0530     8.7552    97.1228     0.1556     0.2659    -4.1874    10.5835     9.6568    10.0016
  534.5000     2.4208     0.0516     8.7584    95.2339     0.1631     0.2605    -4.1859    10.8572    10.5823    10.7930
  535.0000     2.4057     0.0477     8.7616    93.0905     0.1751     0.2622    -4.1821    12.1097    11.5964    11.6470
  535.5000     2.3903     0.0436     8.7648    94.0973     0.1870     0.2640    -4.1769    13.5075    12.7078    12.5685
  536.0000     2.3740     0.0392     8.7681    92.3934     0.2204     0.2661    -4.0135    15.0666    13.9256    13.5630
  536.5000     2.3156     0.0233     8.7662    91.0560     0.2365     0.2656    -3.8462    16.8057    15.2601    14.6361
  537.0000     2.2852     0.0080     8.7619    90.9964     0.2376     0.2662    -3.6731    18.4151    16.2643    15.7942
  537.5000     2.2816     0.0040     8.7578    88.7057     0.2413     0.2693    -3.5030    19.3237    16.9454    17.0439
  538.0000     2.2763     0.0189     8.7537    86.7363     0.2355     0.2682    -3.3298    20.1409    17.6550    18.2252
  538.5000     2.2935     0.0286     8.7495    84.6249     0.2273     0.2658    -3.1631    20.9387    18.3944    18.8838
  539.0000     2.3040     0.0266     8.7453    83.1001     0.2365     0.2637    -2.9960    22.0132    19.1647    19.5663
  539.5000     2.2923     0.0230     8.7412    83.6882     0.2277     0.2541    -2.9893    23.0776    19.9673    20.1843
  540.0000     2.2876     0.0206     8.7371    83.1293     0.2042     0.2456    -2.9850    24.2431    20.4202    20.7787
  540.5000     2.3382     0.0408     8.7329    81.8348     0.1647     0.2373    -2.9878    23.1672    20.7450    21.3162
  541.0000     2.3952     0.0639     8.7287    81.1103     0.1253     0.2312    -2.9872    22.1018    21.3264    21.8685
  541.5000     2.4689     0.0876     8.7371    81.3722     0.0748     0.2253    -2.9873    21.3403    21.3264    22.5565
  542.0000     2.5542     0.1118     8.7689    82.1509     0.0345     0.2140    -2.9872    25.0141    20.9519    22.5168
  542.5000     2.6080     0.1135     8.7999    82.8151     0.0607     0.1982    -2.9871    30.0908    20.1812    21.3907
  543.0000     2.5749     0.0862     8.8321    83.0337     0.0880     0.1925    -3.0026    36.0402    19.4389    20.4050
  543.5000     2.5299     0.0604     8.8640    81.8968     0.1184     0.1846    -3.0709    29.0726    18.7240    19.4652
  544.0000     2.4787     0.0346     8.8845    83.5656     0.1710     0.2017    -3.1387    19.4571    18.0353    18.5682
  544.5000     2.4049     0.0243     8.8673    82.9933     0.1883     0.2210    -3.2061    18.5698    17.3719    17.7116
  545.0000     2.3688     0.0239     8.8510    82.0571     0.1901     0.2403    -3.2762    17.4289    16.7330    16.8937
  545.5000     2.3613     0.0251     8.8337    84.0915     0.1918     0.2588    -3.3461    17.1875    16.1175    16.1130
  546.0000     2.3607     0.0266     8.8158    86.4380     0.1910     0.2683    -3.3858    16.9184    15.5247    15.3684
  546.5000     2.3631     0.0280     8.8082    88.8715     0.1894     0.2691    -3.2859    16.8009    15.0496    14.7722
  547.0000     2.3635     0.0295     8.8088    91.1425     0.1904     0.2638    -3.1828    16.8009    15.0496    14.7772
  547.5000     2.3626     0.0312     8.8087    93.8035     0.1910     0.2581    -3.0835    16.7189    15.0496    14.7590
  548.0000     2.3622     0.0300     8.8086    93.8210     0.1957     0.2612    -3.0003    16.5875    15.3282    14.7295
  548.5000     2.3499     0.0251     8.8087    94.9582     0.2015     0.2687    -3.1153    16.4955    15.2761    14.6997
  549.0000     2.3338     0.0202     8.8085    94.9883     0.2127     0.2742    -3.2211    16.4955    15.2001    14.6707
  549.5000     2.3184     0.0159     8.8114    93.2136     0.2200     0.2776    -3.3513    16.8314    15.1243    14.6417
  550.0000     2.3130     0.0128     8.8194    91.5394     0.2130     0.2804    -3.3049    17.2935    15.0490    14.6128
  550.5000     2.3348     0.0246     8.8272    91.1195     0.2008     0.2804    -3.1277    17.7441    14.9756    14.5840
  551.0000     2.3524     0.0341     8.8351    91.1138     0.1887     0.2779    -2.9650    17.1030    14.8997    14.5552
  551.5000     2.3763     0.0447     8.8430    89.9986     0.1813     0.2756    -2.8041    16.5062    14.8251    14.5265
  552.0000     2.3714     0.0482     8.8508    88.6080     0.1853     0.2800    -2.6399    15.9020    14.7201    14.4151
  552.5000     2.3652     0.0461     8.8587    87.9101     0.1853     0.2841    -2.4763    16.0425    14.5546    14.1408
  553.0000     2.3689     0.0422     8.8665    90.7074     0.1872     0.2882    -2.3104    16.2993    14.3910    13.8718
  553.5000     2.3577     0.0386     8.8744    93.9267     0.1926     0.2887    -2.1910    16.4954    14.2293    13.6078
  554.0000     2.3509     0.0349     8.8823    94.3608     0.1959     0.2862    -2.1925    16.2517    14.0694    13.3489
  554.5000     2.3545     0.0313     8.8895    94.3623     0.1930     0.2874    -2.1821    15.9719    13.9109    13.0949
  555.0000     2.3659     0.0280     8.8943    95.2638     0.1883     0.2908    -2.2681    15.6969    13.7544    12.8458
  555.5000     2.3735     0.0278     8.8992    96.3824     0.1839     0.2864    -2.4368    15.4267    13.5997    12.6014
