~VERSION INFORMATION
 VERS.                2.0:   CWLS LOG ASCII STANDARD - VERSION 2.0
 WRAP.                 NO:   ONE LINE PER DEPTH STEP
~WELL INFORMATION
#MNEM.UNIT      DATA TYPE    INFORMATION
#----------   ------------   ------------------------------
 STRT.F           35.0000:   START DEPTH
 STOP.F          601.0000:   STOP DEPTH
 STEP.F            0.5000:   STEP LENGTH
 NULL.          -999.2500:   NO VALUE
 COMP. FENIX & SCISSON INC:   COMPANY
 WELL. NPR #3 71SX #71-15:   WELL
 FLD .             TEAPOT:   FIELD
 LOC .      S15 T38N R78W:   LOCATION
 CNTY.            NATRONA:   COUNTY
 STAT.            WYOMING:   STATE
 CTRY. UNITED STATES OF AMERICA:   COUNTRY
 SRVC.              Welex:   SERVICE COMPANY
 DATE.        10-MAR-1977:   LOGDATE
 API .       490251031200:   API NUMBER
~CURVE INFORMATION
#MNEM.UNIT       API CODE    CURVE DESCRIPTION
#----------   ------------   ------------------------------
 DEPT.F                  :   
 SPR .MV     07 010 01 00:   SPONTANEOUS POTENTIAL
 SGRD.OHMM   07 220 05 00:   SHALLOW RESISTIVITY
 DRES.OHMM   07 120 46 00:   INDUCTION LOG DEEP
 MRES.OHMM   07 120 44 00:   INDUCTION LOG MEDIUM
 GRD .GAPI   45 310 01 00:   GAMMA RAY FROM DENSITY LOG
 CALD.IN     45 280 60 00:   CALIPER
 RHOB.G/C3   45 350 01 00:   BULK DENSITY
 DPHI.DEC    45 890 12 00:   DENSITY POROSITY
 CORR.G/C3   45 356 01 00:   DENSITY CORRECTION
~PARAMETER INFORMATION
#MNEM.UNIT          VALUE    DESCRIPTION
#----------   ------------   ------------------------------
 PD  .                 GL:   PERMANENT DATUM
 EPD .F              5241:   ELEVATION PERMANENT DATUM
 LMF .                 GL:   LOG MEASURED FROM
 DMF .                 GL:   DRILLING MEASURED FROM
 EGL .F              5241:   GROUND LEVEL
 DATE.            3-10-77:   RUN DATE
 RUN .                  1:   RUN NUMBER
 DD  .F               600:   DEPTH DRILLER
 DL  .F               603:   DEPTH LOGGER
 BLI .F               601:   BOTTOM LOG INTERVAL
 TLI .F                35:   TOP LOG INTERVAL
 CS  .IN            8.625:   CASING SIZE
 CBD .F                40:   CASING BOTTOM DRILLER
 CBL .F                40:   CASING BOTTOM LOGGER
 BS  .IN            7.875:   BIT SIZE
 BSD .F               600:   BIT SIZE AT DEPTH
 DFT .            KCL MUD:   DRILLING FLUID TYPE
 DFD .                8.6:   DRILLING FLUID DENSITY
 DFV .                 10:   DRILLING FLUID VISCOSITY
 DFPH.                7.2:   DRILLING FLUID PH
 DFL .                  8:   DRILLING FLUID LOSS
 MSS .            MUD PIT:   MUD SAMPLE SOURCE
 RMS .OHMM            .36:   RESISTIVITY MUD SAMPLE
 MST .F                47:   MUD SAMPLE TEMPERATURE
 RMF .OHMM            .35:   RESISTIVITY MUD FILTRATE SAMPLE
 MFST.F                47:   MUD FILTRATE SAMPLE TEMPERATURE
 RMC .OHMM            .40:   RESISTIVITY MUD CAKE
 MCST.F                47:   MUD CAKE SAMPLE TEMPERATURE
 MFSS.           FANN KIT:   MUD FILTRATE SAMPLE SOURCE
 MCSS.           FANN KIT:   MUD CAKE SAMPLE SOURCE
 RMB .OHMM            .31:   RESISTIVITY MUD AT BHT
 BHT .F                53:   BOTTOM HOLE TEMPERATURE
 TCS .HRS             1.5:   TIME CURCULATED STOPPED
 MRT .F                53:   MAXIMUM RECORDED TEMPERATURE
 LUN .               8611:   LOGGING UNIT NUMBER
 LUL .           GILLETTE:   LOGGING UNIT LOCATION
 ENGI.               DOAK:   RECORDING ENGINEER
 WITN.         STUEBINGER:   WITNESSED BY
 CLNT.            A2DTECH:   CLIENT CODE
 ORIG.       2", 5" PRINT:   ORIGIN OF DATA
 UWI .       490251031200:   UNIQUE WELL ID
 DICO. A2D Technologies, Inc.:   DIGITIZING COMPANY
~OTHER INFORMATION
~A   DEPT      SPR       SGRD       DRES       MRES         GRD      CALD       RHOB       DPHI       CORR   
# ...
  546.0000   -31.8707    17.2571    11.7232    13.3841    98.1316     7.8663     2.4681     0.1094     0.0431
  546.5000   -31.8420    17.2479    11.7489    13.4435    97.2577     7.8663     2.4781     0.1032     0.0428
  547.0000   -31.8637    17.2581    11.7746    13.2433    98.0031     7.8663     2.4795     0.0997     0.0453
  547.5000   -31.9000    16.5385    11.8126    13.1625    97.7916     7.8663     2.4799     0.0994     0.0476
  548.0000   -31.9368    16.0246    11.7303    13.0760    96.2515     7.8663     2.4803     0.0992     0.0500
  548.5000   -31.9736    15.6488    11.5758    13.0992    94.7421     7.8663     2.4846     0.0969     0.0524
  549.0000   -32.0102    16.1970    11.4233    13.1242    93.2297     7.8663     2.4961     0.0896     0.0547
  549.5000   -32.0469    16.9279    11.2729    13.1494    91.4188     7.8663     2.5096     0.0822     0.0571
  550.0000   -32.0836    16.6345    11.1244    13.1746    92.3649     7.8663     2.5093     0.0789     0.0576
  550.5000   -32.1202    16.1748    10.9778    13.1975    93.6838     7.8663     2.4921     0.0894     0.0560
  551.0000   -32.1570    16.2016    10.8333    13.0991    93.7324     7.8663     2.4786     0.1001     0.0489
  551.5000   -32.1938    16.2566    10.6906    12.9894    93.9629     7.8663     2.4646     0.1102     0.0420
  552.0000   -32.2284    16.3140    10.5498    12.8807    97.3016     7.8663     2.4605     0.1098     0.0353
  552.5000   -32.3443    15.9905    10.4108    12.7730   100.6018     7.8663     2.4653     0.1080     0.0306
  553.0000   -32.5082    15.6167    10.2737    12.6661   103.8471     7.8663     2.4730     0.1044     0.0335
  553.5000   -32.6728    15.2517    10.1383    12.5602   106.5356     7.8663     2.4803     0.0982     0.0361
  554.0000   -32.8376    14.8953    10.0048    12.4551   106.4587     7.8663     2.4793     0.0985     0.0380
  554.5000   -33.0023    14.5471     9.8730    12.3509   105.7710     7.8663     2.4781     0.1000     0.0363
  555.0000   -33.1670    14.1234     9.7430    12.2476   105.6579     7.8663     2.4768     0.1016     0.0345
  555.5000   -33.3317    14.2368     9.6147    12.1452   105.7522     7.8663     2.4818     0.1005     0.0385
  556.0000   -33.4963    14.3021     9.4880    12.0438   107.0603     7.8663     2.4913     0.0946     0.0440
  556.5000   -33.6610    14.3678     9.3631    11.9432   108.5629     7.8663     2.4928     0.0922     0.0444
  557.0000   -33.8257    14.4338     9.2397    11.8309   110.0489     7.8663     2.4867     0.0962     0.0411
  557.5000   -33.9905    14.4747     9.1180    11.7161   111.2323     7.8663     2.4770     0.1025     0.0367
  558.0000   -34.1553    14.2070     8.9979    11.6027   110.2075     7.8663     2.4561     0.1143     0.0323
  558.5000   -34.3191    13.9843     8.8794    11.4905   109.2206     7.8663     2.4444     0.1199     0.0283
  559.0000   -34.4335    13.7650     8.7625    11.3794   109.3671     7.8663     2.4412     0.1209     0.0282
  559.5000   -34.4311    13.5493     8.6471    11.2693   110.5077     7.8663     2.4488     0.1173     0.0282
  560.0000   -34.4311    13.3369     8.5474    11.1756   111.4257     7.8663     2.4575     0.1136     0.0298
  560.5000   -34.4311    13.1974     8.5350    11.1756   110.5537     7.8663     2.4653     0.1099     0.0322
  561.0000   -34.4313    13.2918     8.5226    11.1758   109.6534     7.8663     2.4680     0.1062     0.0347
  561.5000   -34.4316    13.3642     8.5102    11.1757   108.7587     7.8663     2.4744     0.1020     0.0372
  562.0000   -34.4874    13.4368     8.4978    11.1755   107.8217     7.8662     2.4832     0.0978     0.0397
  562.5000   -34.6085    13.5095     8.4854    11.1760   107.8200     7.8656     2.4903     0.0936     0.0421
  563.0000   -34.7292    13.5824     8.4731    11.1756   108.2496     7.8649     2.4974     0.0894     0.0446
  563.5000   -34.8503    13.6942     8.4608    11.1756   108.7193     7.8643     2.5046     0.0852     0.0471
  564.0000   -34.9713    13.5624     8.4485    10.8798   109.1858     7.8636     2.5117     0.0810     0.0495
  564.5000   -35.0923    13.2917     8.4362    10.6652   109.6136     7.8630     2.5188     0.0762     0.0544
  565.0000   -35.2133    13.0265     8.4240    10.4548   111.0439     7.8623     2.5260     0.0713     0.0606
  565.5000   -35.3341    12.7671     8.4117    10.2486   112.6520     7.8617     2.5325     0.0681     0.0635
  566.0000   -35.4549    12.3724     8.3995    10.0909   113.0673     7.8610     2.5300     0.0688     0.0653
  566.5000   -35.5771    12.3862     8.3124    10.0713   112.8061     7.8604     2.5354     0.0677     0.0671
  567.0000   -35.6865    12.4174     8.1327    10.0517   113.1490     7.8597     2.5326     0.0695     0.0689
  567.5000   -35.8533    12.4495     7.9569    10.0321   111.9298     7.8591     2.5298     0.0694     0.0707
  568.0000   -36.0181    12.4843     7.7849    10.0125   110.7513     7.8584     2.5329     0.0676     0.0725
  568.5000   -36.1826    12.2689     7.6167     9.9930   110.3774     7.8578     2.5337     0.0687     0.0742
  569.0000   -36.3473    12.0030     7.4520     9.9737   111.9741     7.8571     2.5221     0.0745     0.0719
  569.5000   -36.5120    11.7437     7.2909     9.9546   113.3357     7.8565     2.5106     0.0805     0.0694
  570.0000   -36.6768    11.3853     7.1333     9.9348   113.5451     7.8558     2.4989     0.0856     0.0670
  570.5000   -36.8413    11.5005     6.9791     9.9209   113.8321     7.8552     2.4903     0.0909     0.0645
  571.0000   -37.0056    11.7017     6.8283     9.6727   116.4229     7.8545     2.4817     0.0966     0.0620
  571.5000   -37.1762    11.9077     6.6807     9.3718   119.4528     7.8539     2.4730     0.1032     0.0595
  572.0000   -37.1494    12.1174     6.5363     9.0802   117.4997     7.8532     2.4641     0.1097     0.0571
  572.5000   -36.9896    12.2572     6.3950     8.7978   113.5790     7.8526     2.4531     0.1162     0.0509
  573.0000   -36.8283     9.0511     6.3032     8.5243   113.3804     7.8519     2.4363     0.1250     0.0427
  573.5000   -36.6667     7.2214     6.3013     8.2373   111.2056     7.8513     2.4437     0.1206     0.0396
  574.0000   -36.5054     6.4202     6.5515     8.4689   107.9507     7.8506     2.4595     0.1135     0.0385
  574.5000   -36.3441    11.9877     6.7393     8.7989   106.0680     7.8500     2.4694     0.1066     0.0374
  575.0000   -36.1826    12.3524     6.9472     9.1413   106.5105     7.8493     2.4772     0.0996     0.0364
  575.5000   -36.0212    12.7780     7.3000     9.4971   106.9999     7.8487     2.4798     0.0988     0.0353
  576.0000   -35.8605    13.2039     7.6708     9.8668   104.9833     7.8480     2.4753     0.1022     0.0343
  576.5000   -35.6987    13.6304     8.0604    10.2508   103.6710     7.8474     2.4723     0.1044     0.0363
  577.0000   -35.6745    13.9718     8.4697    10.6498   108.7483     7.8467     2.4785     0.1007     0.0385
  577.5000   -35.7515    14.0466     8.8998    11.0643   110.4953     7.8461     2.4845     0.0971     0.0406
  578.0000   -35.8293    14.1218     9.3518    11.4950   110.7133     7.8454     2.4906     0.0934     0.0428
  578.5000   -35.9077    14.1976     9.8267    11.9222   109.0861     7.8448     2.4966     0.0897     0.0450
  579.0000   -35.9860    14.2744    10.0029    11.9337   107.4324     7.8441     2.5027     0.0860     0.0471
  579.5000   -36.0643    14.3516     9.9460    11.9474   108.3040     7.8435     2.5087     0.0824     0.0493
  580.0000   -36.1426    14.4291     9.8568    11.9611   109.4052     7.8428     2.5148     0.0789     0.0514
  580.5000   -36.2208    14.4747     9.7683    11.9748   110.5900     7.8422     2.5098     0.0801     0.0536
  581.0000   -36.2991    14.4274     9.6807    11.9885   111.0417     7.8415     2.5134     0.0795     0.0557
  581.5000   -36.3773    14.3886     9.5938    12.0022    90.9570     7.8409     2.5172     0.0772     0.0579
  582.0000   -36.4556    14.3498     9.5077    12.0159    50.0000     7.8402     2.5189     0.0753     0.0576
