~VERSION INFORMATION
 VERS.                2.0:   CWLS LOG ASCII STANDARD - VERSION 2.0
 WRAP.                 NO:   ONE LINE PER DEPTH STEP
~WELL INFORMATION
#MNEM.UNIT      DATA TYPE    INFORMATION
#----------   ------------   ------------------------------
 STRT.F            8.0000:   START DEPTH
 STOP.F          916.0000:   STOP DEPTH
 STEP.F            0.5000:   STEP LENGTH
 NULL.          -999.2500:   NO VALUE
 COMP. LAWRENCE/ALLISON INC:   COMPANY
 WELL.    41-66 SX #11-11:   WELL
 FLD .             NPR #3:   FIELD
 LOC .      S11 T38N R78W:   LOCATION
 CNTY.            NATRONA:   COUNTY
 STAT.            WYOMING:   STATE
 CTRY. UNITED STATES OF AMERICA:   COUNTRY
 SRVC.           Gearhart:   SERVICE COMPANY
 DATE.        13-MAY-1987:   LOGDATE
 API .       490251112600:   API NUMBER
~CURVE INFORMATION
#MNEM.UNIT       API CODE    CURVE DESCRIPTION
#----------   ------------   ------------------------------
 DEPT.F                  :   
 GRR .GAPI   07 310 01 00:   GAMMA RAY FROM RES. LOG.
 RILM.OHMM   07 120 44 00:   INDUCTION LOG MEDIUM RESISTIVITY
 RILD.OHMM   07 120 46 00:   INDUCTION LOG DEEP RESISTIVITY
~PARAMETER INFORMATION
#MNEM.UNIT          VALUE    DESCRIPTION
#----------   ------------   ------------------------------
 PD  .                 GL:   PERMANENT DATUM
 EPD .F              5166:   ELEVATION PERMANENT DATUM
 LMF .                 KB:   LOG MEASURED FROM
 DAPD.F                 8:   FEET ABOVE PERMANENT DATUM
 DMF .                 KB:   DRILLING MEASURED FROM
 EKB .F              5174:   KELLING BUSHING
 EDF .F              5174:   DRILLING FLOOR
 EGL .F              5166:   GROUND LEVEL
 DATE.            5-13-87:   RUN DATE
 RUN .                  1:   RUN NUMBER
 DD  .F               945:   DEPTH DRILLER
 DL  .F               930:   DEPTH LOGGER
 BLI .F               921:   BOTTOM LOG INTERVAL
 TLI .F                49:   TOP LOG INTERVAL
 CS  .IN            8.625:   CASING SIZE
 CBD .F                47:   CASING BOTTOM DRILLER
 CBL .F                49:   CASING BOTTOM LOGGER
 BS  .IN            7.875:   BIT SIZE
 BSD .F               945:   BIT SIZE AT DEPTH
 DFT .           AIR FOAM:   DRILLING FLUID TYPE
 TCS .HRS            2230:   TIME CURCULATED STOPPED
 TLAB.HRS            1105:   TIME LOGGER AT BOTTOM
 MRT .F                80:   MAXIMUM RECORDED TEMPERATURE
 LUN .               7597:   LOGGING UNIT NUMBER
 LUL .                GLT:   LOGGING UNIT LOCATION
 ENGI.            WANGLER:   RECORDING ENGINEER
 WITN.             STRONG:   WITNESSED BY
 CLNT.            A2DTECH:   CLIENT CODE
 ORIG.       2", 5" PRINT:   ORIGIN OF DATA
 UWI .       490251112600:   UNIQUE WELL ID
 DICO. A2D Technologies, Inc.:   DIGITIZING COMPANY
~OTHER INFORMATION
~A    DEPT      GRR      RILM       RILD   
# ...
  190.0000   101.6013     2.5968     2.6172
  190.5000   103.5452     2.3224     2.5926
  191.0000   105.5846     2.2238     2.5926
  191.5000   106.9570     2.2083     2.6172
  192.0000   105.3490     2.2083     2.7256
  192.5000   101.6264     2.6025     2.8762
  193.0000    98.0277     2.9456     3.1563
  193.5000    96.9757     3.3340     3.4981
  194.0000    99.1461     3.7390     3.8769
  194.5000    99.9215     4.0518     4.2967
  195.0000    99.7406     4.3581     4.5732
  195.5000    99.4374     4.4504     4.7460
  196.0000    99.2943     4.5242     4.7228
  196.5000    99.9929     4.5907     4.7037
  197.0000    99.5278     4.6208     4.6855
  197.5000    97.1591     4.6541     4.6674
  198.0000    94.7038     4.6343     4.6493
  198.5000    94.2409     4.5966     4.6314
  199.0000    96.7221     4.5592     4.6135
  199.5000   100.2479     4.5242     4.4800
  200.0000   103.8215     4.3683     4.3273
  200.5000   107.1100     4.1971     4.1798
  201.0000   107.1990     4.0092     4.0374
  201.5000   106.8828     3.8244     3.8905
  202.0000   105.1012     3.6469     3.7135
  202.5000   103.2584     3.4778     3.5444
  203.0000   101.4292     3.3164     3.3829
  203.5000    99.5905     3.1627     3.2203
  204.0000    98.7957     3.0160     3.2206
  204.5000    99.0207     2.9588     3.2791
  205.0000    99.6507     2.9588     3.3573
  205.5000    99.7635     3.0152     3.4566
  206.0000    99.1061     3.2530     3.5590
  206.5000    97.6586     3.5266     3.7236
  207.0000    95.6013     3.8233     3.9209
  207.5000    96.2189     4.1449     4.2816
  208.0000    97.6771     4.4396     4.6754
  208.5000    97.9797     4.8665     5.0021
  209.0000    96.4354     5.0791     5.1038
  209.5000    94.4239     5.1675     5.2076
  210.0000    93.0848     5.2578     5.3137
  210.5000    94.3923     5.3642     5.3139
  211.0000    96.7676     5.3668     4.9722
  211.5000    99.1414     5.0111     4.5694
  212.0000   101.5247     4.6614     4.2276
  212.5000   103.9659     4.2867     3.9118
  213.0000   105.0031     3.9421     3.7080
  213.5000   106.1620     3.6252     3.5455
  214.0000   110.9688     3.3338     3.3767
  214.5000   115.8489     3.0726     3.3553
  215.0000   114.2888     3.0437     3.3319
  215.5000   110.7591     3.1418     3.2516
  216.0000   106.7127     3.2684     3.4498
  216.5000   100.9832     3.4502     3.6569
  217.0000    95.2102     3.6408     3.8763
  217.5000    90.1687     3.8420     4.1090
  218.0000    90.8822     4.0542     4.3566
  218.5000    94.2477     4.2782     4.4748
  219.0000    97.7013     4.4119     4.5968
  219.5000   100.9289     4.5296     4.7220
  220.0000   103.2656     4.6205     4.8331
  220.5000   104.8885     4.6541     4.7850
  221.0000   104.8623     4.6304     4.7344
  221.5000   103.1839     4.5907     4.6843
  222.0000   100.8580     4.5512     4.6348
  222.5000   100.3622     4.5022     4.5671
  223.0000   101.7088     4.3166     4.3975
  223.5000   105.3169     4.1386     4.2209
  224.0000   107.3915     3.9681     4.0513
  224.5000   104.2741     3.8045     3.8886
  225.0000   101.1761     3.6476     3.7324
  225.5000   100.0047     3.4973     3.5734
  226.0000   101.0343     3.3494     3.4886
  226.5000   102.5067     3.2516     3.4015
  227.0000   102.5639     3.2516     3.3161
  227.5000   101.0493     3.3355     3.2330
  228.0000    97.3717     3.4433     3.1576
  228.5000    93.7307     3.3903     3.1288
  229.0000    91.2875     3.2992     3.1002
  229.5000    92.7430     3.2107     3.0726
  230.0000    94.1016     3.0796     2.9154
  230.5000    95.0876     2.9041     2.7695
  231.0000    95.7975     2.7096     2.6310
  231.5000    96.5023     2.4966     2.5202
  232.0000    96.4801     2.3623     2.5196
  232.5000    96.9341     2.3150     2.5827
  233.0000    98.2600     2.3370     2.6614
  233.5000    99.8113     2.4499     2.8424
  234.0000   101.3817     2.6640     3.0338
  234.5000   101.3025     2.9529     3.2381
  235.0000    98.1918     3.2734     3.5237
  235.5000    95.0892     3.6285     3.8541
  236.0000    91.9721     4.0223     4.2154
  236.5000    90.6125     4.4396     4.4925
  237.0000    92.0734     4.5160     4.5671
  237.5000    94.0479     4.6104     4.5671
  238.0000    98.9406     4.6104     4.5311
  238.5000   102.4202     4.5142     4.4476
  239.0000   105.2816     4.4232     4.3565
  239.5000   106.9841     4.3180     4.0582
  240.0000   107.3290     4.0507     3.7228
  240.5000   107.2127     3.7998     3.4157
  241.0000   106.9227     3.5695     3.1334
  241.5000   106.6614     3.2883     2.8764
  242.0000   106.0959     3.0293     2.7271
  242.5000   106.8672     2.7906     2.6175
  243.0000   110.6631     2.5708     2.6921
  243.5000   115.4689     2.3370     2.7587
  244.0000   120.2333     2.3770     2.8224
  244.5000   120.8187     2.5208     2.9868
  245.0000   112.9241     2.7650     3.1362
  245.5000   105.8349     3.1302     3.3135
  246.0000   100.4005     3.5449     3.6064
  246.5000    98.7491     4.0146     4.0179
  247.0000    98.9974     4.5491     4.4764
  247.5000    99.9801     4.7127     4.9423
  248.0000   100.2034     4.8668     5.0930
  248.5000    99.6322     5.0236     5.2482
  249.0000    99.0556     5.1862     5.4081
  249.5000    98.4727     5.3540     5.5729
  250.0000    97.9774     5.5272     5.7427
  250.5000    99.4490     5.7061     5.9177
  251.0000   100.8302     5.8908     6.0981
  251.5000   100.0494     6.0543     6.2839
  252.0000    99.6009     6.1804     6.4530
  252.5000   100.1471     6.3092     6.6129
  253.0000   101.3670     6.4415     6.7246
  253.5000   101.5041     6.5734     6.7229
  254.0000   101.3506     6.7102     6.7080
  254.5000   101.5294     6.7882     6.6935
  255.0000   103.0554     6.7550     6.6790
  255.5000   103.6487     6.7317     6.6647
  256.0000   103.2527     6.7085     6.6504
  256.5000   102.0950     6.6853     6.6361
  257.0000   103.2006     6.6623     6.6218
  257.5000   105.6343     6.6393     6.6075
  258.0000   104.7860     6.6164     6.5933
  258.5000   102.9174     6.5935     6.5792
  259.0000   103.2272     6.5708     6.5650
  259.5000   106.0677     6.5481     6.5509
  260.0000   106.1412     6.5255     6.5368
  260.5000   103.7110     6.5030     6.5227
  261.0000   101.5240     6.4805     6.5087
  261.5000   103.3270     6.4581     6.4947
  262.0000   105.6459     6.4355     6.4755
  262.5000   105.6952     6.4149     6.5463
  263.0000   105.8265     6.4695     6.6608
  263.5000   108.4556     6.4923     6.7773
  264.0000   107.7630     6.6366     6.8959
  264.5000   104.3611     6.7836     7.0166
  265.0000   100.7994     6.9339     7.1394
  265.5000    98.3554     7.0875     7.2643
  266.0000    96.3203     7.2445     7.3914
  266.5000    96.3036     7.4050     7.5207
  267.0000    97.0243     7.5690     7.6024
  267.5000    96.7567     7.6024     7.5579
  268.0000    94.2546     7.4823     7.5258
  268.5000    91.8330     7.3675     7.4938
  269.0000    89.8223     7.2544     7.4602
  269.5000    92.0176     7.1431     7.3572
  270.0000    94.5186     7.0335     7.2520
  270.5000    95.9313     6.9255     6.3537
  271.0000    95.9320     6.8192     5.4765
  271.5000    96.7143     6.5249     4.7205
  272.0000    99.4336     5.9305     4.0688
  272.5000   101.9263     4.9096     3.5071
  273.0000   103.1944     4.0645     3.0437
  273.5000   105.6336     3.3648     2.7581
  274.0000   108.9056     2.7643     2.5114
  274.5000   118.3786     2.1265     2.3572
  275.0000   125.6328     2.0672     2.3579
  275.5000   130.7453     1.9684     2.3591
  276.0000   132.6311     1.9534     2.5303
  276.5000   129.3317     2.1677     2.7188
  277.0000   121.3370     2.4614     2.9310
  277.5000   111.0874     3.0833     3.5331
  278.0000   100.5255     3.8640     4.2978
  278.5000    90.3977     4.7863     5.2279
  279.0000    86.6659     5.7585     6.3593
  279.5000    85.5904     6.8483     7.7440
  280.0000    84.8482     8.1455     8.9909
  280.5000    84.1204     9.6884     9.6581
