~VERSION INFORMATION
 VERS.                2.0:   CWLS LOG ASCII STANDARD - VERSION 2.0
 WRAP.                 NO:   ONE LINE PER DEPTH STEP
~WELL INFORMATION
#MNEM.UNIT      DATA TYPE    INFORMATION
#----------   ------------   ------------------------------
 STRT.F           61.0000:   START DEPTH
 STOP.F          527.0000:   STOP DEPTH
 STEP.F            0.5000:   STEP LENGTH
 NULL.          -999.2500:   NO VALUE
 COMP.       F D SERV INC:   COMPANY
 WELL.  82-5 SX 10 #82-10:   WELL
 FLD .             TEAPOT:   FIELD
 LOC .      S10 T38N R78W:   LOCATION
 CNTY.            NATRONA:   COUNTY
 STAT.            WYOMING:   STATE
 CTRY. UNITED STATES OF AMERICA:   COUNTRY
 SRVC.     Atlas Wireline:   SERVICE COMPANY
 DATE.        08-FEB-1993:   LOGDATE
 API .       490252258800:   API NUMBER
~CURVE INFORMATION
#MNEM.UNIT       API CODE    CURVE DESCRIPTION
#----------   ------------   ------------------------------
 DEPT.F                  :   
 C13 .IN     45 280 13 00:   CALIPER
 GRD .GAPI   45 310 01 00:   GAMMA RAY FROM DENSITY LOG
 NPHI.DEC    42 890 03 00:   NEUTRON POROSITY SANDSTONE
 PORZ.DEC    45 890 12 00:   DENSITY POROSITY SANDSTONE
 ZCOR.G/C3   45 356 01 00:   DENSITY CORRECTION
 ZDEN.G/C3   45 350 01 00:   BULK DENSITY
 RILD.OHMM   07 120 46 00:   INDUCTION LOG DEEP RESISTIVITY
 RILM.OHMM   07 120 44 00:   RESITIVITY LONG MEDIUM
~PARAMETER INFORMATION
#MNEM.UNIT          VALUE    DESCRIPTION
#----------   ------------   ------------------------------
 PD  .                 GL:   PERMANENT DATUM
 EPD .F              5166:   ELEVATION PERMANENT DATUM
 LMF .                 KB:   LOG MEASURED FROM
 DAPD.F                10:   FEET ABOVE PERMANENT DATUM
 DMF .                 KB:   DRILLING MEASURED FROM
 EKB .F              5176:   KELLING BUSHING
 EDF .F              5175:   DRILLING FLOOR
 EGL .F              5166:   GROUND LEVEL
 DATE.        08-FEB-1993:   RUN DATE
 RUN .                  1:   RUN NUMBER
 DD  .F               530:   DEPTH DRILLER
 DL  .F               532:   DEPTH LOGGER
 BLI .F               529:   BOTTOM LOG INTERVAL
 TLI .F                96:   TOP LOG INTERVAL
 CS  .IN            8.625:   CASING SIZE
 CBD .F                90:   CASING BOTTOM DRILLER
 CBL .F                96:   CASING BOTTOM LOGGER
 BS  .IN            7.875:   BIT SIZE
 BSD .F               530:   BIT SIZE AT DEPTH
 DFT .                AIR:   DRILLING FLUID TYPE
 MRT .F                60:   MAXIMUM RECORDED TEMPERATURE
 LUN .            HL 6274:   LOGGING UNIT NUMBER
 LUL .             CASPER:   LOGGING UNIT LOCATION
 ENGI.          V. RAUTIO:   RECORDING ENGINEER
 WITN.          G. STRONG:   WITNESSED BY
 CLNT.            A2DTECH:   CLIENT CODE
 ORIG.           5" PRINT:   ORIGIN OF DATA
 UWI .       490252258800:   UNIQUE WELL ID
 DICO. A2D Technologies, Inc.:   DIGITIZING COMPANY
~OTHER INFORMATION
~A   DEPT      C13        GRD       NPHI       PORZ       ZCOR       ZDEN       RILD       RILM   
# ...
  304.0000     8.1044   163.2288     0.3081     0.0856     0.0005     2.5076     8.5120     8.5714
  304.5000     8.0902   169.6074     0.3099     0.0853     0.0020     2.5091     8.5733     8.5736
  305.0000     8.1053   170.7533     0.3126     0.0841     0.0036     2.5113     8.6346     8.6349
  305.5000     8.1053   170.4486     0.3138     0.0829     0.0066     2.5128     8.7573     8.8180
  306.0000     8.1053   169.5342     0.3120     0.0820     0.0067     2.5144     9.0052     9.1307
  306.5000     8.0902   166.2254     0.3087     0.0805     0.0023     2.5189     9.0696     9.3244
  307.0000     8.0902   167.1262     0.3027     0.0777    -0.0022     2.5294     8.9997     9.2618
  307.5000     8.0902   167.7259     0.2966     0.0726    -0.0005     2.5324     8.3495     9.0730
  308.0000     8.1053   168.3255     0.2948     0.0720     0.0010     2.5309     7.5266     8.6455
  308.5000     8.0902   167.1171     0.2936     0.0723     0.0040     2.5272     7.0240     7.6164
  309.0000     8.0902   167.1143     0.2951     0.0736     0.0041     2.5204     6.6423     6.6008
  309.5000     8.0902   171.3733     0.2981     0.0768    -0.0018     2.4964     6.3774     6.0333
  310.0000     8.0902   183.9755     0.3222     0.0889    -0.0108     2.4479     6.3343     5.8287
  310.5000     8.0902   187.8884     0.3553     0.1355    -0.0138     2.3793     6.3358     5.7499
  311.0000     8.0902   186.7412     0.3637     0.1635     0.0283     2.3613     6.3371     6.3814
  311.5000     8.0902   176.7375     0.3487     0.1758     0.0448     2.3928     6.3386     7.1311
  312.0000     8.0902   168.3010     0.3171     0.1433     0.0493     2.4769     6.4730     7.8592
  312.5000     8.0902   165.2861     0.2909     0.1072     0.0195     2.5167     7.2335     8.5424
  313.0000     8.0902   164.6802     0.2825     0.0877     0.0075     2.5295     8.1962     9.4805
  313.5000     8.0902   164.6774     0.2798     0.0735     0.0016     2.5385     9.4170    10.0230
  314.0000     8.0902   164.9758     0.2804     0.0669     0.0018     2.5415    10.3785    10.5232
  314.5000     8.0902   165.8767     0.2828     0.0657     0.0092     2.5370    10.6723    10.6722
  315.0000     8.0902   167.0787     0.2858     0.0669     0.0108     2.5309    10.6744    10.6011
  315.5000     8.0752   168.5812     0.2888     0.0712     0.0019     2.5303    10.6770    10.4572
  316.0000     8.0902   168.5777     0.2915     0.0732     0.0034     2.5378    10.8282    10.2441
  316.5000     8.0902   166.4665     0.2942     0.0714     0.0080     2.5430    11.0578    10.6815
  317.0000     8.0902   167.6685     0.2966     0.0666     0.0110     2.5423    11.3709    11.3711
  317.5000     8.1053   169.4729     0.3003     0.0651     0.0141     2.5371    12.1899    12.0217
  318.0000     8.0902   168.5658     0.3029     0.0678     0.0111     2.5295    13.0672    12.9766
  318.5000     8.0902   158.6233     0.3004     0.0735    -0.0023     2.5055    14.7039    15.2227
  319.0000     8.0902   146.5723     0.2912     0.0880    -0.0142     2.4770    17.3681    17.2486
  319.5000     8.0902   135.7254     0.2674     0.1075    -0.0126     2.4470    19.6805    19.2750
  320.0000     8.0902   126.9877     0.2580     0.1238     0.0024     2.4221    22.1456    21.8402
  320.5000     8.0902   116.7439     0.2454     0.1405     0.0339     2.4012    24.2381    24.4072
  321.0000     8.0902   108.6079     0.2460     0.1520     0.0280     2.3990    26.1632    25.8037
  321.5000     8.0919   111.6171     0.2508     0.1520     0.0175     2.3997    28.3186    26.9046
  322.0000     8.0947   119.7469     0.2547     0.1520     0.0099     2.3990    30.2753    29.2434
  322.5000     8.0974   122.7561     0.2538     0.1541     0.0057     2.3960    30.2812    30.7033
  323.0000     8.1001   121.2466     0.2493     0.1571    -0.0017     2.3727    29.8701    29.2564
  323.5000     8.1029   119.1354     0.2413     0.1776    -0.0032     2.3352    30.0840    29.0586
  324.0000     8.1053   120.0683     0.2382     0.2122     0.0164     2.2947    30.5113    30.2998
  324.5000     8.0902   126.9604     0.2388     0.2248     0.0299     2.2789    30.7295    30.5165
  325.0000     8.0902   129.0660     0.2472     0.2245     0.0329     2.2804    30.5217    29.4829
  325.5000     8.0902   129.0713     0.2574     0.2261     0.0330     2.2774    30.5456    30.7423
  326.0000     8.0902   126.3489     0.2610     0.2293     0.0346     2.2722    30.7490    32.0522
  326.5000     8.0902   124.8401     0.2655     0.2338     0.0346     2.2683    30.7551    31.1721
  327.0000     8.1053   123.6325     0.2697     0.2393     0.0272     2.2594    30.5471    30.1289
  327.5000     8.1053   122.1229     0.2700     0.2489     0.0078     2.2504    30.3436    29.1085
  328.0000     8.1049   121.2165     0.2664     0.2525     0.0123     2.2369    30.3510    28.5151
  328.5000     8.0902   120.9125     0.2531     0.2492     0.0229     2.2422    30.5681    28.5207
  329.0000     8.1053   122.5604     0.2472     0.2206     0.0334     2.2730    30.7867    28.9259
  329.5000     8.0902   127.2315     0.2469     0.1911     0.0305     2.3300    30.7928    29.3354
  330.0000     8.0902   129.9396     0.2508     0.1803     0.0122     2.3526    30.8003    29.9575
  330.5000     8.1053   130.8524     0.2526     0.1959     0.0007     2.3413    30.8063    30.3816
  331.0000     8.1053   131.1388     0.2483     0.2299    -0.0068     2.2925    31.0267    31.0275
  331.5000     8.0902   129.6293     0.2438     0.2374     0.0042     2.2709    32.1269    31.6855
  332.0000     8.0902   128.7229     0.2417     0.2298     0.0278     2.2580    34.4408    33.0373
  332.5000     8.1053   130.8278     0.2420     0.2155     0.0144     2.2828    35.1707    34.9276
  333.0000     8.0902   132.0305     0.2411     0.2128     0.0099     2.2993    35.9316    36.4195
  333.5000     8.1053   131.4246     0.2396     0.2179     0.0010     2.2910    36.9352    36.9350
  334.0000     8.1053   129.6139     0.2387     0.2380    -0.0004     2.2730    37.7186    37.4579
  334.5000     8.1053   126.5990     0.2351     0.2528     0.0011     2.2400    37.9883    37.4652
  335.0000     8.1053   124.4878     0.2315     0.2600     0.0102     2.2182    38.5261    36.7015
  335.5000     8.1053   124.1837     0.2351     0.2543     0.0417     2.2355    38.5355    36.4552
  336.0000     8.1053   123.5779     0.2417     0.2302     0.0343     2.2595    38.5431    35.4655
  336.5000     8.1053   123.8770     0.2424     0.2284     0.0104     2.2753    37.7555    34.2660
  337.0000     8.1203   124.1907     0.2363     0.2253     0.0134     2.2791    36.7306    32.6080
  337.5000     8.1053   127.1833     0.2330     0.2191     0.0180     2.2904    35.2448    31.1113
  338.0000     8.1053   129.5901     0.2305     0.1929     0.0270     2.3147    33.8160    30.9010
  338.5000     8.1053   128.9849     0.2299     0.1724     0.0286     2.3647    33.3554    30.2726
  339.0000     8.0902   128.6802     0.2323     0.1671     0.0181     2.3752    33.1331    30.2786
  339.5000     8.1053   129.5810     0.2344     0.1743     0.0107     2.3662    33.6038    30.9222
  340.0000     8.1053   131.0842     0.2369     0.1833     0.0078     2.3520    34.0795    32.0187
  340.5000     8.1053   133.1899     0.2329     0.1920     0.0168     2.3354    34.5620    33.8507
  341.0000     8.1203   131.3792     0.2218     0.1905     0.0350     2.3346    34.0929    34.3299
  341.5000     8.1203   128.9667     0.1968     0.1734     0.0529     2.3595    32.7123    33.1688
  342.0000     8.1203   125.6225     0.1794     0.1153     0.0440     2.4226    30.9541    30.9540
  342.5000     8.1203   125.0455     0.1821     0.1084     0.0320     2.4593    29.9057    28.6876
  343.0000     8.1053   126.8492     0.1965     0.1141     0.0381     2.4721    29.0938    26.9583
  343.5000     8.1053   129.5734     0.2146     0.1263     0.0471     2.4413    28.1098    25.5106
  344.0000     8.0902   134.3730     0.2371     0.1358     0.0487     2.4308    27.1578    24.1394
