~VERSION INFORMATION
 VERS.                2.0:   CWLS LOG ASCII STANDARD - VERSION 2.0
 WRAP.                 NO:   ONE LINE PER DEPTH STEP
~WELL INFORMATION
#MNEM.UNIT      DATA TYPE    INFORMATION
#----------   ------------   ------------------------------
 STRT.F         1400.0000:   START DEPTH
 STOP.F         3422.0000:   STOP DEPTH
 STEP.F            0.5000:   STEP LENGTH
 NULL.          -999.2500:   NO VALUE
 COMP. LAWRENCE/ALLISON INC:   COMPANY
 WELL.   NPR 3 #36-STX-23:   WELL
 FLD .             TEAPOT:   FIELD
 LOC .      S23 T38N R78W:   LOCATION
 CNTY.            NATRONA:   COUNTY
 STAT.            WYOMING:   STATE
 CTRY. UNITED STATES OF AMERICA:   COUNTRY
 SRVC.            Unknown:   SERVICE COMPANY
 DATE.        04-JAN-1985:   LOGDATE
 API .       490251137700:   API NUMBER
~CURVE INFORMATION
#MNEM.UNIT       API CODE    CURVE DESCRIPTION
#----------   ------------   ------------------------------
 DEPT.F                  :   
 ROP .MIN/FT 91 810 01 00:   RAT OF DRILLING PENETRATION
 TGAS.UNITS  91 830 01 00:   TOTAL GAS UNIT
~PARAMETER INFORMATION
#MNEM.UNIT          VALUE    DESCRIPTION
#----------   ------------   ------------------------------
 DATE.           1-4-1985:   RUN DATE
 RUN .                  1:   RUN NUMBER
 DD  .F              3427:   DEPTH DRILLER
 TLI .F              1400:   TOP LOG INTERVAL
 BSD .F              3427:   BIT SIZE AT DEPTH
 WITN. RAY ANDERSON/JACK HARBISON:   WITNESSED BY
 CLNT.            A2DTECH:   CLIENT CODE
 ORIG.           5" PRINT:   ORIGIN OF DATA
 UWI .       490251137700:   UNIQUE WELL ID
 DICO. A2D Technologies, Inc.:   DIGITIZING COMPANY
~OTHER INFORMATION
~A  DEPT       ROP       TGAS   
# ...
 2129.0000     0.7579     0.0000
 2129.5000     0.7573     0.0000
 2130.0000     0.7158     0.0000
 2130.5000     0.6426     0.0000
 2131.0000     0.5693     0.0000
 2131.5000     0.4961     0.0196
 2132.0000     0.4702     0.0456
 2132.5000     0.4706     0.0715
 2133.0000     0.4709     0.0974
 2133.5000     0.4713     0.1233
 2134.0000     0.4813     0.1492
 2134.5000     0.5428     0.1751
 2135.0000     0.6090     0.2011
 2135.5000     0.6753     0.2270
 2136.0000     0.7415     0.2529
 2136.5000     0.7714     0.2788
 2137.0000     0.7714     0.3047
 2137.5000     0.7715     0.3306
 2138.0000     0.7716     0.3566
 2138.5000     0.7717     0.3825
 2139.0000     0.7718     0.4084
 2139.5000     0.7718     0.4118
 2140.0000     0.7719     0.3922
 2140.5000     0.7720     0.3726
 2141.0000     0.7721     0.3530
 2141.5000     0.7721     0.3334
 2142.0000     0.7722     0.3138
 2142.5000     0.7723     0.2942
 2143.0000     0.7724     0.2746
 2143.5000     0.7725     0.2549
 2144.0000     0.7725     0.2353
 2144.5000     0.7726     0.2157
 2145.0000     0.7727     0.1961
 2145.5000     0.7728     0.1765
 2146.0000     0.7729     0.1569
 2146.5000     0.7729     0.1373
 2147.0000     0.7730     0.1177
 2147.5000     0.7731     0.0981
 2148.0000     0.7732     0.1962
 2148.5000     0.7732     1.0397
 2149.0000     0.7733     0.0392
 2149.5000     0.7734     0.0165
 2150.0000     0.7735     0.0000
 2150.5000     0.7736     0.0568
 2151.0000     0.7736     0.1136
 2151.5000     0.7737     0.1704
 2152.0000     0.7738     0.2272
 2152.5000     0.7739     0.2840
 2153.0000     0.7740     0.3408
 2153.5000     0.7742     0.3976
 2154.0000     0.7745     0.4544
 2154.5000     0.7749     0.5112
 2155.0000     0.7753     0.5680
 2155.5000     0.7756     0.6248
 2156.0000     0.7760     0.6816
 2156.5000     0.7763     0.7384
 2157.0000     0.7767     0.7952
 2157.5000     0.7771     0.8520
 2158.0000     0.7678     0.9088
 2158.5000     0.7682     0.9656
 2159.0000     0.7685     1.0224
 2159.5000     0.7785     1.0792
 2160.0000     0.7789     1.1360
 2160.5000     0.7803     1.1928
 2161.0000     0.7818     1.2496
 2161.5000     0.7834     1.3064
 2162.0000     0.7849     1.3632
 2162.5000     0.7864     1.4200
 2163.0000     0.7880     1.4768
 2163.5000     0.7895     1.5336
 2164.0000     0.7911     1.5904
 2164.5000     0.7926     1.6472
 2165.0000     0.7941     1.7040
 2165.5000     0.7957     1.7608
 2166.0000     0.7972     1.8176
 2166.5000     0.7988     1.8744
 2167.0000     0.8003     1.9312
 2167.5000     0.8018     1.9880
 2168.0000     0.8034     2.0448
 2168.5000     0.7521     2.1016
 2169.0000     0.6661     2.1584
 2169.5000     0.5801     2.2152
 2170.0000     0.4974     2.2720
 2170.5000     0.4922     2.3199
 2171.0000     0.4870     2.2745
 2171.5000     0.4819     2.2353
 2172.0000     0.5234     2.1961
 2172.5000     0.6012     2.1569
 2173.0000     0.6789     2.1176
 2173.5000     0.7502     2.0784
 2174.0000     0.7490     2.0392
 2174.5000     0.7469     2.0000
 2175.0000     0.7448     1.9608
 2175.5000     0.7427     1.9216
 2176.0000     0.7858     1.8823
 2176.5000     0.8487     1.8431
 2177.0000     0.9115     1.8039
 2177.5000     0.9744     1.7647
 2178.0000     0.9890     1.7255
 2178.5000     0.9278     1.6863
 2179.0000     0.8665     1.6470
 2179.5000     0.8053     1.6078
 2180.0000     0.7410     1.5686
 2180.5000     0.6707     1.5294
 2181.0000     0.6004     1.4902
 2181.5000     0.5301     1.4495
 2182.0000     0.4969     1.4628
 2182.5000     0.4977     1.4767
 2183.0000     0.4985     1.4905
 2183.5000     0.4993     1.5043
 2184.0000     0.5001     1.5182
 2184.5000     0.5009     1.5320
 2185.0000     0.5017     1.5458
 2185.5000     0.5025     1.5596
 2186.0000     0.5033     1.5735
 2186.5000     0.5041     1.5873
 2187.0000     0.5049     1.6011
 2187.5000     0.5057     1.6150
 2188.0000     0.5065     1.6288
 2188.5000     0.5073     1.6426
 2189.0000     0.5081     1.6565
 2189.5000     0.5089     1.6703
 2190.0000     0.5097     1.6841
 2190.5000     0.5105     1.6980
 2191.0000     0.5113     1.7118
 2191.5000     0.5121     1.7256
 2192.0000     0.5129     1.7395
 2192.5000     0.5137     1.7533
 2193.0000     0.5145     1.7671
 2193.5000     0.5153     1.7810
 2194.0000     0.5161     1.7948
 2194.5000     0.5169     1.8086
 2195.0000     0.5177     1.8225
 2195.5000     0.5185     1.8363
 2196.0000     0.5193     1.8501
 2196.5000     0.5201     1.8640
 2197.0000     0.5209     1.8778
 2197.5000     0.5217     1.8916
 2198.0000     0.5227     1.9055
 2198.5000     0.5241     1.9193
 2199.0000     0.5255     1.9331
 2199.5000     0.5269     1.9470
 2200.0000     0.5284     1.9608
 2200.5000     0.5298     1.4408
 2201.0000     0.5312     0.9207
 2201.5000     0.5313     0.4007
 2202.0000     0.5306     0.0000
 2202.5000     0.5300     0.0000
 2203.0000     0.5293     0.0000
 2203.5000     0.5287     0.0000
 2204.0000     0.5281     0.0000
 2204.5000     0.5274     0.0000
 2205.0000     0.5268     0.0000
 2205.5000     0.5261     0.0000
 2206.0000     0.5255     0.0000
 2206.5000     0.5248     0.0000
 2207.0000     0.5242     0.0000
 2207.5000     0.5235     0.0000
 2208.0000     0.5229     0.0000
 2208.5000     0.5317     0.0000
 2209.0000     0.5784     0.0000
 2209.5000     0.6343     0.0000
 2210.0000     0.6810     0.0000
 2210.5000     0.7183     0.0000
 2211.0000     0.7276     0.0000
 2211.5000     0.7369     0.0000
 2212.0000     0.7369     0.0000
 2212.5000     0.7276     0.0000
 2213.0000     0.6530     0.0000
 2213.5000     0.5784     0.0000
 2214.0000     0.5317     0.0000
 2214.5000     0.5131     0.0000
 2215.0000     0.5131     0.0000
 2215.5000     0.5131     0.0000
 2216.0000     0.5131     0.0000
 2216.5000     0.5131     0.0000
 2217.0000     0.5131     0.0000
 2217.5000     0.5131     0.0000
 2218.0000     0.5131     0.0000
 2218.5000     0.5131     0.0000
 2219.0000     0.5131     0.0000
 2219.5000     0.5131     0.0000
 2220.0000     0.5224     0.0000
 2220.5000     0.5131     0.0000
 2221.0000     0.5145     0.0000
 2221.5000     0.5224     0.0000
 2222.0000     0.5504     0.0000
 2222.5000     0.5037     0.0000
 2223.0000     0.4944     0.0000
 2223.5000     0.4944     0.0000
 2224.0000     0.5224     0.0000
 2224.5000     0.6359     0.0000
 2225.0000     0.8862     0.0000
 2225.5000     1.1474     0.0000
 2226.0000     1.3993     0.0000
 2226.5000     1.5112     0.0000
 2227.0000     1.3619     0.0000
 2227.5000     1.1754     0.0000
 2228.0000     1.0541     0.0000
 2228.5000     0.9608     0.0000
 2229.0000     0.8489     0.0000
 2229.5000     0.7649     0.0000
 2230.0000     0.6623     0.0000
 2230.5000     0.5410     0.0000
 2231.0000     0.5410     0.0000
 2231.5000     0.5410     0.0000
 2232.0000     0.5410     0.0000
 2232.5000     0.5317     0.0000
 2233.0000     0.5970     0.0000
 2233.5000     0.6530     0.0000
 2234.0000     0.7090     0.0000
 2234.5000     0.7743     0.0000
 2235.0000     0.8116     0.0000
 2235.5000     0.8862     0.0000
 2236.0000     0.9608     0.0000
 2236.5000     1.0354     0.0000
 2237.0000     0.9888     0.0000
 2237.5000     0.8955     0.0000
 2238.0000     0.8209     0.0000
 2238.5000     0.7556     0.0000
 2239.0000     0.7369     0.0000
 2239.5000     0.7369     0.0000
 2240.0000     0.7463     0.0000
 2240.5000     0.7463     0.0000
 2241.0000     0.7463     0.0000
 2241.5000     0.7463     0.0000
 2242.0000     0.7463     0.0000
 2242.5000     0.7463     0.0000
 2243.0000     0.7463     0.0000
 2243.5000     0.7463     0.0000
 2244.0000     0.7463     0.0000
 2244.5000     0.7463     0.0000
 2245.0000     0.7463     0.0000
 2245.5000     0.7463     0.0000
 2246.0000     0.7463     0.0000
 2246.5000     0.7463     0.0000
 2247.0000     0.7463     0.0000
 2247.5000     0.7463     0.0000
 2248.0000     0.7460     0.0000
 2248.5000     0.7436     0.0000
 2249.0000     0.7412     0.0000
 2249.5000     0.7387     0.0000
 2250.0000     0.7363     0.0000
