~VERSION INFORMATION
 VERS.                2.0:   CWLS LOG ASCII STANDARD - VERSION 2.0
 WRAP.                 NO:   ONE LINE PER DEPTH STEP
~WELL INFORMATION
#MNEM.UNIT      DATA TYPE    INFORMATION
#----------   ------------   ------------------------------
 STRT.F            4.0000:   START DEPTH
 STOP.F          674.0000:   STOP DEPTH
 STEP.F            0.5000:   STEP LENGTH
 NULL.          -999.2500:   NO VALUE
 COMP. LAWRENCE/ALLISON INC:   COMPANY
 WELL.         21X #10-10:   WELL
 FLD .             TEAPOT:   FIELD
 LOC .      S10 T38N R78W:   LOCATION
 CNTY.            NATRONA:   COUNTY
 STAT.            WYOMING:   STATE
 CTRY. UNITED STATES OF AMERICA:   COUNTRY
 SRVC.           Gearhart:   SERVICE COMPANY
 DATE.        17-AUG-1987:   LOGDATE
 API .       490251118400:   API NUMBER
~CURVE INFORMATION
#MNEM.UNIT       API CODE    CURVE DESCRIPTION
#----------   ------------   ------------------------------
 DEPT.F                  :   
 GRR .GAPI   07 310 01 00:   GAMMA RAY FROM RESISTIVITY
 ILD .OHMM   07 120 46 00:   INDUCTION LOG DEEP
 ILM .OHMM   07 120 44 00:   INDUCTION LOG MEDIUM
~PARAMETER INFORMATION
#MNEM.UNIT          VALUE    DESCRIPTION
#----------   ------------   ------------------------------
 PD  .                 GL:   PERMANENT DATUM
 EPD .F              5253:   ELEVATION PERMANENT DATUM
 LMF .                 KB:   LOG MEASURED FROM
 DAPD.F                12:   FEET ABOVE PERMANENT DATUM
 DMF .                 KB:   DRILLING MEASURED FROM
 EKB .F              5265:   KELLING BUSHING
 EDF .F              5263:   DRILLING FLOOR
 EGL .F              5253:   GROUND LEVEL
 DATE.        17-AUG-1987:   RUN DATE
 RUN .                  1:   RUN NUMBER
 DD  .F               690:   DEPTH DRILLER
 DL  .F               682:   DEPTH LOGGER
 BLI .F               674:   BOTTOM LOG INTERVAL
 TLI .F                60:   TOP LOG INTERVAL
 CS  .IN            8.625:   CASING SIZE
 CBD .F                50:   CASING BOTTOM DRILLER
 CBL .F                60:   CASING BOTTOM LOGGER
 BS  .IN             7.87:   BIT SIZE
 BSD .F               690:   BIT SIZE AT DEPTH
 DFT .               FOAM:   DRILLING FLUID TYPE
 TCS .HRS            1500:   TIME CURCULATED STOPPED
 TLAB.HRS            1609:   TIME LOGGER AT BOTTOM
 LUN .               7597:   LOGGING UNIT NUMBER
 LUL .           GILLETTE:   LOGGING UNIT LOCATION
 ENGI.           JOHNSTON:   RECORDING ENGINEER
 WITN.             STRONG:   WITNESSED BY
 CLNT.            A2DTECH:   CLIENT CODE
 ORIG.       2", 5" PRINT:   ORIGIN OF DATA
 UWI .       490251118400:   UNIQUE WELL ID
 DICO. A2D Technologies, Inc.:   DIGITIZING COMPANY
~OTHER INFORMATION
~A    DEPT      GRR       ILD        ILM   
# ...
  550.0000    82.6783    12.9660    12.2724
  550.5000    82.3900    12.9372    12.3617
  551.0000    81.2004    13.1207    12.4517
  551.5000    81.2214    13.0313    12.5423
  552.0000    82.1542    13.0335    12.5458
  552.5000    83.0870    13.1265    12.5492
  553.0000    85.8436    13.2201    12.4645
  553.5000    88.2961    13.2219    12.4688
  554.0000    89.2290    13.2238    12.3854
  554.5000    89.5539    13.2256    12.3889
  555.0000    89.5748    13.2274    12.3923
  555.5000    89.5958    13.1368    12.3957
  556.0000    89.6170    13.1391    12.3992
  556.5000    90.2807    13.0496    12.4027
  557.0000    91.8400    13.0514    12.4068
  557.5000    93.6362    12.9625    12.4971
  558.0000    94.2651    12.8742    12.5005
  558.5000    95.1979    12.8760    12.5040
  559.0000    95.8268    12.7882    12.4196
  559.5000    95.8477    12.7016    12.4238
  560.0000    95.2556    12.6150    12.4273
  560.5000    91.3304    12.6168    12.4307
  561.0000    89.2237    12.5304    12.4341
  561.5000    89.5486    12.5325    12.1799
  562.0000    94.4328    12.5343    11.7655
  562.5000    97.7972    12.5360    11.6056
  563.0000    99.9458    12.6254    11.6088
  563.5000    99.9668    12.6272    11.6120
  564.0000    99.9918    12.6289    11.6966
  564.5000   100.3131    12.6306    11.7138
  565.0000   100.3336    12.5446    11.8682
  565.5000    97.3203    12.5405    11.9546
  566.0000    95.5176    12.4493    11.9579
  566.5000    95.8373    12.4630    11.9612
  567.0000    94.0398    12.6397    11.9645
  567.5000    93.7515    12.5536    12.0512
  568.0000    95.6014    12.2950    12.0549
  568.5000    96.2303    12.1264    11.8911
  569.0000    96.8592    11.9602    11.8116
  569.5000    96.8801    11.8787    11.8149
  570.0000    95.0774    11.7978    11.7359
  570.5000    91.7549    11.6364    11.6575
  571.0000    90.8632    11.5567    11.6608
  571.5000    93.3166    11.5587    11.6640
  572.0000    95.4652    11.4799    11.6673
  572.5000    97.6342    11.3226    11.5746
  573.0000   100.1235    11.2038    11.2741
  573.5000   103.4783    11.0810    10.9661
  574.0000   103.7610    10.8582    10.8171
  574.5000   102.5661    10.7145    10.8208
  575.0000   101.6700    10.7160    10.7485
  575.5000   100.1764    10.5691    10.6025
  576.0000    99.8882    10.3517    10.3850
  576.5000    99.6052    10.2808    10.3156
  577.0000    99.0235    10.0698    10.2467
  577.5000    98.7353     9.7942    10.1080
  578.0000    99.9773     9.5261     9.9708
  578.5000   100.6062     9.0105     9.4981
  579.0000   103.9706     8.7639     9.1104
  579.5000   109.1587     8.5240     8.6709
  580.0000   110.6994     7.8409     7.9266
  580.5000   111.6322     6.8182     6.6156
  581.0000   115.0292     6.6810     6.4353
  581.5000   121.2352     6.7760     6.1731
  582.0000   127.7651     6.8244     5.4841
  582.5000   130.2624     6.8730     5.3716
  583.0000   129.0675     6.8740     5.5643
  583.5000   124.2253     6.9230     5.9265
  584.0000   111.7842     7.3212     6.5822
  584.5000   103.5985     7.9058     7.4652
  585.0000   102.0945     8.5969     8.2911
  585.5000   104.2483     9.2190     8.7085
  586.0000   108.2207    10.0249     8.8333
  586.5000   109.7614    10.1670     9.4743
  587.0000   110.6942    10.3112     9.8848
  587.5000   110.4112    10.5306    10.1645
  588.0000   108.6085    11.0640    10.0966
  588.5000   107.7173    11.3838    10.1708
  589.0000   108.6505    11.6968    10.1736
  589.5000   109.2796    11.9457    10.5377
  590.0000   108.6923    12.1998    10.9913
  590.5000   106.5909    12.3728    11.3055
  591.0000   105.0921    12.5483    11.4675
  591.5000   104.4999    12.7263    11.8779
  592.0000   104.5261    12.7280    12.3891
  592.5000   104.8510    12.9085    12.7433
  593.0000   105.1759    13.0006    12.8360
  593.5000   106.1087    13.1850    12.8396
  594.0000   106.7323    13.3720    12.9330
  594.5000   103.7190    13.4674    12.9366
  595.0000   101.3084    13.6583    12.9401
  595.5000   100.1083    13.7558    12.9438
  596.0000   101.6543    13.8540    12.9618
  596.5000   101.3713    13.8563    13.1337
  597.0000   100.1764    13.8582    13.3219
  597.5000    98.6776    13.9571    13.5128
  598.0000    98.7275    13.9590    13.7065
  598.5000    99.9829    13.8634    13.8063
  599.0000    99.9563    13.8658    13.8101
  599.5000    99.6733    13.8677    13.7178
  600.0000    99.6995    13.9667    13.7216
  600.5000   100.3527    13.6793    13.7227
  601.0000   101.9209    13.6812    13.7212
  601.5000   102.8032    13.7792    13.7212
  602.0000   102.2161    13.7811    13.7212
  602.5000    99.5013    13.6872    13.6258
  603.0000    98.9090    13.4995    13.5311
  603.5000    99.5430    13.2219    13.3436
  604.0000   101.0835    13.1314    13.2508
  604.5000   102.0162    13.0419    13.1587
  605.0000   102.0370    12.8635    13.0672
  605.5000   103.2736    12.5989    12.9763
  606.0000   104.8389    12.1656    12.7075
  606.5000   105.4955    11.9916    12.3577
  607.0000   105.7728    11.9203    12.1001
  607.5000   107.6174    11.9224    11.7496
  608.0000   108.8540    11.9240    11.1297
  608.5000   109.1735    11.7605    10.8234
  609.0000   107.9837    11.5992    10.5255
  609.5000   107.0875    11.4397    10.5255
  610.0000   107.7214    11.4417    10.5255
  610.5000   109.2620    11.2847    10.5255
  611.0000   111.1065    11.1300    10.5255
  611.5000   112.9514    10.9774    10.5255
  612.0000   113.2758    10.9026    10.5245
  612.5000   112.3847    10.8284    10.5194
  613.0000   113.3226    10.7546    10.4523
  613.5000   113.9513    10.7564    10.3796
  614.0000   114.2761    10.6828    10.3796
  614.5000   114.6008    10.5367    10.3967
  615.0000   113.4058    10.4645    10.4523
  615.5000   111.2990    10.3214    10.2358
  616.0000   110.4073    10.2507    10.2358
  616.5000   111.6445    10.1812    10.1646
  617.0000   111.9693    10.1118    10.1646
  617.5000   110.9877    10.1132    10.1646
  618.0000   109.5845    10.1147    10.1646
  618.5000   110.5172     9.9763     9.8848
  619.0000   112.9696     9.8391     9.4795
  619.5000   117.8536     9.6371     9.2186
  620.0000   119.0902     9.3082     9.0277
  620.5000   119.7189     9.1802     8.8407
  621.0000   119.7397     9.1177     8.7792
  621.5000   119.1527     9.0520     8.7792
  622.0000   117.3498     8.9316     8.7181
  622.5000   115.8357     8.8708     8.7181
  623.0000   113.7440     8.8103     8.6575
  623.5000   112.8529     8.7503     8.5973
  624.0000   113.4868     8.5706     8.3026
  624.5000   116.2432     8.3944     8.0179
  625.0000   119.3035     8.0516     7.8518
  625.5000   120.8441     7.7765     7.5299
  626.0000   121.1688     7.7778     6.9251
  626.5000   121.4884     7.7789     6.7345
  627.0000   120.9065     7.7800     6.7345
  627.5000   116.3680     7.7810     6.7345
  628.0000   113.3374     7.7280     6.8329
  628.5000   112.7622     8.1159     7.8713
  629.0000   112.1803     9.1385     8.1306
  629.5000   111.5881     9.5968     8.7792
  630.0000   111.3049     9.9387     9.6128
  630.5000   112.2428    10.2211     9.9540
  631.0000   114.6952    10.3661    10.2358
  631.5000   117.4516    10.5131    10.3796
  632.0000   119.6000    10.6622    10.4523
  632.5000   118.7090    10.8133    10.5255
  633.0000   113.8666    10.8946    10.5255
  633.5000   108.0943    10.8814    10.6045
  634.0000   106.9173    10.8179    10.6824
  634.5000   109.6789    10.7441    10.8234
  635.0000   112.1313    10.5971    10.8234
  635.5000   113.3679    10.5249    10.7481
  636.0000   113.9914    10.4529    10.6734
  636.5000   112.4977    10.3099    10.6734
  637.0000   113.1264    10.3113    10.6734
  637.5000   115.2749    10.3127    10.7481
  638.0000   115.9036    10.3141    10.7863
  638.5000   115.6204    10.4604    10.8234
  639.0000   112.8876    10.4618    10.7481
  639.5000   109.8870    10.4502    10.7157
  640.0000   111.4327    10.3919    10.5992
  640.5000   112.0562    10.3211    10.5255
