~VERSION INFORMATION
 VERS.                2.0:   CWLS LOG ASCII STANDARD - VERSION 2.0
 WRAP.                 NO:   ONE LINE PER DEPTH STEP
~WELL INFORMATION
#MNEM.UNIT      DATA TYPE    INFORMATION
#----------   ------------   ------------------------------
 STRT.F           20.0000:   START DEPTH
 STOP.F          500.0000:   STOP DEPTH
 STEP.F            0.5000:   STEP LENGTH
 NULL.          -999.2500:   NO VALUE
 COMP.    FENIX & SCISSON:   COMPANY
 WELL. RES 3 TEAPOT DOM #81SX10-10:   WELL
 FLD .             TEAPOT:   FIELD
 LOC .      S10 T38N R78W:   LOCATION
 CNTY.            NATRONA:   COUNTY
 STAT.            WYOMING:   STATE
 CTRY. UNITED STATES OF AMERICA:   COUNTRY
 SRVC.           BIRDWELL:   SERVICE COMPANY
 DATE.        22-NOV-1978:   LOGDATE
 API .       490251075100:   API NUMBER
~CURVE INFORMATION
#MNEM.UNIT       API CODE    CURVE DESCRIPTION
#----------   ------------   ------------------------------
 DEPT.F                  :   
 ILD .OHMM   05 120 46 00:   INDUCTION LOG DEEP
 SN  .OHMM   05 040 16 00:   SHORT NORMAL 16"
 SPR .MV     05 010 01 00:   SPONTANEOUS POTENTIAL FROM RES.
 CALD.IN     45 280 60 00:   CALIPER FROM DENSITY LOG
 CORR.G/C3   45 356 01 00:   DENSITY CORRECTION
 DPHI.DEC    45 890 10 00:   DENSITY POROSITY LIMESTONE
 GRD .GAPI   45 310 01 00:   GAMMA RAY FROM DENSITY LOG
 RHOB.G/C3   45 350 01 00:   BULK DENSITY
~PARAMETER INFORMATION
#MNEM.UNIT          VALUE    DESCRIPTION
#----------   ------------   ------------------------------
 PD  .                 GL:   PERMANENT DATUM
 EPD .F              5129:   ELEVATION PERMANENT DATUM
 LMF .                 KB:   LOG MEASURED FROM
 DAPD.F                 4:   FEET ABOVE PERMANENT DATUM
 DMF .                 KB:   DRILLING MEASURED FROM
 EKB .F              5133:   KELLING BUSHING
 EGL .F              5129:   GROUND LEVEL
 DATE.        22-NOV-1978:   RUN DATE
 RUN .                  1:   RUN NUMBER
 DD  .F               500:   DEPTH DRILLER
 DL  .F               500:   DEPTH LOGGER
 BLI .F               500:   BOTTOM LOG INTERVAL
 TLI .F                20:   TOP LOG INTERVAL
 CS  .IN            8.625:   CASING SIZE
 CBD .F                40:   CASING BOTTOM DRILLER
 CBL .F                40:   CASING BOTTOM LOGGER
 BS  .IN            7.875:   BIT SIZE
 BSD .F               500:   BIT SIZE AT DEPTH
 DFT .                KCL:   DRILLING FLUID TYPE
 DFD .                8.7:   DRILLING FLUID DENSITY
 DFV .                 36:   DRILLING FLUID VISCOSITY
 DFPH.               11.2:   DRILLING FLUID PH
 DFL .                 94:   DRILLING FLUID LOSS
 MSS .            MUD PIT:   MUD SAMPLE SOURCE
 RMS .OHMM           0.28:   RESISTIVITY MUD SAMPLE
 MST .F                62:   MUD SAMPLE TEMPERATURE
 RMF .OHMM           0.24:   RESISTIVITY MUD FILTRATE SAMPLE
 MFST.F                66:   MUD FILTRATE SAMPLE TEMPERATURE
 RMC .OHMM           0.31:   RESISTIVITY MUD CAKE
 MCST.F                66:   MUD CAKE SAMPLE TEMPERATURE
 MFSS.               MEAS:   MUD FILTRATE SAMPLE SOURCE
 MCSS.               MEAS:   MUD CAKE SAMPLE SOURCE
 RMB .OHMM            0.3:   RESISTIVITY MUD AT BHT
 BHT .F                58:   BOTTOM HOLE TEMPERATURE
 TCS .HRS               1:   TIME CURCULATED STOPPED
 MRT .F                58:   MAXIMUM RECORDED TEMPERATURE
 LUN .               3029:   LOGGING UNIT NUMBER
 LUL .               CASP:   LOGGING UNIT LOCATION
 ENGI.           REYNOLDS:   RECORDING ENGINEER
 WITN.              AMEND:   WITNESSED BY
 CLNT.            A2DTECH:   CLIENT CODE
 ORIG.           5" PRINT:   ORIGIN OF DATA
 UWI .       490251075100:   UNIQUE WELL ID
 DICO. A2D Technologies, Inc.:   DIGITIZING COMPANY
~OTHER INFORMATION
~A   DEPT      ILD         SN        SPR       CALD       CORR       DPHI         GRD      RHOB   
# ...
  101.0000     7.8428     9.1411   -43.9430     7.7204     0.0090     0.1199   116.4649     2.4820
  101.5000     7.9528     9.1379   -44.3955     7.7170     0.0166     0.1157   118.4153     2.4888
  102.0000     8.0087     9.0132   -42.0039     7.7135     0.0256     0.1124   119.4662     2.4948
  102.5000     8.0092     8.9521   -42.3095     7.7103     0.0225     0.1115   116.7693     2.4903
  103.0000     8.0098     8.8917   -43.6646     7.6949     0.0152     0.1274   117.2205     2.4783
  103.5000     8.0104     8.7701   -44.8697     7.6944     0.0182     0.1253   119.3209     2.4746
  104.0000     8.0110     8.7110   -44.8756     7.6940     0.0227     0.1217   116.0180     2.4814
  104.5000     7.9560     8.7122   -44.8826     7.6935     0.0227     0.1226   115.7255     2.4806
  105.0000     8.0120     8.7134   -44.8551     7.6984     0.0168     0.1253   113.6284     2.4746
  105.5000     7.9572     8.7146   -44.7436     7.7076     0.0108     0.1280   111.2306     2.4694
  106.0000     7.9577     8.6557   -44.3002     7.7072     0.0064     0.1309   113.7811     2.4641
  106.5000     7.7945     8.6568   -44.1559     7.7067     0.0034     0.1327   115.6297     2.4657
  107.0000     7.7410     8.6580   -43.8619     7.7063     0.0034     0.1342   116.9328     2.4612
  107.5000     7.5823     8.5958   -43.8168     7.7058     0.0034     0.1348   113.6358     2.4597
  108.0000     7.5302     8.5411   -44.2299     7.7204     0.0035     0.1309   107.0406     2.4650
  108.5000     7.5309     8.5424   -44.4303     7.7199     0.0065     0.1291   107.0240     2.4717
  109.0000     7.5314     8.5050   -44.8491     7.7195     0.0080     0.1267   107.6435     2.4747
  109.5000     7.5319     8.5447   -44.9415     7.7106     0.0097     0.1249   104.6464     2.4781
  110.0000     7.5325     8.5458   -44.4989     7.7035     0.0141     0.1213   108.8457     2.4838
  110.5000     7.5330     8.5470   -43.7550     7.7031     0.0201     0.1170   114.2444     2.4898
  111.0000     7.5335     8.5484   -44.0606     7.7027     0.0201     0.1201   114.3958     2.4891
  111.5000     7.6084     8.5494   -44.5161     7.7022     0.0187     0.1221   117.9958     2.4868
  112.0000     7.7063     8.5507   -44.9716     7.7017     0.0142     0.1170   125.7933     2.4868
  112.5000     7.7471     8.4927   -44.9775     7.6863     0.0157     0.1125   129.5428     2.4929
  113.0000     7.8015     8.4938   -44.9846     7.6859     0.0172     0.1095   131.9431     2.4959
  113.5000     7.8700     8.5405   -44.6905     7.6855     0.0143     0.1146   134.0995     2.4952
  114.0000     7.9666     8.5601   -44.2464     7.6850     0.0098     0.1161   129.0977     2.4937
  114.5000     8.0458     8.6762   -43.7429     7.6845     0.0114     0.1128   113.9567     2.4929
  115.0000     8.1352     8.7376   -43.4599     7.6841     0.0189     0.1110   108.8603     2.4937
  115.5000     8.1925     8.7996   -43.3641     7.6837     0.0234     0.1125   113.2099     2.4953
  116.0000     8.1929     8.8621   -43.6711     7.6832     0.0279     0.1122   115.0108     2.4990
  116.5000     8.1936     8.9871   -43.9378     7.6828     0.0309     0.1062   113.2131     2.5020
  117.0000     8.1941     8.9886   -44.3323     7.6823     0.0325     0.1052   111.1156     2.5050
  117.5000     8.1947     9.0185   -44.4378     7.6819     0.0295     0.1067   110.6669     2.5096
  118.0000     8.1386     9.1800   -44.2938     7.6814     0.0280     0.1034   115.0404     2.5020
  118.5000     8.0270     9.2451   -43.8512     7.6810     0.0266     0.1106   120.2653     2.4961
  119.0000     8.0835     9.2464   -43.7070     7.6805     0.0266     0.1151   115.6194     2.4916
  119.5000     8.1403     9.2476   -43.4129     7.6801     0.0281     0.1175   112.6223     2.4886
  120.0000     8.1409     9.2489   -43.2673     7.6796     0.0326     0.1205   114.8726     2.4839
  120.5000     8.1414     9.2504   -43.5742     7.6792     0.0357     0.1232   119.4078     2.4788
  121.0000     8.1986     9.2516   -43.7301     7.6787     0.0402     0.1262   120.1228     2.4759
  121.5000     8.1992     9.2528   -43.7372     7.6782     0.0282     0.1289   115.6269     2.4669
  122.0000     8.1998     9.2541   -43.4431     7.6778     0.0193     0.1325   115.7782     2.4609
  122.5000     8.2575     9.1913   -43.2975     7.6774     0.0103     0.1361   117.8786     2.4564
  123.0000     8.3734     9.0659   -42.9450     7.6769     0.0089     0.1384   120.1289     2.4504
  123.5000     8.4435     9.0673   -42.7106     7.6765     0.0089     0.1414   111.7349     2.4489
  124.0000     8.5506     9.0687   -42.5665     7.6760     0.0089     0.1378   106.6385     2.4572
  124.5000     8.6707     9.0699   -42.5737     7.6756     0.0105     0.1310   111.1380     2.4680
  125.0000     8.7316     9.0710   -42.5794     7.6751     0.0135     0.1249   112.7886     2.4775
  125.5000     8.8082     9.0723   -42.7351     7.6747     0.0150     0.1204   112.0408     2.4843
  126.0000     8.9163     9.2286   -43.0407     7.6743     0.0150     0.1171   108.2941     2.4895
  126.5000     8.9170     9.2656   -43.3508     7.6737     0.0136     0.1153   104.9971     2.4925
  127.0000     9.0213     9.3315   -43.9532     7.6733     0.0106     0.1135   106.9476     2.4941
  127.5000     9.1692     9.4059   -43.9293     7.6878     0.0091     0.1144   107.6987     2.4941
  128.0000     9.2442     9.5304   -43.5149     7.6874     0.0092     0.1161   103.6524     2.4926
  128.5000     9.3672     9.5979   -43.3693     7.6870     0.0092     0.1176   101.7045     2.4903
  129.0000     9.4290     9.7333   -43.1579     7.6865     0.0092     0.1191   107.5533     2.4872
  129.5000     9.4952     9.8355   -42.7556     7.7011     0.0093     0.1209   107.8906     2.4844
  130.0000     9.6285     9.9650   -41.4403     7.7006     0.0108     0.1215   103.3683     2.4845
  130.5000     9.6962    10.0809   -40.3966     7.7072     0.0123     0.1215   104.2596     2.4859
  131.0000     9.7239    10.1525   -40.1025     7.7227     0.0138     0.1203   106.0601     2.4874
  131.5000     9.8387    10.3177   -39.9569     7.7292     0.0109     0.1175   107.5608     2.4904
  132.0000     9.9711    10.3710   -40.1869     7.7436     0.0094     0.1161   107.7162     2.4923
  132.5000     9.9717    10.4631   -40.4198     7.7433     0.0094     0.1158   104.1154     2.4935
  133.0000    10.0071    10.6636   -40.7266     7.7428     0.0095     0.1158   106.8158     2.4935
  133.5000    10.0427    10.7393   -40.8823     7.7423     0.0095     0.1164   107.8663     2.4935
  134.0000    10.1132    10.8446   -40.8876     7.7419     0.0110     0.1163   102.4708     2.4920
  134.5000    10.1842    10.9680   -40.8938     7.7494     0.0133     0.1166    97.4527     2.4913
  135.0000    10.1991    11.0229   -40.8996     7.7561     0.0141     0.1166    92.7289     2.4913
  135.5000    10.2565    11.0476   -40.9067     7.7554     0.0126     0.1166    93.1801     2.4913
  136.0000    10.2573    11.0491   -40.9124     7.7400     0.0111     0.1169    94.2310     2.4921
  136.5000    10.2579    11.0504   -40.7676     7.7397     0.0097     0.1166    96.3314     2.4936
  137.0000    10.2587    11.0521   -40.4741     7.7392     0.0097     0.1166   100.2069     2.4936
  137.5000    10.3109    11.0535   -40.4799     7.7388     0.0080     0.1166   104.1307     2.4951
  138.0000    10.2600    11.0550   -40.2539     7.7383     0.0068     0.1166   105.4814     2.4966
  138.5000    10.2608    11.0486   -40.0416     7.7379     0.0083     0.1201    96.9371     2.4726
  139.0000    10.1906    10.9815   -40.0480     7.7374     0.0098     0.1316    92.7045     2.4644
  139.5000    10.1209    10.9834   -40.0545     7.7370     0.0115     0.1318    98.4396     2.4621
  140.0000    10.0516    10.9847   -39.9550     7.7365     0.0174     0.1312    99.7900     2.4659
  140.5000    10.0524    10.9863   -39.9160     7.7361     0.0219     0.1309    96.9432     2.4697
  141.0000    10.0530    10.9118   -39.7719     7.7356     0.0249     0.1309    94.5458     2.4704
