~VERSION INFORMATION
 VERS.                2.0:   CWLS LOG ASCII STANDARD - VERSION 2.0
 WRAP.                 NO:   ONE LINE PER DEPTH STEP
~WELL INFORMATION
#MNEM.UNIT      DATA TYPE    INFORMATION
#----------   ------------   ------------------------------
 STRT.F            2.0000:   START DEPTH
 STOP.F          500.0000:   STOP DEPTH
 STEP.F            0.5000:   STEP LENGTH
 NULL.          -999.2500:   NO VALUE
 COMP. BROWN JOHN E&C INC:   COMPANY
 WELL. NAVAL PETROLEUM RESERVE 3 SHX- #65-1-3:   WELL
 FLD .             TEAPOT:   FIELD
 LOC .       S3 T38N R78W:   LOCATION
 CNTY.            NATRONA:   COUNTY
 STAT.            WYOMING:   STATE
 CTRY. UNITED STATES OF AMERICA:   COUNTRY
 SRVC.     Atlas Wireline:   SERVICE COMPANY
 DATE.        13-DEC-1991:   LOGDATE
 API .       490252247400:   API NUMBER
~CURVE INFORMATION
#MNEM.UNIT       API CODE    CURVE DESCRIPTION
#----------   ------------   ------------------------------
 DEPT.F                  :   
 RILD.OHMM   07 120 46 00:   RESISTIVITY INDUCTION LOG DEEP
 RILM.OHMM   07 120 44 00:   RESISTIVITY INDUCTION LOG MEDIUM
 GRR .GAPI   07 310 01 00:   GAMMA RAY FROM RESISTIVITY
~PARAMETER INFORMATION
#MNEM.UNIT          VALUE    DESCRIPTION
#----------   ------------   ------------------------------
 PD  .                 GL:   PERMANENT DATUM
 EPD .F              5148:   ELEVATION PERMANENT DATUM
 LMF .                 KB:   LOG MEASURED FROM
 DAPD.F                10:   FEET ABOVE PERMANENT DATUM
 DMF .                 KB:   DRILLING MEASURED FROM
 EKB .F              5150:   KELLING BUSHING
 EDF .F              5149:   DRILLING FLOOR
 EGL .F              5148:   GROUND LEVEL
 DATE.        13-DEC-1991:   RUN DATE
 RUN .                  1:   RUN NUMBER
 DD  .F               510:   DEPTH DRILLER
 DL  .F               510:   DEPTH LOGGER
 BLI .F               508:   BOTTOM LOG INTERVAL
 CS  .IN            9.625:   CASING SIZE
 CBD .F                51:   CASING BOTTOM DRILLER
 CBL .F                50:   CASING BOTTOM LOGGER
 BS  .IN             8.75:   BIT SIZE
 BSD .F               510:   BIT SIZE AT DEPTH
 DFT .                AIR:   DRILLING FLUID TYPE
 MRT .F                95:   MAXIMUM RECORDED TEMPERATURE
 LUN .            HL-6274:   LOGGING UNIT NUMBER
 LUL .             CASPER:   LOGGING UNIT LOCATION
 ENGI.             RAUTIO:   RECORDING ENGINEER
 WITN.        GARY STRONG:   WITNESSED BY
 CLNT.            A2DTECH:   CLIENT CODE
 ORIG.           5" PRINT:   ORIGIN OF DATA
 UWI .       490252247400:   UNIQUE WELL ID
 DICO. A2D Technologies, Inc.:   DIGITIZING COMPANY
~OTHER INFORMATION
~A    DEPT    RILD       RILM         GRR  
# ...
  275.0000     5.5244     4.8424   134.5345
  275.5000     5.4473     4.7096   143.8438
  276.0000     5.4083     4.7751   153.4535
  276.5000     5.4830     5.3723   159.5275
  277.0000     5.6359     6.0440   154.9550
  277.5000     6.1238     6.4777   139.3393
  278.0000     6.8408     7.0394   129.7297
  278.5000     7.5369     7.8672   124.6246
  279.0000     8.3038     8.9101   124.0240
  279.5000     8.9612     9.5493   127.9279
  280.0000     9.4693     9.7495   133.0330
  280.5000     9.6001     9.8167   138.1381
  281.0000     9.5978     9.8159   140.5405
  281.5000     9.5959     9.8837   138.7387
  282.0000     9.7957     9.9517   133.6336
  282.5000    10.0688    10.0982   128.5285
  283.0000    10.4221    10.5179   127.6276
  283.5000    11.2665    11.3510   130.9309
  284.0000    12.8270    12.5076   132.4364
  284.5000    14.3295    14.6695   129.7297
  285.0000    15.6785    16.8511   101.2012
  285.5000    17.0811    18.8275    81.9820
  286.0000    18.7684    20.3188    69.5410
  286.5000    19.9733    21.7762    62.1622
  287.0000    20.6741    22.0793    66.0661
  287.5000    20.1035    21.4734    70.8709
  288.0000    19.6857    20.5950    74.5586
  288.5000    19.2766    19.8932    78.9790
  289.0000    19.0073    19.6179    81.6817
  289.5000    18.7409    19.4811    84.0841
  290.0000    18.4800    19.6245    82.9829
  290.5000    18.9952    20.0262    76.5766
  291.0000    19.3908    20.5882    75.6757
  291.5000    20.2098    21.3132    76.5766
  292.0000    21.0644    22.2174    76.8769
  292.5000    21.8034    23.1596    75.6757
  293.0000    22.5725    24.1421    77.4775
  293.5000    23.6853    25.1663    78.6787
  294.0000    24.3480    26.2335    77.4775
  294.5000    25.0280    26.4143    75.6757
  295.0000    25.5480    26.5968    75.3754
  295.5000    25.7208    26.2283    75.3754
  296.0000    25.0109    25.5086    74.7748
  296.5000    24.1538    24.6376    74.4745
  297.0000    23.4709    23.7963    74.1742
  297.5000    22.8401    23.3021    77.2072
  298.0000    22.5210    22.8231    81.6817
  298.5000    22.3610    22.8216    84.0841
  299.0000    22.3565    22.8201    84.6847
  299.5000    22.8211    23.1486    85.6076
  300.0000    23.2868    23.6223    90.0896
  300.5000    24.1130    23.9484    87.6816
  301.0000    24.4419    24.4488    84.0710
  301.5000    24.6265    24.7870    81.6629
  302.0000    24.9428    25.1300    82.2579
  302.5000    24.9346    25.3016    85.2703
  303.0000    25.1018    25.6509    87.6521
  303.5000    25.4456    26.0057    86.4438
  304.0000    25.6161    26.1825    84.0358
  304.5000    25.9671    26.3621    84.0591
  305.0000    25.6011    25.9947    85.5246
  305.5000    24.3799    24.5877    85.2187
  306.0000    23.7067    23.9119    84.9128
  306.5000    23.0521    23.2546    84.0048
  307.0000    22.5684    22.6049    84.9001
  307.5000    21.7951    21.6901    89.3990
  308.0000    21.0468    20.8033    92.9970
  308.5000    20.3242    20.2315    94.7917
  309.0000    19.7528    19.7940    95.0864
  309.5000    19.2160    19.2671    95.9817
  310.0000    18.8154    18.8679    94.7547
  310.5000    18.2958    18.4770    93.5666
  311.0000    18.1486    18.2195    94.7622
  311.5000    17.9086    18.0912    95.9580
  312.0000    17.7802    18.0889    97.1534
  312.5000    17.7755    18.0865    97.7483
  313.0000    17.7698    18.0836    98.0430
  313.5000    17.8888    18.0812    96.8348
  314.0000    17.8841    18.0790    94.7256
  314.5000    17.8795    18.0765    94.4211
  315.0000    17.9992    18.0736    96.8165
  315.5000    17.9934    17.9464    98.0121
  316.0000    17.9887    17.9440    96.5035
  316.5000    17.8597    17.8012    95.8973
  317.0000    17.8539    17.5694    97.9938
  317.5000    17.7259    17.4457   101.0962
  318.0000    17.5988    17.3229   103.0876
  318.5000    17.3426    17.2008   101.2788
  319.0000    17.1072    17.0792    98.2702
  319.5000    16.9846    17.0770    94.9598
  320.0000    16.7463    16.9568    92.8521
  320.5000    16.7267    16.8368    91.3450
  321.0000    16.5059    16.6028    93.4493
  321.5000    16.3876    16.6006    99.1401
  322.0000    16.4973    16.5984   102.4378
  322.5000    16.6078    16.5957   103.9351
  323.0000    16.6024    16.5936   101.1731
  323.5000    16.7139    16.7070    98.2153
  324.0000    16.7092    16.9380    97.0085
  324.5000    16.9382    17.0537    96.4023
  325.0000    17.0517    17.0511    95.7960
  325.5000    17.0461    17.1674    97.8911
  326.0000    17.1603    17.2846    98.7864
  326.5000    17.1555    17.4026    99.3813
  327.0000    17.1507    17.3998    99.0740
  327.5000    17.1458    17.3975    97.8672
  328.0000    17.1412    17.3947    95.4592
  328.5000    17.1357    17.2722    93.3344
  329.0000    17.1313    17.1506    91.8429
  329.5000    17.0085    17.0298    93.3388
  330.0000    16.8864    16.9094    94.5343
  330.5000    16.7643    16.7904    94.4875
  331.0000    16.6441    16.6722    93.6208
  331.5000    16.6398    16.6546    96.0176
  332.0000    16.4053    16.5521    99.0149
  332.5000    16.1751    16.4356    99.6099
  333.0000    16.1708    16.4334    98.1014
  333.5000    15.9439    16.2044    97.1948
  334.0000    15.8286    16.0903    98.0981
  334.5000    15.7151    16.0882    99.2857
  335.0000    15.7110    15.9750   100.4813
  335.5000    15.7069    15.8620   101.6769
  336.0000    15.5940    15.7503   103.5035
  336.5000    15.5897    15.6394   105.2664
  337.0000    15.4775    15.4219   106.4620
  337.5000    15.3664    15.3132   106.7566
  338.0000    15.2553    15.2051   105.5484
  338.5000    15.2513    15.2031   102.8401
  339.0000    15.2474    15.2010   100.4321
  339.5000    15.2433    15.0936   101.6276
  340.0000    15.2384    15.0916   104.3233
  340.5000    15.2345    15.1947   102.5159
  341.0000    15.2305    15.1922    99.2069
  341.5000    15.2256    15.1902    98.0000
  342.0000    15.2216    15.2945    99.1943
  342.5000    15.2176    15.3984   100.0896
  343.0000    15.2137    15.3959   100.3844
  343.5000    15.1036    15.3939   100.9792
  344.0000    14.8917    15.1799   100.9722
  344.5000    14.7849    15.0660   100.3659
  345.0000    14.4750    14.7602    98.8588
  345.5000    14.2726    14.6563    95.5485
  346.0000    13.9751    14.3526    94.3417
  346.5000    13.8749    14.2384    97.0387
  347.0000    13.6801    13.8594    97.9340
  347.5000    13.5812    13.5722    97.9270
  348.0000    13.3907    13.3835    97.6210
  348.5000    13.2028    13.1970    97.6154
  349.0000    12.9149    13.1041    97.6096
  349.5000    12.8340    12.9219    97.3039
  350.0000    12.7428    12.8307    99.9995
  350.5000    12.6532    12.8282   102.9997
  351.0000    12.4781    12.8251   105.3993
  351.5000    12.5642    12.8226   106.2974
  352.0000    12.5631    12.8201   104.7924
  352.5000    12.7378    12.9068   103.8887
  353.0000    12.8256    12.9941   103.8839
  353.5000    13.0037    13.1731   105.0836
  354.0000    13.1171    13.2621   105.6814
  354.5000    13.2756    13.5377   103.5765
  355.0000    13.4599    13.6290   100.5105
  355.5000    13.5527    13.8169    98.1647
  356.0000    13.4580    13.9097    96.9607
  356.5000    13.3641    13.8102   100.8618
  357.0000    13.1789    13.7121   107.4649
  357.5000    12.9965    13.5205   111.0657
  358.0000    12.8167    13.4245   109.5614
  358.5000    12.6393    13.1448   106.2221
  359.0000    12.4642    12.9612   103.5491
  359.5000    12.2067    12.7802   102.3451
  360.0000    12.0378    12.5088   104.7447
  360.5000    11.8652    12.2539   108.1311
  361.0000    11.6258    12.0828   109.2435
  361.5000    11.5447    11.8317   108.0388
  362.0000    11.4642    11.5852   107.7357
  362.5000    11.3840    11.4234   108.9334
  363.0000    11.3833    11.3422   111.3330
  363.5000    11.3825    11.3400   113.4323
  364.0000    11.4610    11.4956   112.4323
  364.5000    11.5400    11.7350   107.7203
  365.0000    11.7817    12.1467   106.8166
  365.5000    12.1123    12.6636   106.5135
