~VERSION INFORMATION
 VERS.                2.0:   CWLS LOG ASCII STANDARD - VERSION 2.0
 WRAP.                 NO:   ONE LINE PER DEPTH STEP
~WELL INFORMATION
#MNEM.UNIT      DATA TYPE    INFORMATION
#----------   ------------   ------------------------------
 STRT.F            0.0000:   START DEPTH
 STOP.F          678.0000:   STOP DEPTH
 STEP.F            0.5000:   STEP LENGTH
 NULL.          -999.2500:   NO VALUE
 COMP. FENIX & SCISSON INC:   COMPANY
 WELL. 37-21 SX 11 WO #37-11:   WELL
 FLD .             TEAPOT:   FIELD
 LOC .      S11 T38N R78W:   LOCATION
 CNTY.            NATRONA:   COUNTY
 STAT.            WYOMING:   STATE
 CTRY. UNITED STATES OF AMERICA:   COUNTRY
 SRVC.      Dresser Atlas:   SERVICE COMPANY
 DATE.        14-OCT-1983:   LOGDATE
 API .       490251084300:   API NUMBER
~CURVE INFORMATION
#MNEM.UNIT       API CODE    CURVE DESCRIPTION
#----------   ------------   ------------------------------
 DEPT.F                  :   
 SPR .MV     07 010 01 00:   SPONTANEOUS POTENTIAL
 SFLU.OHMM   07 220 01 00:   SPHERICALLY FOCUSED LOG UNAVERAGED RESISTIVITY
 ILM .OHMM   07 120 44 00:   INDUCTION LOG MEDIUM
 ILD .OHMM   07 120 46 00:   INDUCTION LOG DEEP
 NPHI.DEC    42 890 03 00:   NEUTRON POROSITY SANDSTONE
 DPHI.DEC    45 890 12 00:   DENSITY POROSITY SANDSTONE
 RHOB.G/C3   45 350 01 00:   BULK DENSITY
 CORR.G/C3   45 356 01 00:   DENSITY CORRECTION
 GRD .GAPI   45 310 01 00:   GAMMA RAY FROM DENSITY LOG
 CALD.IN     45 280 60 00:   CALIPER
~PARAMETER INFORMATION
#MNEM.UNIT          VALUE    DESCRIPTION
#----------   ------------   ------------------------------
 PD  .                 GL:   PERMANENT DATUM
 EPD .F              5188:   ELEVATION PERMANENT DATUM
 LMF .                 KB:   LOG MEASURED FROM
 DAPD.F                 5:   FEET ABOVE PERMANENT DATUM
 DMF .                 KB:   DRILLING MEASURED FROM
 EKB .F              5193:   KELLING BUSHING
 EGL .F              5188:   GROUND LEVEL
 DATE.           10-14-83:   RUN DATE
 RUN .                  4:   RUN NUMBER
 DD  .F               629:   DEPTH DRILLER
 DL  .F               630:   DEPTH LOGGER
 BLI .F               624:   BOTTOM LOG INTERVAL
 TLI .F               335:   TOP LOG INTERVAL
 BS  .IN             8.75:   BIT SIZE
 BSD .F               629:   BIT SIZE AT DEPTH
 DFT .          KCL WATER:   DRILLING FLUID TYPE
 LUN .               6307:   LOGGING UNIT NUMBER
 LUL .               GLTE:   LOGGING UNIT LOCATION
 ENGI.            DEYOUNG:   RECORDING ENGINEER
 WITN.            SCHULTE:   WITNESSED BY
 CLNT.            A2DTECH:   CLIENT CODE
 ORIG.       2", 5" PRINT:   ORIGIN OF DATA
 UWI .       490251084300:   UNIQUE WELL ID
 DICO. A2D Technologies, Inc.:   DIGITIZING COMPANY
~OTHER INFORMATION
~A    DEPT     SPR       SFLU        ILM        ILD       NPHI       DPHI       RHOB       CORR        GRD       CALD   
# ...
  268.0000   -32.6623     9.6607     9.1092     8.5087     0.2426     0.1010     2.5020     0.0895    92.9256     9.5465
  268.5000   -32.7321     9.5132     9.0352     8.4528     0.2454     0.1057     2.4935     0.0863    92.5204     9.5458
  269.0000   -32.7406     9.3680     8.9619     8.3973     0.2479     0.1074     2.4804     0.0800    93.0930     9.5452
  269.5000   -32.6491     9.2250     8.8892     8.3421     0.2486     0.1091     2.4737     0.0750    94.1519     9.5445
  270.0000   -32.5591     9.0593     8.8172     8.2667     0.2494     0.1155     2.4774     0.0767    93.1629     9.5438
  270.5000   -32.4689     9.0774     8.7335     8.2850     0.2502     0.1239     2.4810     0.0783    94.7297     9.5431
  271.0000   -32.3787     9.0994     8.7987     8.3145     0.2503     0.1249     2.4778     0.0758    96.2295     9.5425
  271.5000   -32.2885     9.1216     8.9030     8.3434     0.2453     0.1230     2.4766     0.0712    97.3306     9.5418
  272.0000   -32.1983     9.1426     9.0085     8.4895     0.2420     0.1209     2.4817     0.0774    98.2810     9.5411
  272.5000   -32.1081     9.3369     9.1152     8.6337     0.2579     0.1234     2.4800     0.0816    97.1946     9.5404
  273.0000   -32.0178     9.5254     9.2232     8.7799     0.2616     0.1239     2.4777     0.0775    96.0236     9.5391
  273.5000   -31.9277     9.7178     9.3325     8.9285     0.2535     0.1206     2.4752     0.0755    93.8595     9.5378
  274.0000   -31.8384     9.9141     9.4431     9.0796     0.2426     0.1201     2.4859     0.0810    91.5585     9.5365
  274.5000   -31.8412    10.1143     9.5550     9.2318     0.2457     0.1225     2.5002     0.0866    90.2259     9.5352
  275.0000   -31.9444    10.3929     9.6683     9.3158     0.2490     0.1245     2.4906     0.0831    92.0183     9.5339
  275.5000   -32.0466    10.3743     9.7477     9.4021     0.2516     0.1184     2.4734     0.0740    93.7151     9.5326
  276.0000   -32.1493    10.3380     9.6697     9.2028     0.2539     0.1085     2.4636     0.0662    95.3953     9.5313
  276.5000   -32.2522    10.2997     9.6104     8.9925     0.2544     0.1176     2.4609     0.0638    95.8246     9.5300
  277.0000   -32.3594    10.0188     9.4584     8.7861     0.2558     0.1266     2.4532     0.0642    94.2357     9.5287
  277.5000   -32.3330     9.6484     9.1250     8.5718     0.2580     0.1318     2.4574     0.0670    92.7206     9.5274
  278.0000   -32.2676     9.4792     8.9703     8.5728     0.2601     0.1310     2.4695     0.0705    92.0654     9.5261
  278.5000   -32.2011     9.4663     8.9585     8.5567     0.2556     0.1381     2.4739     0.0760    92.9398     9.5248
  279.0000   -32.1349     9.4535     8.9466     8.5476     0.2482     0.1344     2.4760     0.0816    94.2576     9.5234
  279.5000   -32.0688     9.4407     8.9349     8.5383     0.2471     0.1289     2.4810     0.0871    94.3561     9.5221
  280.0000   -32.0026     9.4279     8.9231     8.5290     0.2467     0.1253     2.4860     0.0924    93.9065     9.5208
  280.5000   -31.9365     9.4151     8.9114     8.5197     0.2501     0.1240     2.4899     0.0913    96.9594     9.5312
  281.0000   -31.8703     9.4023     8.8996     8.5104     0.2571     0.1207     2.4843     0.0862    95.9358     9.5430
  281.5000   -31.8042     9.3896     8.8879     8.5012     0.2590     0.1173     2.4762     0.0809    96.9744     9.5548
  282.0000   -31.7380     9.3768     8.8762     8.4919     0.2549     0.1138     2.4844     0.0778    95.9433     9.5665
  282.5000   -31.6714     9.3641     8.8645     8.4826     0.2542     0.1180     2.4955     0.0803    94.4884     9.5782
  283.0000   -31.6028     9.3514     8.8528     8.4734     0.2544     0.1227     2.5008     0.0827    95.5342     9.5900
  283.5000   -31.6740     9.3387     8.8411     8.4642     0.2533     0.1176     2.5035     0.0851    97.2370     9.6017
  284.0000   -31.7697     9.3260     8.8295     8.4550     0.2537     0.1123     2.5062     0.0865    98.2774     9.6135
  284.5000   -31.8661     9.3136     8.8179     8.4457     0.2565     0.1081     2.5131     0.0855    96.2877     9.6252
  285.0000   -31.9622     9.3024     8.8062     8.4365     0.2592     0.1058     2.5216     0.0846    97.5461     9.6370
  285.5000   -32.0581     9.2917     8.7946     8.4274     0.2562     0.1034     2.5265     0.0799    98.9812     9.6487
  286.0000   -32.1560     9.2809     8.7830     8.4182     0.2502     0.1007     2.5111     0.0749    96.4795     9.6589
  286.5000   -32.1467     9.2703     8.7715     8.4090     0.2442     0.0977     2.4957     0.0717    96.2633     9.6494
  287.0000   -32.0927     9.2596     8.7599     8.3998     0.2458     0.0947     2.4948     0.0770    97.4660     9.6393
  287.5000   -32.0375     9.2489     8.7484     8.3907     0.2468     0.0984     2.4961     0.0751    96.5442     9.6292
  288.0000   -31.9823     9.2382     8.7368     8.3815     0.2450     0.1104     2.4908     0.0726    94.1883     9.6191
  288.5000   -31.9272     9.2269     8.7253     8.3724     0.2473     0.1174     2.5043     0.0811    93.9379     9.6091
  289.0000   -31.8720     9.2143     8.7138     8.3633     0.2478     0.1090     2.5183     0.0890    96.3541     9.5990
  289.5000   -31.8169     9.2008     8.7024     8.3541     0.2492     0.1133     2.5251     0.0934    97.2820     9.5889
  290.0000   -31.7618     9.1874     8.6909     8.3452     0.2560     0.1168     2.5041     0.0888   100.1215     9.5800
  290.5000   -31.7068     9.1739     8.6795     8.3102     0.2625     0.0993     2.4999     0.0844   101.0522     9.5828
  291.0000   -31.6518     9.1605     8.6681     8.2665     0.2692     0.0952     2.4941     0.0827    99.6642     9.5862
  291.5000   -31.5942     9.1471     8.6545     8.2230     0.2691     0.1016     2.4951     0.0808    98.2666     9.5895
  292.0000   -31.4820     9.1337     8.6714     8.1797     0.2622     0.1097     2.5049     0.0790    96.8393     9.5928
  292.5000   -31.3656     9.1203     8.6943     8.1366     0.2550     0.1146     2.4906     0.0772    96.5661     9.5961
  293.0000   -31.2470     9.1070     8.7173     8.0939     0.2544     0.1122     2.4873     0.0754    96.2758     9.5995
  293.5000   -31.2673     9.0937     8.7403     8.0427     0.2544     0.1097     2.4937     0.0762    94.7376     9.6028
  294.0000   -31.3760     9.0802     8.7633     8.1088     0.2574     0.1151     2.4959     0.0783    94.9886     9.6061
  294.5000   -31.4904     9.0670     8.7865     8.1924     0.2604     0.1180     2.4969     0.0804    96.5570     9.6094
  295.0000   -31.6041     9.0593     8.8097     8.2768     0.2586     0.1150     2.5039     0.0825    96.3186     9.6127
  295.5000   -31.4078     9.3031     8.8829     8.3621     0.2556     0.1141     2.5096     0.0847    95.0145     9.6160
  296.0000   -31.4959     9.4791     8.9677     8.4483     0.2591     0.1119     2.5139     0.0852    93.6194     9.6194
  296.5000   -31.5889     9.6585     9.0533     8.4969     0.2589     0.1074     2.5180     0.0856    96.1029     9.6227
  297.0000   -31.6843     9.8413     9.1397     8.4969     0.2555     0.1031     2.5223     0.0860    98.1603     9.6260
  297.5000   -31.7801    10.0275     9.2269     8.4969     0.2574     0.1012     2.5125     0.0865    97.9055     9.6293
  298.0000   -31.7428    10.2043     9.3150     8.4969     0.2600     0.0993     2.5055     0.0858    96.8440     9.6326
  298.5000   -31.6862    10.1002     9.3972     8.4977     0.2590     0.0974     2.5141     0.0834    95.7940     9.6360
  299.0000   -31.6292    10.0036     9.3221     8.4947     0.2513     0.1016     2.5150     0.0811    95.6687     9.6389
  299.5000   -31.5724     9.9080     9.2529     8.4892     0.2437     0.1067     2.5064     0.0808    98.8838     9.6374
  300.0000   -31.5158     9.8132     9.1839     8.5713     0.2435     0.1016     2.5067     0.0810   100.9443     9.6358
  300.5000   -31.4591     9.7194     9.1157     8.5758     0.2456     0.0972     2.5106     0.0812   100.2073     9.6342
  301.0000   -31.4024     9.6265     9.0479     8.5756     0.2450     0.1049     2.5070     0.0814   101.8191     9.6326
