~VERSION INFORMATION
 VERS.                2.0:   CWLS LOG ASCII STANDARD - VERSION 2.0
 WRAP.                 NO:   ONE LINE PER DEPTH STEP
~WELL INFORMATION
#MNEM.UNIT      DATA TYPE    INFORMATION
#----------   ------------   ------------------------------
 STRT.F           15.0000:   START DEPTH
 STOP.F          557.0000:   STOP DEPTH
 STEP.F            0.5000:   STEP LENGTH
 NULL.          -999.2500:   NO VALUE
 COMP. FENIX & SICISSOR INC.:   COMPANY
 WELL.       NPR #85-S-10:   WELL
 FLD .             TEAPOT:   FIELD
 LOC .      S10 T38N R78W:   LOCATION
 CNTY.            NATRONA:   COUNTY
 STAT.            WYOMING:   STATE
 CTRY. UNITED STATES OF AMERICA:   COUNTRY
 SRVC.           BIRDWELL:   SERVICE COMPANY
 DATE.        27-NOV-1978:   LOGDATE
 API .       490251075300:   API NUMBER
~CURVE INFORMATION
#MNEM.UNIT       API CODE    CURVE DESCRIPTION
#----------   ------------   ------------------------------
 DEPT.F                  :   
 CALD.IN     45 280 60 00:   CALIPER FROM DENSITY LOG
 DPHI.DEC    45 890 12 00:   DENSITY POROSITY SANDSTONE
 GRD .GAPI   45 310 01 00:   GAMMA RAY FROM DENSITY LOG
 RHOB.G/C3   45 350 01 00:   BULK DENSITY
 CORR.G/C3   45 356 01 00:   DENSITY CORRECTION
 ILD .OHMM   05 120 46 00:   INDUCTION LOG DEEP
 SN  .OHMM   05 040 00 00:   SHORT NORMAL
 SPR .MV     05 010 01 00:   SPONTANEOUS POTENTIAL
~PARAMETER INFORMATION
#MNEM.UNIT          VALUE    DESCRIPTION
#----------   ------------   ------------------------------
 PD  .                 GL:   PERMANENT DATUM
 EPD .F              5196:   ELEVATION PERMANENT DATUM
 LMF .                 KB:   LOG MEASURED FROM
 DAPD.F                 4:   FEET ABOVE PERMANENT DATUM
 DMF .                 KB:   DRILLING MEASURED FROM
 EKB .F              5200:   KELLING BUSHING
 EGL .F              5196:   GROUND LEVEL
 DATE.        27-NOV-1978:   RUN DATE
 RUN .                  1:   RUN NUMBER
 DD  .F               557:   DEPTH DRILLER
 DL  .F               551:   DEPTH LOGGER
 BLI .F               545:   BOTTOM LOG INTERVAL
 TLI .F                48:   TOP LOG INTERVAL
 CS  .IN            8.625:   CASING SIZE
 CBD .F                40:   CASING BOTTOM DRILLER
 CBL .F                35:   CASING BOTTOM LOGGER
 BS  .IN            7.875:   BIT SIZE
 BSD .F               557:   BIT SIZE AT DEPTH
 DFT .                KCL:   DRILLING FLUID TYPE
 DFD .                8.8:   DRILLING FLUID DENSITY
 DFV .                 38:   DRILLING FLUID VISCOSITY
 DFPH.               11.1:   DRILLING FLUID PH
 DFL .                 14:   DRILLING FLUID LOSS
 MSS .           FLOWLINE:   MUD SAMPLE SOURCE
 RMS .OHMM           0.32:   RESISTIVITY MUD SAMPLE
 MST .F                58:   MUD SAMPLE TEMPERATURE
 RMF .OHMM           0.31:   RESISTIVITY MUD FILTRATE SAMPLE
 MFST.F                74:   MUD FILTRATE SAMPLE TEMPERATURE
 RMC .OHMM           0.53:   RESISTIVITY MUD CAKE
 MCST.F                75:   MUD CAKE SAMPLE TEMPERATURE
 MFSS.               MEAS:   MUD FILTRATE SAMPLE SOURCE
 MCSS.               MEAS:   MUD CAKE SAMPLE SOURCE
 RMB .OHMM           0.31:   RESISTIVITY MUD AT BHT
 BHT .F                59:   BOTTOM HOLE TEMPERATURE
 TCS .HRS               2:   TIME CURCULATED STOPPED
 MRT .F                59:   MAXIMUM RECORDED TEMPERATURE
 LUN .               2958:   LOGGING UNIT NUMBER
 LUL .             CASPER:   LOGGING UNIT LOCATION
 ENGI.             MILLER:   RECORDING ENGINEER
 WITN.           DINSMORE:   WITNESSED BY
 CLNT.            A2DTECH:   CLIENT CODE
 ORIG.         2.5" PRINT:   ORIGIN OF DATA
 UWI .       490251075300:   UNIQUE WELL ID
 DICO. A2D Technologies, Inc.:   DIGITIZING COMPANY
~OTHER INFORMATION
~A   DEPT     CALD       DPHI         GRD      RHOB       CORR        ILD         SN        SPR   
# ...
   96.0000     8.3816     0.1493   120.1490     2.4310    -0.0033     9.0430     8.3275     0.0244
   96.5000     8.4000     0.1483   119.8524     2.4326    -0.0062     9.0449     8.3275     0.0213
   97.0000     8.3829     0.1472   119.5556     2.4326    -0.0062     9.0468     8.3275     0.0183
   97.5000     8.3835     0.1478   117.6543     2.4326    -0.0062     9.3064     8.4450     0.0152
   98.0000     8.3841     0.1514   115.2587     2.4326    -0.0092     9.3082     8.5642     0.0122
   98.5000     8.3847     0.1496   115.2716     2.4326    -0.0061     9.4416     8.5642    -0.1606
   99.0000     8.3853     0.1453   115.2181     2.4326    -0.0061     9.5768     8.7571    -0.2994
   99.5000     8.3859     0.1435   114.9860     2.4331    -0.0061     9.7139     8.8078    -0.3024
  100.0000     8.3865     0.1429   117.2375     2.4372    -0.0016     9.8531     8.8421    -0.2728
  100.5000     8.3871     0.1435   117.7847     2.4385     0.0069     9.8551     8.9470    -0.1780
  101.0000     8.3877     0.1341   117.7906     2.4433     0.0121     9.9964     9.0519    -0.0832
  101.5000     8.3883     0.1338   116.2533     2.4509     0.0151    10.1396     9.1569     0.0117
  102.0000     8.3789     0.1394   113.4815     2.4570     0.0091    10.1418     9.2618     0.1065
  102.5000     8.3464     0.1451   113.4619     2.4510    -0.0061    10.2012     9.3668     0.2014
  103.0000     8.3288     0.1501   113.1847     2.4435    -0.0059    10.3590     9.4717     0.2962
  103.5000     8.3601     0.1522   112.8820     2.4299     0.0001    10.4367     9.5767     0.4131
  104.0000     8.4222     0.1537   113.9177     2.4238     0.0040    10.4393     9.7382     0.9512
  104.5000     8.4535     0.1537   114.2582     2.4237     0.0062    10.5888     9.8784     1.3877
  105.0000     8.4847     0.1525   114.7531     2.4206     0.0092    10.5910    10.1620     1.7226
  105.5000     8.5160     0.1440   115.3778     2.4179     0.0122    10.5931    10.1648     2.1854
  106.0000     8.5166     0.1374   115.3837     2.4438     0.0183    10.4477    10.1675     2.1898
  106.5000     8.4558     0.1380   115.6983     2.4482     0.0213    10.4499    10.3138     2.1941
  107.0000     8.3031     0.1398   116.0128     2.4489     0.0220    10.4346    10.4732     2.1985
  107.5000     8.2423     0.1391   116.3274     2.4422     0.0153    10.2801    10.7629     2.2029
  108.0000     8.3350     0.1516   112.3210     2.4301     0.0123    10.1671    10.7659     2.2073
  108.5000     8.3986     0.1533   112.3272     2.4241     0.0093     9.9777    10.7689     2.2119
  109.0000     8.4589     0.1554   112.3333     2.4241     0.0093     9.8904    10.7719     1.9112
  109.5000     8.4595     0.1579   112.3395     2.4211     0.0063     9.8925    10.7749     1.8399
  110.0000     8.4509     0.1590   112.3457     2.4149     0.0063     9.7573    10.7780     1.6151
  110.5000     8.4184     0.1578   112.3519     2.4156     0.0103     9.7592    10.7816     1.6204
  111.0000     8.3858     0.1524   111.8951     2.4235     0.0184     9.6253    10.7845     1.6250
  111.5000     8.3560     0.1469   110.8222     2.4323     0.0228     9.6273    10.7874     1.4517
  112.0000     8.4013     0.1433   110.5185     2.4428     0.0245     9.6292    10.7903     1.0244
  112.5000     8.4326     0.1462   109.9081     2.4448     0.0275     9.6312    10.6428     0.7241
  113.0000     8.4332     0.1535   110.5314     2.4304     0.0185     9.4885    10.4976     0.4238
  113.5000     8.4031     0.1528   112.6978     2.4229     0.0155     9.3687    10.3543     0.4285
  114.0000     8.4037     0.1509   113.0123     2.4245     0.0125     9.3395    10.3573     0.4329
  114.5000     8.3429     0.1491   112.9928     2.4275     0.0095     9.2420    10.3602     0.4375
  115.0000     8.3436     0.1469   112.3045     2.4306     0.0095     9.2442    10.2184     0.4421
  115.5000     8.3134     0.1435   111.7956     2.4306     0.0095     9.2462    10.2217     0.3704
  116.0000     8.3141     0.1396   111.4928     2.4308     0.0111     9.3212    10.2246    -0.1593
  116.5000     8.3147     0.1366   111.5000     2.4351     0.0321     9.3810    10.2274    -0.2810
  117.0000     8.3153     0.1347   111.5062     2.4486     0.0427     9.3829    10.2308    -0.7591
  117.5000     8.3160     0.1420   111.8222     2.4549     0.0318     9.3848    10.2332    -0.7537
  118.0000     8.3167     0.1498   113.0627     2.4431     0.0157     9.2559    10.2360    -0.7493
  118.5000     8.3173     0.1528   117.0810     2.4322     0.0079     9.1290    10.2389    -0.7449
  119.0000     8.2871     0.1497   120.1733     2.4302     0.0066     9.1309    10.2418    -0.7405
  119.5000     8.2878     0.1474   120.4879     2.4354     0.0066     9.1328    10.2447    -0.7361
  120.0000     8.2884     0.1501   119.8765     2.4369     0.0036     9.1347    10.2475    -0.7317
  120.5000     8.2890     0.1522   118.9311     2.4339     0.0036     9.1366    10.2504    -0.7271
  121.0000     8.2589     0.1472   118.6538     2.4324     0.0036     9.0110    10.2533    -0.7226
  121.5000     8.2288     0.1437   118.6605     2.4387     0.0129     9.0132    10.2562    -0.7180
  122.0000     8.2294     0.1419   118.6667     2.4435     0.0281     9.0151    10.2590    -0.7134
  122.5000     8.2301     0.1455   118.6728     2.4477     0.0368     8.8915    10.2619    -0.7088
  123.0000     8.2307     0.1458   119.1420     2.4371     0.0232     8.8937    10.2648    -0.7043
  123.5000     8.2313     0.1425   120.8469     2.4408     0.0147     8.7714    10.2682    -0.6988
  124.0000     8.2320     0.1431   123.9393     2.4432     0.0067     8.6511    10.1276    -0.3895
  124.5000     8.2326     0.1485   126.1057     2.4361     0.0068     8.4138     9.9894    -0.3851
  125.0000     8.2332     0.1515   127.3462     2.4266     0.0068     8.2983     9.9924    -0.0759
  125.5000     8.2338     0.1476   126.7348     2.4312     0.0098     8.1754     9.7188    -0.0715
  126.0000     8.2957     0.1438   124.2716     2.4388     0.0128     7.9598     9.5860    -0.0671
  126.5000     8.2963     0.1416   122.7089     2.4434     0.0128     7.9350     9.4469    -0.0879
  127.0000     8.3276     0.1422   121.8143     2.4433     0.0038     7.8521     9.1962    -0.3632
  127.5000     8.3282     0.1499   122.7469     2.4278    -0.0052     7.8541     9.0706    -0.3582
  128.0000     8.3595     0.1540   124.2963     2.4217    -0.0052     7.8032     8.9468    -0.3537
  128.5000     8.3601     0.1581   124.3025     2.4189    -0.0052     7.7480     8.9497    -0.4761
  129.0000     8.3299     0.1563   124.3086     2.4163    -0.0015     7.7499     8.9522    -0.6494
  129.5000     8.3307     0.1532   124.0062     2.4183     0.0009     7.7515     8.9547    -0.6448
  130.0000     8.3313     0.1514   122.4701     2.4255     0.0039     7.7530     8.7100    -0.6395
  130.5000     8.3012     0.1508   120.6242     2.4285     0.0039     7.7546     8.7124    -0.6351
  131.0000     8.3019     0.1509   118.1610     2.4270     0.0009     7.9767     8.7147    -0.6307
  131.5000     8.3025     0.1546   113.8459     2.4210     0.0010     7.9828     8.7171    -0.6263
  132.0000     8.2417     0.1556   113.8519     2.4195    -0.0051     8.0927     8.8425    -0.6220
  132.5000     8.2117     0.1544   113.8323     2.4210    -0.0050     8.2087     8.9698    -0.6174
  133.0000     8.1492     0.1552   113.5041     2.4242    -0.0050     8.2104     8.9723    -0.6128
  133.5000     8.1166     0.1574   112.8673     2.4256    -0.0080     8.2121     9.1015    -0.6082
  134.0000     8.0601     0.1583   112.2305     2.4216    -0.0080     8.2138     9.1040    -0.6037
  134.5000     8.0607     0.1592   111.5936     2.4166    -0.0080     8.2156     9.1066    -0.5991
  135.0000     8.0613     0.1592   110.9568     2.4172    -0.0080     8.2176     9.1091    -0.5945
  135.5000     8.0926     0.1562   110.4486     2.4204    -0.0080     8.2193     8.9849    -0.5899
  136.0000     8.1239     0.1531   113.2849     2.4245    -0.0049     8.2209     9.1143    -0.5846
