~VERSION INFORMATION
 VERS.                2.0:   CWLS LOG ASCII STANDARD - VERSION 2.0
 WRAP.                 NO:   ONE LINE PER DEPTH STEP
~WELL INFORMATION
#MNEM.UNIT      DATA TYPE    INFORMATION
#----------   ------------   ------------------------------
 STRT.F           38.5000:   START DEPTH
 STOP.F          606.0000:   STOP DEPTH
 STEP.F            0.5000:   STEP LENGTH
 NULL.          -999.2500:   NO VALUE
 COMP. FENIX & SCISSON INC:   COMPANY
 WELL.      NPR-X3 #185-2:   WELL
 FLD .             TEAPOT:   FIELD
 LOC .       S2 T38N R78W:   LOCATION
 CNTY.            NATRONA:   COUNTY
 STAT.            WYOMING:   STATE
 CTRY. UNITED STATES OF AMERICA:   COUNTRY
 SRVC.            Unknown:   SERVICE COMPANY
 DATE.        30-JAN-1978:   LOGDATE
 API .       490251056200:   API NUMBER
~CURVE INFORMATION
#MNEM.UNIT       API CODE    CURVE DESCRIPTION
#----------   ------------   ------------------------------
 DEPT.F                  :   
 CALD.IN     45 280 60 00:   CALIPER
 GRD .GAPI   45 310 01 00:   GAMMA RAY FROM DENSITY LOG
 CORR.G/C3   45 356 01 00:   DENSITY CORRECTION
 RHOB.G/C3   45 350 01 00:   BULK DENSITY
 DPHI.DEC    45 890 12 00:   DENSITY POROSITY SANDSTONE
 SPR .MV     05 010 01 00:   SPONTANEOUS POTENTIAL FROM RES.
 SN  .OHMM   05 040 16 00:   SHORT NORMAL 16"
 ILD .OHMM   05 120 46 00:   INDUCTION LOG DEEP
~PARAMETER INFORMATION
#MNEM.UNIT          VALUE    DESCRIPTION
#----------   ------------   ------------------------------
 PD  .                 GL:   PERMANENT DATUM
 EPD .F              5134:   ELEVATION PERMANENT DATUM
 LMF .                 KB:   LOG MEASURED FROM
 DAPD.F                 4:   FEET ABOVE PERMANENT DATUM
 DMF .                 KB:   DRILLING MEASURED FROM
 EKB .F              5138:   KELLING BUSHING
 EGL .F              5134:   GROUND LEVEL
 DATE.            1-30-78:   RUN DATE
 RUN .                  1:   RUN NUMBER
 DD  .F               600:   DEPTH DRILLER
 DL  .F               604:   DEPTH LOGGER
 BLI .F               598:   BOTTOM LOG INTERVAL
 TLI .F                40:   TOP LOG INTERVAL
 CS  .IN            8.625:   CASING SIZE
 CBD .F                40:   CASING BOTTOM DRILLER
 CBL .F                41:   CASING BOTTOM LOGGER
 BS  .IN            7.875:   BIT SIZE
 BSD .F               600:   BIT SIZE AT DEPTH
 DFT .                KCL:   DRILLING FLUID TYPE
 DFD .                8.6:   DRILLING FLUID DENSITY
 DFV .                 34:   DRILLING FLUID VISCOSITY
 DFPH.                 10:   DRILLING FLUID PH
 DFL .                  7:   DRILLING FLUID LOSS
 MSS .                PIT:   MUD SAMPLE SOURCE
 RMS .OHMM            .65:   RESISTIVITY MUD SAMPLE
 MST .F                70:   MUD SAMPLE TEMPERATURE
 RMF .OHMM            1.2:   RESISTIVITY MUD FILTRATE SAMPLE
 MFST.F                64:   MUD FILTRATE SAMPLE TEMPERATURE
 MFSS.               MEAS:   MUD FILTRATE SAMPLE SOURCE
 RMB .OHMM            .64:   RESISTIVITY MUD AT BHT
 BHT .F                71:   BOTTOM HOLE TEMPERATURE
 TCS .HRS               3:   TIME CURCULATED STOPPED
 MRT .F                71:   MAXIMUM RECORDED TEMPERATURE
 LUN .               2958:   LOGGING UNIT NUMBER
 LUL .                CAS:   LOGGING UNIT LOCATION
 ENGI.           REYNOLDS:   RECORDING ENGINEER
 WITN.         HARRINGTON:   WITNESSED BY
 CLNT.            A2DTECH:   CLIENT CODE
 ORIG.        2" 5" PRINT:   ORIGIN OF DATA
 UWI .       490251056200:   UNIQUE WELL ID
 DICO. A2D Technologies, Inc.:   DIGITIZING COMPANY
~OTHER INFORMATION
~A   DEPT     CALD        GRD        CORR      RHOB       DPHI        SPR         SN        ILD   
   38.5000  -999.2500  -999.2500    -0.1756  -999.2500  -999.2500  -999.2500  -999.2500  -999.2500
   39.0000  -999.2500  -999.2500    -0.0674  -999.2500  -999.2500  -999.2500  -999.2500  -999.2500
   39.5000  -999.2500    84.1584     0.0407  -999.2500  -999.2500  -999.2500  -999.2500  -999.2500
   40.0000    19.3528    84.2313     0.1275  -999.2500  -999.2500   -57.7535     2.2484     2.4647
   40.5000    19.1485    84.2986     0.2342  -999.2500  -999.2500   -57.7535     2.2484     2.4647
   41.0000    19.0693    84.3516     0.2862  -999.2500  -999.2500   -57.7535     2.2484     2.4647
   41.5000    18.9442    84.4109     0.2876  -999.2500  -999.2500   -57.7523     2.2578     2.4740
   42.0000    18.1220    84.5507     0.3132  -999.2500  -999.2500   -57.7808     2.2596     2.4677
   42.5000    18.0952    85.3799     0.3316  -999.2500  -999.2500   -55.1548     2.1901     2.4685
   43.0000    18.0990   112.0947     0.3009  -999.2500  -999.2500   -56.2483     1.2153     1.8037
   43.5000    18.0885   113.9546     0.2621  -999.2500  -999.2500   -57.9130     1.9260     2.8028
   44.0000    18.0755   103.2127     0.2385  -999.2500  -999.2500   -59.5747     2.9143     2.1343
   44.5000    18.0626   102.5530     0.2367  -999.2500  -999.2500   -60.9839     3.5172     1.5149
   45.0000    18.0497   108.5065     0.2303  -999.2500  -999.2500   -61.6050     4.3653     2.8635
   45.5000    18.0368   108.6941     0.2083  -999.2500  -999.2500   -61.8174     4.4769     4.7654
   46.0000    18.0239   108.7139     0.1737  -999.2500  -999.2500   -62.6673     4.8182     6.5838
   46.5000    18.0113   110.0719     0.1873  -999.2500  -999.2500   -64.1678     4.8182     5.8294
   47.0000    17.9978   120.6882     0.1147  -999.2500  -999.2500   -66.7385     4.8916     5.3768
   47.5000    17.9877   107.0532     0.1113  -999.2500  -999.2500   -70.0938     5.1966     5.3774
   48.0000    17.7244   111.1443     0.1615  -999.2500  -999.2500   -74.0584     5.5227     6.0616
   48.5000    17.2495   106.6979     0.1978  -999.2500  -999.2500   -76.4297     5.7613     4.6873
   49.0000    17.3978   117.9934     0.2739  -999.2500  -999.2500   -71.9696     5.8306     4.8226
   49.5000    17.6262   104.8844     0.2788  -999.2500  -999.2500   -70.2404     5.8969     5.0566
   50.0000    17.8731   112.0807     0.2504  -999.2500  -999.2500   -76.2914     5.7120     5.1896
   50.5000    18.3397   121.5400     0.2183  -999.2500  -999.2500   -64.3141     5.5297     4.6475
   51.0000    18.7570   121.4392     0.1861  -999.2500  -999.2500   -59.2859     5.9513     4.8530
   51.5000    17.8983   116.3377     0.1827  -999.2500  -999.2500   -65.6894     6.1073     5.1547
   52.0000    15.6879   113.1368     0.1679  -999.2500  -999.2500   -62.6178     6.3464     5.4792
   52.5000    13.4909   108.6550     0.2569  -999.2500  -999.2500   -63.6754     6.1069     5.5047
   53.0000    12.3111   120.3506     0.2239  -999.2500  -999.2500   -64.4497     5.7397     5.5297
   53.5000    11.8034   121.2325     0.3045  -999.2500  -999.2500   -65.6295     6.1158     5.4194
   54.0000    11.9266   121.6318     0.2639  -999.2500  -999.2500   -67.3421     6.4049     5.2836
   54.5000    12.0081   121.1239     0.2995  -999.2500  -999.2500   -69.0233     6.3063     5.5006
   55.0000    11.8296   112.6425     0.3429  -999.2500  -999.2500   -69.0069     6.1739     5.8481
   55.5000    11.6781   106.8827     0.3237  -999.2500  -999.2500   -68.8928     6.5586     6.2309
   56.0000    11.6186   109.5813     0.2788  -999.2500  -999.2500   -69.2641     7.2533     6.1851
   56.5000    11.6003   117.0788     0.2088  -999.2500  -999.2500   -69.6941     7.3755     6.1591
   57.0000    11.7130   118.0592     0.2880     2.0729  -999.2500   -70.0520     7.4189     6.1398
   57.5000    11.9264   122.5275     0.2477     2.0979  -999.2500   -70.3949     7.4626     6.1176
   58.0000    12.0965   127.2494     0.2578     2.0214  -999.2500   -70.7378     7.4870     6.1662
   58.5000    12.1207   137.8013     0.2631     2.1223  -999.2500   -71.0646     7.2873     6.2237
   59.0000    12.0920   140.2390     0.1126     2.0729  -999.2500   -71.0751     7.0844     6.4167
   59.5000    11.9185   139.6317     0.2107     2.0676  -999.2500   -71.0789     7.0873     6.5236
   60.0000    11.6258   137.9006     0.2727     2.1725  -999.2500   -71.2431     6.8933     6.3807
   60.5000    12.0745   137.1090     0.1779     2.0035  -999.2500   -71.6882     6.7596     6.2738
   61.0000    12.1109   139.3847     0.1879     2.1128  -999.2500   -71.6158     6.6274     6.1688
   61.5000    10.1010   143.9777     0.2156     2.2260  -999.2500   -71.5539     6.4977     6.0654
   62.0000    10.2543   146.3388     0.2250     2.2776  -999.2500   -71.4908     6.3706     6.0062
   62.5000    10.0178   147.5245     0.2228     2.2606  -999.2500   -71.6298     6.2460     6.0410
   63.0000     9.9930   142.6993     0.3510     2.2599  -999.2500   -71.9104     6.1238     5.9502
   63.5000     9.9621   140.8729     0.3109     2.2760  -999.2500   -72.1932     6.0518     5.8609
   64.0000     9.9412   140.3453     0.2506     2.2336  -999.2500   -72.4763     6.0315     5.7727
   64.5000     9.9565   140.2027     0.1901     2.4039     0.2028   -72.7598     6.0113     5.6860
   65.0000    10.4400   140.4373     0.1408     2.3766     0.1519   -73.0415     5.9642     5.5999
   65.5000    10.6255   140.9322     0.1362     2.4213     0.1356   -73.2323     5.8884     5.5806
   66.0000    10.2637   144.9835     0.1170     2.4153     0.1339   -73.0525     5.8430     5.6760
   66.5000     9.8579   144.2706     0.1179     2.4437     0.1233   -72.8812     6.1031     5.7994
   67.0000     9.6338   140.1147     0.1203     2.4311     0.1265   -72.7106     6.2888     5.9254
   67.5000     9.6374   135.1513     0.1228     2.4170     0.1308   -72.5399     6.3925     6.0543
   68.0000     9.5822   128.9604     0.1134     2.4326     0.1308   -72.3609     6.4185     6.1739
   68.5000     9.4149   122.4972     0.0977     2.4472     0.1249   -72.1741     6.4341     6.1477
   69.0000     9.3785   121.0387     0.1086     2.4479     0.1402   -71.9872     6.4497     6.1175
   69.5000     9.4042   121.3656     0.1373     2.4422     0.1575   -71.8023     6.4654     6.1280
   70.0000     8.9117   118.6598     0.1527     2.4008     0.1554   -71.6975     6.4811     6.1421
   70.5000     8.5645   115.4705     0.1696     2.3961     0.1555   -71.8272     6.4969     6.1563
   71.0000     8.5359   113.3451     0.1857     2.3998     0.1579   -71.9492     6.5127     6.1705
   71.5000     8.5338   112.6280     0.1959     2.3976     0.1592   -72.0711     6.5285     6.1848
   72.0000     8.5345   111.9458     0.1872     2.3973     0.1583   -72.1930     6.5443     6.1991
   72.5000     8.5350   111.0647     0.1897     2.4152     0.1532   -72.3149     6.5602     6.2134
   73.0000     8.5565   111.5495     0.1934     2.4272     0.1464   -72.4374     6.5760     6.2278
   73.5000     8.6136   112.7125     0.1918     2.4110     0.1360   -72.5589     6.5898     6.2422
   74.0000     8.6419   113.9449     0.1845     2.4155     0.1376   -72.6671     6.6013     6.2566
   74.5000     8.3976   115.0193     0.1773     2.4277     0.1519   -72.4732     6.6128     6.2710
   75.0000     8.4251   116.6248     0.1751     2.4063     0.1531   -72.2805     6.6243     6.2882
   75.5000     8.4599   118.2643     0.1788     2.4037     0.1558   -72.8532     6.6356     6.2528
   76.0000     8.4940   121.8245     0.1671     2.3922     0.1530   -73.0331     6.6445     6.2090
   76.5000     8.4682   125.2005     0.1534     2.4025     0.1520   -72.9803     6.5677     6.1655
   77.0000     8.2987   128.3081     0.1399     2.4142     0.1527   -72.9221     6.5064     6.1222
   77.5000     8.2549   140.6697     0.1287     2.4026     0.1654   -72.8660     6.4456     6.0793
   78.0000     8.2545   144.7894     0.1442     2.3882     0.1690   -72.9158     6.3854     6.0366
   78.5000     8.3949   146.9578     0.1475     2.3649     0.1825   -72.9730     6.3258     5.9943
