~VERSION INFORMATION
 VERS.                2.0:   CWLS LOG ASCII STANDARD - VERSION 2.0
 WRAP.                 NO:   ONE LINE PER DEPTH STEP
~WELL INFORMATION
#MNEM.UNIT      DATA TYPE    INFORMATION
#----------   ------------   ------------------------------
 STRT.F           30.0000:   START DEPTH
 STOP.F          458.0000:   STOP DEPTH
 STEP.F            0.5000:   STEP LENGTH
 NULL.          -999.2500:   NO VALUE
 COMP. FENIX & SCISSON INC:   COMPANY
 WELL. NPR 3 #53 SX 10-10:   WELL
 FLD .             TEAPOT:   FIELD
 LOC .      S10 T38N R78W:   LOCATION
 CNTY.            NATRONA:   COUNTY
 STAT.            WYOMING:   STATE
 CTRY. UNITED STATES OF AMERICA:   COUNTRY
 SRVC.              Welex:   SERVICE COMPANY
 DATE.        16-APR-1977:   LOGDATE
 API .       490251033200:   API NUMBER
~CURVE INFORMATION
#MNEM.UNIT       API CODE    CURVE DESCRIPTION
#----------   ------------   ------------------------------
 DEPT.F                  :   
 SPR .MV     07 010 01 00:   SPONTANEOUS POTENTIAL FROM RES.
 ILD .OHMM   07 120 46 00:   INDUCTION LOG DEEP
 ILM .OHMM   07 120 44 00:   INDUCTION LOG MEDIUM
 SGRD.OHMM   07 220 05 00:   SHALLOW GUARD RESISTIVITY
 GRD .GAPI   45 310 01 00:   GAMMA RAY FROM DENSITY LOG
 CALD.IN     45 280 60 00:   CALIPER FROM DENSITY LOG
 CORR.G/C3   45 356 01 00:   DENSITY CORRECTION
 RHOB.G/C3   45 350 01 00:   BULK DENSITY
 DPHI.DEC    45 890 12 00:   DENSITY POROSITY SANDSTONE
~PARAMETER INFORMATION
#MNEM.UNIT          VALUE    DESCRIPTION
#----------   ------------   ------------------------------
 PD  .                 GL:   PERMANENT DATUM
 EPD .F              5180:   ELEVATION PERMANENT DATUM
 LMF .                 GL:   LOG MEASURED FROM
 DMF .                 GL:   DRILLING MEASURED FROM
 EGL .F              5180:   GROUND LEVEL
 DATE.        16-APR-1977:   RUN DATE
 RUN .                  1:   RUN NUMBER
 DD  .F               455:   DEPTH DRILLER
 DL  .F               461:   DEPTH LOGGER
 BLI .F               459:   BOTTOM LOG INTERVAL
 TLI .F                30:   TOP LOG INTERVAL
 CS  .IN            8.625:   CASING SIZE
 BS  .IN            7.875:   BIT SIZE
 BSD .F               455:   BIT SIZE AT DEPTH
 DFT .            KCL MUD:   DRILLING FLUID TYPE
 DFD .                8.9:   DRILLING FLUID DENSITY
 TCS .HRS            0600:   TIME CURCULATED STOPPED
 MRT .F                66:   MAXIMUM RECORDED TEMPERATURE
 ENGI.               DOAK:   RECORDING ENGINEER
 WITN.      B. HARRINGTON:   WITNESSED BY
 CLNT.            A2DTECH:   CLIENT CODE
 ORIG.           5" PRINT:   ORIGIN OF DATA
 UWI .       490251033200:   UNIQUE WELL ID
 DICO. A2D Technologies, Inc.:   DIGITIZING COMPANY
~OTHER INFORMATION
~A   DEPT      SPR        ILD        ILM       SGRD         GRD        CALD      CORR        RHOB     DPHI   
# ...
  358.5000   -43.2137    23.5353    22.7064    29.5322    80.7165     7.7913     0.0146     2.3957     0.1525
  359.0000   -43.1900    23.3877    24.1810    30.1679    80.1456     7.7933     0.0163     2.3958     0.1522
  359.5000   -43.1663    21.8387    23.8620    30.6049    79.2782     7.7952     0.0164     2.3959     0.1515
  360.0000   -43.1426    22.6209    22.7439    30.8343    78.2619     7.7823     0.0166     2.3959     0.1512
  360.5000   -43.1190    22.1703    23.3979    30.6345    75.9083     7.7842     0.0167     2.3953     0.1503
  361.0000   -43.0953    20.9902    24.9140    30.2305    73.7033     7.7861     0.0169     2.3939     0.1500
  361.5000   -43.0716    20.4271    25.6233    30.0388    74.9158     7.7881     0.0170     2.3902     0.1523
  362.0000   -43.2022    21.1621    23.7630    29.4424    78.5057     7.8049     0.0172     2.3850     0.1555
  362.5000   -43.3269    20.5975    22.9649    29.4587    79.7425     7.8068     0.0173     2.3814     0.1583
  363.0000   -43.6000    19.9099    23.6252    29.2678    79.1471     7.8088     0.0160     2.3845     0.1595
  363.5000   -43.5704    20.0605    24.8071    28.6867    80.3601     7.8107     0.0146     2.3936     0.1552
  364.0000   -43.7010    20.3525    21.3211    28.3084    87.5162     7.8127     0.0148     2.3907     0.1517
  364.5000   -43.6714    20.0823    21.0370    27.7425    86.9456     7.8146     0.0149     2.3908     0.1525
  365.0000   -43.6477    19.5496    22.2457    27.1842    86.9694     7.8165     0.0166     2.3991     0.1502
  365.5000   -43.6240    18.8970    20.9179    26.8257    90.1135     7.8036     0.0182     2.4097     0.1428
  366.0000   -43.6003    17.4031    19.5285    26.2931    93.5549     7.8055     0.0199     2.4158     0.1371
  366.5000   -43.7309    16.5885    20.3697    25.5900    96.8476     7.7925     0.0215     2.4219     0.1314
  367.0000   -43.9981    16.6014    21.0979    24.9057    97.2185     7.8094     0.0232     2.4280     0.1264
  367.5000   -43.9744    16.4946    20.9641    24.0726    94.5178     7.7964     0.0264     2.4296     0.1247
  368.0000   -43.9507    15.9465    20.5450    23.5882    91.5718     7.7834     0.0280     2.4274     0.1258
  368.5000   -43.9270    15.3079    19.7209    22.9606    89.0696     7.7854     0.0282     2.4335     0.1274
  369.0000   -43.9033    14.8995    18.7994    22.1926    87.1617     7.7724     0.0283     2.4396     0.1246
  369.5000   -43.8797    14.7040    18.0429    21.3025    84.8081     7.7744     0.0285     2.4404     0.1222
  370.0000   -43.8560    14.3118    18.0553    20.5899    80.0771     7.7465     0.0286     2.4338     0.1246
  370.5000   -43.8323    14.3207    17.5725    20.0393    78.9062     7.7335     0.0272     2.4309     0.1270
  371.0000   -43.8086    14.2308    15.8499    19.5034    80.2732     7.7355     0.0274     2.4430     0.1239
  371.5000   -43.9392    14.0441    15.7472    19.1131    82.3773     7.7374     0.0276     2.4551     0.1194
  372.0000   -43.9096    13.3888    16.0883    19.1241    83.2926     7.7393     0.0292     2.4604     0.1146
  372.5000   -43.8860    12.9417    16.6635    19.0024    83.0192     7.7413     0.0324     2.4643     0.1112
  373.0000   -43.8623    13.0397    17.6209    18.8819    83.1916     7.7432     0.0325     2.4666     0.1112
  373.5000   -43.8386    12.6918    18.1251    18.7626    86.1406     7.7451     0.0327     2.4652     0.1115
  374.0000   -43.8149    12.6997    17.5188    18.9032    92.8490     7.7471     0.0298     2.4615     0.1118
  374.5000   -43.7912    12.7076    16.8161    19.0449    95.0490     7.7639     0.0270     2.4556     0.1153
  375.0000   -43.7676    12.8037    15.8102    19.1877    96.1119     7.7659     0.0226     2.4489     0.1189
  375.5000   -43.7439    12.7234    14.5593    19.1983    97.0506     7.7678     0.0212     2.4408     0.1225
  376.0000   -43.7202    12.3840    13.5941    19.3422    98.0654     7.7548     0.0183     2.4266     0.1300
  376.5000   -43.6965    11.8030    13.4146    19.2191    97.4012     7.7568     0.0185     2.4177     0.1326
  377.0000   -43.8212    11.7321    14.5834    18.3215    95.1749     7.7587     0.0202     2.4230     0.1326
  377.5000   -43.9466    11.9911    16.1861    18.2049    93.0163     7.7606     0.0234     2.4329     0.1278
  378.0000   -44.0712    12.0762    16.6568    18.2154    91.5552     7.7626     0.0235     2.4382     0.1241
  378.5000   -44.0469    11.9927    15.7619    18.2254    91.3246     7.7645     0.0237     2.4361     0.1244
  379.0000   -44.1721    11.7612    15.0255    17.7381    91.8158     7.7665     0.0253     2.4347     0.1262
  379.5000   -44.2963    11.7687    14.8273    17.6256    92.9400     7.7684     0.0239     2.4355     0.1265
  380.0000   -44.2726    11.9400    14.4307    17.7577    95.0223     7.7703     0.0226     2.4401     0.1252
  380.5000   -44.3976    12.0301    14.3392    18.1399    97.2926     7.7723     0.0212     2.4469     0.1213
  381.0000   -44.3736    11.7904    14.2482    18.1500    99.0787     7.7742     0.0214     2.4418     0.1204
  381.5000   -44.3499    11.6221    14.3551    17.7868   100.4384     7.7761     0.0200     2.4366     0.1234
  382.0000   -44.3262    11.3896    14.4627    17.5526   102.1129     7.7781     0.0187     2.4322     0.1275
  382.5000   -44.3026    11.2543    14.5711    17.2017   104.0491     7.7800     0.0143     2.4263     0.1317
  383.0000   -44.2789    11.1836    14.7008    16.9613   103.2106     7.7820     0.0085     2.4204     0.1350
  383.5000   -44.2552    10.6635    15.1249    17.4605   100.6122     7.7839     0.0071     2.4144     0.1379
  384.0000   -44.2315    10.4510    16.0127    18.0848    91.6465     7.7858     0.0027     2.4130     0.1406
  384.5000   -44.2077    10.6031    16.7689    18.4740    89.2327     7.7878     0.0013     2.4146     0.1415
  385.0000   -44.1840    11.0592    15.4789    18.7416    90.4904     7.7897     0.0000     2.4162     0.1415
  385.5000   -44.1602    11.2980    15.0292    18.4945    92.1040     7.7916    -0.0029     2.4186     0.1390
  386.0000   -44.1365    11.3817    15.6766    18.1248    92.1278     7.7936    -0.0012     2.4217     0.1354
  386.5000   -44.1128    11.3102    15.1522    17.7625    91.5438     7.7955     0.0020     2.4270     0.1306
  387.0000   -44.0890    11.2410    14.3447    17.4072    90.8375     7.7975     0.0067     2.4369     0.1261
  387.5000   -44.0653    11.2480    14.2517    17.0595    91.6418     7.7994     0.0143     2.4520     0.1212
  388.0000   -44.0415    11.1774    14.6615    16.9511    93.8811     7.8013     0.0205     2.4611     0.1152
  388.5000   -44.0184    11.0290    15.8289    16.4980    95.2298     7.7884     0.0252     2.4672     0.1089
  389.0000   -44.1431    10.9598    16.3948    16.5071    96.2932     7.7903     0.0268     2.4710     0.1064
  389.5000   -44.1187    10.9683    16.0670    16.7462    97.6746     7.8071     0.0285     2.4741     0.1046
  390.0000   -44.0950    10.8244    15.2108    16.9888    98.8658     7.8091     0.0271     2.4757     0.1034
  390.5000   -44.0712    10.9063    13.8149    16.9982    99.3250     7.8110     0.0227     2.4732     0.1040
  391.0000   -44.0475    10.9130    13.2608    17.0076    97.5395     7.8130     0.0199     2.4687     0.1054
  391.5000   -44.0237    10.8429    13.9261    16.5528    96.8466     7.8149     0.0155     2.4616     0.1096
  392.0000   -44.0000    10.7006    13.7424    16.5619    97.1758     7.8019     0.0111     2.4562     0.1144
  392.5000   -43.9763    10.4168    13.1894    16.1189    97.9495     7.8039     0.0098     2.4543     0.1172
  393.0000   -43.9537    10.1373    13.1985    15.5798    99.0194     7.7760     0.0099     2.4560     0.1174
  393.5000   -44.0784    10.0737    13.4825    15.5885   100.0688     7.7779     0.0101     2.4602     0.1165
  394.0000   -44.3455    10.0815    14.1590    15.5971   100.8707     7.7799     0.0120     2.4655     0.1106
  394.5000   -44.4761    10.0878    13.5911    15.6057   103.6870     7.7818     0.0164     2.4708     0.1036
