~VERSION INFORMATION
 VERS.                2.0:   CWLS LOG ASCII STANDARD - VERSION 2.0
 WRAP.                 NO:   ONE LINE PER DEPTH STEP
~WELL INFORMATION
#MNEM.UNIT      DATA TYPE    INFORMATION
#----------   ------------   ------------------------------
 STRT.F         1400.0000:   START DEPTH
 STOP.F         3422.0000:   STOP DEPTH
 STEP.F            0.5000:   STEP LENGTH
 NULL.          -999.2500:   NO VALUE
 COMP. LAWRENCE/ALLISON INC:   COMPANY
 WELL.   NPR 3 #36-STX-23:   WELL
 FLD .             TEAPOT:   FIELD
 LOC .      S23 T38N R78W:   LOCATION
 CNTY.            NATRONA:   COUNTY
 STAT.            WYOMING:   STATE
 CTRY. UNITED STATES OF AMERICA:   COUNTRY
 SRVC.            Unknown:   SERVICE COMPANY
 DATE.        04-JAN-1985:   LOGDATE
 API .       490251137700:   API NUMBER
~CURVE INFORMATION
#MNEM.UNIT       API CODE    CURVE DESCRIPTION
#----------   ------------   ------------------------------
 DEPT.F                  :   
 ROP .MIN/FT 91 810 01 00:   RAT OF DRILLING PENETRATION
 TGAS.UNITS  91 830 01 00:   TOTAL GAS UNIT
~PARAMETER INFORMATION
#MNEM.UNIT          VALUE    DESCRIPTION
#----------   ------------   ------------------------------
 DATE.           1-4-1985:   RUN DATE
 RUN .                  1:   RUN NUMBER
 DD  .F              3427:   DEPTH DRILLER
 TLI .F              1400:   TOP LOG INTERVAL
 BSD .F              3427:   BIT SIZE AT DEPTH
 WITN. RAY ANDERSON/JACK HARBISON:   WITNESSED BY
 CLNT.            A2DTECH:   CLIENT CODE
 ORIG.           5" PRINT:   ORIGIN OF DATA
 UWI .       490251137700:   UNIQUE WELL ID
 DICO. A2D Technologies, Inc.:   DIGITIZING COMPANY
~OTHER INFORMATION
~A  DEPT       ROP       TGAS   
# ...
 2736.5000     0.4695    74.6790
 2737.0000     0.4024    74.6545
 2737.5000     0.3258    74.6301
 2738.0000     0.2683    74.6056
 2738.5000     0.3359    89.2870
 2739.0000     0.3457   108.8704
 2739.5000     0.3460   123.5518
 2740.0000     0.3558   136.2725
 2740.5000     0.3581   138.1863
 2741.0000     0.3609   138.1371
 2741.5000     0.3637   138.0879
 2742.0000     0.3665   138.0388
 2742.5000     0.3693   138.9706
 2743.0000     0.3721   140.8817
 2743.5000     0.3749   140.8326
 2744.0000     0.3777   141.7647
 2744.5000     0.3805   141.7148
 2745.0000     0.3833   141.6656
 2745.5000     0.3846   140.6361
 2746.0000     0.3846   140.5870
 2746.5000     0.3846   140.5379
 2747.0000     0.3846   140.4888
 2747.5000     0.3846   140.4396
 2748.0000     0.3846   140.3905
 2748.5000     0.3846   140.3414
 2749.0000     0.3846   140.2923
 2749.5000     0.3846   140.2431
 2750.0000     0.3846   140.1940
 2750.5000     0.3846   140.1449
 2751.0000     0.3846   140.0958
 2751.5000     0.3846   140.0467
 2752.0000     0.3846   139.9975
 2752.5000     0.3846   139.9484
 2753.0000     0.3846   139.8993
 2753.5000     0.3846   139.8502
 2754.0000     0.3846   139.8010
 2754.5000     0.3846   139.7519
 2755.0000     0.3846   139.7028
 2755.5000     0.3846   140.6464
 2756.0000     0.3846   140.5849
 2756.5000     0.3846   141.5285
 2757.0000     0.3846   141.4671
 2757.5000     0.3846   142.3984
 2758.0000     0.3846   142.3492
 2758.5000     0.3846   143.2928
 2759.0000     0.3846   142.2510
 2759.5000     0.3846   142.2019
 2760.0000     0.3846   142.1528
 2760.5000     0.3846   142.1037
 2761.0000     0.3846   141.5733
 2761.5000     0.3846   140.3503
 2762.0000     0.3846   139.0151
 2762.5000     0.3846   138.9660
 2763.0000     0.3846   139.9095
 2763.5000     0.3846   139.8481
 2764.0000     0.3846   139.7990
 2764.5000     0.3846   139.7499
 2765.0000     0.3846   139.7008
 2765.5000     0.3846   138.0985
 2766.0000     0.3846   228.9089
 2766.5000     0.3846   312.4402
 2767.0000     0.3846   333.9105
 2767.5000     0.3846   333.8123
 2768.0000     0.3846   331.7532
 2768.5000     0.3846   331.6550
 2769.0000     0.3846   333.5421
 2769.5000     0.3846   335.4046
 2770.0000     0.3846   335.2818
 2770.5000     0.3846   331.2621
 2771.0000     0.3846   327.2422
 2771.5000     0.3846   323.2224
 2772.0000     0.3846   323.1241
 2772.5000     0.3846   323.0259
 2773.0000     0.3942   322.9277
 2773.5000     0.3935   324.8148
 2774.0000     0.3929   326.6773
 2774.5000     0.3922   326.5545
 2775.0000     0.3915   326.4563
 2775.5000     0.3908   326.3580
 2776.0000     0.3901   326.2598
 2776.5000     0.3894   328.1223
 2777.0000     0.3888   329.9849
 2777.5000     0.3881   329.8866
 2778.0000     0.3874   329.7884
 2778.5000     0.3867   325.7686
 2779.0000     0.3860   325.6703
 2779.5000     0.3853   325.5721
 2780.0000     0.3846   325.4820
 2780.5000     0.3817   323.4230
 2781.0000     0.3787   311.5600
 2781.5000     0.3757   297.7363
 2782.0000     0.3654   283.9126
 2782.5000     0.3654   268.1280
 2783.0000     0.3654   254.3043
 2783.5000     0.3654   240.4806
 2784.0000     0.3654   228.6176
 2784.5000     0.3654   220.6762
 2785.0000     0.3654   214.6957
 2785.5000     0.3654   210.6759
 2786.0000     0.3654   206.6560
 2786.5000     0.3654   204.5970
 2787.0000     0.3653   202.5380
 2787.5000     0.3648   202.4397
 2788.0000     0.3642   202.3415
 2788.5000     0.3637   200.2824
 2789.0000     0.3631   200.1842
 2789.5000     0.3625   200.0860
 2790.0000     0.3620   201.9731
 2790.5000     0.3614   202.9348
 2791.0000     0.3609   204.5549
 2791.5000     0.3603   206.1749
 2792.0000     0.3597   207.4510
 2792.5000     0.3592   207.3478
 2793.0000     0.3586   209.2349
 2793.5000     0.3580   211.0975
 2794.0000     0.3575   209.0139
 2794.5000     0.3569   208.9156
 2795.0000     0.3564   208.8174
 2795.5000     0.3558   208.7191
 2796.0000     0.4082   210.6062
 2796.5000     0.4638   210.4835
 2797.0000     0.5193   212.3706
 2797.5000     0.5748   212.2477
 2798.0000     0.6250   212.1495
 2798.5000     0.6246   206.1689
 2799.0000     0.6242   204.1099
 2799.5000     0.6238   204.0116
 2800.0000     0.6235   204.1121
 2800.5000     0.6231   205.1556
 2801.0000     0.6227   206.1990
 2801.5000     0.6223   207.2424
 2802.0000     0.6219   207.8431
 2802.5000     0.6216   207.8431
 2803.0000     0.6212   207.8431
 2803.5000     0.6208   207.8431
 2804.0000     0.6204   207.8431
 2804.5000     0.6201   207.8431
 2805.0000     0.6197   207.8431
 2805.5000     0.6193   207.8431
 2806.0000     0.6189   207.8431
 2806.5000     0.6186   207.8431
 2807.0000     0.6182   207.8431
 2807.5000     0.6178   207.8431
 2808.0000     0.6174   207.8431
 2808.5000     0.6170   207.8431
 2809.0000     0.6167   207.8431
 2809.5000     0.6163   207.8431
 2810.0000     0.6159   207.8431
 2810.5000     0.6155   205.5388
 2811.0000     0.6058   204.6261
 2811.5000     0.6063   203.7134
 2812.0000     0.6068   202.8007
 2812.5000     0.6074   201.8880
 2813.0000     0.6079   200.9753
 2813.5000     0.6084   200.0626
 2814.0000     0.6089   199.1499
 2814.5000     0.6094   198.2372
 2815.0000     0.6099   197.3245
 2815.5000     0.6104   196.4118
 2816.0000     0.6109   195.4991
 2816.5000     0.6114   194.5864
 2817.0000     0.6120   193.2901
 2817.5000     0.6125   191.5885
 2818.0000     0.6130   189.8870
 2818.5000     0.6135   188.1854
 2819.0000     0.6140   186.4839
 2819.5000     0.6145   184.7823
 2820.0000     0.6150   183.0808
 2820.5000     0.6155   181.3792
 2821.0000     0.6161   180.2164
 2821.5000     0.6167   179.1849
 2822.0000     0.6172   178.1533
 2822.5000     0.6178   177.1217
 2823.0000     0.6198   176.0902
 2823.5000     0.6226   175.0586
 2824.0000     0.6254   174.0271
 2824.5000     0.6283   172.9955
 2825.0000     0.6410   171.9640
 2825.5000     0.6798   170.9324
 2826.0000     0.7186   169.9009
 2826.5000     0.7370   168.8693
 2827.0000     0.6885   167.8378
 2827.5000     0.6603   166.6667
 2828.0000     0.6423   165.9115
 2828.5000     0.6410   165.0382
 2829.0000     0.6391   164.1649
 2829.5000     0.6372   163.2916
 2830.0000     0.6353   162.4183
 2830.5000     0.6334   161.5450
 2831.0000     0.6315   158.8235
 2831.5000     0.6296   158.8235
 2832.0000     0.6278   156.8627
 2832.5000     0.6259   156.8627
 2833.0000     0.6240   156.8627
 2833.5000     0.6221   156.8627
 2834.0000     0.6202   156.8627
 2834.5000     0.6183   156.8627
 2835.0000     0.6164   156.8627
 2835.5000     0.6145   156.8627
 2836.0000     0.6126   156.8627
 2836.5000     0.6108   156.8627
 2837.0000     0.6089   156.8627
 2837.5000     0.6070   156.8627
 2838.0000     0.6051   156.8627
 2838.5000     0.6032   156.8627
 2839.0000     0.6013   156.8627
 2839.5000     0.5994   156.8627
 2840.0000     0.5975   156.4076
 2840.5000     0.5966   154.5835
 2841.0000     0.5971   152.7443
 2841.5000     0.5976   152.2435
 2842.0000     0.5981   151.6006
 2842.5000     0.5986   150.9577
 2843.0000     0.5990   150.3815
 2843.5000     0.5995   152.2684
 2844.0000     0.6000   154.1062
 2844.5000     0.6005   154.0077
 2845.0000     0.6010   153.9093
 2845.5000     0.6014   153.8108
 2846.0000     0.6019   155.6978
 2846.5000     0.6024   155.5747
 2847.0000     0.6029   153.5155
 2847.5000     0.6034   155.4024
 2848.0000     0.6038   155.2794
 2848.5000     0.6043   155.1809
 2849.0000     0.6048   155.0824
 2849.5000     0.6053   154.9840
 2850.0000     0.6154   154.8856
 2850.5000     0.5967   152.8263
 2851.0000     0.5993   152.7279
 2851.5000     0.6023   152.6294
 2852.0000     0.6052   152.5310
 2852.5000     0.6081   150.4717
 2853.0000     0.6110   150.3733
 2853.5000     0.6140   150.2749
 2854.0000     0.6169   150.1961
 2854.5000     0.6198   150.4567
 2855.0000     0.6227   151.9649
 2855.5000     0.6257   151.8628
 2856.0000     0.6286   151.7647
 2856.5000     0.6315   151.6666
 2857.0000     0.6345   151.5629
 2857.5000     0.6374   147.5428
