~VERSION INFORMATION
 VERS.                2.0:   CWLS LOG ASCII STANDARD - VERSION 2.0
 WRAP.                 NO:   ONE LINE PER DEPTH STEP
~WELL INFORMATION
#MNEM.UNIT      DATA TYPE    INFORMATION
#----------   ------------   ------------------------------
 STRT.F           33.0000:   START DEPTH
 STOP.F         1374.0000:   STOP DEPTH
 STEP.F            0.5000:   STEP LENGTH
 NULL.          -999.2500:   NO VALUE
 COMP. FENIX & SCISSON INC:   COMPANY
 WELL.   NPR-3 "S" #84-14:   WELL
 FLD .             TEAPOT:   FIELD
 LOC .      S14 T38N R78W:   LOCATION
 CNTY.            NATRONA:   COUNTY
 STAT.            WYOMING:   STATE
 CTRY. UNITED STATES OF AMERICA:   COUNTRY
 SRVC.            Unknown:   SERVICE COMPANY
 DATE.        18-MAR-1978:   LOGDATE
 API .       490251060400:   API NUMBER
~CURVE INFORMATION
#MNEM.UNIT       API CODE    CURVE DESCRIPTION
#----------   ------------   ------------------------------
 DEPT.F                  :   
 SPR .MV     05 010 01 00:   SPONTANEOUS POTENTIAL FROM RES.
 SN  .OHMM   05 040 16 00:   SHORT NORMAL 16"
 ILD .OHMM   05 120 46 00:   INDUCTION LOG DEEP
 CALD.IN     45 280 60 00:   CALIPER
 GRD .GAPI   45 310 01 00:   GAMMA RAY FROM DENSITY LOG
 CORR.G/C3   45 356 01 00:   DENSITY CORRECTION
 RHOB.G/C3   45 350 01 00:   BULK DENSITY
 DPHI.DEC    45 890 00 00:   DENSITY POROSITY
~PARAMETER INFORMATION
#MNEM.UNIT          VALUE    DESCRIPTION
#----------   ------------   ------------------------------
 PD  .                 GL:   PERMANENT DATUM
 EPD .F              5314:   ELEVATION PERMANENT DATUM
 LMF .                 KB:   LOG MEASURED FROM
 DMF .                 KB:   DRILLING MEASURED FROM
 EKB .F              5318:   KELLING BUSHING
 EGL .F              5314:   GROUND LEVEL
 DATE.          3-18-1978:   RUN DATE
 RUN .                  1:   RUN NUMBER
 DD  .F              1375:   DEPTH DRILLER
 DL  .F              1380:   DEPTH LOGGER
 BLI .F              1374:   BOTTOM LOG INTERVAL
 TLI .F                50:   TOP LOG INTERVAL
 CS  .IN            8.625:   CASING SIZE
 CBD .F                40:   CASING BOTTOM DRILLER
 CBL .F                50:   CASING BOTTOM LOGGER
 BS  .IN            7.875:   BIT SIZE
 BSD .F              1375:   BIT SIZE AT DEPTH
 DFT .                KCL:   DRILLING FLUID TYPE
 DFD .                8.1:   DRILLING FLUID DENSITY
 DFV .                 31:   DRILLING FLUID VISCOSITY
 DFPH.                 10:   DRILLING FLUID PH
 DFL .                8.4:   DRILLING FLUID LOSS
 MSS .           FLOWLINE:   MUD SAMPLE SOURCE
 RMS .OHMM            .28:   RESISTIVITY MUD SAMPLE
 MST .F                62:   MUD SAMPLE TEMPERATURE
 RMF .OHMM            .26:   RESISTIVITY MUD FILTRATE SAMPLE
 MFST.F                67:   MUD FILTRATE SAMPLE TEMPERATURE
 RMC .OHMM            .36:   RESISTIVITY MUD CAKE
 MCST.F                70:   MUD CAKE SAMPLE TEMPERATURE
 MFSS.               MEAS:   MUD FILTRATE SAMPLE SOURCE
 RMB .OHMM            .22:   RESISTIVITY MUD AT BHT
 BHT .F                80:   BOTTOM HOLE TEMPERATURE
 TCS .HRS               4:   TIME CURCULATED STOPPED
 MRT .F                80:   MAXIMUM RECORDED TEMPERATURE
 LUN .               2958:   LOGGING UNIT NUMBER
 LUL .               CASP:   LOGGING UNIT LOCATION
 ENGI.             MILLER:   RECORDING ENGINEER
 WITN.           MCGINLEY:   WITNESSED BY
 CLNT.            A2DTECH:   CLIENT CODE
 ORIG.      2" & 5" PRINT:   ORIGIN OF DATA
 UWI .       490251060400:   UNIQUE WELL ID
 DICO. A2D Technologies, Inc.:   DIGITIZING COMPANY
~OTHER INFORMATION
~A   DEPT      SPR         SN        ILD       CALD         GRD      CORR       RHOB       DPHI   
# ...
  721.5000   -55.0960     2.5393     2.2591     7.5262   101.2830     0.0068     2.3834     0.1376
  722.0000   -55.2640     2.7897     2.3589     7.5245    97.7898     0.0109     2.4119     0.1293
  722.5000   -55.4198     3.1025     2.5194     7.5251    94.1642     0.0147     2.4160     0.1333
  723.0000   -55.5756     3.4504     2.7009     7.5330    93.2737     0.0193     2.4135     0.1350
  723.5000   -55.6122     3.7213     2.9931     7.5407    93.6768     0.0179     2.4143     0.1376
  724.0000   -55.5348     3.8159     3.3147     7.5483    94.2185     0.0165     2.4082     0.1450
  724.5000   -55.4566     3.7772     3.4718     7.5560    97.2598     0.0151     2.3968     0.1530
  725.0000   -55.5684     3.7020     3.5443     7.5637   100.3530     0.0172     2.3854     0.1541
  725.5000   -55.8287     3.6283     3.4165     7.5713   103.1116     0.0194     2.3794     0.1550
  726.0000   -56.5093     3.5441     3.2618     7.5790   102.9704     0.0197     2.3761     0.1639
  726.5000   -56.9038     3.3705     3.0848     7.5867   102.8673     0.0173     2.3667     0.1741
  727.0000   -57.1249     3.2192     2.9742     7.5943   104.1559     0.0203     2.3419     0.1741
  727.5000   -57.0631     3.0747     2.8182     7.6020   105.6046     0.0195     2.3417     0.1812
  728.0000   -56.3380     2.9366     2.6788     7.6097   107.0536     0.0178     2.3335     0.1886
  728.5000   -56.4912     2.8140     2.3918     7.6173   108.4999     0.0161     2.3233     0.1974
  729.0000   -56.2934     2.6651     2.2004     7.6231   109.5558     0.0165     2.3055     0.2046
  729.5000   -55.5481     2.5040     2.0362     7.6150   110.2381     0.0204     2.2852     0.2028
  730.0000   -55.5904     2.3608     2.0663     7.6037   110.4239     0.0229     2.3030     0.1892
  730.5000   -55.1475     2.4173     2.1304     7.5924   110.4392     0.0194     2.3326     0.1664
  731.0000   -54.0004     2.5048     2.1966     7.5811   111.7844     0.0066     2.3623     0.1435
  731.5000   -53.6802     2.6723     2.2964     7.5699   110.8866    -0.0056     2.3928     0.1274
  732.0000   -53.7066     2.9317     2.4414     7.5624   106.4029    -0.0050     2.4180     0.1162
  732.5000   -53.7471     3.2981     2.5952     7.5607   101.9436    -0.0056     2.4401     0.1206
  733.0000   -53.7870     3.7281     2.7590     7.5590    97.4345    -0.0063     2.4385     0.1258
  733.5000   -53.8257     4.2142     3.1027     7.5573    96.5175    -0.0059     2.4253     0.1258
  734.0000   -53.8643     4.4202     3.6212     7.5556    97.7045    -0.0003     2.4257     0.1169
  734.5000   -53.9029     4.5651     4.2253     7.5539    99.8513     0.0051     2.4354     0.1104
  735.0000   -53.9416     4.7144     4.3973     7.5522   101.0795     0.0105     2.4482     0.1086
  735.5000   -53.9802     4.8483     4.4230     7.5505   100.8778     0.0152     2.4578     0.1086
  736.0000   -54.0188     4.9631     4.4230     7.5488   100.5248     0.0150     2.4549     0.1090
  736.5000   -54.0575     5.0787     4.4640     7.5471   100.6410     0.0173     2.4526     0.1063
  737.0000   -54.0961     5.2546     4.5900     7.5454   101.2490     0.0198     2.4571     0.1034
  737.5000   -54.1348     5.4629     4.7510     7.5437    99.9821     0.0223     2.4620     0.1014
  738.0000   -54.1735     5.6792     4.9176     7.5353    97.1713     0.0228     2.4669     0.1038
  738.5000   -54.2115     5.9033     5.0900     7.5174    96.6528     0.0221     2.4659     0.1073
  739.0000   -54.2505     6.0001     5.2247     7.4994    97.0746     0.0214     2.4594     0.1078
  739.5000   -54.1649     6.0062     5.3112     7.4811    97.6875     0.0245     2.4555     0.1050
  740.0000   -54.0101     6.0123     5.4187     7.4678    98.5109     0.0326     2.4612     0.1042
  740.5000   -53.8542     6.0185     5.4168     7.4832    99.7358     0.0406     2.4651     0.0962
  741.0000   -53.6974     6.0246     5.4144     7.4853   100.4669     0.0488     2.4726     0.0878
  741.5000   -53.5408     6.0308     5.4120     7.4863   100.9676     0.0445     2.4853     0.0926
  742.0000   -53.3842     6.0370     5.4095     7.4873   102.9741     0.0320     2.4806     0.0974
  742.5000   -53.2276     6.0431     5.4071     7.4883   103.0514     0.0197     2.4717     0.1014
  743.0000   -53.0711     6.0493     5.4046     7.4893   102.9295     0.0075     2.4662     0.1032
  743.5000   -52.9144     6.0532     5.4022     7.4903   102.8202    -0.0013     2.4636     0.1052
  744.0000   -52.7575     6.0528     5.3998     7.4914   102.7155    -0.0023     2.4632     0.1072
  744.5000   -52.6012     6.0537     5.3973     7.4924   102.6115    -0.0036     2.4586     0.1068
  745.0000   -52.4730     6.0151     5.3949     7.4934   102.4954    -0.0048     2.4591     0.1071
  745.5000   -52.5176     5.9868     5.3924     7.4944   103.1489    -0.0060     2.4597     0.1106
  746.0000   -52.5632     5.9586     5.3900     7.4955   104.2042    -0.0072     2.4543     0.1102
  746.5000   -52.6083     5.9306     5.3876     7.4965   104.8404    -0.0084     2.4494     0.1094
  747.0000   -52.6533     5.9027     5.3852     7.4975   104.4862    -0.0096     2.4493     0.1170
  747.5000   -52.7104     5.8749     5.3827     7.4985   104.1260    -0.0108     2.4422     0.1150
  748.0000   -52.7735     5.8339     5.3803     7.4995   103.7518    -0.0120     2.4382     0.1138
  748.5000   -52.8363     5.8565     5.3779     7.5006   104.4332    -0.0132     2.4426     0.1158
  749.0000   -53.1012     5.9005     5.3755     7.5016   105.7919    -0.0144     2.4445     0.1173
  749.5000   -53.5625     5.9449     5.3730     7.5026   106.6315    -0.0131     2.4366     0.1198
  750.0000   -54.0380     5.9897     5.3696     7.5031   107.9631    -0.0095     2.4321     0.1194
  750.5000   -54.0613     6.0348     5.3682     7.5023   109.6568    -0.0060     2.4380     0.1152
  751.0000   -53.8048     6.0802     5.4328     7.5015   109.5104    -0.0024     2.4462     0.1118
  751.5000   -53.2844     6.1260     5.4903     7.5006   107.2098     0.0014     2.4487     0.1044
  752.0000   -53.4453     6.1721     5.5491     7.4998   104.6760     0.0028     2.4537     0.1040
  752.5000   -53.3556     6.2232     5.6085     7.4990   102.1492    -0.0014     2.4664     0.1054
  753.0000   -52.9466     6.2000     5.6746     7.4982   100.6815    -0.0030     2.4620     0.1056
  753.5000   -52.6595     6.1538     5.6837     7.4974   100.5044    -0.0030     2.4566     0.1032
  754.0000   -52.6544     6.1079     5.6938     7.4966    99.8714    -0.0033     2.4606     0.1044
  754.5000   -52.4748     6.0624     5.7039     7.4958    99.2747    -0.0047     2.4666     0.1099
  755.0000   -52.6994     6.0172     5.7140     7.4950    98.7262    -0.0048     2.4552     0.1154
  755.5000   -53.6274     5.9723     5.7272     7.4942    99.5323    -0.0046     2.4439     0.1170
  756.0000   -53.8571     5.9278     5.7214     7.4934   100.2875    -0.0043     2.4416     0.1160
  756.5000   -53.9967     5.8880     5.7099     7.4925    99.7907    -0.0040     2.4413     0.1211
  757.0000   -54.2631     5.7537     5.6986     7.4917    98.1572    -0.0037     2.4340     0.1282
  757.5000   -54.5296     5.6343     5.6872     7.4909    97.0671    -0.0034     2.4236     0.1353
  758.0000   -55.0665     5.5173     5.6744     7.4901    97.0784    -0.0032     2.4144     0.1424
  758.5000   -54.4277     5.4028     5.6515     7.4893    97.8843    -0.0050     2.4052     0.1531
  759.0000   -53.6786     5.1983     5.6225     7.4885    99.0227    -0.0077     2.3881     0.1722
  759.5000   -53.8869     4.9639     5.3442     7.4877    99.5405    -0.0088     2.3626     0.1847
  760.0000   -54.1012     4.7400     4.7031     7.4869    97.9491    -0.0028     2.3277     0.2079
  760.5000   -54.3114     4.3837     3.8145     7.4861    97.4764     0.0064     2.2880     0.2329
  761.0000   -54.4905     3.7623     3.0339     7.4853    99.6274     0.0156     2.2480     0.2546
  761.5000   -54.6002     3.2290     2.6727     7.4844   105.9521     0.0206     2.2083     0.2640
