~VERSION INFORMATION
 VERS.                2.0:   CWLS LOG ASCII STANDARD - VERSION 2.0
 WRAP.                 NO:   ONE LINE PER DEPTH STEP
~WELL INFORMATION
#MNEM.UNIT      DATA TYPE    INFORMATION
#----------   ------------   ------------------------------
 STRT.F           36.0000:   START DEPTH
 STOP.F          564.0000:   STOP DEPTH
 STEP.F            0.5000:   STEP LENGTH
 NULL.          -999.2500:   NO VALUE
 COMP.    FENIX & SCISSON:   COMPANY
 WELL.        NPR #73-S-3:   WELL
 FLD .             TEAPOT:   FIELD
 LOC .       S3 T38N R78W:   LOCATION
 CNTY.            NATRONA:   COUNTY
 STAT.            WYOMING:   STATE
 CTRY. UNITED STATES OF AMERICA:   COUNTRY
 SRVC.       Schlumberger:   SERVICE COMPANY
 DATE.        19-FEB-1977:   LOGDATE
 API .       490251027900:   API NUMBER
~CURVE INFORMATION
#MNEM.UNIT       API CODE    CURVE DESCRIPTION
#----------   ------------   ------------------------------
 DEPT.F                  :   
 SPR .MV     07 010 01 00:   SPONTANEOUS POTENTIAL
 ILD .OHMM   07 120 46 00:   INDUCTION LOG DEEP
 ILM .OHMM   07 120 44 00:   INDUCTION LOG MEDIUM
 LL8 .OHMM   07 220 08 00:   LATEROLOG-8 RES.
 CALD.IN     45 280 60 00:   CALIPER FROM DENSITY LOG
 CORR.G/C3   45 356 01 00:   DENSITY CORRECTION
 RHOB.G/C3   45 350 01 00:   BULK DENSITY
 DPHI.DEC    45 890 12 00:   DENSITY POROSITY SANDSTONE
 GRD .GAPI   45 310 01 00:   GAMMA RAY FROM DENSITY LOG
~PARAMETER INFORMATION
#MNEM.UNIT          VALUE    DESCRIPTION
#----------   ------------   ------------------------------
 PD  .                 GL:   PERMANENT DATUM
 EPD .F              5128:   ELEVATION PERMANENT DATUM
 LMF .                 GL:   LOG MEASURED FROM
 DAPD.F                 5:   FEET ABOVE PERMANENT DATUM
 DMF .                 KB:   DRILLING MEASURED FROM
 EKB .F              5133:   KELLING BUSHING
 EGL .F              5128:   GROUND LEVEL
 DATE.        19-FEB-1977:   RUN DATE
 RUN .                  1:   RUN NUMBER
 DD  .F               570:   DEPTH DRILLER
 DL  .F               565:   DEPTH LOGGER
 BLI .F               564:   BOTTOM LOG INTERVAL
 TLI .F                36:   TOP LOG INTERVAL
 CS  .IN            8.625:   CASING SIZE
 CBD .F                40:   CASING BOTTOM DRILLER
 CBL .F                41:   CASING BOTTOM LOGGER
 BS  .IN            7.875:   BIT SIZE
 BSD .F               570:   BIT SIZE AT DEPTH
 DFT .                FGM:   DRILLING FLUID TYPE
 DFD .                8.9:   DRILLING FLUID DENSITY
 DFV .                 31:   DRILLING FLUID VISCOSITY
 DFPH.                8.2:   DRILLING FLUID PH
 DFL .                9.2:   DRILLING FLUID LOSS
 MSS .            MUD PIT:   MUD SAMPLE SOURCE
 RMS .OHMM           .244:   RESISTIVITY MUD SAMPLE
 MST .F                78:   MUD SAMPLE TEMPERATURE
 RMF .OHMM           .233:   RESISTIVITY MUD FILTRATE SAMPLE
 MFST.F                68:   MUD FILTRATE SAMPLE TEMPERATURE
 RMC .OHMM            .36:   RESISTIVITY MUD CAKE
 MCST.F                78:   MUD CAKE SAMPLE TEMPERATURE
 MFSS.               MEAS:   MUD FILTRATE SAMPLE SOURCE
 MCSS.               CALC:   MUD CAKE SAMPLE SOURCE
 RMB .OHMM            .35:   RESISTIVITY MUD AT BHT
 BHT .F                55:   BOTTOM HOLE TEMPERATURE
 TCS .HRS               2:   TIME CURCULATED STOPPED
 MRT .F                55:   MAXIMUM RECORDED TEMPERATURE
 LUN .               7711:   LOGGING UNIT NUMBER
 LUL .               CSPR:   LOGGING UNIT LOCATION
 ENGI.                FIX:   RECORDING ENGINEER
 WITN.           VOORHEES:   WITNESSED BY
 CLNT.            A2DTECH:   CLIENT CODE
 ORIG.           5" PRINT:   ORIGIN OF DATA
 UWI .       490251027900:   UNIQUE WELL ID
 DICO. A2D Technologies, Inc.:   DIGITIZING COMPANY
~OTHER INFORMATION
~A   DEPT      SPR        ILD        ILM        LL8       CALD       CORR       RHOB       DPHI        GRD   
# ...
  145.5000   -54.2593     9.8615     8.8634     9.0535     9.7094     0.0137     2.4577     0.1185   113.1365
  146.0000   -54.2414     9.7321     8.6284     8.6932     9.7257     0.0168     2.4638     0.1140   114.9268
  146.5000   -54.2234     9.7377     8.4574     8.5504     9.7269     0.0236     2.4699     0.1100   115.3552
  147.0000   -54.2053     9.7430     8.4627     8.4970     9.7430     0.0229     2.4782     0.1047   112.8251
  147.5000   -54.3368     9.7484     8.4680     8.5023     9.7293     0.0177     2.4707     0.1060   108.3665
  148.0000   -54.6170     9.7538     8.5317     8.5077     9.7454     0.0140     2.4663     0.1162   106.2902
  148.5000   -54.8962     9.6923     8.6553     8.5716     9.7465     0.0148     2.4543     0.1195   106.6054
  149.0000   -55.3298     9.6298     8.7205     8.6355     9.7477     0.0186     2.4529     0.1185   108.2660
  149.5000   -55.7543     9.5691     8.7862     8.6409     9.7489     0.0217     2.4657     0.1137   110.9729
  150.0000   -55.8898     9.7084     8.9134     8.7659     9.7342     0.0188     2.4688     0.1158   113.2314
  150.5000   -56.6575     9.7526     8.9810     9.0168     9.7299     0.0202     2.4637     0.1155   116.0878
  151.0000   -57.6428     9.8558     8.9866     9.0846     9.7256     0.0219     2.4667     0.1134   116.6980
  151.5000   -58.5221     9.9290     9.1167     9.2161     9.7232     0.0249     2.4787     0.1091   113.8783
  152.0000   -58.3581    10.0049     9.2488     9.3495     9.7245     0.0310     2.4961     0.1040   112.1009
  152.5000   -58.0451    10.0803     9.4475     9.4191     9.7255     0.0355     2.5051     0.0922   111.5194
  153.0000   -57.7322    10.0866     9.4533     9.4249     9.7266     0.0356     2.5021     0.0859   111.1712
  153.5000   -57.4192    10.1051     9.3300     9.3341     9.7425     0.0326     2.4878     0.1012   110.8046
  154.0000   -57.1062    10.0976     9.1945     9.1807     9.7584     0.0289     2.4753     0.1102   110.2190
  154.5000   -56.7932    10.1041     9.0133     8.9989     9.8933     0.0357     2.4640     0.1145   112.6310
  155.0000   -56.3312    10.0408     8.9681     8.9428    10.0580     0.0485     2.4761     0.1045   113.9927
  155.5000   -55.8692     9.9022     9.0982     9.0101    10.0888     0.0568     2.4762     0.1100   113.4111
  156.0000   -55.5562     9.7132     9.2299     9.1405    10.0736     0.0306     2.4439     0.1241   112.2275
  156.5000   -55.0942     9.6526     9.2994     9.2092     9.7793     0.0230     2.4465     0.1238   112.9953
  157.0000   -54.9303     9.7254     9.3051     9.2150     9.5416     0.0322     2.4666     0.1134   115.1043
  157.5000   -55.0681     9.7986     9.3108     9.1891     9.4533     0.0412     2.4914     0.0914   116.9144
  158.0000   -55.2022     9.9406     9.2486     9.1005     9.4392     0.0382     2.4982     0.0878   117.6781
  158.5000   -55.4854    10.0847     9.0042     8.9818     9.5149     0.0398     2.4959     0.0923   117.0965
  159.0000   -55.3177    10.1606     8.8267     8.8343     9.5308     0.0246     2.4748     0.1083   115.3191
  159.5000   -55.0047    10.1670     8.7125     8.7491     9.5318     0.0129     2.4480     0.1224   114.5874
  160.0000   -54.8408    10.1034     8.5408     8.6945     9.5477     0.0122     2.4398     0.1236   114.7539
  160.5000   -54.8259     9.8352     8.4294     8.6992     9.5636     0.0115     2.4331     0.1311   112.1824
  161.0000   -54.9637     9.7737     8.3768     8.7046     9.6242     0.0115     2.4264     0.1356   107.8361
  161.5000   -55.2431     9.7799     8.4981     8.7701     9.7740     0.0258     2.4249     0.1259   106.4908
  162.0000   -55.3810     9.7860     8.6807     8.8361     9.9834     0.0334     2.4551     0.1197   105.4436
  162.5000   -55.3623     9.7247     8.8064     8.9640     9.9100     0.0079     2.4483     0.1208   105.0661
  163.0000   -55.3474     9.7310     8.8727     9.0937     9.7771     0.0229     2.4537     0.1162   106.5748
  163.5000   -55.3325     9.7371     8.8782     9.1621     9.7632     0.0365     2.4642     0.1113   108.5269
  164.0000   -55.3176     9.6748     8.8227     9.1678     9.7791     0.0290     2.4883     0.1045   111.2241
  164.5000   -55.3027     9.6823     8.7077     9.0482     9.7504     0.0246     2.4651     0.1078   113.4743
  165.0000   -55.2878     9.6884     8.6532     8.8691     9.7963     0.0396     2.4907     0.1017   115.7244
  165.5000   -55.2728     9.6944     8.6588     8.7534     9.8420     0.0464     2.4983     0.0885   117.8255
  166.0000   -55.2579     9.7674     8.6642     8.6988     9.6645     0.0502     2.4840     0.0984   119.4795
  166.5000   -55.2430     9.7735     8.6696     8.7042     9.6952     0.0525     2.4923     0.0935   120.6864
  167.0000   -55.3771     9.8471     8.6142     8.8911     9.8153     0.0541     2.4909     0.0983   121.5953
  167.5000   -55.3622     9.8533     8.4448     9.0820     9.5634     0.0339     2.4827     0.1028   121.7590
  168.0000   -55.3473     9.8594     8.2207     9.2134     9.5344     0.0400     2.4993     0.0905   118.4950
  168.5000   -55.4851     9.7292     8.1134     9.2191     9.6101     0.0497     2.5219     0.0748   116.1207
  169.0000   -55.7646     9.6036     8.0076     9.1617     9.6111     0.0488     2.5207     0.0739   114.3080
  169.5000   -55.7496     9.4782     8.0125     9.1046     9.6121     0.0388     2.5019     0.0832   112.5375
  170.0000   -55.7377     9.4176     8.0729     8.8632     9.6429     0.0251     2.4905     0.1039   111.1021
  170.5000   -55.7228     9.4249     8.1336     8.7476     9.6439     0.0199     2.4710     0.1099   112.3127
  171.0000   -55.7079     9.4308     8.2514     8.8134     9.6449     0.0207     2.4635     0.1150   114.1157
  171.5000   -55.6930     9.4366     8.3709     8.9409     9.5699     0.0222     2.4636     0.1150   116.5149
  172.0000   -55.6781     9.4425     8.4339     9.0703     9.5893     0.0245     2.4719     0.1096   116.8240
  172.5000   -55.5142     9.5794     8.5561     9.1385     9.6481     0.0336     2.4870     0.0971   114.3088
  173.0000   -55.2012     9.7854     8.6800     9.3347     9.6642     0.0306     2.4885     0.0957   113.8727
  173.5000   -55.0373    10.0648     8.7454     9.8009     9.6950     0.0276     2.4878     0.0924   113.8910
  174.0000   -55.0230    10.3522     8.7508    10.2904     9.7704     0.0329     2.4991     0.0903   112.7134
  174.5000   -55.3309    10.5748     8.8167    10.2968     9.8458     0.0315     2.4909     0.0914   111.0851
  175.0000   -55.7383    10.6545     8.8222    10.1625     9.5344     0.0233     2.4857     0.0983   113.7860
  175.5000   -56.0215    10.7348     8.8276     9.8253     8.7319     0.0151     2.4693     0.1074   116.6323
  176.0000   -56.0060    10.7414     8.8331     9.6971     8.7478     0.0114     2.4610     0.1100   116.9450
  176.5000   -55.9904    10.6727     8.8386     9.6367     8.7637     0.0137     2.4642     0.1082   115.1366
  177.0000   -55.9755    10.5350     8.8441     9.9798     8.7945     0.0272     2.4772     0.1052   110.1778
  177.5000   -55.9606    10.3958     8.8496    10.5505     8.8104     0.0423     2.4961     0.0955   106.8107
  178.0000   -55.7966    10.3309     8.8551    10.9262     8.8561     0.0498     2.4973     0.0903   107.3203
  178.5000   -55.6327    10.1960     8.8606    10.4194     8.9910     0.0551     2.4898     0.0921   109.7195
  179.0000   -55.1707    10.1324     8.8040     9.2761     9.3194     0.0597     2.4982     0.0907   112.4167
  179.5000   -54.8577     9.9898     8.8108     8.7251     9.4544     0.0574     2.4824     0.0956   114.9649
  180.0000   -54.3957     9.7258     8.6959     8.7305     9.4703     0.0432     2.4772     0.1055   117.0660
  180.5000   -53.9337     9.4689     8.5810     8.7359     9.4564     0.0343     2.4750     0.1084   117.3788
  181.0000   -53.6207     9.2187     8.4704     8.6815     9.4575     0.0463     2.4849     0.0966   117.9896
  181.5000   -53.4567     8.9751     8.4176     8.5683     9.4585     0.0434     2.4856     0.0993   119.4946
