~VERSION INFORMATION
 VERS.                2.0:   CWLS LOG ASCII STANDARD - VERSION 2.0
 WRAP.                 NO:   ONE LINE PER DEPTH STEP
~WELL INFORMATION
#MNEM.UNIT      DATA TYPE    INFORMATION
#----------   ------------   ------------------------------
 STRT.F           46.0000:   START DEPTH
 STOP.F         2100.0000:   STOP DEPTH
 STEP.F            0.5000:   STEP LENGTH
 NULL.          -999.2500:   NO VALUE
 COMP. LAWRENCE/ALLISON INC:   COMPANY
 WELL.    58-21 SX #10-10:   WELL
 FLD .             TEAPOT:   FIELD
 LOC .      S10 T38N R78W:   LOCATION
 CNTY.            NATRONA:   COUNTY
 STAT.            WYOMING:   STATE
 CTRY. UNITED STATES OF AMERICA:   COUNTRY
 SRVC.           Gearhart:   SERVICE COMPANY
 DATE.        06-JUL-1987:   LOGDATE
 API .       490251114400:   API NUMBER
~CURVE INFORMATION
#MNEM.UNIT       API CODE    CURVE DESCRIPTION
#----------   ------------   ------------------------------
 DEPT.F                  :   
 GR  .GAPI   81 310 01 00:   GAMMA RAY
 TGAS.UNITS  91 830 01 00:   TOTAL GAS FROM HOTWIRE
 ROP .MIN/FT 91 810 01 00:   RAT OF DRILLING PENETRATION
~PARAMETER INFORMATION
#MNEM.UNIT          VALUE    DESCRIPTION
#----------   ------------   ------------------------------
 PD  .                 GL:   PERMANENT DATUM
 EPD .F              5219:   ELEVATION PERMANENT DATUM
 LMF .                 KB:   LOG MEASURED FROM
 DAPD.F                 8:   FEET ABOVE PERMANENT DATUM
 DMF .                 KB:   DRILLING MEASURED FROM
 EKB .F              5227:   KELLING BUSHING
 EDF .F              5225:   DRILLING FLOOR
 EGL .F              5219:   GROUND LEVEL
 DATE.             7-6-87:   RUN DATE
 RUN .                  1:   RUN NUMBER
 DD  .F               610:   DEPTH DRILLER
 DL  .F             531.5:   DEPTH LOGGER
 BLI .F               526:   BOTTOM LOG INTERVAL
 TLI .F                50:   TOP LOG INTERVAL
 BS  .IN            7.875:   BIT SIZE
 BSD .F               610:   BIT SIZE AT DEPTH
 DFT .              WATER:   DRILLING FLUID TYPE
 LUN .               6084:   LOGGING UNIT NUMBER
 LUL .           GILLETTE:   LOGGING UNIT LOCATION
 ENGI.                COX:   RECORDING ENGINEER
 WITN.               LOWE:   WITNESSED BY
 CLNT.            A2DTECH:   CLIENT CODE
 ORIG.           5" PRINT:   ORIGIN OF DATA
 UWI .       490251114400:   UNIQUE WELL ID
 DICO. A2D Technologies, Inc.:   DIGITIZING COMPANY
~OTHER INFORMATION
~A   DEPT        GR      TGAS        ROP   
# ...
 1502.0000  -999.2500    50.0394     0.3335
 1502.5000  -999.2500    50.0514     0.3322
 1503.0000  -999.2500    50.0635     0.3328
 1503.5000  -999.2500    50.0756     0.3540
 1504.0000  -999.2500    50.0876     0.3763
 1504.5000  -999.2500    50.0997     0.4094
 1505.0000  -999.2500    50.1117     0.4431
 1505.5000  -999.2500    50.1238     0.4757
 1506.0000  -999.2500    50.1359     0.5083
 1506.5000  -999.2500    50.1479     0.5431
 1507.0000  -999.2500    50.1600     0.5445
 1507.5000  -999.2500    50.1720     0.5455
 1508.0000  -999.2500    50.1841     0.5466
 1508.5000  -999.2500    50.1962     0.5477
 1509.0000  -999.2500    50.2082     0.5489
 1509.5000  -999.2500    50.2203     0.5500
 1510.0000  -999.2500    50.2323     0.5511
 1510.5000  -999.2500    50.2444     0.5523
 1511.0000  -999.2500    50.2565     0.5534
 1511.5000  -999.2500    50.2685     0.5544
 1512.0000  -999.2500    50.2806     0.5557
 1512.5000  -999.2500    50.2927     0.5875
 1513.0000  -999.2500    50.3047     0.6604
 1513.5000  -999.2500    50.3168     0.7309
 1514.0000  -999.2500    50.3288     0.7970
 1514.5000  -999.2500    50.3409     0.7473
 1515.0000  -999.2500    50.3530     0.6950
 1515.5000  -999.2500    50.3624     0.6427
 1516.0000  -999.2500    50.3685     0.5906
 1516.5000  -999.2500    50.5187     0.5386
 1517.0000  -999.2500    50.6818     0.4864
 1517.5000  -999.2500    50.4374     0.4320
 1518.0000  -999.2500    50.1638     0.4189
 1518.5000  -999.2500    49.8850     0.4189
 1519.0000  -999.2500    49.3543     0.4203
 1519.5000  -999.2500    49.3958     0.4216
 1520.0000  -999.2500    49.4220     0.4229
 1520.5000  -999.2500    49.4373     0.4241
 1521.0000  -999.2500    49.4533     0.4254
 1521.5000  -999.2500    49.4693     0.4266
 1522.0000  -999.2500    49.4853     0.4279
 1522.5000  -999.2500    49.5013     0.4291
 1523.0000  -999.2500    49.5173     0.4307
 1523.5000  -999.2500    49.5332     0.4424
 1524.0000  -999.2500    49.5492     0.4455
 1524.5000  -999.2500    49.5652     0.4735
 1525.0000  -999.2500    49.5812     0.5015
 1525.5000  -999.2500    49.5972     0.5287
 1526.0000  -999.2500    49.6132     0.6579
 1526.5000  -999.2500    49.6292     0.8161
 1527.0000  -999.2500    49.6451     0.9771
 1527.5000  -999.2500    49.6611     1.1375
 1528.0000  -999.2500    49.6771     1.2856
 1528.5000  -999.2500    49.6931     1.2284
 1529.0000  -999.2500    49.7091     1.1455
 1529.5000  -999.2500    49.7251     1.0596
 1530.0000  -999.2500    49.7410     1.0425
 1530.5000  -999.2500    49.7570     1.0832
 1531.0000  -999.2500    49.7730     1.1630
 1531.5000  -999.2500    49.7890     1.3343
 1532.0000  -999.2500    49.8050     1.5533
 1532.5000  -999.2500    49.8210     1.4154
 1533.0000  -999.2500    49.8369     1.1537
 1533.5000  -999.2500    49.8529     0.8940
 1534.0000  -999.2500    49.8689     0.6225
 1534.5000  -999.2500    49.8849     0.5570
 1535.0000  -999.2500    49.9009     0.5555
 1535.5000  -999.2500    49.9169     0.5561
 1536.0000  -999.2500    49.9328     0.5562
 1536.5000  -999.2500    49.9488     0.5562
 1537.0000  -999.2500    49.9648     0.5562
 1537.5000  -999.2500    49.9808     0.5562
 1538.0000  -999.2500    49.9968     0.5562
 1538.5000  -999.2500    50.0128     0.5562
 1539.0000  -999.2500    50.0288     0.5562
 1539.5000  -999.2500    50.0447     0.5562
 1540.0000  -999.2500    50.0607     0.5562
 1540.5000  -999.2500    50.0767     0.5562
 1541.0000  -999.2500    50.0927     0.5562
 1541.5000  -999.2500    50.1087     0.5558
 1542.0000  -999.2500    50.1246     0.5534
 1542.5000  -999.2500    50.1406     0.6505
 1543.0000  -999.2500    50.1566     0.7557
 1543.5000  -999.2500    50.1726     0.8609
 1544.0000  -999.2500    50.1886     0.9668
 1544.5000  -999.2500    50.2046     1.0138
 1545.0000  -999.2500    50.2206     0.9385
 1545.5000  -999.2500    50.2365     0.8644
 1546.0000  -999.2500    50.2525     0.7872
 1546.5000  -999.2500    50.2685     0.8094
 1547.0000  -999.2500    50.2845     0.8645
 1547.5000  -999.2500    50.3005     0.9206
 1548.0000  -999.2500    50.3165     0.9780
 1548.5000  -999.2500    50.3324     0.9829
 1549.0000  -999.2500    50.3484     0.9158
 1549.5000  -999.2500    50.3644     0.8256
 1550.0000  -999.2500    50.3803     0.7485
 1550.5000  -999.2500    50.3901     0.8102
 1551.0000  -999.2500    50.3901     0.8701
 1551.5000  -999.2500    50.3745     0.9295
 1552.0000  -999.2500    50.3494     0.9895
 1552.5000  -999.2500    50.3240     1.0911
 1553.0000  -999.2500    50.2987     1.2092
 1553.5000  -999.2500    50.2733     1.3286
 1554.0000  -999.2500    50.2480     1.4475
 1554.5000  -999.2500    50.2226     1.5348
 1555.0000  -999.2500    50.1973     1.2455
 1555.5000  -999.2500    50.1719     0.9406
 1556.0000  -999.2500    50.1466     0.6210
 1556.5000  -999.2500    50.1212     0.5333
 1557.0000  -999.2500    50.0959     0.5301
 1557.5000  -999.2500    50.0705     0.5311
 1558.0000  -999.2500    50.0452     0.5312
 1558.5000  -999.2500    50.0198     0.5312
 1559.0000  -999.2500    49.9945     0.5312
 1559.5000  -999.2500    49.9691     0.5311
 1560.0000  -999.2500    49.9438     0.5311
 1560.5000  -999.2500    49.9182     0.5462
 1561.0000  -999.2500    49.8918     0.6180
 1561.5000  -999.2500    49.9221     0.6880
 1562.0000  -999.2500    49.9628     0.7576
 1562.5000  -999.2500    50.0037     0.8294
 1563.0000  -999.2500    50.0445     0.9021
 1563.5000  -999.2500    50.0854     0.9785
 1564.0000  -999.2500    50.1261     0.9939
 1564.5000  -999.2500    50.1670     0.9937
 1565.0000  -999.2500    50.2078     0.9927
 1565.5000  -999.2500    50.2486     0.9919
 1566.0000  -999.2500    50.2894     0.9911
 1566.5000  -999.2500    50.3302     0.9903
 1567.0000  -999.2500    50.3710     0.9895
 1567.5000  -999.2500    50.4118     0.9887
 1568.0000  -999.2500    50.4526     0.9879
 1568.5000  -999.2500    50.4934     0.9871
 1569.0000  -999.2500    50.5342     0.9863
 1569.5000  -999.2500    50.5750     0.9855
 1570.0000  -999.2500    50.6158     0.9847
 1570.5000  -999.2500    50.6566     0.9839
 1571.0000  -999.2500    50.6974     0.9832
 1571.5000  -999.2500    50.7382     0.9826
 1572.0000  -999.2500    50.7790     0.9803
 1572.5000  -999.2500    50.8199     0.9621
 1573.0000  -999.2500    50.8605     0.8313
 1573.5000  -999.2500    50.8921     0.7061
 1574.0000  -999.2500    50.8916     0.5752
 1574.5000  -999.2500    50.9029     0.5327
 1575.0000  -999.2500    50.9289     0.5334
 1575.5000  -999.2500    50.9547     0.5376
 1576.0000  -999.2500    50.9806     0.5415
 1576.5000  -999.2500    51.0065     0.5453
 1577.0000  -999.2500    51.0323     0.5490
 1577.5000  -999.2500    51.0582     0.5525
 1578.0000  -999.2500    51.0841     0.5566
 1578.5000  -999.2500    51.1099     0.6001
 1579.0000  -999.2500    51.1358     0.7347
 1579.5000  -999.2500    51.1617     0.8656
 1580.0000  -999.2500    51.1875     0.9992
 1580.5000  -999.2500    51.2134     1.0073
 1581.0000  -999.2500    51.2393     1.0064
 1581.5000  -999.2500    51.2652     1.0000
 1582.0000  -999.2500    51.2910     0.9956
 1582.5000  -999.2500    51.3169     0.9979
 1583.0000  -999.2500    51.3428     1.0005
 1583.5000  -999.2500    51.3686     1.0029
 1584.0000  -999.2500    51.3945     1.0052
 1584.5000  -999.2500    51.4204     1.0070
 1585.0000  -999.2500    51.4463     1.0351
 1585.5000  -999.2500    51.4721     1.1367
 1586.0000  -999.2500    51.4980     1.2325
 1586.5000  -999.2500    51.5239     1.2261
 1587.0000  -999.2500    51.5497     1.0040
 1587.5000  -999.2500    51.5756     0.7883
 1588.0000  -999.2500    51.6015     0.5572
 1588.5000  -999.2500    51.6273     0.6634
 1589.0000  -999.2500    51.6532     0.7857
 1589.5000  -999.2500    51.6791     0.9079
 1590.0000  -999.2500    51.7050     0.9809
 1590.5000  -999.2500    51.7308     0.9844
 1591.0000  -999.2500    51.7567     0.9886
 1591.5000  -999.2500    51.7826     0.9949
 1592.0000  -999.2500    51.8084     1.0241
 1592.5000  -999.2500    51.8343     1.1435
