~VERSION INFORMATION
 VERS.                2.0:   CWLS LOG ASCII STANDARD - VERSION 2.0
 WRAP.                 NO:   ONE LINE PER DEPTH STEP
~WELL INFORMATION
#MNEM.UNIT      DATA TYPE    INFORMATION
#----------   ------------   ------------------------------
 STRT.F           42.0000:   START DEPTH
 STOP.F          433.5000:   STOP DEPTH
 STEP.F            0.5000:   STEP LENGTH
 NULL.          -999.2500:   NO VALUE
 COMP. BROWN JOHN E&C INC:   COMPANY
 WELL.    SX 10 #74-51-10:   WELL
 FLD .             TEAPOT:   FIELD
 LOC .      S10 T38N R78W:   LOCATION
 CNTY.            NATRONA:   COUNTY
 STAT.            WYOMING:   STATE
 CTRY. UNITED STATES OF AMERICA:   COUNTRY
 SRVC.       Schlumberger:   SERVICE COMPANY
 DATE.        10-SEP-1990:   LOGDATE
 API .       490251132600:   API NUMBER
~CURVE INFORMATION
#MNEM.UNIT       API CODE    CURVE DESCRIPTION
#----------   ------------   ------------------------------
 DEPT.F                  :   
 ILM .OHMM   07 120 44 00:   INDUCTION LOG MEDIUM
 ILD .OHMM   07 120 46 00:   INDUCTION LOG DEEP
 GRR .GAPI   07 310 01 00:   GAMMA RAY FROM RES. LOG.
~PARAMETER INFORMATION
#MNEM.UNIT          VALUE    DESCRIPTION
#----------   ------------   ------------------------------
 PD  .                 GL:   PERMANENT DATUM
 EPD .F              5177:   ELEVATION PERMANENT DATUM
 LMF .                 KB:   LOG MEASURED FROM
 DAPD.F                10:   FEET ABOVE PERMANENT DATUM
 DMF .                 KB:   DRILLING MEASURED FROM
 EKB .F              5187:   KELLING BUSHING
 EGL .F              5177:   GROUND LEVEL
 DATE.        10-SEP-1996:   RUN DATE
 RUN .                  1:   RUN NUMBER
 DD  .F               496:   DEPTH DRILLER
 DL  .F               440:   DEPTH LOGGER
 BLI .F               490:   BOTTOM LOG INTERVAL
 TLI .F               520:   TOP LOG INTERVAL
 CS  .IN            8.625:   CASING SIZE
 CBD .F                42:   CASING BOTTOM DRILLER
 CBL .F                52:   CASING BOTTOM LOGGER
 BS  .IN            7.875:   BIT SIZE
 BSD .F               496:   BIT SIZE AT DEPTH
 DFT .                AIR:   DRILLING FLUID TYPE
 MFSS.               MEAS:   MUD FILTRATE SAMPLE SOURCE
 MCSS.               CALC:   MUD CAKE SAMPLE SOURCE
 BHT .F                69:   BOTTOM HOLE TEMPERATURE
 TLAB.HRS            0146:   TIME LOGGER AT BOTTOM
 MRT .F                69:   MAXIMUM RECORDED TEMPERATURE
 LUN .               8199:   LOGGING UNIT NUMBER
 LUL .             CASPER:   LOGGING UNIT LOCATION
 ENGI.              SPEIL:   RECORDING ENGINEER
 WITN.          G. STRONG:   WITNESSED BY
 CLNT.            A2DTECH:   CLIENT CODE
 ORIG.      2" & 5" PRINT:   ORIGIN OF DATA
 UWI .       490251132600:   UNIQUE WELL ID
 DICO. A2D Technologies, Inc.:   DIGITIZING COMPANY
~OTHER INFORMATION
~A   DEPT      ILM        ILD         GRR  
# ...
  224.0000     4.2321     5.1396   119.2247
  224.5000     5.4821     5.2514   119.5238
  225.0000     6.1407     5.2795   120.1832
  225.5000     6.1124     5.3406   120.7459
  226.0000     6.0803     5.7546   118.4288
  226.5000     6.2765     6.5040   115.6660
  227.0000     6.5682     7.3096   115.5342
  227.5000     6.8734     7.9691   117.4323
  228.0000     7.1839     8.4932   118.0761
  228.5000     7.4244     8.4929   115.8516
  229.0000     7.6214     8.2244   113.3838
  229.5000     7.6774     8.0304   112.4115
  230.0000     7.7005     8.0552   114.4583
  230.5000     7.7237     8.0905   117.6961
  231.0000     7.8189     8.1388   119.9512
  231.5000     7.9563     8.1954   119.3115
  232.0000     7.8521     8.2547   118.7764
  232.5000     7.7565     8.1932   120.4077
  233.0000     7.6775     8.1036   122.6277
  233.5000     7.5774     8.1790   124.7502
  234.0000     7.5246     8.1248   125.6380
  234.5000     7.5244     8.0870   124.8725
  235.0000     7.5245     8.0495   123.2692
  235.5000     7.5245     8.0121   121.5545
  236.0000     7.5243     7.9749   121.6904
  236.5000     7.5241     7.9548   124.7130
  237.0000     7.5701     8.1111   127.7317
  237.5000     7.6133     8.2201   128.2124
  238.0000     7.6653     8.3320   125.8454
  238.5000     7.6004     8.2551   120.9681
  239.0000     7.5246     7.7618   119.7977
  239.5000     7.1177     7.3090   119.2546
  240.0000     6.5482     6.8587   119.8751
  240.5000     5.7159     6.6523   122.2652
  241.0000     5.3406     6.6091   125.3752
  241.5000     5.7619     6.6616   127.5220
  242.0000     6.6091     6.7328   126.6790
  242.5000     6.4855     6.6368   124.9670
  243.0000     6.2499     6.5101   124.7854
  243.5000     6.0243     6.2794   122.2100
  244.0000     5.6288     6.0158   119.6464
  244.5000     5.2496     5.3892   118.3570
  245.0000     4.5001     5.4503   120.5927
  245.5000     4.1585     5.5585   122.9435
  246.0000     4.6291     5.6459   122.0631
  246.5000     5.5423     5.6100   115.7066
  247.0000     6.1369     5.5741   111.7109
  247.5000     6.0803     5.5423   111.9947
  248.0000     6.0803     5.7864   115.1837
  248.5000     6.5157     6.2660   119.8196
  249.0000     6.8620     6.9653   124.5052
  249.5000     7.0020     7.7426   129.0793
  250.0000     7.1379     8.3156   130.7568
  250.5000     7.4432     8.1790   127.0623
  251.0000     7.5627     7.8814   123.6147
  251.5000     7.5946     7.4225   120.6155
  252.0000     6.4370     6.9225   119.7719
  252.5000     5.6268     6.1529   118.9917
  253.0000     4.7221     5.4878   118.0278
  253.5000     4.0072     5.5367   117.0464
  254.0000     4.4950     5.5921   115.4765
  254.5000     5.4631     5.4496   113.7055
  255.0000     6.0184     5.3307   112.0789
  255.5000     5.5978     5.2425   112.4432
  256.0000     5.8635     5.2425   112.7001
  256.5000     6.1897     6.0886   112.2875
  257.0000     6.5344     6.7044   112.1391
  257.5000     6.8982     7.2895   113.4739
  258.0000     7.2402     7.9264   114.7958
  258.5000     7.5688     8.3789   115.9570
  259.0000     7.9124     8.5877   114.9607
  259.5000     8.1453     8.7271   112.8451
  260.0000     8.3673     8.7772   110.7650
  260.5000     8.6466     8.8326   108.8635
  261.0000     8.6297     8.8884   108.1575
  261.5000     8.6080     8.9445   108.0477
  262.0000     8.5863     9.0009   108.2989
  262.5000     8.5669     9.0577   109.6245
  263.0000     8.5669     9.1149   109.7065
  263.5000     8.5668     9.1409   109.4266
  264.0000     8.5668     9.0956   109.0913
  264.5000     8.5674     9.0622   111.0248
  265.0000     8.5247     9.0288   113.2725
  265.5000     8.4878     8.9958   115.3723
  266.0000     8.1982     8.9731   116.2869
  266.5000     8.0288     9.0602   117.1869
  267.0000     8.0942     9.1271   116.9889
  267.5000     8.1790     9.2998   115.9046
  268.0000     8.5875     9.7708   114.5971
  268.5000     9.0081    10.3111   111.2495
  269.0000     9.4045    10.1817   106.7251
  269.5000     9.6635     9.8820   101.8799
  270.0000     9.0577     9.2431    99.4785
  270.5000     7.9893     8.1025   102.9833
  271.0000     6.4027     6.9288   107.1968
  271.5000     5.0228     6.3220   111.3941
  272.0000     4.1585     6.3099   115.3405
  272.5000     4.9270     6.5553   114.7870
  273.0000     6.8127     6.6091   110.8885
  273.5000     8.1130     6.5357   106.9055
  274.0000     7.9712     6.4279   104.1818
  274.5000     7.8847     7.2301   103.9095
  275.0000     8.2551     8.6707   104.1310
  275.5000     9.0835    10.3982   104.4471
  276.0000     9.9193    11.7002   104.9025
  276.5000    10.3423    12.6426   106.1063
  277.0000    10.5085    12.2800   107.6162
  277.5000    10.6017    11.7067   108.3847
  278.0000    10.2738    11.2453   108.5771
  278.5000    10.1217    11.2078   108.7365
  279.0000    10.3111    11.7658   108.7419
  279.5000    11.4151    12.6058   106.1858
  280.0000    12.7338    13.8046   100.1955
  280.5000    14.3669    15.2455    88.7511
  281.0000    16.2124    17.0178    77.3667
  281.5000    18.2807    19.0010    67.4472
  282.0000    20.3017    21.2134    60.2997
  282.5000    20.2948    23.6825    61.4050
  283.0000    20.6133    26.4393    65.3012
  283.5000    21.4167    29.3787    67.7724
  284.0000    22.7679    30.6051    68.2299
  284.5000    24.6362    30.7557    68.2070
  285.0000    24.1045    29.6988    69.2981
  285.5000    23.3869    28.8988    70.8973
  286.0000    23.0322    28.5732    72.2923
  286.5000    22.9451    29.1504    71.1617
  287.0000    22.8732    29.7370    69.4013
  287.5000    22.5201    29.9282    67.6195
  288.0000    22.0436    29.9282    68.4926
  288.5000    22.1720    29.9282    69.7547
  289.0000    22.4093    29.9830    67.8225
  289.5000    22.5800    30.1198    65.5928
  290.0000    22.8195    30.6431    63.3941
  290.5000    23.9463    31.6286    62.5290
  291.0000    25.6476    32.6552    64.4894
  291.5000    27.0524    33.7172    67.8455
  292.0000    27.5337    34.6390    69.5713
  292.5000    24.8057    35.3602    70.0411
  293.0000    23.0654    36.7662    68.6819
  293.5000    24.2770    38.0843    68.5920
  294.0000    26.1862    38.4372    69.1482
  294.5000    27.5336    37.4275    69.5283
  295.0000    26.1979    36.5355    69.7341
  295.5000    25.2416    36.0140    69.9336
  296.0000    24.1838    37.1196    70.1402
  296.5000    24.7231    38.9225    70.6125
  297.0000    26.1830    39.9351    70.8529
  297.5000    28.5362    40.6507    69.9713
  298.0000    29.9379    39.2244    68.6630
  298.5000    26.8942    37.8839    69.7924
  299.0000    24.1924    37.0370    71.5627
  299.5000    23.7220    37.4402    72.8450
  300.0000    23.5208    37.9222    72.7486
  300.5000    24.3155    38.4332    71.4164
  301.0000    25.0950    37.4952    71.8930
  301.5000    25.0539    36.5183    73.4840
  302.0000    24.9704    35.5669    74.1402
  302.5000    24.8897    34.7110    71.3236
  303.0000    24.8106    34.1223    68.8627
  303.5000    24.7313    33.4818    67.3872
  304.0000    24.6523    32.8299    68.2751
  304.5000    24.2437    31.5854    70.3371
  305.0000    23.6057    30.4354    71.5995
  305.5000    22.5021    29.3272    73.3157
  306.0000    21.3750    28.2594    75.4840
  306.5000    20.2840    27.4077    78.5139
  307.0000    20.1646    26.7240    80.8106
  307.5000    20.0557    26.0573    81.8539
  308.0000    19.9427    25.3306    82.9247
  308.5000    19.8140    25.4272    83.8939
  309.0000    19.7239    25.5684    82.6936
  309.5000    19.9802    25.7104    80.2185
  310.0000    20.2071    25.8532    77.4895
  310.5000    20.4375    25.9981    77.4560
  311.0000    20.4683    26.2003    78.1613
  311.5000    20.4690    26.4393    78.6371
  312.0000    20.5949    26.6775    77.8248
  312.5000    20.8288    26.7788    77.5215
  313.0000    21.0654    26.7788    78.7744
  313.5000    21.2416    26.7788    80.4685
  314.0000    20.6076    26.7789    80.7517
  314.5000    20.2799    26.7785    79.3488
