~VERSION INFORMATION
 VERS.                2.0:   CWLS LOG ASCII STANDARD - VERSION 2.0
 WRAP.                 NO:   ONE LINE PER DEPTH STEP
~WELL INFORMATION
#MNEM.UNIT      DATA TYPE    INFORMATION
#----------   ------------   ------------------------------
 STRT.F           33.0000:   START DEPTH
 STOP.F         1310.0000:   STOP DEPTH
 STEP.F            0.5000:   STEP LENGTH
 NULL.          -999.2500:   NO VALUE
 COMP. FENIX & SCISSON INC:   COMPANY
 WELL.    NPR-3 #76-14 SX:   WELL
 FLD .        TEAPOT DOME:   FIELD
 LOC .      S14 T38N R78W:   LOCATION
 CNTY.            NATRONA:   COUNTY
 STAT.            WYOMING:   STATE
 CTRY. UNITED STATES OF AMERICA:   COUNTRY
 SRVC.            Unknown:   SERVICE COMPANY
 DATE.        12-APR-1978:   LOGDATE
 API .       490251061200:   API NUMBER
~CURVE INFORMATION
#MNEM.UNIT       API CODE    CURVE DESCRIPTION
#----------   ------------   ------------------------------
 DEPT.F                  :   
 SPR .MV     05 010 01 00:   SPONTANEOUS POTENTIAL FROM RES.
 SN  .OHMM   05 040 16 00:   SHORT NORMAL 16"
 ILD .OHMM   05 120 46 00:   INDUCTION LOG DEEP
 CALD.IN     45 280 60 00:   CALIPER FROM DENSITY LOG
 GRD .GAPI   45 310 01 00:   GAMMA RAY FROM DENSITY LOG
 DPOR.DEC    45 890 12 00:   DENSITY POROSITY SANDSTONE
 CORR.G/C3   45 356 01 00:   DENSITY CORRECTION
 RHOB.G/C3   45 350 01 00:   BULK DENSITY
~PARAMETER INFORMATION
#MNEM.UNIT          VALUE    DESCRIPTION
#----------   ------------   ------------------------------
 PD  .                 GL:   PERMANENT DATUM
 EPD .F              5332:   ELEVATION PERMANENT DATUM
 LMF .                 KB:   LOG MEASURED FROM
 DMF .                 KB:   DRILLING MEASURED FROM
 EKB .F              5336:   KELLING BUSHING
 EGL .F              5332:   GROUND LEVEL
 DATE.          4-12-1978:   RUN DATE
 RUN .                  1:   RUN NUMBER
 DD  .F              1300:   DEPTH DRILLER
 DL  .F              1302:   DEPTH LOGGER
 BLI .F              1298:   BOTTOM LOG INTERVAL
 TLI .F                50:   TOP LOG INTERVAL
 CS  .IN            8.625:   CASING SIZE
 CBD .F                40:   CASING BOTTOM DRILLER
 CBL .F                46:   CASING BOTTOM LOGGER
 BS  .IN            7.875:   BIT SIZE
 BSD .F              1300:   BIT SIZE AT DEPTH
 DFT .                KCL:   DRILLING FLUID TYPE
 DFD .                8.5:   DRILLING FLUID DENSITY
 DFV .                 28:   DRILLING FLUID VISCOSITY
 MSS .            MUD PIT:   MUD SAMPLE SOURCE
 RMS .OHMM           1.45:   RESISTIVITY MUD SAMPLE
 MST .F                50:   MUD SAMPLE TEMPERATURE
 RMF .OHMM           1.25:   RESISTIVITY MUD FILTRATE SAMPLE
 MFST.F                62:   MUD FILTRATE SAMPLE TEMPERATURE
 RMC .OHMM           1.65:   RESISTIVITY MUD CAKE
 MCST.F                61:   MUD CAKE SAMPLE TEMPERATURE
 MFSS.           MEASURED:   MUD FILTRATE SAMPLE SOURCE
 MCSS.           MEASURED:   MUD CAKE SAMPLE SOURCE
 RMB .OHMM            .93:   RESISTIVITY MUD AT BHT
 BHT .F                78:   BOTTOM HOLE TEMPERATURE
 TCS .HRS               6:   TIME CURCULATED STOPPED
 MRT .F                78:   MAXIMUM RECORDED TEMPERATURE
 LUN .               2958:   LOGGING UNIT NUMBER
 LUL .                CAS:   LOGGING UNIT LOCATION
 ENGI.             MILLER:   RECORDING ENGINEER
 WITN.           MCGINLEY:   WITNESSED BY
 CLNT.            A2DTECH:   CLIENT CODE
 ORIG.      2" , 5" PRINT:   ORIGIN OF DATA
 UWI .       490251061200:   UNIQUE WELL ID
 DICO. A2D Technologies, Inc.:   DIGITIZING COMPANY
~OTHER INFORMATION
~A   DEPT      SPR         SN        ILD       CALD         GRD      DPOR       CORR       RHOB   
# ...
  438.0000   -13.5639     8.2084     7.2135     7.8029    42.3858     0.1048     0.0345     2.4759
  438.5000   -13.5683     8.2084     7.2136     7.8033    44.3446     0.1056     0.0346     2.4656
  439.0000   -13.5727     8.2084     7.2139     7.8038    45.8446     0.1051     0.0348     2.4702
  439.5000   -13.5771     8.2095     7.1716     7.8043    44.7882     0.1046     0.0349     2.4746
  440.0000   -13.5815     8.1724     7.1213     7.8047    43.4764     0.1052     0.0351     2.4774
  440.5000   -13.5859     8.1179     7.0710     7.8052    42.9682     0.1071     0.0353     2.4739
  441.0000   -13.5903     8.0633     7.0212     7.8057    44.8204     0.1088     0.0354     2.4705
  441.5000   -13.5947     8.0092     6.9717     7.8061    49.0215     0.1079     0.0356     2.4671
  442.0000   -13.5991     7.9554     6.9225     7.8066    52.3010     0.1060     0.0357     2.4680
  442.5000   -13.6035     7.9020     6.8737     7.8070    49.7917     0.1064     0.0357     2.4711
  443.0000   -13.6079     7.8490     6.8249     7.8075    47.2610     0.1065     0.0348     2.4730
  443.5000   -13.6123     7.7962     6.8361     7.8080    46.7026     0.1057     0.0338     2.4725
  444.0000   -13.6167     7.7663     6.8501     7.8084    47.7933     0.1067     0.0329     2.4721
  444.5000   -13.6211     7.7661     6.8643     7.8089    51.5528     0.1104     0.0320     2.4674
  445.0000   -13.6255     7.7663     6.8778     7.8093    53.7832     0.1124     0.0318     2.4619
  445.5000   -13.6299     7.7666     6.8882     7.8098    51.9338     0.1121     0.0318     2.4563
  446.0000   -13.6343     7.7664     6.7336     7.8100    49.5804     0.1114     0.0318     2.4606
  446.5000   -13.6387     7.6226     6.6167     7.8100    47.1919     0.1112     0.0318     2.4657
  447.0000   -13.6431     7.4697     6.5018     7.8100    46.2444     0.1112     0.0318     2.4648
  447.5000   -13.6475     7.3203     6.3889     7.8100    46.1388     0.1112     0.0318     2.4635
  448.0000   -13.6519     7.1738     6.2780     7.8100    46.2284     0.1108     0.0318     2.4637
  448.5000   -13.6563     7.0303     6.1690     7.8100    46.4205     0.1108     0.0318     2.4647
  449.0000   -13.6607     6.9483     6.1034     7.8100    46.0188     0.1106     0.0318     2.4653
  449.5000   -13.6650     6.9399     6.0901     7.8100    45.2977     0.1099     0.0318     2.4634
  450.0000   -13.6694     6.9315     6.0768     7.8100    44.5525     0.1093     0.0318     2.4633
  450.5000   -13.6739     6.9232     6.0635     7.8100    44.2988     0.1087     0.0318     2.4703
  451.0000   -13.6783     6.9148     6.0502     7.8100    44.3329     0.1092     0.0318     2.4716
  451.5000   -13.6826     6.9065     6.0370     7.8100    44.6115     0.1117     0.0318     2.4684
  452.0000   -13.6870     6.8983     6.0237     7.8100    46.0972     0.1142     0.0318     2.4651
  452.5000   -13.6914     6.8908     6.0103     7.8100    47.0720     0.1168     0.0318     2.4620
  453.0000   -13.6958     6.8018     5.9977     7.8100    45.5304     0.1168     0.0318     2.4636
  453.5000   -13.7004     6.6960     5.9326     7.8100    44.3059     0.1177     0.0318     2.4614
  454.0000   -13.7114     6.5917     5.8695     7.8100    45.2809     0.1189     0.0318     2.4569
  454.5000   -13.7224     6.4891     5.8071     7.8100    46.2973     0.1200     0.0318     2.4531
  455.0000   -13.7333     6.3881     5.7453     7.8100    47.0802     0.1197     0.0318     2.4534
  455.5000   -13.7442     6.2888     5.6841     7.8100    45.7342     0.1214     0.0318     2.4537
  456.0000   -13.7550     6.1908     5.6236     7.8100    44.3439     0.1236     0.0318     2.4471
  456.5000   -13.7660     6.1661     5.5638     7.8100    44.0664     0.1248     0.0318     2.4418
  457.0000   -13.7768     6.1513     5.5042     7.8100    43.9163     0.1244     0.0319     2.4430
  457.5000   -13.7877     6.1320     5.4683     7.8102    43.0217     0.1236     0.0311     2.4447
  458.0000   -13.7986     6.1128     5.4903     7.8107    42.9359     0.1236     0.0302     2.4444
  458.5000   -13.8095     6.0936     5.5257     7.8111    43.0338     0.1236     0.0293     2.4438
  459.0000   -13.8204     6.0742     5.5613     7.8116    43.4536     0.1234     0.0284     2.4477
  459.5000   -13.8313     6.0533     5.5971     7.8120    44.9981     0.1224     0.0276     2.4523
  460.0000   -13.8422     6.1687     5.6331     7.8125    46.5011     0.1234     0.0267     2.4487
  460.5000   -13.8531     6.3020     5.6694     7.8130    48.0202     0.1243     0.0258     2.4427
  461.0000   -13.8640     6.4383     5.7059     7.8134    47.4492     0.1248     0.0249     2.4446
  461.5000   -13.8749     6.5775     5.7426     7.8139    44.8750     0.1252     0.0240     2.4477
  462.0000   -13.8858     6.6403     5.7803     7.8143    42.2403     0.1272     0.0231     2.4432
  462.5000   -13.8967     6.6434     5.7805     7.8148    42.6428     0.1290     0.0223     2.4379
  463.0000   -13.9076     6.6465     5.7804     7.8152    44.0638     0.1309     0.0214     2.4326
  463.5000   -13.9185     6.6496     5.7803     7.8157    46.1911     0.1321     0.0206     2.4272
  464.0000   -13.9294     6.6527     5.7803     7.8162    45.4931     0.1287     0.0199     2.4249
  464.5000   -13.9403     6.6558     5.7803     7.8166    45.3178     0.1253     0.0240     2.4273
  465.0000   -13.9512     6.6589     5.7803     7.8171    46.6760     0.1220     0.0288     2.4378
  465.5000   -13.9621     6.6620     5.7803     7.8176    48.0110     0.1196     0.0298     2.4458
  466.0000   -13.9730     6.6651     5.7803     7.8180    49.3321     0.1188     0.0298     2.4459
  466.5000   -13.9839     6.6682     5.7803     7.8185    50.0952     0.1170     0.0298     2.4491
  467.0000   -13.9948     6.6713     5.7803     7.8189    48.4536     0.1134     0.0298     2.4548
  467.5000   -14.0056     6.6744     5.7803     7.8194    45.1455     0.1149     0.0298     2.4548
  468.0000   -14.0166     6.6775     5.7803     7.8198    42.8406     0.1165     0.0298     2.4518
  468.5000   -14.0274     6.6806     5.7803     7.8203    45.4224     0.1172     0.0299     2.4492
  469.0000   -14.0383     6.6838     5.7803     7.8208    48.2560     0.1112     0.0297     2.4564
  469.5000   -14.0492     6.6869     5.7804     7.8212    48.1420     0.1037     0.0262     2.4641
  470.0000   -14.0601     6.6900     5.7802     7.8217    42.1031     0.1012     0.0226     2.4709
  470.5000   -14.0710     6.6932     5.7800     7.8221    38.8343     0.1066     0.0199     2.4693
  471.0000   -14.0819     6.6965     5.7386     7.8226    39.1087     0.1111     0.0242     2.4605
  471.5000   -14.0928     6.7001     5.6938     7.8231    41.8813     0.1141     0.0286     2.4538
  472.0000   -14.1037     6.6064     5.6494     7.8235    45.2013     0.1148     0.0319     2.4551
  472.5000   -14.1146     6.4858     5.6052     7.8240    46.8883     0.1141     0.0318     2.4570
  473.0000   -14.1255     6.3675     5.5614     7.8244    46.4913     0.1133     0.0318     2.4591
  473.5000   -14.1364     6.2513     5.5180     7.8249    45.7399     0.1139     0.0318     2.4566
  474.0000   -14.1473     6.1661     5.4748     7.8253    46.2265     0.1154     0.0318     2.4538
  474.5000   -14.1582     6.1661     5.4668     7.8258    48.1899     0.1168     0.0318     2.4529
  475.0000   -14.1691     6.1661     5.4643     7.8263    50.0521     0.1172     0.0318     2.4529
  475.5000   -14.1800     6.1661     5.4619     7.8267    48.8123     0.1172     0.0318     2.4529
  476.0000   -14.1909     6.1661     5.4594     7.8272    44.0363     0.1172     0.0318     2.4529
  476.5000   -14.2018     6.1661     5.4569     7.8277    39.5642     0.1176     0.0304     2.4516
  477.0000   -14.2127     6.1661     5.4545     7.8281    39.0712     0.1188     0.0277     2.4458
  477.5000   -14.2236     6.1661     5.4520     7.8286    39.5714     0.1200     0.0250     2.4402
  478.0000   -14.2345     6.1661     5.4495     7.8290    40.1460     0.1197     0.0223     2.4439
