~VERSION INFORMATION
 VERS.                2.0:   CWLS LOG ASCII STANDARD - VERSION 2.0
 WRAP.                 NO:   ONE LINE PER DEPTH STEP
~WELL INFORMATION
#MNEM.UNIT      DATA TYPE    INFORMATION
#----------   ------------   ------------------------------
 STRT.F           30.0000:   START DEPTH
 STOP.F          744.0000:   STOP DEPTH
 STEP.F            0.5000:   STEP LENGTH
 NULL.          -999.2500:   NO VALUE
 COMP. FENIX & SCISSON INC:   COMPANY
 WELL.   NPR 3 #53 S - 34:   WELL
 FLD .             TEAPOT:   FIELD
 LOC .      S34 T39N R78W:   LOCATION
 CNTY.            NATRONA:   COUNTY
 STAT.            WYOMING:   STATE
 CTRY. UNITED STATES OF AMERICA:   COUNTRY
 SRVC.       Schlumberger:   SERVICE COMPANY
 DATE.        28-MAR-1977:   LOGDATE
 API .       490251031700:   API NUMBER
~CURVE INFORMATION
#MNEM.UNIT       API CODE    CURVE DESCRIPTION
#----------   ------------   ------------------------------
 DEPT.F                  :   
 CALD.IN     45 280 60 00:   CALIPER FROM DENSITY LOG
 GRD .GAPI   45 310 01 00:   GAMMA RAY FROM DENSITY LOG
 CORR.G/C3   45 356 01 00:   DENSITY CORRECTION
 DPHI.DEC    45 890 12 00:   DENSITY POROSITY SANDSTONE
 RHOB.G/C3   45 350 01 00:   BULK DENSITY
~PARAMETER INFORMATION
#MNEM.UNIT          VALUE    DESCRIPTION
#----------   ------------   ------------------------------
 PD  .                 GL:   PERMANENT DATUM
 EPD .F              5081:   ELEVATION PERMANENT DATUM
 LMF .                 GL:   LOG MEASURED FROM
 DAPD.F                 5:   FEET ABOVE PERMANENT DATUM
 DMF .                 KB:   DRILLING MEASURED FROM
 EKB .F              5086:   KELLING BUSHING
 EGL .F              5081:   GROUND LEVEL
 DATE.        20-MAR-1977:   RUN DATE
 RUN .                  1:   RUN NUMBER
 DD  .F               751:   DEPTH DRILLER
 DL  .F               745:   DEPTH LOGGER
 BLI .F               744:   BOTTOM LOG INTERVAL
 TLI .F                30:   TOP LOG INTERVAL
 CBL .F                38:   CASING BOTTOM LOGGER
 BS  .IN            7.875:   BIT SIZE
 BSD .F               751:   BIT SIZE AT DEPTH
 DFT .             5% KCL:   DRILLING FLUID TYPE
 MSS .           MUD TANK:   MUD SAMPLE SOURCE
 RMS .OHMM            .23:   RESISTIVITY MUD SAMPLE
 MST .F                68:   MUD SAMPLE TEMPERATURE
 RMF .OHMM            .18:   RESISTIVITY MUD FILTRATE SAMPLE
 MFST.F                68:   MUD FILTRATE SAMPLE TEMPERATURE
 RMC .OHMM            .35:   RESISTIVITY MUD CAKE
 MCST.F                68:   MUD CAKE SAMPLE TEMPERATURE
 MFSS.               MEAS:   MUD FILTRATE SAMPLE SOURCE
 MCSS.               CALC:   MUD CAKE SAMPLE SOURCE
 RMB .OHMM            .24:   RESISTIVITY MUD AT BHT
 BHT .F                60:   BOTTOM HOLE TEMPERATURE
 TCS .HRS            0300:   TIME CURCULATED STOPPED
 MRT .F                60:   MAXIMUM RECORDED TEMPERATURE
 LUN .               7680:   LOGGING UNIT NUMBER
 LUL .               CSPR:   LOGGING UNIT LOCATION
 ENGI.                FIX:   RECORDING ENGINEER
 WITN.              BURKE:   WITNESSED BY
 CLNT.            A2DTECH:   CLIENT CODE
 ORIG.           5" PRINT:   ORIGIN OF DATA
 UWI .       490251031700:   UNIQUE WELL ID
 DICO. A2D Technologies, Inc.:   DIGITIZING COMPANY
~OTHER INFORMATION
~A   DEPT     CALD        GRD       CORR       DPHI       RHOB   
# ...
  396.0000     8.4389    83.9956     0.0156     0.1151     2.4650
  396.5000     8.4407    82.4717     0.0219     0.1148     2.4627
  397.0000     8.4426    83.2590     0.0173     0.1157     2.4659
  397.5000     8.4448    83.8922     0.0174     0.1194     2.4621
  398.0000     8.4466    79.7489     0.0159     0.1225     2.4482
  398.5000     8.4326    78.6872     0.0168     0.1287     2.4319
  399.0000     8.4349    79.1664     0.0192     0.1196     2.4561
  399.5000     8.4367    80.1078     0.0208     0.1168     2.4631
  400.0000     8.4386    80.4328     0.0225     0.1143     2.4686
  400.5000     8.4245    81.5378     0.0210     0.1110     2.4743
  401.0000     8.4268    82.9450     0.0265     0.1102     2.4764
  401.5000     8.4287    84.2018     0.0225     0.1142     2.4641
  402.0000     8.4301    85.1213     0.0118     0.1083     2.4758
  402.5000     8.4275    83.7160     0.0176     0.1147     2.4627
  403.0000     8.4253    82.1418     0.0200     0.1160     2.4604
  403.5000     8.4230    78.9872     0.0245     0.1147     2.4643
  404.0000     8.4207    70.9091     0.0138     0.1128     2.4682
  404.5000     8.4185    68.5646     0.0278     0.1112     2.4737
  405.0000     8.4162    74.4408     0.0310     0.1087     2.4815
  405.5000     8.4139    80.6210     0.0194     0.1192     2.4521
  406.0000     8.4116    84.0277     0.0156     0.1127     2.4653
  406.5000     8.4094    81.4251     0.0126     0.1210     2.4452
  407.0000     8.4071    79.5930     0.0228     0.1157     2.4608
  407.5000     8.4082    80.9966     0.0097     0.1144     2.4578
  408.0000     8.4093    84.0951     0.0121     0.1312     2.4229
  408.5000     8.4103    83.4956     0.0253     0.1178     2.4579
  409.0000     8.3959    82.2798     0.0115     0.1327     2.4385
  409.5000     8.3973    81.3721    -0.0008     0.1376     2.4269
  410.0000     8.4138    82.3135     0.0116     0.1264     2.4340
  410.5000     8.4148    82.0180     0.0233     0.1149     2.4573
  411.0000     8.4159    82.0390     0.0257     0.1179     2.4581
  411.5000     8.4170    82.5181     0.0227     0.1142     2.4605
  412.0000     8.4180    81.6105     0.0251     0.1222     2.4451
  412.5000     8.4191    80.2364     0.0197     0.1219     2.4467
  413.0000     8.4202    80.2574     0.0229     0.1231     2.4443
  413.5000     8.4213    79.6580     0.0238     0.1181     2.4724
  414.0000     8.4223    77.3636     0.0285     0.1063     2.4833
  414.5000     8.4077    72.6038     0.0208     0.1066     2.4810
  415.0000     8.4090    69.8472     0.0232     0.1090     2.4883
  415.5000     8.4101    68.9353     0.0465     0.0934     2.5106
  416.0000     8.4112    75.1197     0.0520     0.0912     2.4990
  416.5000     8.4122    85.1520     0.0413     0.0940     2.4971
  417.0000     8.4133    87.6342     0.0297     0.1002     2.4889
  417.5000     8.3989    89.0378     0.0306     0.1061     2.4798
  418.0000     8.4000    90.2873     0.0206     0.1108     2.4651
  418.5000     8.4011    89.0714     0.0137     0.1165     2.4481
  419.0000     8.4022    85.3903     0.0114     0.1293     2.4427
  419.5000     8.4187    83.2500     0.0193     0.1180     2.4692
  420.0000     8.4200    80.4933     0.0202     0.1098     2.4840
  420.5000     8.4210    79.4316     0.0187     0.1107     2.4677
  421.0000     8.4221    79.2943     0.0241     0.1118     2.4670
  421.5000     8.4232    80.2377     0.0296     0.1115     2.4756
  422.0000     8.4088    82.7263     0.0352     0.1101     2.4725
  422.5000     8.4099    85.0693     0.0407     0.1098     2.4749
  423.0000     8.4109    84.8752     0.0430     0.1107     2.4726
  423.5000     8.4120    83.6930     0.0344     0.1162     2.4611
  424.0000     8.3974    85.2882     0.0258     0.1215     2.4549
  424.5000     8.3987    86.3688     0.0168     0.1236     2.4418
  425.0000     8.3998    85.9527     0.0299     0.1168     2.4729
  425.5000     8.4008    83.1232     0.0246     0.1084     2.4558
  426.0000     8.4019    79.3130     0.0133     0.1183     2.4582
  426.5000     8.4184    77.7890     0.0142     0.1142     2.4645
  427.0000     8.4195    82.5825     0.0204     0.1225     2.4428
  427.5000     8.4206    87.3759     0.0321     0.1163     2.4677
  428.0000     8.4216    88.1590     0.0415     0.1091     2.4755
  428.5000     8.4227    85.5606     0.0300     0.1153     2.4554
  429.0000     8.4238    83.2662     0.0223     0.1230     2.4500
  429.5000     8.4248    82.0504     0.0232     0.1311     2.4446
  430.0000     8.4259    82.3754     0.0101     0.1376     2.4362
  430.5000     8.4270    83.3168     0.0078     0.1447     2.4176
  431.0000     8.4129    81.3305     0.0079     0.1518     2.4052
  431.5000     8.4139    79.3443     0.0149     0.1533     2.4006
  432.0000     8.3993    78.4324     0.0274     0.1573     2.3976
  432.5000     8.4006    83.0760     0.0167     0.1623     2.3876
  433.0000     8.4017    85.7123     0.0136     0.1315     2.4210
  433.5000     8.4028    86.6536     0.0176     0.1249     2.4396
  434.0000     8.4038    85.1296     0.0184     0.1212     2.4436
  434.5000     8.4049    83.1434     0.0170     0.1190     2.4514
  435.0000     8.4060    82.2358     0.0139     0.1161     2.4600
  435.5000     8.4225    81.4822     0.0125     0.1220     2.4507
  436.0000     8.4235    79.4960     0.0218     0.1145     2.4578
  436.5000     8.4246    73.1954     0.0258     0.1173     2.4617
  437.0000     8.4257    70.1306     0.0189     0.1182     2.4599
  437.5000     8.4267    70.9178     0.0174     0.1120     2.4525
  438.0000     8.4124    78.9470     0.0175     0.1087     2.4820
  438.5000     8.4134    83.5864     0.0214     0.1094     2.4782
  439.0000     8.3991    85.1441     0.0300     0.1004     2.4883
  439.5000     8.4002    83.9282     0.0390     0.1007     2.4837
  440.0000     8.4012    83.9034     0.0286     0.1050     2.4892
  440.5000     8.4023    85.0405     0.0295     0.1096     2.4761
  441.0000     8.4034    85.3655     0.0249     0.1114     2.4730
  441.5000     8.4047    85.2283     0.0188     0.1130     2.4661
  442.0000     8.4058    84.4747     0.0181     0.1139     2.4638
  442.5000     8.3911    84.3323     0.0166     0.1141     2.4647
  443.0000     8.3925    85.7462     0.0175     0.1135     2.4671
  443.5000     8.3935    88.0878     0.0215     0.1145     2.4609
  444.0000     8.3946    89.9517     0.0153     0.1114     2.4656
  444.5000     8.3957    90.5686     0.0173     0.1040     2.4765
  445.0000     8.3967    90.2003     0.0224     0.0994     2.5029
  445.5000     8.3978    86.8475     0.0156     0.1073     2.4797
  446.0000     8.3989    84.6965     0.0205     0.1066     2.4907
  446.5000     8.3999    83.3683     0.0293     0.1027     2.5000
  447.0000     8.4011    82.5814     0.0368     0.0884     2.5303
  447.5000     8.3864    78.6551     0.0236     0.0936     2.4993
  448.0000     8.3877    76.2066     0.0283     0.0886     2.5219
  448.5000     8.3888    77.1479     0.0385     0.0933     2.4894
  449.0000     8.3898    83.7904     0.0138     0.1112     2.4646
  449.5000     8.3909    86.7348     0.0146     0.1168     2.4577
  450.0000     8.3920    87.9843     0.0056     0.1198     2.4469
  450.5000     8.3931    85.8440     0.0080     0.1221     2.4128
  451.0000     8.3941    83.2080     0.0267     0.1170     2.4625
  451.5000     8.3952    83.6287     0.0222     0.1214     2.4470
  452.0000     8.3937    85.6148     0.0088     0.1306     2.4308
  452.5000     8.3899    86.7180     0.0036     0.1397     2.4246
  453.0000     8.3862    87.4854     0.0007     0.1465     2.4138
  453.5000     8.3824    88.2465     0.0084     0.1489     2.4069
  454.0000     8.3786    86.7209     0.0143     0.1455     2.4000
  454.5000     8.3750    85.9620     0.0068     0.1567     2.3845
  455.0000     8.3611    86.5974     0.0189     0.1666     2.3636
  455.5000     8.3627    84.9178     0.0166     0.1852     2.3435
  456.0000     8.3642    82.4678     0.0129     0.2029     2.2706
  456.5000     8.3657    79.2473     0.0092     0.2327     2.2544
