~VERSION INFORMATION
 VERS.                2.0:   CWLS LOG ASCII STANDARD - VERSION 2.0
 WRAP.                 NO:   ONE LINE PER DEPTH STEP
~WELL INFORMATION
#MNEM.UNIT      DATA TYPE    INFORMATION
#----------   ------------   ------------------------------
 STRT.F            8.5000:   START DEPTH
 STOP.F         2140.0000:   STOP DEPTH
 STEP.F            0.5000:   STEP LENGTH
 NULL.          -999.2500:   NO VALUE
 COMP. LAWRENCE/ALLISON INC:   COMPANY
 WELL.   11-61 SHX #61-11:   WELL
 FLD .             TEAPOT:   FIELD
 LOC .      S11 T38N R78W:   LOCATION
 CNTY.            NATRONA:   COUNTY
 STAT.            WYOMING:   STATE
 CTRY. UNITED STATES OF AMERICA:   COUNTRY
 SRVC.      NL McCullough:   SERVICE COMPANY
 DATE.        04-MAY-1988:   LOGDATE
 API .       490251115600:   API NUMBER
~CURVE INFORMATION
#MNEM.UNIT       API CODE    CURVE DESCRIPTION
#----------   ------------   ------------------------------
 DEPT.F                  :   
 GRR .GAPI   81 310 01 00:   GAMMY RAY
 ROP .FT/HR  91 810 01 00:   RAT OF DRILLING PENETRATION
 TGAS.TC/CC  91 830 01 00:   TOTAL GAS UNIT
~PARAMETER INFORMATION
#MNEM.UNIT          VALUE    DESCRIPTION
#----------   ------------   ------------------------------
 PD  .                 GL:   PERMANENT DATUM
 EPD .F              5135:   ELEVATION PERMANENT DATUM
 LMF .                 KB:   LOG MEASURED FROM
 DAPD.F                 8:   FEET ABOVE PERMANENT DATUM
 DMF .                 KB:   DRILLING MEASURED FROM
 EKB .F              5143:   KELLING BUSHING
 EGL .F              5135:   GROUND LEVEL
 DATE.        04-MAY-1988:   RUN DATE
 RUN .                  1:   RUN NUMBER
 DD  .F              2140:   DEPTH DRILLER
 DL  .F               572:   DEPTH LOGGER
 BLI .F               568:   BOTTOM LOG INTERVAL
 CS  .IN              5.5:   CASING SIZE
 CBD .F               622:   CASING BOTTOM DRILLER
 BSD .F              2140:   BIT SIZE AT DEPTH
 DFT .         KCL/ WATER:   DRILLING FLUID TYPE
 TCS .HRS               1:   TIME CURCULATED STOPPED
 ENGI.               DALY:   RECORDING ENGINEER
 WITN.           MR. LOWL:   WITNESSED BY
 CLNT.            A2DTECH:   CLIENT CODE
 ORIG.           5" PRINT:   ORIGIN OF DATA
 UWI .       490251115600:   UNIQUE WELL ID
 DICO. A2D Technologies, Inc.:   DIGITIZING COMPANY
~OTHER INFORMATION
~A    DEPT      GRR       ROP       TGAS   
# ...
  827.5000  -999.2500     0.1698     1.8868
  828.0000  -999.2500     0.1698     1.8868
  828.5000  -999.2500     0.1698     1.8868
  829.0000  -999.2500     0.1698     1.5094
  829.5000  -999.2500     0.1698     1.5094
  830.0000  -999.2500     0.1698     1.8868
  830.5000  -999.2500     0.1698     1.8868
  831.0000  -999.2500     0.1698     1.8868
  831.5000  -999.2500     0.1698     1.6699
  832.0000  -999.2500     0.1792     1.5094
  832.5000  -999.2500     0.1792     1.5094
  833.0000  -999.2500     0.1792     1.5094
  833.5000  -999.2500     0.1792     1.8868
  834.0000  -999.2500     0.1792     1.8868
  834.5000  -999.2500     0.1792     1.5094
  835.0000  -999.2500     0.1792     1.5094
  835.5000  -999.2500     0.1792     1.5094
  836.0000  -999.2500     0.1792     1.5094
  836.5000  -999.2500     0.1792     1.5094
  837.0000  -999.2500     0.1792     1.1321
  837.5000  -999.2500     0.1792     1.1321
  838.0000  -999.2500     0.1792     1.1321
  838.5000  -999.2500     0.1792     0.8994
  839.0000  -999.2500     0.1792     0.7547
  839.5000  -999.2500     0.1792     0.3774
  840.0000  -999.2500     0.1792     0.3774
  840.5000  -999.2500     0.1792     0.0000
  841.0000  -999.2500     0.1981     0.0000
  841.5000  -999.2500     0.2453     0.0000
  842.0000  -999.2500     0.2547     0.0000
  842.5000  -999.2500     0.2547     0.0000
  843.0000  -999.2500     0.2547     0.0000
  843.5000  -999.2500     0.2547     0.0000
  844.0000  -999.2500     0.2547     0.0000
  844.5000  -999.2500     0.2547     0.0000
  845.0000  -999.2500     0.2547     0.0000
  845.5000  -999.2500     0.2547     0.0000
  846.0000  -999.2500     0.2547    -0.3774
  846.5000  -999.2500     0.2547    -0.3774
  847.0000  -999.2500     0.2547    -0.3774
  847.5000  -999.2500     0.2547    -0.3774
  848.0000  -999.2500     0.2547     0.0000
  848.5000  -999.2500     0.2547     0.0000
  849.0000  -999.2500     0.2547     0.0000
  849.5000  -999.2500     0.2547     0.0000
  850.0000  -999.2500     0.2547    -0.3774
  850.5000  -999.2500     0.2547    -0.3774
  851.0000  -999.2500     0.2547    -0.1698
  851.5000  -999.2500     0.2547     0.0000
  852.0000  -999.2500     0.2547     0.0000
  852.5000  -999.2500     0.2547     0.0000
  853.0000  -999.2500     0.2642     0.3774
  853.5000  -999.2500     0.2642     0.3774
  854.0000  -999.2500     0.2642     0.3774
  854.5000  -999.2500     0.2547     0.3774
  855.0000  -999.2500     0.2547    -0.1528
  855.5000  -999.2500     0.2547    -0.1676
  856.0000  -999.2500     0.2547    -0.1824
  856.5000  -999.2500     0.2547    -0.1972
  857.0000  -999.2500     0.2547     0.1660
  857.5000  -999.2500     0.2547     0.5283
  858.0000  -999.2500     0.2547     0.5132
  858.5000  -999.2500     0.2642     0.8758
  859.0000  -999.2500     0.2547     0.8604
  859.5000  -999.2500     0.2547     1.2199
  860.0000  -999.2500     0.2547     1.2051
  860.5000  -999.2500     0.2547     1.1903
  861.0000  -999.2500     0.2540     1.1755
  861.5000  -999.2500     0.2499     1.1607
  862.0000  -999.2500     0.2459     1.1472
  862.5000  -999.2500     0.2418     1.1312
  863.0000  -999.2500     0.2377     1.1164
  863.5000  -999.2500     0.2333     1.1019
  864.0000  -999.2500     0.1766     0.8981
  864.5000  -999.2500     0.1765     0.6786
  865.0000  -999.2500     0.1670     0.3019
  865.5000  -999.2500     0.1763     0.2868
  866.0000  -999.2500     0.1762     0.2717
  866.5000  -999.2500     0.1761     0.0461
  867.0000  -999.2500     0.1760    -0.1377
  867.5000  -999.2500     0.1759    -0.5283
  868.0000  -999.2500     0.1758    -0.5434
  868.5000  -999.2500     0.1758    -0.5594
  869.0000  -999.2500     0.1756    -0.5736
  869.5000  -999.2500     0.1756    -0.5890
  870.0000  -999.2500     0.1849    -0.9811
  870.5000  -999.2500     0.1848    -0.9962
  871.0000  -999.2500     0.1847    -1.0113
  871.5000  -999.2500     0.1846    -0.8142
  872.0000  -999.2500     0.1845    -0.6629
  872.5000  -999.2500     0.1844    -0.6792
  873.0000  -999.2500     0.1843    -0.6000
  873.5000  -999.2500     0.1842    -0.3321
  874.0000  -999.2500     0.1842    -0.3484
  874.5000  -999.2500     0.1841    -0.2207
  875.0000  -999.2500     0.1839     0.3780
  875.5000  -999.2500     0.1839     0.7381
  876.0000  -999.2500     0.1838     0.7245
  876.5000  -999.2500     0.1837     0.7408
  877.0000  -999.2500     0.1836     1.1733
  877.5000  -999.2500     0.1835     1.4811
  878.0000  -999.2500     0.1876     2.1711
  878.5000  -999.2500     0.1927     2.1563
  879.0000  -999.2500     0.1926     2.5226
  879.5000  -999.2500     0.1925     2.5057
  880.0000  -999.2500     0.1925     2.1120
  880.5000  -999.2500     0.1924     2.0981
  881.0000  -999.2500     0.1923     2.0830
  881.5000  -999.2500     0.1922     2.0676
  882.0000  -999.2500     0.1921     2.0528
  882.5000  -999.2500     0.1920     2.0377
  883.0000  -999.2500     0.1919     1.8759
  883.5000  -999.2500     0.1918     1.6302
  884.0000  -999.2500     0.1917     1.2353
  884.5000  -999.2500     0.1916     1.2226
  885.0000  -999.2500     0.1915     0.7358
  885.5000  -999.2500     0.1914     0.4377
  886.0000  -999.2500     0.1913     0.4214
  886.5000  -999.2500     0.1912     0.4075
  887.0000  -999.2500     0.1911     0.3918
  887.5000  -999.2500     0.1910     0.3771
  888.0000  -999.2500     0.1909     0.3623
  888.5000  -999.2500     0.1908     0.3472
  889.0000  -999.2500     0.1908     0.3321
  889.5000  -999.2500     0.1906     0.3142
  890.0000  -999.2500     0.1811     0.3019
  890.5000  -999.2500     0.1782     0.2846
  891.0000  -999.2500     0.1715     0.2717
  891.5000  -999.2500     0.1714    -0.1223
  892.0000  -999.2500     0.1713    -0.1371
  892.5000  -999.2500     0.1712     0.2292
  893.0000  -999.2500     0.1617     0.2107
  893.5000  -999.2500     0.1616    -0.1814
  894.0000  -999.2500     0.1615    -0.1962
  894.5000  -999.2500     0.1614    -0.5887
  895.0000  -999.2500     0.1613    -0.9811
  895.5000  -999.2500     0.1612    -1.3764
  896.0000  -999.2500     0.1611    -1.3887
  896.5000  -999.2500     0.1610    -1.4038
  897.0000  -999.2500     0.1609    -1.4207
  897.5000  -999.2500     0.1608    -1.4355
  898.0000  -999.2500     0.1607    -1.4491
  898.5000  -999.2500     0.1607    -1.4651
  899.0000  -999.2500     0.1606    -1.4799
  899.5000  -999.2500     0.1605    -1.3214
  900.0000  -999.2500     0.1698    -1.1321
  900.5000  -999.2500     0.2081    -0.7695
  901.0000  -999.2500     0.2559    -0.7849
  901.5000  -999.2500     0.2827    -0.4217
  902.0000  -999.2500     0.2826    -0.0398
  902.5000  -999.2500     0.2825    -0.0189
  903.0000  -999.2500     0.2730     0.0021
  903.5000  -999.2500     0.2729     0.0230
  904.0000  -999.2500     0.2728     0.0439
  904.5000  -999.2500     0.2822     0.0649
  905.0000  -999.2500     0.2819     0.0858
  905.5000  -999.2500     0.2816     0.1067
  906.0000  -999.2500     0.2814     0.1277
  906.5000  -999.2500     0.2811     0.1486
  907.0000  -999.2500     0.2808     0.1695
  907.5000  -999.2500     0.2806     0.1904
  908.0000  -999.2500     0.2803     0.2114
  908.5000  -999.2500     0.2800     0.2323
  909.0000  -999.2500     0.2798     0.2532
  909.5000  -999.2500     0.2795     0.2742
  910.0000  -999.2500     0.2792     0.2951
  910.5000  -999.2500     0.2790     0.3160
  911.0000  -999.2500     0.2787     0.3370
  911.5000  -999.2500     0.2784     0.3579
  912.0000  -999.2500     0.2782     0.3788
  912.5000  -999.2500     0.2779     0.3998
  913.0000  -999.2500     0.2776     0.4207
  913.5000  -999.2500     0.2774     0.4416
  914.0000  -999.2500     0.2771     0.4626
  914.5000  -999.2500     0.2768     0.4835
  915.0000  -999.2500     0.2766     0.5044
  915.5000  -999.2500     0.2763     0.5220
  916.0000  -999.2500     0.2760     0.5127
  916.5000  -999.2500     0.2758     0.5052
  917.0000  -999.2500     0.2755     0.4978
  917.5000  -999.2500     0.2752     1.0315
  918.0000  -999.2500     0.2750     1.4113
