~VERSION INFORMATION
 VERS.                2.0:   CWLS LOG ASCII STANDARD - VERSION 2.0
 WRAP.                 NO:   ONE LINE PER DEPTH STEP
~WELL INFORMATION
#MNEM.UNIT      DATA TYPE    INFORMATION
#----------   ------------   ------------------------------
 STRT.F           30.0000:   START DEPTH
 STOP.F          634.0000:   STOP DEPTH
 STEP.F            0.5000:   STEP LENGTH
 NULL.          -999.2500:   NO VALUE
 COMP. FENIX & SCISSON INC:   COMPANY
 WELL.     26-S-11 #26-11:   WELL
 FLD .             TEAPOT:   FIELD
 LOC .      S11 T38N R78W:   LOCATION
 CNTY.            NATRONA:   COUNTY
 STAT.            WYOMING:   STATE
 CTRY. UNITED STATES OF AMERICA:   COUNTRY
 SRVC.              Welex:   SERVICE COMPANY
 DATE.        26-APR-1977:   LOGDATE
 API .       490251034300:   API NUMBER
~CURVE INFORMATION
#MNEM.UNIT       API CODE    CURVE DESCRIPTION
#----------   ------------   ------------------------------
 DEPT.F                  :   
 SPR .MV     07 010 01 00:   SPONTANEOUS POTENTIAL
 ILD .OHMM   07 120 46 00:   INDUCTION LOG DEEP
 ILM .OHMM   07 120 44 00:   INDUCTION LOG MEDIUM
 SGRD.OHMM   07 221 05 00:   SHALLOW SHORT GUARD RESISTIVITY
 CALD.IN     45 280 60 00:   CALIPER FROM DENSITY LOG
 GRD .GAPI   45 310 01 00:   GAMMA RAY FROM DENSITY LOG
 CORR.G/C3   45 356 01 00:   DENSITY CORRECTION
 DPHI.DEC    45 890 12 00:   DENSITY POROSITY SANDSTONE
 RHOB.G/C3   45 350 01 00:   BULK DENSITY
~PARAMETER INFORMATION
#MNEM.UNIT          VALUE    DESCRIPTION
#----------   ------------   ------------------------------
 PD  .                 GL:   PERMANENT DATUM
 EPD .F              5179:   ELEVATION PERMANENT DATUM
 LMF .                 GL:   LOG MEASURED FROM
 DMF .                 GL:   DRILLING MEASURED FROM
 EGL .F              5179:   GROUND LEVEL
 DATE.          4-24-1977:   RUN DATE
 RUN .                  1:   RUN NUMBER
 DD  .F               645:   DEPTH DRILLER
 DL  .F               634:   DEPTH LOGGER
 BLI .F               632:   BOTTOM LOG INTERVAL
 TLI .F                40:   TOP LOG INTERVAL
 CS  .IN            8.625:   CASING SIZE
 CBD .F                40:   CASING BOTTOM DRILLER
 CBL .F                42:   CASING BOTTOM LOGGER
 BS  .IN            7.875:   BIT SIZE
 BSD .F               645:   BIT SIZE AT DEPTH
 DFT .            KCL MUD:   DRILLING FLUID TYPE
 DFD .                8.8:   DRILLING FLUID DENSITY
 DFV .                 33:   DRILLING FLUID VISCOSITY
 DFPH.                7.5:   DRILLING FLUID PH
 DFL .                 96:   DRILLING FLUID LOSS
 MSS .           FLOWLINE:   MUD SAMPLE SOURCE
 RMS .OHMM            .17:   RESISTIVITY MUD SAMPLE
 MST .F                81:   MUD SAMPLE TEMPERATURE
 RMF .OHMM            .16:   RESISTIVITY MUD FILTRATE SAMPLE
 MFST.F                81:   MUD FILTRATE SAMPLE TEMPERATURE
 RMC .OHMM            .21:   RESISTIVITY MUD CAKE
 MCST.F                81:   MUD CAKE SAMPLE TEMPERATURE
 MFSS.           FANN KIT:   MUD FILTRATE SAMPLE SOURCE
 MCSS.           FANN KIT:   MUD CAKE SAMPLE SOURCE
 RMB .OHMM            .19:   RESISTIVITY MUD AT BHT
 BHT .F                72:   BOTTOM HOLE TEMPERATURE
 TCS .HRS             1.5:   TIME CURCULATED STOPPED
 MRT .F                72:   MAXIMUM RECORDED TEMPERATURE
 LUN .                861:   LOGGING UNIT NUMBER
 LUL .           GILLETTE:   LOGGING UNIT LOCATION
 ENGI.             JOYNER:   RECORDING ENGINEER
 WITN.           ROB LYON:   WITNESSED BY
 CLNT.            A2DTECH:   CLIENT CODE
 ORIG.         2.5" PRINT:   ORIGIN OF DATA
 UWI .       490251034300:   UNIQUE WELL ID
 DICO. A2D Technologies, Inc.:   DIGITIZING COMPANY
~OTHER INFORMATION
~A   DEPT      SPR        ILD        ILM       SGRD       CALD        GRD       CORR       DPHI       RHOB   
# ...
  541.0000   -18.5530    12.0203    17.7850    19.7951     7.9686    93.7107     0.0258     0.1348     2.4112
  541.5000   -18.5545    12.3603    18.2913    20.5989     7.9676    93.4057     0.0257     0.1312     2.4133
  542.0000   -18.5560    12.5331    18.5490    23.2608     7.9666    92.2209     0.0258     0.1240     2.4292
  542.5000   -18.2553    12.7082    18.5459    30.6174     7.9655    91.3294     0.0286     0.1169     2.4482
  543.0000   -18.2569    12.7749    18.2836    32.4705     7.9645    90.4223     0.0286     0.1117     2.4696
  543.5000   -17.9563    13.0659    17.7725    29.5383     7.9635    88.1945     0.0286     0.1156     2.4672
  544.0000   -17.9578    13.0638    16.7952    24.7769     7.9625    85.9950     0.0256     0.1264     2.4459
  544.5000   -17.6572    13.0619    15.8716    20.6923     7.9614    83.8457     0.0253     0.1358     2.4195
  545.0000   -17.3566    12.9843    14.9989    18.9715     7.9604    81.6963     0.0223     0.1441     2.3959
  545.5000   -17.3581    12.6221    14.1741    18.1542     7.9594    83.1297     0.0193     0.1527     2.3717
  546.0000   -17.0575    12.3444    13.7779    18.1504     7.9584    85.8513     0.0163     0.1696     2.3642
  546.5000   -17.0590    11.9277    13.3927    18.0283     7.9748    88.8640     0.0106     0.1749     2.3563
  547.0000   -17.0606    11.5949    13.2033    17.7709     7.9856    89.6434     0.0102     0.1765     2.3507
  547.5000   -17.0621    11.2714    13.0166    17.6343     7.9844    85.9482     0.0076     0.1726     2.3528
  548.0000   -17.0636    11.1117    13.0147    17.3837     7.9834    85.8136     0.0105     0.1672     2.3617
  548.5000   -17.0651    10.9542    13.0129    17.1366     7.9824    87.8299     0.0109     0.1627     2.3686
  549.0000   -17.0666    10.7989    13.0110    17.1329     7.9813    89.4975     0.0134     0.1611     2.3745
  549.5000   -17.0681    10.6458    13.0092    17.0106     7.9803    90.5728     0.0164     0.1618     2.3790
  550.0000   -17.3717    10.5685    12.6456    16.8858     7.9793    89.1006     0.0193     0.1630     2.3809
  550.5000   -17.3732    10.4199    12.2921    16.7629     7.9783    87.5294     0.0187     0.1649     2.3715
  551.0000   -17.6769    10.4185    11.9485    16.6423     7.9773    89.0030     0.0157     0.1659     2.3685
  551.5000   -17.6784    10.4170    11.4519    16.6388     7.9762    90.0695     0.0133     0.1627     2.3706
  552.0000   -17.9820    10.3382    11.1318    16.5142     7.9752    90.8368     0.0132     0.1557     2.3780
  552.5000   -17.9835    10.2691    11.1302    16.2783     7.9742    91.0134     0.0132     0.1499     2.3854
  553.0000   -17.9850    10.1890    10.9727    16.1657     7.9732    89.7146     0.0138     0.1441     2.3928
  553.5000   -18.2886    10.1233    10.9712    16.0413     7.9722    88.4116     0.0168     0.1399     2.4002
  554.0000   -18.2901    10.1219    10.9697    15.9326     7.9711    89.5385     0.0191     0.1366     2.4049
  554.5000   -18.2917    10.1205    10.9681    15.9292     7.9701    91.3148     0.0220     0.1342     2.4108
  555.0000   -18.5953    10.1190    10.9666    15.8032     7.9691    89.2865     0.0220     0.1323     2.4167
  555.5000   -18.5968    10.1176    10.9650    15.6995     7.9681    87.7664     0.0219     0.1301     2.4218
  556.0000   -18.5983    10.1159    10.9635    15.6962     7.9670    87.8026     0.0211     0.1280     2.4262
  556.5000   -18.9019    10.1145    11.2755    15.6928     7.9660    90.8768     0.0189     0.1267     2.4306
  557.0000   -18.9034    10.1131    11.4341    15.6895     7.9650    91.3959     0.0189     0.1263     2.4358
  557.5000   -19.2071    10.1117    11.9266    15.6862     7.9640    89.3255     0.0188     0.1294     2.4278
  558.0000   -19.2086    10.1103    12.0946    15.6829     7.9634    88.4242     0.0188     0.1347     2.4107
  558.5000   -19.2101    10.1089    12.2647    15.6796     7.9634    89.1507     0.0158     0.1394     2.4047
  559.0000   -19.2116    10.1075    11.9216    15.6762     7.9633    91.2063     0.0128     0.1369     2.4122
  559.5000   -19.2131     9.9654    11.7529    15.6729     7.9632    93.1086     0.0128     0.1311     2.4225
  560.0000   -19.2146     9.9640    11.5867    15.6689     7.9631    94.7117     0.0098     0.1264     2.4314
  560.5000   -19.2161     9.8239    11.5851    15.6656     7.9631    93.9122     0.0098     0.1232     2.4380
  561.0000   -19.2176     9.8225    11.4212    15.6623     7.9630    92.1350     0.0097     0.1216     2.4416
  561.5000   -19.2191     9.8211    11.4196    15.6590     7.9629    91.1466     0.0097     0.1246     2.4353
  562.0000   -19.5228     9.6831    11.4180    15.6557     7.9629    90.9697     0.0108     0.1288     2.4257
  562.5000   -19.5243     9.6817    11.4164    15.6524     7.9628    90.8358     0.0126     0.1312     2.4220
  563.0000   -19.5258     9.6804    11.4148    15.6491     7.9627    91.4682     0.0156     0.1309     2.4223
  563.5000   -19.8294     9.6790    11.5755    15.6458     7.9626    92.8692     0.0185     0.1295     2.4287
  564.0000   -19.8309     9.6777    11.5736    15.6425     7.9626    94.3268     0.0214     0.1278     2.4346
  564.5000   -19.8324     9.5416    11.5720    15.6392     7.9625    95.4910     0.0214     0.1251     2.4405
  565.0000   -20.1360     9.5403    11.5704    15.6359     7.9624    97.5350     0.0214     0.1222     2.4449
  565.5000   -20.1375     9.5390    11.5687    15.6326     7.9623    98.9926     0.0184     0.1203     2.4463
  566.0000   -20.4412     9.5376    11.4051    15.4104     7.9623    99.8636     0.0183     0.1191     2.4478
  566.5000   -20.4427     9.5363    11.4035    15.4071     7.9622   101.0279     0.0183     0.1185     2.4492
  567.0000   -20.4442     9.5350    11.4019    15.1882     7.9621   101.6070     0.0183     0.1168     2.4521
  567.5000   -20.4457     9.4009    11.4003    15.1849     7.9621   100.1306     0.0182     0.1164     2.4551
  568.0000   -20.4472     9.3996    11.2390    15.1817     7.9620   101.8814     0.0153     0.1156     2.4580
  568.5000   -20.4487     9.3983    11.2374    15.1785     7.9619   101.2861     0.0182     0.1153     2.4609
  569.0000   -20.4502     9.3970    11.3957    15.1753     7.9618    98.9313     0.0182     0.1176     2.4613
  569.5000   -20.4517     9.2649    11.3939    15.1721     7.9618    97.7495     0.0181     0.1227     2.4401
  570.0000   -20.4532     9.2636    11.5541    15.1689     7.9617    98.6205     0.0181     0.1272     2.4300
  570.5000   -20.4548     9.2623    11.5524    15.1657     7.9616    99.4915     0.0166     0.1293     2.4261
  571.0000   -20.4563     9.2610    11.5508    15.1625     7.9615   100.6558     0.0151     0.1308     2.4223
  571.5000   -20.4578     9.2597    11.5492    15.1593     7.9615   102.4066     0.0135     0.1317     2.4180
  572.0000   -20.4593     9.2584    11.5476    15.1561     7.9614   104.7439     0.0120     0.1320     2.4182
  572.5000   -20.4608     9.2571    11.5459    15.1529     7.9613   105.6158     0.0136     0.1317     2.4250
  573.0000   -20.4623     9.1270    11.3826    15.1497     7.9612   103.5533     0.0196     0.1298     2.4259
  573.5000   -20.4638     9.2545    11.2216    14.9344     7.9612   101.7851     0.0209     0.1266     2.4257
  574.0000   -20.4653     9.2532    10.7552    14.9312     7.9611   100.0168     0.0238     0.1224     2.4381
  574.5000   -20.4668     9.2519    10.4545    14.9281     7.9610    98.8350     0.0267     0.1176     2.4523
  575.0000   -20.4683     9.2506    10.0200    14.7159     7.9610    97.6532     0.0297     0.1141     2.4628
  575.5000   -20.4699     9.2494     9.7399    14.7128     7.9609    96.7647     0.0296     0.1121     2.4693
  576.0000   -20.4714     9.2481     9.7385    14.3006     7.9608    97.9290     0.0296     0.1101     2.4692
  576.5000   -20.4729     9.2468    10.0157    14.2975     7.9607    99.0932     0.0296     0.1083     2.4692
  577.0000   -20.4744     9.1168    10.0143    14.0943     7.9607   100.8440     0.0295     0.1072     2.4706
