~VERSION INFORMATION
 VERS.                2.0:   CWLS LOG ASCII STANDARD - VERSION 2.0
 WRAP.                 NO:   ONE LINE PER DEPTH STEP
~WELL INFORMATION
#MNEM.UNIT      DATA TYPE    INFORMATION
#----------   ------------   ------------------------------
 STRT.F           90.0000:   START DEPTH
 STOP.F          784.0000:   STOP DEPTH
 STEP.F            0.5000:   STEP LENGTH
 NULL.          -999.2500:   NO VALUE
 COMP.               NAVY:   COMPANY
 WELL. RES 3 TEAPOT DOM #41S-11:   WELL
 FLD .             TEAPOT:   FIELD
 LOC .      S11 T38N R78W:   LOCATION
 CNTY.            NATRONA:   COUNTY
 STAT.            WYOMING:   STATE
 CTRY. UNITED STATES OF AMERICA:   COUNTRY
 SRVC.       Schlumberger:   SERVICE COMPANY
 DATE.        14-JUL-1962:   LOGDATE
 API .       490250638000:   API NUMBER
~CURVE INFORMATION
#MNEM.UNIT       API CODE    CURVE DESCRIPTION
#----------   ------------   ------------------------------
 DEPT.F                  :   
 GR  .GAPI   30 310 01 00:   GAMMA RAY
 SPR .MV     05 010 01 00:   SPONTANEOUS POTENTIAL FROM RES.
 ASN .OHMM   05 041 16 00:   AMPLIFIED SHORT NORMAL 16"
 ILD .OHMM   05 120 46 00:   INDUCTION LOG DEEP
 CILD.MMHO   05 110 46 00:   CONDUCTIVITY INDUCTION LOG DEEP
~PARAMETER INFORMATION
#MNEM.UNIT          VALUE    DESCRIPTION
#----------   ------------   ------------------------------
 LMF .                 KB:   LOG MEASURED FROM
 DMF .                 KB:   DRILLING MEASURED FROM
 EKB .F              5162:   KELLING BUSHING
 EGL .F              5157:   GROUND LEVEL
 DATE.        14-JUL-1962:   RUN DATE
 RUN .                  1:   RUN NUMBER
 DD  .F               785:   DEPTH DRILLER
 DL  .F               785:   DEPTH LOGGER
 BLI .F               784:   BOTTOM LOG INTERVAL
 TLI .F               100:   TOP LOG INTERVAL
 CBD .F                10:   CASING BOTTOM DRILLER
 BS  .IN             6.75:   BIT SIZE
 BSD .F               785:   BIT SIZE AT DEPTH
 DFT .           OIL EMUL:   DRILLING FLUID TYPE
 DFD .               10.2:   DRILLING FLUID DENSITY
 DFV .                 43:   DRILLING FLUID VISCOSITY
 DFL .                4.6:   DRILLING FLUID LOSS
 RMS .OHMM            5.2:   RESISTIVITY MUD SAMPLE
 MST .F                78:   MUD SAMPLE TEMPERATURE
 RMF .OHMM            5.2:   RESISTIVITY MUD FILTRATE SAMPLE
 MFST.F                78:   MUD FILTRATE SAMPLE TEMPERATURE
 RMC .OHMM              6:   RESISTIVITY MUD CAKE
 MCST.F                78:   MUD CAKE SAMPLE TEMPERATURE
 TCS .HRS              .5:   TIME CURCULATED STOPPED
 LUN .               2503:   LOGGING UNIT NUMBER
 LUL .               CSPR:   LOGGING UNIT LOCATION
 ENGI.           ELLERMAN:   RECORDING ENGINEER
 WITN.          JORGENSON:   WITNESSED BY
 CLNT.            A2DTECH:   CLIENT CODE
 ORIG.           5" PRINT:   ORIGIN OF DATA
 UWI .       490250638000:   UNIQUE WELL ID
 DICO. A2D Technologies, Inc.:   DIGITIZING COMPANY
~OTHER INFORMATION
~A   DEPT       GR        SPR          ASN        ILD       CILD 
# ...
  151.0000  -999.2500   -40.7443     4.6371     5.7385   194.6810
  151.5000  -999.2500   -40.4787     4.6068     5.8890   186.3403
  152.0000  -999.2500   -40.6283     4.6822     5.8126   184.0603
  152.5000  -999.2500   -40.7779     4.7575     5.8119   186.3256
  153.0000  -999.2500   -41.0806     4.7423     5.8111   188.6315
  153.5000  -999.2500   -41.3792     4.7421     5.7349   191.8760
  154.0000  -999.2500   -41.6798     4.7420     5.5075   202.2108
  154.5000  -999.2500   -41.9801     4.6814     5.1254   223.4156
  155.0000  -999.2500   -42.1301     4.4547     4.6627   253.7113
  155.5000  -999.2500   -41.8261     4.1222     4.1456   281.7342
  156.0000  -999.2500   -41.2204     3.7746     3.8428   310.5147
  156.5000  -999.2500   -40.7662     3.5328     3.7665   331.7195
  157.0000  -999.2500   -41.5196     3.4118     3.6903   341.5906
  157.5000  -999.2500   -42.1275     3.4731     3.6140   348.5735
  158.0000  -999.2500   -42.4451     3.5625     3.6888   351.3944
  158.5000  -999.2500   -42.5726     3.4264     3.7636   346.0822
  159.0000  -999.2500   -42.2687     3.3054     3.9214   332.4384
  159.5000  -999.2500   -41.5119     3.5016     4.2151   311.9766
  160.0000  -999.2500   -40.9062     3.7432     4.4410   288.4843
  160.5000  -999.2500   -40.6026     3.8186     4.5913   250.5982
  161.0000  -999.2500   -40.6011     3.8940     4.7416   234.6818
  161.5000  -999.2500   -40.5997     4.0298     4.9675   227.0278
  162.0000  -999.2500   -40.5982     4.1823     5.0424   222.5440
  162.5000  -999.2500   -40.5966     4.2888     5.1926   219.5064
  163.0000  -999.2500   -40.4438     4.3918     5.2674   217.9839
  163.5000  -999.2500   -40.5934     4.4370     5.2666   215.7038
  164.0000  -999.2500   -40.4409     4.4671     5.2657   214.1812
  164.5000  -999.2500   -40.4394     4.4518     5.2650   213.4182
  165.0000  -999.2500   -40.5890     4.3912     5.1132   217.1968
  165.5000  -999.2500   -41.4939     4.1947     4.9614   223.3717
  166.0000  -999.2500   -42.8520     3.9831     4.7341   237.9279
  166.5000  -999.2500   -43.0015     3.7984     4.5068   262.6275
  167.0000  -999.2500   -41.9423     3.6202     4.3550   277.7716
  167.5000  -999.2500   -41.0345     3.5294     4.1277   292.9158
  168.0000  -999.2500   -40.2777     3.5293     4.0512   298.2133
  168.5000  -999.2500   -39.8231     3.5593     4.0505   297.4465
  169.0000  -999.2500   -39.6706     3.5743     3.9742   299.7119
  169.5000  -999.2500   -39.6691     3.5439     3.9735   312.6233
  170.0000  -999.2500   -39.5166     3.3172     3.7462   325.7579
  170.5000  -999.2500   -39.6662     3.0754     3.5188   336.8092
  171.0000  -999.2500   -39.9809     3.1522     3.3671   342.1049
  171.5000  -999.2500   -40.1160     3.1959     3.4430   345.1279
  172.0000  -999.2500   -40.2660     3.1806     3.5166   347.3932
  172.5000  -999.2500   -40.8684     3.0445     3.4402   361.7798
  173.0000  -999.2500   -41.4711     2.9387     3.1373   401.1664
  173.5000  -999.2500   -41.9232     2.8328     2.9856   442.8257
  174.0000  -999.2500   -41.3171     2.6967     2.8338   464.9483
  174.5000  -999.2500   -40.5604     2.5606     2.7575   504.9304
  175.0000  -999.2500   -39.9547     2.5151     2.6812   516.2885
  175.5000  -999.2500   -39.5000     2.5167     2.6805   499.6126
  176.0000  -999.2500   -39.1961     2.6809     2.6798   470.0592
  176.5000  -999.2500   -39.0436     2.7564     2.7546   445.8094
  177.0000  -999.2500   -38.8910     2.6958     2.8294   417.0142
  177.5000  -999.2500   -39.1921     2.7107     3.1306   382.1584
  178.0000  -999.2500   -39.6438     3.0278     3.5075   353.3631
  178.5000  -999.2500   -39.9444     3.4204     3.9599   304.1133
  179.0000  -999.2500   -40.2447     3.5713     4.4123   262.4393
  179.5000  -999.2500   -40.3943     3.6316     4.7137   250.8863
  180.0000  -999.2500   -40.3927     3.6143     4.9396   245.7579
  180.5000  -999.2500   -40.8441     3.5708     4.7789   254.0821
  181.0000  -999.2500   -41.1451     3.5102     4.4092   266.9535
  181.5000  -999.2500   -41.5968     3.4497     4.1819   280.5825
  182.0000  -999.2500   -42.0486     3.3891     4.0301   298.7570
  182.5000  -999.2500   -42.3492     3.3134     3.8028   326.0223
  183.0000  -999.2500   -42.6495     3.2378     3.6510   347.2271
  183.5000  -999.2500   -42.3459     3.1319     3.4992   374.0405
  184.0000  -999.2500   -41.8852     3.0248     3.3474   404.2418
  184.5000  -999.2500   -41.1113     2.9329     3.1918   438.8699
  185.0000  -999.2500   -40.2263     2.8746     3.0312   451.7413
  185.5000  -999.2500   -39.4696     2.8593     2.9674   449.4612
  186.0000  -999.2500   -39.0149     2.9347     2.8913   434.3024
  186.5000  -999.2500   -39.0135     3.1158     3.0415   417.6284
  187.0000  -999.2500   -38.8609     3.1611     3.1162   394.1361
  187.5000  -999.2500   -39.0106     3.1156     3.3421   366.0985
  188.0000  -999.2500   -39.4622     3.1758     3.6435   334.1190
  188.5000  -999.2500   -39.7629     3.6219     4.0959   288.8092
  189.0000  -999.2500   -39.6102     4.0069     4.5634   239.5594
  189.5000  -999.2500   -39.6085     4.3385     5.0761   219.0975
  190.0000  -999.2500   -39.7585     4.4743     5.4530   203.1811
  190.5000  -999.2500   -40.3608     4.6403     5.6789   196.3555
  191.0000  -999.2500   -41.1147     4.7610     5.6026   195.5906
  191.5000  -999.2500   -41.7174     4.8515     5.6019   192.5530
  192.0000  -999.2500   -42.1692     4.9420     5.6767   187.8789
  192.5000  -999.2500   -41.1103     5.0627     5.8270   179.6576
  193.0000  -999.2500   -40.4925     5.2800     5.9798   172.8321
  193.5000  -999.2500   -40.2010     5.5911     6.2032   166.7641
  194.0000  -999.2500   -40.9544     5.8477     6.4291   160.6962
  194.5000  -999.2500   -41.7082     6.1346     6.6547   155.3858
  195.0000  -999.2500   -42.7642     6.2855     6.7297   152.3481
  195.5000  -999.2500   -43.8201     6.3609     6.7288   150.8256
  196.0000  -999.2500   -44.5739     6.3759     6.6525   150.8182
  196.5000  -999.2500   -43.8172     6.3455     6.5763   151.5685
  197.0000  -999.2500   -42.3051     6.3453     6.5000   152.3187
  197.5000  -999.2500   -41.0800     6.3603     6.4237   154.5822
  198.0000  -999.2500   -40.4891     6.3299     6.4228   155.3343
  198.5000  -999.2500   -40.3366     6.2240     6.4221   156.8421
  199.0000  -999.2500   -40.4862     6.2087     6.4213   158.3499
  199.5000  -999.2500   -40.6358     6.2086     6.4206   159.0985
  200.0000  -999.2500   -40.6343     6.2084     6.4199   159.0909
  200.5000  -999.2500   -40.5468     6.1962     6.4477   159.0834
  201.0000  -999.2500   -40.4515     6.1830     6.5127   159.0753
  201.5000  -999.2500   -40.3562     6.1934     6.5688   160.5832
  202.0000  -999.2500   -41.2200     6.2538     6.4169   161.4345
  202.5000  -999.2500   -42.7262     6.2517     6.3406   163.5973
  203.0000  -999.2500   -42.7422     6.2085     6.2644   165.1052
  203.5000  -999.2500   -42.1033     6.1631     6.2635   165.0980
  204.0000  -999.2500   -41.2016     6.0574     6.3385   165.0908
  204.5000  -999.2500   -40.5931     5.9819     6.4131   164.3258
  205.0000  -999.2500   -40.2866     6.0876     6.4124   162.8018
  205.5000  -999.2500   -40.2823     6.2840     6.4872   161.2794
  206.0000  -999.2500   -40.2779     6.4502     6.5620   158.9995
  206.5000  -999.2500   -40.2726     6.5257     6.6368   155.9620
  207.0000  -999.2500   -40.1173     6.5257     6.7871   152.0655
  207.5000  -999.2500   -39.9619     6.5710     7.0128   143.8246
  208.0000  -999.2500   -39.9576     6.6616     7.2457   136.2416
  208.5000  -999.2500   -40.1043     6.7674     7.5399   129.4162
  209.0000  -999.2500   -40.2510     6.8746     7.7658   125.6211
  209.5000  -999.2500   -40.6988     6.9486     7.9916   122.5834
  210.0000  -999.2500   -40.9966     6.9940     8.0664   121.8170
  210.5000  -999.2500   -41.4455     6.9335     8.1412   121.0522
  211.0000  -999.2500   -41.9043     6.7820     8.2161   120.2874
  211.5000  -999.2500   -42.1921     6.6314     8.1396   121.0379
