~VERSION INFORMATION
 VERS.                2.0:   CWLS LOG ASCII STANDARD - VERSION 2.0
 WRAP.                 NO:   ONE LINE PER DEPTH STEP
~WELL INFORMATION
#MNEM.UNIT      DATA TYPE    INFORMATION
#----------   ------------   ------------------------------
 STRT.F           98.5000:   START DEPTH
 STOP.F          716.5000:   STOP DEPTH
 STEP.F            0.5000:   STEP LENGTH
 NULL.          -999.2500:   NO VALUE
 COMP. U S NAVY-INTEX OIL:   COMPANY
 WELL. RES 3 TEAPOT DOM #32S-11:   WELL
 FLD .             TEAPOT:   FIELD
 LOC .      S11 T38N R78W:   LOCATION
 CNTY.            NATRONA:   COUNTY
 STAT.            WYOMING:   STATE
 CTRY. UNITED STATES OF AMERICA:   COUNTRY
 SRVC.       Schlumberger:   SERVICE COMPANY
 DATE.        13-JUL-1962:   LOGDATE
 API .       490250636500:   API NUMBER
~CURVE INFORMATION
#MNEM.UNIT       API CODE    CURVE DESCRIPTION
#----------   ------------   ------------------------------
 DEPT.F                  :   
 SPR .MV     05 010 01 00:   SPONTANEOUS POTENTIAL FROM RES.
 CILD.MMHO   05 110 46 00:   CONDUCTIVITY INDUCTION LOG DEEP
 ASN .OHMM   05 040 16 00:   AMPLIFIED SHORT NORMAL 16"
 ILD .OHMM   05 120 46 00:   INDUCTION LOG DEEP
 GR  .GAPI   30 310 01 00:   GAMMA RAY
~PARAMETER INFORMATION
#MNEM.UNIT          VALUE    DESCRIPTION
#----------   ------------   ------------------------------
 PD  .                 GL:   PERMANENT DATUM
 EPD .F              5161:   ELEVATION PERMANENT DATUM
 LMF .                 KB:   LOG MEASURED FROM
 DAPD.F                 5:   FEET ABOVE PERMANENT DATUM
 DMF .                 KB:   DRILLING MEASURED FROM
 EKB .F              5166:   KELLING BUSHING
 EGL .F              5161:   GROUND LEVEL
 DATE.            7-13-62:   RUN DATE
 RUN .                  1:   RUN NUMBER
 DD  .F               716:   DEPTH DRILLER
 DL  .F               717:   DEPTH LOGGER
 BLI .F               716:   BOTTOM LOG INTERVAL
 TLI .F               100:   TOP LOG INTERVAL
 CBD .F                10:   CASING BOTTOM DRILLER
 BS  .IN             6.75:   BIT SIZE
 BSD .F               716:   BIT SIZE AT DEPTH
 DFT .           OIL EMUL:   DRILLING FLUID TYPE
 DFD .               10.2:   DRILLING FLUID DENSITY
 DFV .                 43:   DRILLING FLUID VISCOSITY
 RMS .OHMM              5:   RESISTIVITY MUD SAMPLE
 MST .F                70:   MUD SAMPLE TEMPERATURE
 RMF .OHMM            5.5:   RESISTIVITY MUD FILTRATE SAMPLE
 MFST.F                70:   MUD FILTRATE SAMPLE TEMPERATURE
 RMC .OHMM              6:   RESISTIVITY MUD CAKE
 MCST.F                70:   MUD CAKE SAMPLE TEMPERATURE
 TCS .HRS              .5:   TIME CURCULATED STOPPED
 LUN .               2503:   LOGGING UNIT NUMBER
 LUL .               CSPR:   LOGGING UNIT LOCATION
 ENGI.           ELLERMAN:   RECORDING ENGINEER
 WITN.          JORGENSON:   WITNESSED BY
 CLNT.            A2DTECH:   CLIENT CODE
 ORIG.       2", 5" PRINT:   ORIGIN OF DATA
 UWI .       490250636500:   UNIQUE WELL ID
 DICO. A2D Technologies, Inc.:   DIGITIZING COMPANY
~OTHER INFORMATION
~A   DEPT      SPR       CILD        ASN        ILD         GR   
# ...
  281.5000   -50.5303   108.1907     9.5600     8.8066  -999.2500
  282.0000   -50.6961   106.6474     9.6432     8.8910  -999.2500
  282.5000   -51.1277   104.8542     9.7266     8.9740  -999.2500
  283.0000   -51.6056   103.0095     9.8243     9.1243  -999.2500
  283.5000   -51.9515   101.1705     9.9805     9.3052  -999.2500
  284.0000   -52.0386    99.7500    10.3055     9.4879  -999.2500
  284.5000   -52.1302    98.7057    10.5019     9.6748  -999.2500
  285.0000   -52.2215    97.6613    10.8274     9.7326  -999.2500
  285.5000   -52.3138    96.6169    10.7449     9.7933  -999.2500
  286.0000   -52.2684    95.5726    10.8937     9.8530  -999.2500
  286.5000   -52.1099    95.2621    11.0381     9.9134  -999.2500
  287.0000   -51.9532    95.2621    10.9878     9.9721  -999.2500
  287.5000   -51.7937    95.4488    10.6923     9.9611  -999.2500
  288.0000   -51.5471    96.4158    10.3956     9.8293  -999.2500
  288.5000   -51.8042    97.3821    10.1959     9.6998  -999.2500
  289.0000   -52.2216    98.3503    10.0372     9.5686  -999.2500
  289.5000   -52.0690    99.3202    10.0293     9.4722  -999.2500
  290.0000   -51.9339   100.2997    10.0694     9.3582  -999.2500
  290.5000   -52.4094   100.6069    10.1118     9.2454  -999.2500
  291.0000   -52.9010   100.9113    10.1523     9.2300  -999.2500
  291.5000   -53.2991   101.2180    10.0854     9.2670  -999.2500
  292.0000   -52.9398   101.5666    10.0297     9.3054  -999.2500
  292.5000   -52.5904   101.9330    10.0370     9.3436  -999.2500
  293.0000   -52.3200   102.2995    10.0558     9.3818  -999.2500
  293.5000   -52.3708   102.6659    10.0635     9.4199  -999.2500
  294.0000   -52.4147   103.0323    10.0251     9.4583  -999.2500
  294.5000   -52.4582   103.3988     9.9885     9.5004  -999.2500
  295.0000   -52.5017   103.7652     9.9924     9.4831  -999.2500
  295.5000   -52.5414   104.1317     9.9871     9.3961  -999.2500
  296.0000   -52.5788   104.4981     9.8963     9.3105  -999.2500
  296.5000   -52.6160   104.8645     9.8018     9.2297  -999.2500
  297.0000   -52.6539   105.2310     9.7691     9.1483  -999.2500
  297.5000   -52.6950   105.3427     9.8155     9.0668  -999.2500
  298.0000   -52.7083   105.3427     9.7881     8.9847  -999.2500
  298.5000   -51.9876   105.3427     9.6699     8.9067  -999.2500
  299.0000   -51.2177   105.3431     9.6219     8.9383  -999.2500
  299.5000   -50.5071   105.3393     9.6206     8.9750  -999.2500
  300.0000   -50.3517   105.6278     9.6411     9.0111  -999.2500
  300.5000   -50.2145   105.9535     9.6641     9.0472  -999.2500
  301.0000   -50.1633   106.2803     9.6078     9.0824  -999.2500
  301.5000   -50.5847   106.6439     9.5282     9.0769  -999.2500
  302.0000   -50.9368   107.0176     9.4483     9.0049  -999.2500
  302.5000   -51.5027   107.3589     9.3682     8.9341  -999.2500
  303.0000   -52.0775   108.8750     9.3678     8.8652  -999.2500
  303.5000   -52.6501   110.2702     9.3761     8.7760  -999.2500
  304.0000   -53.2365   112.1003     9.3870     8.6344  -999.2500
  304.5000   -53.3050   115.7084     9.2877     8.4474  -999.2500
  305.0000   -52.2481   119.3166     9.0619     8.2656  -999.2500
  305.5000   -51.1528   122.9248     8.7886     8.0829  -999.2500
  306.0000   -50.9441   126.5330     8.5122     7.9001  -999.2500
  306.5000   -51.0110   130.1411     8.2387     7.7172  -999.2500
  307.0000   -51.0839   133.0226     8.0529     7.5345  -999.2500
  307.5000   -51.1513   135.4373     7.9188     7.3494  -999.2500
  308.0000   -51.2164   137.4453     7.8275     7.2937  -999.2500
  308.5000   -51.2816   135.9505     7.7997     7.3130  -999.2500
  309.0000   -51.3758   134.4556     7.8256     7.4607  -999.2500
  309.5000   -51.4921   132.4684     7.9413     7.6080  -999.2500
  310.0000   -51.6084   129.7622     8.2650     7.7550  -999.2500
  310.5000   -51.7247   127.0561     8.5037     7.9019  -999.2500
  311.0000   -51.8416   124.3500     8.6490     8.0497  -999.2500
  311.5000   -51.9577   121.6438     8.7058     8.1943  -999.2500
  312.0000   -52.0751   118.9377     8.7408     8.2001  -999.2500
  312.5000   -51.8527   118.6516     8.7760     8.1990  -999.2500
  313.0000   -50.6529   118.9007     8.7626     8.2027  -999.2500
  313.5000   -50.4118   119.1499     8.7418     8.2834  -999.2500
  314.0000   -50.6148   119.3990     8.7191     8.1564  -999.2500
  314.5000   -50.8269   120.3344     8.6527     8.0015  -999.2500
  315.0000   -51.0355   121.4718     8.5901     7.9585  -999.2500
  315.5000   -51.2635   122.6091     8.5532     7.9205  -999.2500
  316.0000   -51.0037   123.7597     8.5159     7.8818  -999.2500
  316.5000   -50.2143   124.1572     8.4797     7.8429  -999.2500
  317.0000   -49.6980   123.1869     8.5106     7.8014  -999.2500
  317.5000   -49.9201   122.1995     8.5538     7.8859  -999.2500
  318.0000   -50.1443   121.0526     8.6317     7.9977  -999.2500
  318.5000   -50.3040   119.4289     8.7082     8.1101  -999.2500
  319.0000   -50.0496   117.8055     8.7848     8.2220  -999.2500
  319.5000   -49.7676   116.1800     8.8612     8.3327  -999.2500
  320.0000   -49.4918   114.5536     8.9264     8.4032  -999.2500
  320.5000   -49.8709   112.9342     8.9437     8.4693  -999.2500
  321.0000   -50.3300   112.7500     8.9665     8.5381  -999.2500
  321.5000   -50.7920   113.2732     9.0679     8.6059  -999.2500
  322.0000   -51.5319   113.7964     9.1664     8.6751  -999.2500
  322.5000   -52.3773   114.3196     9.2483     8.6245  -999.2500
  323.0000   -52.6448   114.8427     9.1587     8.4953  -999.2500
  323.5000   -52.7363   115.3659     9.0539     8.3646  -999.2500
  324.0000   -52.3195   115.8891     8.9488     8.2290  -999.2500
  324.5000   -51.8632   116.4123     8.8584     8.2130  -999.2500
  325.0000   -51.4068   116.9355     8.8609     8.2380  -999.2500
  325.5000   -50.9510   117.4395     8.8598     8.2639  -999.2500
  326.0000   -50.5918   117.4395     8.8310     8.2894  -999.2500
  326.5000   -50.3445   117.4395     8.8021     8.3149  -999.2500
  327.0000   -50.0985   117.4395     8.8443     8.3404  -999.2500
  327.5000   -49.9635   117.4395     8.8929     8.3657  -999.2500
  328.0000   -50.3942   117.4395     8.9217     8.3919  -999.2500
  328.5000   -50.8135   117.9309     8.9040     8.3664  -999.2500
  329.0000   -51.1129   118.7117     8.8203     8.3149  -999.2500
  329.5000   -50.8172   119.4871     8.7671     8.2625  -999.2500
  330.0000   -50.4936   120.2621     8.7205     8.2103  -999.2500
  330.5000   -50.3209   121.0372     8.6742     8.1580  -999.2500
  331.0000   -50.9134   121.4718     8.6336     8.1050  -999.2500
  331.5000   -50.9937   121.4718     8.6119     8.0496  -999.2500
  332.0000   -50.5131   121.4718     8.5901     8.0559  -999.2500
  332.5000   -50.0466   121.7591     8.5683     8.0817  -999.2500
  333.0000   -49.5751   122.2817     8.5464     8.0390  -999.2500
  333.5000   -49.4523   122.6062     8.5384     7.9916  -999.2500
  334.0000   -49.4000   122.8066     8.5385     7.9462  -999.2500
  334.5000   -49.3486   123.0075     8.5436     7.9008  -999.2500
  335.0000   -49.2964   123.2087     8.5487     7.8554  -999.2500
  335.5000   -49.2440   123.4100     8.5539     7.8100  -999.2500
  336.0000   -49.1912   124.0008     8.5572     7.7646  -999.2500
  336.5000   -49.1383   124.8379     8.5241     7.7192  -999.2500
  337.0000   -49.1117   125.6750     8.4904     7.6961  -999.2500
  337.5000   -49.3003   126.5121     8.4568     7.6961  -999.2500
  338.0000   -49.5042   127.3492     8.4234     7.6961  -999.2500
  338.5000   -50.0625   127.5202     8.3936     7.6961  -999.2500
  339.0000   -50.6416   127.5202     8.3790     7.6961  -999.2500
  339.5000   -51.2185   127.5202     8.3639     7.6961  -999.2500
  340.0000   -51.7283   127.5202     8.3703     7.7376  -999.2500
  340.5000   -51.7132   127.2739     8.3981     7.8169  -999.2500
  341.0000   -51.7169   125.8383     8.4779     7.8964  -999.2500
  341.5000   -51.8742   124.4025     8.5610     7.9759  -999.2500
  342.0000   -52.1131   122.9653     8.6439     8.0553  -999.2500
