~VERSION INFORMATION
 VERS.                2.0:   CWLS LOG ASCII STANDARD - VERSION 2.0
 WRAP.                 NO:   ONE LINE PER DEPTH STEP
~WELL INFORMATION
#MNEM.UNIT      DATA TYPE    INFORMATION
#----------   ------------   ------------------------------
 STRT.F           14.0000:   START DEPTH
 STOP.F          581.5000:   STOP DEPTH
 STEP.F            0.5000:   STEP LENGTH
 NULL.          -999.2500:   NO VALUE
 COMP. LAWRENCE/ALLISON INC:   COMPANY
 WELL.   41-11 STX #10-10:   WELL
 FLD .              NPR 3:   FIELD
 LOC .      S10 T38N R78W:   LOCATION
 CNTY.            NATRONA:   COUNTY
 STAT.            WYOMING:   STATE
 CTRY. UNITED STATES OF AMERICA:   COUNTRY
 SRVC.           Gearhart:   SERVICE COMPANY
 DATE.        03-JUL-1986:   LOGDATE
 API .       490251107900:   API NUMBER
~CURVE INFORMATION
#MNEM.UNIT       API CODE    CURVE DESCRIPTION
#----------   ------------   ------------------------------
 DEPT.F                  :   
 GRR .GAPI   07 310 01 00:   GAMMA RAY FROM RES. LOG.
 RILM.OHMM   07 120 44 00:   INDUCTION LOG MEDIUM RESISTIVITY
 RILD.OHMM   07 120 46 00:   INDUCTION LOG DEEP RESISTIVITY
~PARAMETER INFORMATION
#MNEM.UNIT          VALUE    DESCRIPTION
#----------   ------------   ------------------------------
 PD  .                 GL:   PERMANENT DATUM
 EPD .F              5233:   ELEVATION PERMANENT DATUM
 LMF .                 KB:   LOG MEASURED FROM
 DAPD.F                 5:   FEET ABOVE PERMANENT DATUM
 DMF .                 KB:   DRILLING MEASURED FROM
 EKB .F              5238:   KELLING BUSHING
 EGL .F              5233:   GROUND LEVEL
 DATE.             7-3-86:   RUN DATE
 RUN .                  1:   RUN NUMBER
 DD  .F               590:   DEPTH DRILLER
 DL  .F               591:   DEPTH LOGGER
 BLI .F               581:   BOTTOM LOG INTERVAL
 TLI .F                14:   TOP LOG INTERVAL
 CS  .IN            8.625:   CASING SIZE
 CBD .F                47:   CASING BOTTOM DRILLER
 CBL .F                47:   CASING BOTTOM LOGGER
 BS  .IN            7.875:   BIT SIZE
 BSD .F               590:   BIT SIZE AT DEPTH
 DFT .                AIR:   DRILLING FLUID TYPE
 TCS .HRS            0900:   TIME CURCULATED STOPPED
 TLAB.HRS            1100:   TIME LOGGER AT BOTTOM
 MRT .F                80:   MAXIMUM RECORDED TEMPERATURE
 LUN .               7609:   LOGGING UNIT NUMBER
 LUL .           GILLETTE:   LOGGING UNIT LOCATION
 ENGI.              BAUER:   RECORDING ENGINEER
 WITN.              FIVAS:   WITNESSED BY
 CLNT.            A2DTECH:   CLIENT CODE
 ORIG.       2", 5" PRINT:   ORIGIN OF DATA
 UWI .       490251107900:   UNIQUE WELL ID
 DICO. A2D Technologies, Inc.:   DIGITIZING COMPANY
~OTHER INFORMATION
~A   DEPT       GRR      RILM       RILD   
# ...
  196.0000   101.7125     9.1378     9.3403
  196.5000   102.5629     9.1158     9.3081
  197.0000   105.7060     9.0833     9.2758
  197.5000   108.8005     9.0845     9.2545
  198.0000   108.8492     9.1683     9.2412
  198.5000   108.1805     9.1289     9.2273
  199.0000   107.5115     9.0950     9.2134
  199.5000   108.1916     9.0830     9.1995
  200.0000   109.5360     9.0390     9.1854
  200.5000   110.9015     8.9979     9.1717
  201.0000   111.0080     8.9569     9.0830
  201.5000   109.2713     8.9161     9.0267
  202.0000   107.1524     8.8755     8.9701
  202.5000   105.0276     8.8323     8.9138
  203.0000   102.9236     8.7934     8.8579
  203.5000   101.4557     8.7222     8.8024
  204.0000   101.0699     8.6516     8.7499
  204.5000   100.6771     8.5816     8.7056
  205.0000   100.5416     8.5121     8.5510
  205.5000   100.9962     8.4432     8.3992
  206.0000   101.4446     8.2844     8.2501
  206.5000   101.8784     8.1057     8.1037
  207.0000   103.0632     7.9308     7.9598
  207.5000   104.5901     7.7596     7.8185
  208.0000   103.8717     7.5921     7.6797
  208.5000   102.5769     7.4284     7.5432
  209.0000   101.3026     7.2681     7.3935
  209.5000   101.0488     7.1847     7.3986
  210.0000   103.2084     7.1640     7.3270
  210.5000   105.3213     7.1429     7.3270
  211.0000   107.1399     7.1251     7.3562
  211.5000   108.0856     7.2549     7.4712
  212.0000   107.6898     7.3810     7.5880
  212.5000   106.1608     7.5086     7.7067
  213.0000   104.6166     7.6384     7.8225
  213.5000   103.0946     7.7705     7.9332
  214.0000   102.0117     7.9053     8.0418
  214.5000   102.0310     8.0444     8.1508
  215.0000   102.0292     8.0444     8.1971
  215.5000   102.0418     8.0299     8.1678
  216.0000   102.0107     7.9973     8.1443
  216.5000    99.3572     7.9649     8.1199
  217.0000    96.3976     7.9326     7.9453
  217.5000    93.4388     7.9004     7.8183
  218.0000    92.4153     7.6416     7.6908
  218.5000    97.6984     7.3522     7.5124
  219.0000   101.2822     7.0738     7.2174
  219.5000   103.6176     6.8052     6.9353
  220.0000   104.2029     6.5511     6.6641
  220.5000   104.7496     6.3085     6.3947
  221.0000   104.2902     6.0766     6.0615
  221.5000   103.7071     5.8527     5.7504
  222.0000   104.4977     5.6370     5.6892
  222.5000   106.6540     5.4848     5.6937
  223.0000   106.5619     5.4848     5.8668
  223.5000   103.8228     5.6959     6.1127
  224.0000   102.2633     5.9957     6.3689
  224.5000   102.7710     6.3107     6.6359
  225.0000   101.2835     6.6138     6.8312
  225.5000    99.8960     6.8569     7.0733
  226.0000    99.4714     7.0907     7.3240
  226.5000    99.9017     7.3300     7.5836
  227.0000   102.2579     7.5911     7.8524
  227.5000   105.4413     7.8971     8.1199
  228.0000   107.1126     7.8943     8.1902
  228.5000   105.8316     8.0324     8.2672
  229.0000   103.3504     8.0979     8.3446
  229.5000   101.9888     8.1640     8.4228
  230.0000   103.9102     8.2074     8.5019
  230.5000   106.5427     8.2898     8.5816
  231.0000   109.2272     8.3735     8.6621
  231.5000   109.7168     8.4581     8.7434
  232.0000   109.0679     8.5434     8.8320
  232.5000   109.5233     8.6296     8.9320
  233.0000   110.3291     8.7167     8.9639
  233.5000   110.9068     8.8474     8.9960
  234.0000   110.6109     8.9123     9.0281
  234.5000   109.6015     8.9778     9.0604
  235.0000   108.5387     9.0437     9.0928
  235.5000   107.4941     9.0830     9.1253
  236.0000   107.4972     9.0248     9.1579
  236.5000   108.8594     8.9837     9.1683
  237.0000   108.4063     8.9427     9.0978
  237.5000   107.8039     8.9019     9.0347
  238.0000   107.9925     8.8613     8.9720
  238.5000   108.3478     8.8006     8.9097
  239.0000   107.9948     8.6878     8.8478
  239.5000   105.1821     8.5764     8.7335
  240.0000   101.7695     8.4664     8.6021
  240.5000   100.7731     8.3580     8.4730
  241.0000   100.2390     8.2506     8.3459
  241.5000   100.6213     8.1448     8.2203
  242.0000   101.7284     7.8667     8.0570
  242.5000   105.5621     7.5467     7.7266
  243.0000   109.9827     7.2396     7.3117
  243.5000   113.5379     6.9451     6.9022
  244.0000   115.4795     6.6625     6.3046
  244.5000   114.0231     6.2119     5.6923
  245.0000   112.2457     5.6783     5.1395
  245.5000   110.4559     5.1905     4.6404
  246.0000   108.6721     4.7234     4.0982
  246.5000   106.8878     4.2789     3.5879
  247.0000   105.1048     3.8561     3.3112
  247.5000   103.3228     3.4752     3.0944
  248.0000   102.2432     3.1318     2.8917
  248.5000   101.8474     2.8224     2.6960
  249.0000   100.9063     2.5979     2.6215
  249.5000    99.0652     2.5026     2.6574
  250.0000    97.2230     2.4793     2.6933
  250.5000    96.4160     2.5872     2.8145
  251.0000   100.5004     2.8687     3.0109
  251.5000   106.5983     3.1808     3.3460
  252.0000   111.5583     3.5269     3.7184
  252.5000   110.8213     3.8460     4.1322
  253.0000   108.4848     4.3086     4.5920
  253.5000   106.5464     4.7972     5.1034
  254.0000   107.7096     5.3405     5.6729
  254.5000   110.5660     5.9495     6.3083
  255.0000   113.5651     6.2091     6.5159
  255.5000   116.1359     6.3690     6.7271
  256.0000   115.1326     6.5358     6.9284
  256.5000   113.8541     6.6753     6.9285
  257.0000   112.9229     6.5210     6.7629
  257.5000   112.7949     6.3141     6.5878
  258.0000   112.6601     6.1141     6.3063
  258.5000   113.0574     5.9207     6.0095
  259.0000   114.3703     5.7335     5.7267
  259.5000   118.4816     5.5522     5.4572
  260.0000   122.7353     5.3766     5.2004
  260.5000   122.2122     5.2064     4.9032
  261.0000   117.8384     5.0420     4.9015
  261.5000   112.5709     4.9492     4.9019
  262.0000   110.4377     5.0047     4.9009
  262.5000   109.6909     5.0916     5.0603
  263.0000   111.3690     5.1859     5.3125
  263.5000   112.9210     5.4431     5.7261
  264.0000   112.9966     5.7325     6.0660
  264.5000   111.7883     6.0374     6.3451
  265.0000   111.4884     6.3585     6.6371
  265.5000   111.2259     6.6966     6.9426
  266.0000   110.9722     7.0528     7.2616
  266.5000   111.8982     7.4278     7.5986
  267.0000   114.2550     7.7688     7.7912
  267.5000   117.0212     7.8765     7.9696
  268.0000   117.3600     7.9075     7.8872
  268.5000   115.2688     7.9266     7.8682
  269.0000   115.0034     7.9457     7.8492
  269.5000   115.0045     7.9649     7.8303
  270.0000   115.0007     7.9696     7.7494
  270.5000   115.0554     7.6887     7.6111
  271.0000   116.4111     7.5170     7.4726
  271.5000   117.4608     7.3490     7.3366
  272.0000   117.4383     7.1849     7.1914
  272.5000   117.7200     7.0243     6.9020
  273.0000   119.8308     6.8632     6.5977
  273.5000   121.8437     6.5594     6.3068
  274.0000   121.6088     6.2606     6.0287
  274.5000   120.0672     5.9753     5.7629
  275.0000   118.2565     5.7030     5.4842
  275.5000   119.1001     5.4444     5.4968
  276.0000   120.7971     5.2366     5.5144
  276.5000   121.1461     5.2837     5.5373
  277.0000   117.0738     5.4338     5.5340
  277.5000   112.1104     5.5575     5.8886
  278.0000   108.6596     5.8554     6.1933
  278.5000   106.9723     6.1930     6.5131
  279.0000   106.7065     6.4385     6.8478
  279.5000   108.6817     6.8266     7.1624
  280.0000   112.4978     7.2409     7.4935
  280.5000   116.4866     7.6093     7.8221
  281.0000   117.3060     7.6929     7.9047
  281.5000   116.8255     7.8234     7.9991
  282.0000   115.5549     7.8212     8.1208
  282.5000   114.8472     7.8836     8.1195
  283.0000   114.8073     7.9654     8.1199
  283.5000   116.0185     8.0447     8.1199
  284.0000   117.6813     8.0333     8.1199
  284.5000   119.9610     8.0197     8.1199
  285.0000   122.2355     8.0064     8.1199
  285.5000   124.5380     7.9931     8.1199
  286.0000   126.7218     7.9797     8.1199
  286.5000   125.7684     7.9695     8.1199
