~VERSION INFORMATION
 VERS.                2.0:   CWLS LOG ASCII STANDARD - VERSION 2.0
 WRAP.                 NO:   ONE LINE PER DEPTH STEP
~WELL INFORMATION
#MNEM.UNIT      DATA TYPE    INFORMATION
#----------   ------------   ------------------------------
 STRT.F           36.0000:   START DEPTH
 STOP.F          521.0000:   STOP DEPTH
 STEP.F            0.5000:   STEP LENGTH
 NULL.          -999.2500:   NO VALUE
 COMP. FENIX & SCISSON INC:   COMPANY
 WELL.        NPR-3 #36-3:   WELL
 FLD .             TEAPOT:   FIELD
 LOC .       S3 T38N R78W:   LOCATION
 CNTY.            NATRONA:   COUNTY
 STAT.            WYOMING:   STATE
 CTRY. UNITED STATES OF AMERICA:   COUNTRY
 SRVC.            Unknown:   SERVICE COMPANY
 DATE.        09-JUL-1978:   LOGDATE
 API .       490251066200:   API NUMBER
~CURVE INFORMATION
#MNEM.UNIT       API CODE    CURVE DESCRIPTION
#----------   ------------   ------------------------------
 DEPT.F                  :   
 CALD.IN     45 280 60 00:   CALIPER FROM DENSITY LOG
 GRD .GAPI   45 310 01 00:   GAMMA RAY FROM DENSITY LOG
 CORR.G/C3   45 356 01 00:   DENSITY CORRECTION
 DPHI.DEC    45 890 12 00:   DENSITY POROSITY SANDSTONE
 RHOB.G/C3   45 350 01 00:   BULK DENSITY
 SPR .MV     07 010 01 00:   SPONTANEOUS POTENTIAL
 ILD .OHMM   07 120 46 00:   INDUCTION LOG DEEP
 SN  .OHMM   07 040 16 00:   SHORT NORMAL 16"
~PARAMETER INFORMATION
#MNEM.UNIT          VALUE    DESCRIPTION
#----------   ------------   ------------------------------
 PD  .                 GL:   PERMANENT DATUM
 EPD .F              5216:   ELEVATION PERMANENT DATUM
 LMF .                 KB:   LOG MEASURED FROM
 DAPD.F                 4:   FEET ABOVE PERMANENT DATUM
 DMF .                 KB:   DRILLING MEASURED FROM
 EKB .F              5220:   KELLING BUSHING
 EGL .F              5216:   GROUND LEVEL
 DATE.        09-JUL-1978:   RUN DATE
 RUN .                  1:   RUN NUMBER
 DD  .F               520:   DEPTH DRILLER
 DL  .F               524:   DEPTH LOGGER
 BLI .F               519:   BOTTOM LOG INTERVAL
 TLI .F                50:   TOP LOG INTERVAL
 CS  .IN            8.625:   CASING SIZE
 CBD .F                40:   CASING BOTTOM DRILLER
 BS  .IN            7.875:   BIT SIZE
 BSD .F               520:   BIT SIZE AT DEPTH
 DFT .                KCL:   DRILLING FLUID TYPE
 DFD .                8.6:   DRILLING FLUID DENSITY
 DFV .                 32:   DRILLING FLUID VISCOSITY
 DFPH.                9.5:   DRILLING FLUID PH
 DFL .               14.4:   DRILLING FLUID LOSS
 MSS .           FLOWLINE:   MUD SAMPLE SOURCE
 RMS .OHMM           0.24:   RESISTIVITY MUD SAMPLE
 MST .F                70:   MUD SAMPLE TEMPERATURE
 RMF .OHMM           0.24:   RESISTIVITY MUD FILTRATE SAMPLE
 MFST.F                70:   MUD FILTRATE SAMPLE TEMPERATURE
 RMC .OHMM           0.42:   RESISTIVITY MUD CAKE
 MCST.F                72:   MUD CAKE SAMPLE TEMPERATURE
 MFSS.               MEAS:   MUD FILTRATE SAMPLE SOURCE
 BHT .F                80:   BOTTOM HOLE TEMPERATURE
 TCS .HRS               3:   TIME CURCULATED STOPPED
 MRT .F                80:   MAXIMUM RECORDED TEMPERATURE
 LUN .               2958:   LOGGING UNIT NUMBER
 LUL .               CASP:   LOGGING UNIT LOCATION
 ENGI.             MILLER:   RECORDING ENGINEER
 WITN.           MCGINLEY:   WITNESSED BY
 CLNT.            A2DTECH:   CLIENT CODE
 ORIG.           5" PRINT:   ORIGIN OF DATA
 UWI .       490251066200:   UNIQUE WELL ID
 DICO. A2D Technologies, Inc.:   DIGITIZING COMPANY
~OTHER INFORMATION
~A   DEPT     CALD        GRD       CORR       DPHI       RHOB        SPR        ILD         SN   
# ...
  319.5000     8.4479    92.8986     0.0212     0.0972     2.4895   -21.7315     7.9330     8.6551
  320.0000     8.4487    94.3955     0.0168     0.1217     2.4806   -21.7418     8.0394     8.7722
  320.5000     8.4496    93.3611     0.0168     0.1172     2.4866   -21.7541     8.2614     8.7693
  321.0000     8.4354    95.3096     0.0184     0.1217     2.4814   -21.7641     8.3810     8.8281
  321.5000     8.4365    96.9577     0.0184     0.1223     2.4799   -21.7742     8.5450     8.8244
  322.0000     8.4374    94.8801     0.0244     0.1145     2.4889   -21.7842     8.6008     8.8215
  322.5000     8.4382    92.8002     0.0290     0.1070     2.5017   -21.7943     8.6570     8.8179
  323.0000     8.4391    91.3209     0.0260     0.1064     2.5047   -21.8067     8.7136     8.8769
  323.5000     8.4400    90.4356     0.0231     0.1111     2.4992   -21.8168     8.7092     8.8733
  324.0000     8.4409    90.4444     0.0216     0.1204     2.4833   -21.8268     8.7057     8.9327
  324.5000     8.4417    90.7513     0.0217     0.1260     2.4757   -21.8368     8.7014     8.9290
  325.0000     8.4426    91.0581     0.0217     0.1236     2.4809   -21.6967     8.6980     8.9253
  325.5000     8.4435    91.0671     0.0218     0.1182     2.4870   -21.7092     8.7557     8.9224
  326.0000     8.4422    91.0581     0.0218     0.1233     2.4780   -21.5666     8.8121     8.9194
  326.5000     8.4157    87.1564     0.0218     0.1247     2.4758   -21.4265     8.8702     8.9165
  327.0000     8.3867    86.6224     0.0234     0.1232     2.4789   -21.4390     9.1768     8.9135
  327.5000     8.3876    85.8883     0.0249     0.1200     2.4841   -21.4490     9.4965     8.9105
  328.0000     8.3734    83.9597     0.0250     0.1166     2.4871   -21.4595     9.6916     8.8454
  328.5000     8.3594    83.3702     0.0235     0.1175     2.4849   -21.4716     9.7549     8.8425
  329.0000     8.3754    85.4676     0.0176     0.1210     2.4783   -20.8785     9.6162     8.8396
  329.5000     8.3762    85.9235     0.0071     0.1348     2.4471   -20.8910     8.5316     8.6550
  330.0000     8.3920    89.5091    -0.0003     0.1703     2.4123   -20.9011     7.3382     8.5291
  330.5000     8.4078    92.6475    -0.0003     0.1942     2.3737   -20.7609     7.2346     8.2966
  331.0000     8.4087    93.8486     0.0013     0.2210     2.3327   -20.7735     6.6104     7.9563
  331.5000     8.4095    95.9438     0.0163     0.2330     2.2909   -20.7835     5.8350     7.0703
  332.0000     8.4265    97.7645     0.0742     0.2195     2.3417   -20.7935     6.3369     6.8754
  332.5000     9.2921    91.3415     0.1317     0.1394     2.4539   -20.8036     6.4248     7.2641
  333.0000    10.0217    84.1968     0.0774     0.1155     2.4606   -20.8138     6.4645     7.3121
  333.5000     8.3833    83.7556     0.0165     0.0928     2.5189   -20.3757     6.4613     7.4626
  334.0000     8.3993    80.9418     0.0120     0.0951     2.5205   -20.2330     6.7788     8.3342
  334.5000     8.4001    79.3052     0.0106     0.1071     2.5056   -19.7926     7.3619     9.3077
  335.0000     8.4010    82.8930     0.0106     0.1094     2.5004   -19.5045     9.5682     9.7668
  335.5000     8.4168    84.8392     0.0122     0.1075     2.5079   -19.5150    11.1346    10.0486
  336.0000     8.4475    82.9106     0.0182     0.1040     2.5139   -19.3747    11.6817    10.3154
  336.5000     8.4782    80.3859     0.0212     0.1031     2.5107   -19.0870    11.5905    10.6756
  337.0000     8.5237    80.6927     0.0198     0.1097     2.5038   -18.7967    11.3531    10.9006
  337.5000     8.5544    82.4899     0.0228     0.1123     2.4967   -18.0560    11.3486    11.0445
  338.0000     8.5851    85.4794     0.0259     0.1135     2.4909   -17.3112    11.6620    11.1939
  338.5000     8.6009    85.9331     0.0274     0.1212     2.4820   -16.7272    11.9015    11.2689
  339.0000     8.5869    81.3241     0.0290     0.1335     2.4581   -15.9865    12.4004    11.5806
  339.5000     8.6325    72.8381     0.0307     0.1454     2.4454   -15.3959    12.8483    11.9027
  340.0000     8.6932    65.0973     0.0440     0.1561     2.4230   -14.8028    13.8375    12.5747
  340.5000     8.7388    59.8900     0.0485     0.1558     2.4268   -14.0646    14.5175    13.1039
  341.0000     8.7545    56.9182     0.0336     0.1600     2.4089   -13.3264    15.4428    13.6553
  341.5000     8.7554    56.4799     0.0082     0.1940     2.3469   -12.4355    16.8874    14.4284
  342.0000     8.7861    56.7869    -0.0052     0.2032     2.3416   -11.6948    18.5952    15.0355
  342.5000     8.8764    56.9449    -0.0127     0.2172     2.3021   -11.2518    20.2438    15.1350
  343.0000     8.7280    57.1028     0.0009     0.2283     2.3164   -10.8139    21.9295    15.2339
  343.5000     8.9080    56.9645     0.0144     0.2240     2.3231   -10.6738    22.0750    15.3347
  344.0000     9.0132    52.9494     0.0069     0.2181     2.3142   -10.6863    21.7612    15.6527
  344.5000     8.9395    51.6170     0.0160     0.2252     2.3120   -10.5462    21.7526    15.6462
  345.0000     9.0149    51.7748     0.0205     0.2198     2.3292   -10.7064    22.1993    15.7498
  345.5000     8.9113    52.0817     0.0206     0.2115     2.3330   -10.7164    23.2902    15.7433
  346.0000     8.8378    52.3885     0.0172     0.2001     2.3637   -10.7267    23.2786    15.8487
  346.5000     8.8387    53.8877     0.0052     0.1947     2.3615   -10.5888    23.2693    15.9536
  347.0000     8.8398    54.3414    -0.0003     0.1929     2.3640   -10.5988    23.2601    15.9470
  347.5000     8.8407    54.0521     0.0028     0.1887     2.3750   -10.6089    23.0907    15.9416
  348.0000     8.8416    53.7651     0.0073     0.1839     2.3773   -10.6189    22.7648    15.9351
  348.5000     8.8273    53.6244     0.0089     0.1785     2.3850   -10.6291    22.5987    15.9299
  349.0000     8.8284    54.3788     0.0074     0.1707     2.3942   -10.6414    22.4323    15.8147
  349.5000     8.8293    57.5173     0.0074     0.1695     2.4021   -10.6515    22.4234    15.8095
  350.0000     8.8451    61.4009     0.0060     0.1727     2.3990   -10.6391    22.3862    15.8043
  350.5000     8.8456    61.8544     0.0046     0.1739     2.3902   -10.5136    22.1955    15.7988
  351.0000     8.8462    61.4131     0.0092     0.1826     2.3775   -10.3804    21.9401    15.7925
  351.5000     8.8468    60.8229     0.0078     0.1802     2.3858   -10.2543    21.6316    15.8969
  352.0000     8.8325    59.6365     0.0049     0.1816     2.3828   -10.4223    21.7728    15.8917
  352.5000     8.8025    57.1089     0.0005     0.1828     2.3791   -10.2829    22.5306    15.8864
  353.0000     8.7890    54.1301    -0.0024     0.1801     2.3792   -10.3008    22.9949    15.8810
  353.5000     8.7450    52.4913    -0.0037     0.1777     2.3853   -10.3153    23.4687    15.8745
  354.0000     8.7305    52.8764    -0.0022     0.1840     2.3722   -10.3330    23.6237    15.8693
  354.5000     8.6864    55.2743    -0.0036     0.1955     2.3580   -10.3473    23.7968    15.8640
  355.0000     8.6573    56.3931    -0.0034     0.2138     2.3226   -10.3616    24.1024    15.8587
  355.5000     8.6281    54.3140    -0.0018     0.2341     2.2935   -10.3759    24.4296    15.7441
  356.0000     8.5989    52.3810    -0.0002     0.2323     2.2980   -10.3904    24.7614    15.7387
  356.5000     8.5696    54.7729     0.0014     0.2215     2.3182   -10.5582    24.7511    15.6237
  357.0000     8.5552    57.7594     0.0015     0.2113     2.3385   -10.5725    24.7428    15.6186
  357.5000     8.4963    58.3614     0.0001     0.2014     2.3512   -10.5868    24.9061    15.6134
  358.0000     8.4373    58.3672     0.0064     0.1964     2.3527   -10.6011    24.8958    15.6082
  358.5000     8.4379    57.7770     0.0078     0.1933     2.3625   -10.6156    24.8875    15.6030
  359.0000     8.4384    57.7829     0.0019     0.1787     2.3797   -10.9336    24.8793    15.5976
  359.5000     8.4390    57.7888     0.0020     0.1754     2.3873   -11.2482    24.8710    15.5914
