~VERSION INFORMATION
 VERS.                2.0:   CWLS LOG ASCII STANDARD - VERSION 2.0
 WRAP.                 NO:   ONE LINE PER DEPTH STEP
~WELL INFORMATION
#MNEM.UNIT      DATA TYPE    INFORMATION
#----------   ------------   ------------------------------
 STRT.F           30.0000:   START DEPTH
 STOP.F          458.0000:   STOP DEPTH
 STEP.F            0.5000:   STEP LENGTH
 NULL.          -999.2500:   NO VALUE
 COMP. FENIX & SCISSON INC:   COMPANY
 WELL. NPR 3 #53 SX 10-10:   WELL
 FLD .             TEAPOT:   FIELD
 LOC .      S10 T38N R78W:   LOCATION
 CNTY.            NATRONA:   COUNTY
 STAT.            WYOMING:   STATE
 CTRY. UNITED STATES OF AMERICA:   COUNTRY
 SRVC.              Welex:   SERVICE COMPANY
 DATE.        16-APR-1977:   LOGDATE
 API .       490251033200:   API NUMBER
~CURVE INFORMATION
#MNEM.UNIT       API CODE    CURVE DESCRIPTION
#----------   ------------   ------------------------------
 DEPT.F                  :   
 SPR .MV     07 010 01 00:   SPONTANEOUS POTENTIAL FROM RES.
 ILD .OHMM   07 120 46 00:   INDUCTION LOG DEEP
 ILM .OHMM   07 120 44 00:   INDUCTION LOG MEDIUM
 SGRD.OHMM   07 220 05 00:   SHALLOW GUARD RESISTIVITY
 GRD .GAPI   45 310 01 00:   GAMMA RAY FROM DENSITY LOG
 CALD.IN     45 280 60 00:   CALIPER FROM DENSITY LOG
 CORR.G/C3   45 356 01 00:   DENSITY CORRECTION
 RHOB.G/C3   45 350 01 00:   BULK DENSITY
 DPHI.DEC    45 890 12 00:   DENSITY POROSITY SANDSTONE
~PARAMETER INFORMATION
#MNEM.UNIT          VALUE    DESCRIPTION
#----------   ------------   ------------------------------
 PD  .                 GL:   PERMANENT DATUM
 EPD .F              5180:   ELEVATION PERMANENT DATUM
 LMF .                 GL:   LOG MEASURED FROM
 DMF .                 GL:   DRILLING MEASURED FROM
 EGL .F              5180:   GROUND LEVEL
 DATE.        16-APR-1977:   RUN DATE
 RUN .                  1:   RUN NUMBER
 DD  .F               455:   DEPTH DRILLER
 DL  .F               461:   DEPTH LOGGER
 BLI .F               459:   BOTTOM LOG INTERVAL
 TLI .F                30:   TOP LOG INTERVAL
 CS  .IN            8.625:   CASING SIZE
 BS  .IN            7.875:   BIT SIZE
 BSD .F               455:   BIT SIZE AT DEPTH
 DFT .            KCL MUD:   DRILLING FLUID TYPE
 DFD .                8.9:   DRILLING FLUID DENSITY
 TCS .HRS            0600:   TIME CURCULATED STOPPED
 MRT .F                66:   MAXIMUM RECORDED TEMPERATURE
 ENGI.               DOAK:   RECORDING ENGINEER
 WITN.      B. HARRINGTON:   WITNESSED BY
 CLNT.            A2DTECH:   CLIENT CODE
 ORIG.           5" PRINT:   ORIGIN OF DATA
 UWI .       490251033200:   UNIQUE WELL ID
 DICO. A2D Technologies, Inc.:   DIGITIZING COMPANY
~OTHER INFORMATION
~A   DEPT      SPR        ILD        ILM       SGRD         GRD        CALD      CORR        RHOB     DPHI   
# ...
  249.0000   -42.9038    15.4670    23.4199    37.7554    63.0334     7.7994     0.0478     2.4210     0.1340
  249.5000   -42.4454    16.9322    28.4405    32.2139    59.6380     7.8163     0.0495     2.4091     0.1415
  250.0000   -42.2158    18.1556    32.0445    50.5204    59.3574     7.8166     0.0482     2.4084     0.1426
  250.5000   -41.6725    19.0663    33.6121    40.5116    61.1648     7.8110     0.0544     2.4108     0.1426
  251.0000   -41.6563    20.8710    32.4876    35.0487    64.3043     7.8071     0.0546     2.3996     0.1453
  251.5000   -41.4918    22.5328    27.5347    41.9770    67.7409     7.8090     0.0518     2.3734     0.1583
  252.0000   -41.3272    23.8274    28.7649    38.3867    70.7318     7.8109     0.0489     2.3607     0.1700
  252.5000   -41.3110    24.6791    35.6063    34.8615    70.8994     7.7979     0.0476     2.3548     0.1748
  253.0000   -41.2948    25.3852    35.3803    34.6338    70.9185     7.7998     0.0447     2.3556     0.1750
  253.5000   -41.2787    25.3991    34.6682    45.3813    71.0862     7.8018     0.0419     2.3437     0.1784
  254.0000   -41.2625    25.5894    36.9144    51.4209    72.1635     7.8039     0.0376     2.3258     0.1958
  254.5000   -41.2463    25.4270    32.6166    42.9803    74.6196     7.8059     0.0333     2.3131     0.2000
  255.0000   -41.2301    25.2656    25.4430    36.9328    76.3447     7.8077     0.0319     2.3170     0.1991
  255.5000   -41.2139    24.7487    25.2780    36.4386    75.4874     7.7948     0.0306     2.3193     0.1966
  256.0000   -41.0494    25.0020    29.4514    39.8898    71.0379     7.7820     0.0308     2.3142     0.1995
  256.5000   -41.0332    26.5892    31.1393    42.7661    68.3824     7.7541     0.0325     2.3097     0.2036
  257.0000   -41.0170    26.7619    29.2805    41.3326    69.2930     7.7560     0.0327     2.3076     0.2046
  257.5000   -40.8524    25.5142    30.1182    37.4764    71.6895     7.7430     0.0329     2.3084     0.2043
  258.0000   -40.8363    24.6607    33.1977    47.5083    74.3832     7.7598     0.0345     2.3145     0.2010
  258.5000   -40.8201    23.9978    35.5939    47.5452    77.6712     7.7617     0.0347     2.3191     0.1991
  259.0000   -40.8039    25.2052    35.3680    48.5507    80.0677     7.7637     0.0364     2.3169     0.1979
  259.5000   -40.7877    25.5667    33.7145    52.0626    80.6764     7.7656     0.0381     2.3148     0.2000
  260.0000   -40.7715    24.0406    33.9678    41.7427    78.4714     7.7675     0.0367     2.3194     0.1996
  260.5000   -40.7552    23.5567    37.9624    45.0632    75.5188     7.7694     0.0354     2.3240     0.1975
  261.0000   -40.7389    22.9267    40.9979    39.2618    72.4175     7.7713     0.0356     2.3210     0.1972
  261.5000   -40.7226    22.7843    37.2237    37.1623    68.8705     7.7732     0.0343     2.3151     0.1995
  262.0000   -40.7062    23.1143    37.8053    43.5945    67.1065     7.7751     0.0345     2.3122     0.2010
  262.5000   -40.6899    24.1066    43.4892    46.4160    64.7482     7.7770     0.0301     2.3116     0.2019
  263.0000   -40.6704    24.6254    44.9380    44.8601    65.8074     7.7790     0.0288     2.3124     0.1997
  263.5000   -40.6542    24.9820    40.9547    40.7405    68.2039     7.7811     0.0245     2.3245     0.1967
  264.0000   -40.6380    25.6967    39.4487    46.4828    69.7089     7.7831     0.0247     2.3426     0.1907
  264.5000   -40.7742    26.2497    44.7078    47.8093    70.3254     7.7850     0.0293     2.3562     0.1747
  265.0000   -40.7540    26.6298    46.3059    38.3376    70.6488     7.7871     0.0314     2.3638     0.1690
  265.5000   -40.7378    27.0155    37.1345    37.0481    71.1377     7.7890     0.0388     2.3699     0.1680
  266.0000   -40.7216    27.2178    36.1363    39.1787    72.9243     7.7909     0.0404     2.3602     0.1701
  266.5000   -40.7054    27.4217    39.2896    42.0038    76.1984     7.7928     0.0361     2.3438     0.1767
  267.0000   -40.6892    27.8188    41.5469    43.8041    76.8119     7.7947     0.0317     2.3409     0.1836
  267.5000   -40.6731    27.8341    44.8549    43.2232    77.2720     7.7966     0.0320     2.3395     0.1850
  268.0000   -40.6569    28.0426    41.5924    38.4481    76.2557     7.8135     0.0321     2.3373     0.1853
  268.5000   -40.6407    27.6682    38.0376    37.4172    75.0861     7.8452     0.0323     2.3397     0.1847
  269.0000   -40.6245    26.7360    37.5306    37.9725    73.3221     7.8620     0.0309     2.3428     0.1834
  269.5000   -40.6083    25.1304    38.3434    38.5039    73.1879     7.8639     0.0296     2.3474     0.1792
  270.0000   -40.5921    23.8066    39.1632    38.5219    74.2519     7.8658     0.0298     2.3519     0.1750
  270.5000   -40.5759    23.1433    37.5974    36.8886    76.2026     7.8677     0.0300     2.3648     0.1698
  271.0000   -40.5598    22.0902    36.3396    34.7641    77.5590     7.8696     0.0317     2.3792     0.1653
  271.5000   -40.8403    20.7688    34.1657    33.3673    79.2126     7.8715     0.0304     2.3830     0.1592
  272.0000   -40.9765    20.2105    32.3448    30.9383    80.5689     7.8735     0.0275     2.3831     0.1592
  272.5000   -41.1053    19.5371    30.6209    29.2874    82.3711     7.8605     0.0246     2.3794     0.1607
  273.0000   -41.2374    18.7534    28.1981    26.2326    84.0247     7.8179     0.0204     2.3803     0.1615
  273.5000   -41.5174    18.6319    25.7752    25.5262    87.0155     7.8198     0.0190     2.3834     0.1603
  274.0000   -41.5012    18.6446    25.4478    27.3701    89.5606     7.8068     0.0208     2.3849     0.1591
  274.5000   -41.6335    18.6548    28.2934    29.1415    90.1877     7.8090     0.0209     2.3865     0.1578
  275.0000   -41.9139    18.7946    29.8679    30.1811    87.0728     7.8109     0.0226     2.3866     0.1566
  275.5000   -42.0461    18.6728    29.4771    31.6931    84.2412     7.7979     0.0258     2.3890     0.1557
  276.0000   -42.0297    17.9262    29.6979    32.5936    82.1803     7.7849     0.0260     2.3861     0.1586
  276.5000   -42.0134    17.6873    30.7595    31.0722    83.0535     7.7868     0.0262     2.3824     0.1601
  277.0000   -41.9970    17.5750    30.9898    29.4141    84.4100     7.7887     0.0279     2.3810     0.1601
  277.5000   -41.9807    17.4635    30.1609    29.2219    83.0126     7.7906     0.0280     2.3837     0.1579
  278.0000   -41.8128    17.3526    28.5535    29.0345    80.2085     7.7926     0.0282     2.3793     0.1621
  278.5000   -41.7966    17.2425    28.3683    29.8667    79.0389     7.7945     0.0284     2.3737     0.1657
  279.0000   -41.7804    17.6160    29.5903    31.7996    77.8645     7.7964     0.0286     2.3693     0.1669
  279.5000   -41.7642    17.7479    31.5075    32.0728    78.7799     7.7983     0.0257     2.3732     0.1647
  280.0000   -41.5997    18.0050    31.7435    31.6108    80.8792     7.8002     0.0244     2.3778     0.1626
  280.5000   -41.5835    17.6450    31.1088    30.9763    82.6814     7.8021     0.0231     2.3756     0.1635
  281.0000   -41.5673    17.1730    30.2767    30.3551    81.9575     7.8040     0.0202     2.3727     0.1648
  281.5000   -41.5511    17.0640    30.2933    30.1605    79.4506     7.8208     0.0174     2.3720     0.1648
  282.0000   -41.5349    17.0735    29.6876    30.1751    80.2126     7.8379     0.0176     2.3736     0.1629
  282.5000   -41.5187    17.0829    29.4984    30.1895    82.7577     7.8323     0.0178     2.3790     0.1606
  283.0000   -41.5026    16.9644    29.3119    29.5665    85.1543     7.8194     0.0210     2.3851     0.1582
  283.5000   -41.4864    16.8666    28.5279    28.8327    86.8078     7.8138     0.0242     2.3882     0.1560
  284.0000   -41.4702    16.8950    27.9573    28.2782    87.7118     7.8160     0.0259     2.3905     0.1545
  284.5000   -41.4540    17.3611    27.3985    27.8390    86.2006     7.8176     0.0260     2.3914     0.1536
  285.0000   -41.5862    17.4911    27.4137    28.6369    87.6080     7.8046     0.0262     2.3914     0.1529
