~VERSION INFORMATION
 VERS.                2.0:   CWLS LOG ASCII STANDARD - VERSION 2.0
 WRAP.                 NO:   ONE LINE PER DEPTH STEP
~WELL INFORMATION
#MNEM.UNIT      DATA TYPE    INFORMATION
#----------   ------------   ------------------------------
 STRT.F           20.0000:   START DEPTH
 STOP.F          505.0000:   STOP DEPTH
 STEP.F            0.5000:   STEP LENGTH
 NULL.          -999.2500:   NO VALUE
 COMP.    FENIX & SCISSON:   COMPANY
 WELL.   NPR #3 #56-SX-10:   WELL
 FLD .             TEAPOT:   FIELD
 LOC .      S10 T38N R78W:   LOCATION
 CNTY.            NATRONA:   COUNTY
 STAT.            WYOMING:   STATE
 CTRY. UNITED STATES OF AMERICA:   COUNTRY
 SRVC.              Welex:   SERVICE COMPANY
 DATE.        01-MAY-1980:   LOGDATE
 API .       490251081300:   API NUMBER
~CURVE INFORMATION
#MNEM.UNIT       API CODE    CURVE DESCRIPTION
#----------   ------------   ------------------------------
 DEPT.F                  :   
 ILD .OHMM   07 120 46 00:   INDUCTION LOG DEEP
 ILM .OHMM   07 120 44 00:   INDUCTION LOG MEDIUM
 SGRD.OHMM   07 220 05 00:   SHALLOW GUARD RESISTIVITY
 SPR .MV     07 010 01 00:   SPONATANEOUS POTENTIAL FROM RES.
 CALD.IN     45 280 60 00:   CALIPER FROM DENSITY LOG
 DPHI.DEC    45 890 12 00:   DENSITY POROSITY SANDSTONE
 DRHO.G/C3   45 356 01 00:   DENSITY CORRECTION
 GRD .GAPI   45 310 01 00:   GAMMA RAY FROM DENSITY LOG
 RHOB.G/C3   45 350 01 00:   BULK DENSITY
~PARAMETER INFORMATION
#MNEM.UNIT          VALUE    DESCRIPTION
#----------   ------------   ------------------------------
 PD  .                 GL:   PERMANENT DATUM
 EPD .F              5180:   ELEVATION PERMANENT DATUM
 LMF .                 KB:   LOG MEASURED FROM
 DAPD.F                 4:   FEET ABOVE PERMANENT DATUM
 DMF .                 KB:   DRILLING MEASURED FROM
 EKB .F              5184:   KELLING BUSHING
 EGL .F              5180:   GROUND LEVEL
 DATE.        01-MAY-1980:   RUN DATE
 RUN .                  1:   RUN NUMBER
 DD  .F               489:   DEPTH DRILLER
 DL  .F               506:   DEPTH LOGGER
 BLI .F               504:   BOTTOM LOG INTERVAL
 TLI .F                30:   TOP LOG INTERVAL
 BS  .IN            7.875:   BIT SIZE
 BSD .F               489:   BIT SIZE AT DEPTH
 DFT .    WATER BASED MUD:   DRILLING FLUID TYPE
 DFD .                9.9:   DRILLING FLUID DENSITY
 DFV .                 46:   DRILLING FLUID VISCOSITY
 MSS .                PIT:   MUD SAMPLE SOURCE
 RMS .OHMM           0.99:   RESISTIVITY MUD SAMPLE
 MST .F                75:   MUD SAMPLE TEMPERATURE
 RMF .OHMM           0.78:   RESISTIVITY MUD FILTRATE SAMPLE
 MFST.F                75:   MUD FILTRATE SAMPLE TEMPERATURE
 RMC .OHMM           1.18:   RESISTIVITY MUD CAKE
 MCST.F                75:   MUD CAKE SAMPLE TEMPERATURE
 MFSS.               MEAS:   MUD FILTRATE SAMPLE SOURCE
 MCSS.               MEAS:   MUD CAKE SAMPLE SOURCE
 BHT .F               100:   BOTTOM HOLE TEMPERATURE
 TCS .HRS               1:   TIME CURCULATED STOPPED
 MRT .F               100:   MAXIMUM RECORDED TEMPERATURE
 LUN .               9685:   LOGGING UNIT NUMBER
 LUL .             CASPER:   LOGGING UNIT LOCATION
 ENGI.            TOTHILL:   RECORDING ENGINEER
 WITN.           DINSMORE:   WITNESSED BY
 CLNT.            A2DTECH:   CLIENT CODE
 ORIG.           5" PRINT:   ORIGIN OF DATA
 UWI .       490251081300:   UNIQUE WELL ID
 DICO. A2D Technologies, Inc.:   DIGITIZING COMPANY
~OTHER INFORMATION
~A   DEPT       ILD        ILM      SGRD        SPR       CALD       DPHI       DRHO        GRD       RHOB   
# ...
  129.5000     8.0608    10.1161    10.1287   -21.2328     8.1727     0.1444     0.0449    88.4906     2.4046
  130.0000     7.9511    10.4000    10.2951   -21.2234     8.2206     0.1420     0.0585    89.4162     2.4099
  130.5000     7.8974    10.8416    10.8577   -21.2141     8.1747     0.1333     0.0617    90.5632     2.4122
  131.0000     7.8894    11.2225    11.1639   -21.2047     8.0961     0.1267     0.0765    92.1621     2.4280
  131.5000     7.7375    11.2099    11.0120   -21.1953     7.9524     0.1192     0.0871    93.3092     2.4431
  132.0000     7.6322    10.9162    10.5655   -21.1859     7.9085     0.1156     0.0901    94.6821     2.4521
  132.5000     7.4764    10.4000    10.0673   -21.1765     7.8794     0.1157     0.0871    96.0551     2.4529
  133.0000     7.2733     9.9082     9.7259   -21.1672     7.9405     0.1206     0.0827    97.2022     2.4490
  133.5000     6.9784     9.3100     9.4617   -21.1578     8.0164     0.1213     0.0752    98.1325     2.4447
  134.0000     6.6955     8.8086     9.2049   -21.1484     8.0473     0.1192     0.0678    98.8554     2.4448
  134.5000     6.4687     8.1630     9.2062   -21.1390     8.0035     0.1213     0.0618    99.5182     2.4425
  135.0000     6.2495     7.8854     9.3412   -21.1296     8.0205     0.1216     0.0633    99.7617     2.4486
  135.5000     6.1220     8.8086     9.6108   -21.1203     8.0656     0.1096     0.0725    99.7792     2.4606
  136.0000     5.9970     9.3746     9.7342   -21.1109     8.0666     0.1153     0.0658    99.7968     2.4517
  136.5000     6.0395     9.6377     9.4700   -21.1015     8.0677     0.1183     0.0410    99.8143     2.4487
  137.0000     6.1316     9.6373     9.4057   -21.0921     8.0537     0.1240     0.0335    99.6054     2.4472
  137.5000     6.3411     9.3692     9.5384   -21.0828     8.0245     0.1282     0.0216    98.9458     2.4315
  138.0000     6.4750     9.2356     9.8074   -21.0734     8.0106     0.1270     0.0141    98.0597     2.4308
  138.5000     6.5662     9.0558     9.9454   -21.2128     7.9969     0.1261     0.0096    97.1780     2.4338
  139.0000     6.7048     9.3100     9.9468   -21.3891     7.9530     0.1368    -0.0023    96.5179     2.4040
  139.5000     6.7523     9.7047     9.9481   -21.6510     7.9069     0.1479    -0.0143    96.3051     2.3934
  140.0000     6.8473     9.9082     9.9495   -21.6306     7.9702     0.1515    -0.0217    97.2307     2.3911
  140.5000     6.9437    10.0463     9.8760   -21.6125     8.0461     0.1539    -0.0278    98.1518     2.3867
  141.0000     7.0414     9.9770     9.6808   -21.5945     8.0172     0.1596    -0.0337    99.0730     2.3785
  141.5000     7.0913     9.8399     9.6153   -21.5764     7.9134     0.1614    -0.0381    99.0905     2.3747
  142.0000     7.1911     9.8399     9.5500   -21.5583     7.8246     0.1611    -0.0381    98.4127     2.3800
  142.5000     7.2923     9.8399     9.5666   -21.5402     7.8196     0.1584    -0.0321    98.0005     2.3748
  143.0000     7.4035     9.8399     9.6982   -21.5221     7.9913     0.1641    -0.0395    97.5618     2.3696
  143.5000     7.4992    10.1161     9.7546   -21.5041     8.0239     0.1599    -0.0380    97.3535     2.3741
  144.0000     7.6047    10.3311     9.9606   -21.4860     8.1283     0.1446    -0.0182    97.3754     2.4012
  144.5000     7.6586    10.5564    10.2415   -21.4679     8.2341     0.1299     0.0174    98.5225     2.4308
  145.0000     7.6596    10.8409    10.4578   -21.4498     8.2052     0.1236     0.0431    99.4436     2.4469
  145.5000     7.7139    10.9162    10.5318   -21.4317     8.1464     0.1164     0.0566   100.1389     2.4644
  146.0000     7.7149    10.6181    10.3813   -21.4137     8.1322     0.1059     0.0702   100.1566     2.4704
  146.5000     7.7160    10.4000    10.1767   -21.3956     8.1783     0.1083     0.0717   100.1385     2.4630
  147.0000     7.7170    10.1161    10.0382   -21.3775     8.1951     0.1137     0.0657    99.0664     2.4555
  147.5000     7.7716    10.1161    10.0396   -21.3594     8.0736     0.1135     0.0688    98.1803     2.4593
  148.0000     7.7191    10.1863    10.1107   -21.3414     8.0020     0.1092     0.0748    97.0684     2.4638
  148.5000     7.6669    10.3283    10.3241   -21.3233     7.9282     0.1083     0.0749    97.5377     2.4646
  149.0000     7.6371    10.4000    10.4694   -21.3052     7.8990     0.1101     0.0749    98.6848     2.4670
  149.5000     7.5114    10.6181    10.5436   -21.2871     7.9452     0.1133     0.0703    99.3800     2.4594
  150.0000     7.4606    10.6181    10.6182   -21.2690     7.9163     0.1103     0.0630   100.5271     2.4505
  150.5000     7.3591    10.2521    10.5464   -21.2510     7.9472     0.1157     0.0630   101.2252     2.4529
  151.0000     7.3093    10.1765    10.3311   -21.2329     7.9782     0.1137     0.0586   101.9533     2.4567
  151.5000     7.2599     9.9814    10.2613   -21.2148     8.0092     0.1106     0.0571   102.8511     2.4588
  152.0000     7.3003     9.9828    10.1219   -21.2014     8.0701     0.1127     0.0481   103.3229     2.4581
  152.5000     7.3126     9.9841    10.0532   -21.1955     8.0711     0.1145     0.0302   104.0207     2.4506
  153.0000     7.2631     9.8482     9.9855   -21.1897     8.0422     0.1100     0.0377   104.7184     2.4627
  153.5000     7.2641     9.7142     9.8496   -21.1824     8.0124     0.1010     0.0482   104.7384     2.4710
  154.0000     7.2150     9.6485     9.7827   -21.0284     7.9694     0.0962     0.0573   104.3065     2.4830
  154.5000     7.1642     9.5833     9.6495   -21.0213     7.9379     0.1103     0.0512   103.4229     2.4808
  155.0000     7.1177     9.4528     9.5182   -20.8670     7.9119     0.1183     0.0388   102.7652     2.4621
  155.5000     7.0696     9.4541     9.5198   -20.8601     7.9428     0.1213     0.0229   102.1075     2.4479
  156.0000     6.9734     9.3254     9.5872   -20.8543     7.9888     0.1270     0.0169   101.4498     2.4389
  156.5000     6.9262     9.1985     9.5885   -20.8484     8.0048     0.1267     0.0155   101.4698     2.4344
  157.0000     6.7851     9.0736     9.5237   -20.8426     8.0358     0.1282     0.0110   102.1675     2.4352
  157.5000     6.7390     9.1379     9.3944   -20.8368     8.0817     0.1321     0.0036   103.3170     2.4225
  158.0000     6.6321     9.3308     9.2662   -20.8309     8.1277     0.1407    -0.0009   102.4187     2.4075
  158.5000     6.5118     9.5278     9.0773   -20.8251     8.1886     0.1446    -0.0009   101.2944     2.4045
  159.0000     6.3789     9.6616     8.9535   -20.8191     8.2345     0.1419     0.0022   101.1180     2.4068
  159.5000     6.2487     9.0798     8.7105   -20.8132     8.2505     0.1446     0.0052   102.4984     2.4099
  160.0000     6.1636     8.5327     8.4739   -20.8072     8.2665     0.1503     0.0050   103.8738     2.3979
  160.5000     5.9893     8.0743     8.0743   -20.8003     8.2526     0.1536    -0.0037   104.3456     2.3927
  161.0000     5.8266     7.7469     7.5878   -20.7944     8.2536     0.1413     0.0143   104.5915     2.3980
  161.5000     5.6838     7.3745     7.2300   -20.7886     8.2397     0.1395     0.0294   105.0583     2.4130
  162.0000     5.6068     7.4074     7.4426   -20.7833     8.1954     0.1368     0.0399   104.4006     2.4168
  162.5000     5.5312     8.0789     8.3272   -20.7773     8.1208     0.1341     0.0354   103.7479     2.4169
  163.0000     5.5323     8.5992     8.7796   -20.7713     8.0611     0.1296     0.0460   102.6384     2.4205
  163.5000     5.5334     8.6004     8.7808   -20.7652     8.0045     0.1182     0.0595   101.7498     2.4455
  164.0000     5.6117     8.5419     8.7820   -20.7593     7.9906     0.1128     0.0613   101.0964     2.4620
  164.5000     5.8104     8.6624     8.9674   -20.7534     7.9318     0.1176     0.0461   101.7948     2.4560
  165.0000     5.9335     8.8453     9.2204   -20.7474     7.8876     0.1238     0.0356   102.7184     2.4448
  165.5000     6.0592     8.9698     9.4150   -20.7404     7.8590     0.1287     0.0250   103.8983     2.4313
