~VERSION INFORMATION
 VERS.                2.0:   CWLS LOG ASCII STANDARD - VERSION 2.0
 WRAP.                 NO:   ONE LINE PER DEPTH STEP
~WELL INFORMATION
#MNEM.UNIT      DATA TYPE    INFORMATION
#----------   ------------   ------------------------------
 STRT.F          103.0000:   START DEPTH
 STOP.F          898.0000:   STOP DEPTH
 STEP.F            0.5000:   STEP LENGTH
 NULL.          -999.2500:   NO VALUE
 COMP. LAWRENCE/ALLISON INC:   COMPANY
 WELL. NPR 3 32-66 SX #2-2:   WELL
 FLD .             TEAPOT:   FIELD
 LOC .       S2 T38N R78W:   LOCATION
 CNTY.            NATRONA:   COUNTY
 STAT.            WYOMING:   STATE
 CTRY. UNITED STATES OF AMERICA:   COUNTRY
 SRVC.      Dresser Atlas:   SERVICE COMPANY
 DATE.        30-JAN-1986:   LOGDATE
 API .       490251106900:   API NUMBER
~CURVE INFORMATION
#MNEM.UNIT       API CODE    CURVE DESCRIPTION
#----------   ------------   ------------------------------
 DEPT.F                  :   
 RILD.OHMM   07 120 46 00:   INDUCTION LOG DEEP RESISTIVITY
 RILM.OHMM   07 120 44 00:   INDUCTION LOG MEDIUM RESISTIVITY
 CALD.IN     45 280 60 00:   CALIPER FROM DENSITY
 GRD .GAPI   45 310 01 00:   GAMMA RAY FROM DENSITY LOG
 CORR.G/C3   45 356 01 00:   DENSITY CORRECTION
 PORD.DEC    45 890 10 00:   POROSITY DENSITY LIMESTONE
 DEN .G/C3   45 350 01 00:   COMPENSATED BULK DENSITY
~PARAMETER INFORMATION
#MNEM.UNIT          VALUE    DESCRIPTION
#----------   ------------   ------------------------------
 PD  .                 GL:   PERMANENT DATUM
 EPD .F              5136:   ELEVATION PERMANENT DATUM
 LMF .                 GL:   LOG MEASURED FROM
 DMF .                 GL:   DRILLING MEASURED FROM
 EGL .F              5136:   GROUND LEVEL
 DATE.        30-JAN-1986:   RUN DATE
 RUN .                  1:   RUN NUMBER
 DD  .F               885:   DEPTH DRILLER
 DL  .F               902:   DEPTH LOGGER
 BLI .F               894:   BOTTOM LOG INTERVAL
 CS  .IN            8.625:   CASING SIZE
 CBD .F               130:   CASING BOTTOM DRILLER
 CBL .F               126:   CASING BOTTOM LOGGER
 BS  .IN             6.25:   BIT SIZE
 BSD .F               885:   BIT SIZE AT DEPTH
 DFT .                AIR:   DRILLING FLUID TYPE
 LUN .            HL-6264:   LOGGING UNIT NUMBER
 LUL .           GILLETTE:   LOGGING UNIT LOCATION
 ENGI.     P. M. FAHLSING:   RECORDING ENGINEER
 WITN.        LINDA FIVAS:   WITNESSED BY
 CLNT.            A2DTECH:   CLIENT CODE
 ORIG.           5" PRINT:   ORIGIN OF DATA
 UWI .       490251106900:   UNIQUE WELL ID
 DICO. A2D Technologies, Inc.:   DIGITIZING COMPANY
 R1  . POROSITY WITH LIMESTONE:   REMARKS 1
~OTHER INFORMATION
~A   DEPT     RILD       RILM       CALD        GRD       CORR       PORD        DEN   
# ...
  785.5000    14.6570    14.7297     6.9515   105.3054     0.0664     0.2103     2.3270
  786.0000    14.6673    14.6208     6.9663   105.8740     0.0769     0.2007     2.3467
  786.5000    14.6775    14.4463     6.9659   104.6667     0.0996     0.1850     2.3716
  787.0000    14.4832    14.3577     6.9656   104.0601     0.1056     0.1753     2.3890
  787.5000    13.9844    14.2697     6.9653   104.7546     0.1026     0.1645     2.4056
  788.0000    13.7218    13.9871     6.9650   106.5625     0.0906     0.1548     2.4208
  788.5000    13.6366    13.8053     6.9647   107.6460     0.0529     0.1585     2.4200
  789.0000    13.5520    13.4385     6.9644   107.6385     0.0589     0.1669     2.3988
  789.5000    13.4648    13.2614     6.9641   108.2331     0.0801     0.1778     2.3776
  790.0000    13.2919    13.0916     6.9638   108.2271     0.0816     0.1859     2.3685
  790.5000    12.8485    12.9190     6.9635   108.2212     0.0831     0.1880     2.3640
  791.0000    12.5931    12.7511     6.9632   108.2152     0.0816     0.1907     2.3610
  791.5000    12.2576    12.5010     6.9629   109.4104     0.0831     0.1935     2.3587
  792.0000    12.0137    12.1689     6.9476   112.4074     0.0832     0.1941     2.3549
  792.5000    11.9391    11.9256     6.9322   118.4075     0.0800     0.1895     2.3594
  793.0000    11.9477    11.8547     6.9319   119.6042     0.0650     0.1814     2.3776
  793.5000    11.9561    11.8639     6.9316   119.5967     0.0682     0.1748     2.3897
  794.0000    11.9644    11.8730     6.9313   110.8820     0.0802     0.1699     2.3965
  794.5000    11.8881    11.8822     6.9310   109.9752     0.0797     0.1712     2.3942
  795.0000    11.8985    11.8895     6.9307   108.7680     0.0615     0.1733     2.3919
  795.5000    11.9895    11.8986     6.9304   108.1614     0.0496     0.1742     2.3881
  796.0000    11.9979    11.9077     6.9301   107.5548     0.0470     0.1745     2.3866
  796.5000    11.9213    11.9996     6.9298   105.1464     0.0564     0.1748     2.3851
  797.0000    11.9318    12.0087     6.9295   102.1375     0.0622     0.1752     2.3851
  797.5000    11.7759    11.9349     6.9292   103.3327     0.0380     0.1756     2.3851
  798.0000    11.7007    11.8619     6.9289   106.3297     0.0365     0.1754     2.3873
  798.5000    11.6301    11.6269     6.9286   105.1225     0.0441     0.1724     2.3971
  799.0000    11.3990    11.3967     6.9584   104.2157     0.0622     0.1664     2.4032
  799.5000    11.3262    11.3246     6.9581   103.9109     0.0831     0.1621     2.4072
  800.0000    11.1627    11.1630     6.9729   104.5970     0.1106     0.1573     2.4138
  800.5000    10.9591    11.0772     6.9578   105.1491     0.1272     0.1520     2.4251
  801.0000    10.8903    11.0445     6.9578   105.7177     0.1378     0.1459     2.4387
  801.5000    10.9019    10.9783     6.9578   106.3243     0.1439     0.1377     2.4493
  802.0000    10.9111    10.9885     6.9578   106.3315     0.1348     0.1320     2.4553
  802.5000    10.9203    10.9984     6.9578   105.7368     0.1168     0.1290     2.4613
  803.0000    10.8518    11.0085     6.9578   105.1421     0.0775     0.1275     2.4666
  803.5000    10.8614    10.9422     6.9415   104.5460     0.0685     0.1242     2.4727
  804.0000    10.8705    10.9526     6.9277   103.9513     0.0687     0.1211     2.4795
  804.5000    10.8795    10.9626     6.9127   104.2590     0.0751     0.1199     2.4796
  805.0000    10.8886    11.0489     6.8976   105.1659     0.0928     0.1208     2.4764
  805.5000    10.8978    11.0590     6.8976   107.5742     0.1260     0.1224     2.4734
  806.0000    10.9829    11.0691     6.8976   109.9825     0.1305     0.1254     2.4665
  806.5000    10.9921    11.0793     6.8976   112.9914     0.1245     0.1314     2.4534
  807.0000    11.0014    11.0894     6.9127   116.0004     0.1140     0.1364     2.4467
  807.5000    11.0108    11.0996     6.9127   119.0093     0.0944     0.1417     2.4437
  808.0000    11.0201    11.1098     6.9127   121.1173     0.0733     0.1420     2.4453
  808.5000    10.9533    11.1179     6.8976   121.1512     0.0567     0.1417     2.4476
  809.0000    11.0387    11.1279     6.8976   120.2282     0.0522     0.1423     2.4415
  809.5000    10.9718    11.1379     6.8976   119.6336     0.0493     0.1435     2.4400
  810.0000    10.9811    11.1480     6.8976   119.3193     0.0478     0.1417     2.4415
  810.5000    10.9885    11.1582     6.8976   119.0449     0.0508     0.1393     2.4467
  811.0000    10.9215    11.0148     6.8976   118.6987     0.0569     0.1363     2.4528
  811.5000    10.7763    11.0249     6.9127   117.8555     0.0690     0.1317     2.4611
  812.0000    10.6411    10.8807     6.9127   117.2608     0.0994     0.1272     2.4671
  812.5000    10.5766    10.7409     6.9101   117.5686     0.1281     0.1248     2.4701
  813.0000    10.5855    10.6028     6.8976   117.5745     0.1325     0.1248     2.4693
  813.5000    10.5945    10.4666     6.8976   117.5804     0.1325     0.1260     2.4686
  814.0000    10.5281    10.4039     6.8976   117.5863     0.1295     0.1278     2.4655
  814.5000    10.5392    10.4158     6.8976   117.2905     0.0994     0.1272     2.4647
  815.0000    10.5481    10.4978     6.8976   117.2979     0.0873     0.1242     2.4701
  815.5000    10.5570    10.5804     6.8976   115.2017     0.0828     0.1212     2.4794
  816.0000    10.5660    10.6617     6.8976   111.9043     0.0798     0.1151     2.4893
  816.5000    10.5749    10.6713     6.8976   110.7076     0.0768     0.1108     2.4972
  817.0000    10.6574    10.7551     6.8976   114.3186     0.0678     0.1085     2.4980
  817.5000    10.6664    10.7648     6.8976   116.7269     0.0543     0.1110     2.4934
  818.0000    10.6735    10.7747     6.8976   117.9341     0.0664     0.1140     2.4911
  818.5000    10.6085    10.7846     6.9277   117.3393     0.0936     0.1134     2.4926
  819.0000    10.5442    10.7944     6.9277   117.0450     0.0966     0.1119     2.4964
  819.5000    10.5531    10.7298     6.9277   117.6757     0.0906     0.1110     2.4979
  820.0000    10.4889    10.5919     6.9578   119.2394     0.0876     0.1149     2.4941
  820.5000    10.3532    10.4558     6.9578   120.9670     0.0937     0.1270     2.4759
  821.0000    10.3624    10.2502     6.9277   122.1753     0.0952     0.1339     2.4562
  821.5000    10.2996    10.1864     6.9277   122.4815     0.0938     0.1372     2.4502
  822.0000    10.3083    10.1981     6.9277   122.1857     0.0908     0.1333     2.4555
  822.5000    10.2437    10.2074     6.9127   121.2907     0.0923     0.1264     2.4698
  823.0000    10.2545    10.2168     6.8976   121.5984     0.0969     0.1210     2.4834
  823.5000    10.1220    10.1532     6.8976   122.8055     0.0999     0.1170     2.4895
  824.0000    10.1306    10.1628     6.8976   125.2139     0.1015     0.1161     2.4863
  824.5000    10.0671    10.1720     6.8976   124.6192     0.1000     0.1158     2.4817
  825.0000    10.0759    10.1109     6.8976   121.6221     0.0940     0.1183     2.4788
  825.5000    10.0145    10.1202     6.8976   119.8248     0.0849     0.1207     2.4803
  826.0000     9.8851    10.0592     6.8976   120.4328     0.0759     0.1203     2.4833
  826.5000     9.7574    10.0687     6.8976   121.0393     0.0775     0.1191     2.4856
  827.0000     9.4989     9.7350     6.8825   121.6458     0.0850     0.1165     2.4863
  827.5000     9.2472     9.2807     6.8825   121.0511     0.0941     0.1156     2.4871
  828.0000     9.0022     9.1003     6.8976   121.0571     0.1002     0.1153     2.4878
  828.5000     8.8245     8.9813     6.8976   121.6757     0.1062     0.1147     2.4885
  829.0000     8.6504     8.8067     6.8825   123.5276     0.1063     0.1144     2.4916
  829.5000     8.4212     8.5739     6.8825   124.6787     0.1033     0.1110     2.4938
  830.0000     8.1980     8.3454     6.8675   123.1844     0.1002     0.1086     2.4953
  830.5000     7.8711     8.0706     6.8675   122.8885     0.0973     0.1062     2.4983
