~VERSION INFORMATION
 VERS.                2.0:   CWLS LOG ASCII STANDARD - VERSION 2.0
 WRAP.                 NO:   ONE LINE PER DEPTH STEP
~WELL INFORMATION
#MNEM.UNIT      DATA TYPE    INFORMATION
#----------   ------------   ------------------------------
 STRT.F           16.0000:   START DEPTH
 STOP.F         1334.0000:   STOP DEPTH
 STEP.F            0.5000:   STEP LENGTH
 NULL.          -999.2500:   NO VALUE
 COMP. U S NAVY/INTEX OIL CO:   COMPANY
 WELL.  S-11 NPR 3 #87-11:   WELL
 FLD .             TEAPOT:   FIELD
 LOC .      S11 T38N R78W:   LOCATION
 CNTY.            NATRONA:   COUNTY
 STAT.            WYOMING:   STATE
 CTRY. UNITED STATES OF AMERICA:   COUNTRY
 SRVC.       Schlumberger:   SERVICE COMPANY
 DATE.        17-JUN-1966:   LOGDATE
 API .       490250958900:   API NUMBER
~CURVE INFORMATION
#MNEM.UNIT       API CODE    CURVE DESCRIPTION
#----------   ------------   ------------------------------
 DEPT.F                  :   
 GRD .GAPI   45 310 01 00:   GAMMA RAY FROM DENSITY LOG
 CALD.IN     45 280 60 00:   CALIPER
 RHOB.G/C3   45 350 01 00:   BULK DENSITY
 DPOR.DEC    45 890 12 00:   DENSITY POROSITY SANDSTONE
 DRHO.G/C3   45 356 01 00:   DENSITY CORRECTION
 ASN .OHMM   05 041 16 00:   AMPLIFIED SHORT NORMAL 16"
 ILD .OHMM   05 120 46 00:   INDUCTION LOG DEEP
 CILD.MMHO   05 110 46 00:   CONDUCTIVITY INDUCTION LOG DEEP
 SPR .MV     05 010 01 00:   SPONTANEOUS POTENTIAL FROM RES.
~PARAMETER INFORMATION
#MNEM.UNIT          VALUE    DESCRIPTION
#----------   ------------   ------------------------------
 PD  .                 GL:   PERMANENT DATUM
 EPD .F              5284:   ELEVATION PERMANENT DATUM
 LMF .                 KB:   LOG MEASURED FROM
 DAPD.F                 5:   FEET ABOVE PERMANENT DATUM
 DMF .                 KB:   DRILLING MEASURED FROM
 EKB .F              5289:   KELLING BUSHING
 EGL .F              5284:   GROUND LEVEL
 DATE.          8-17-1966:   RUN DATE
 RUN .                  1:   RUN NUMBER
 DD  .F              1335:   DEPTH DRILLER
 DL  .F              1335:   DEPTH LOGGER
 BLI .F              1334:   BOTTOM LOG INTERVAL
 TLI .F                50:   TOP LOG INTERVAL
 CS  .IN            8.625:   CASING SIZE
 CBD .F                10:   CASING BOTTOM DRILLER
 BS  .IN            7.875:   BIT SIZE
 BSD .F              1335:   BIT SIZE AT DEPTH
 DFT .           GEL-CHEM:   DRILLING FLUID TYPE
 DFD .                9.3:   DRILLING FLUID DENSITY
 DFV .                 50:   DRILLING FLUID VISCOSITY
 MSS .          FLOW LINE:   MUD SAMPLE SOURCE
 RMS .OHMM           1.38:   RESISTIVITY MUD SAMPLE
 MST .F                80:   MUD SAMPLE TEMPERATURE
 RMF .OHMM           1.09:   RESISTIVITY MUD FILTRATE SAMPLE
 MFST.F                77:   MUD FILTRATE SAMPLE TEMPERATURE
 MFSS.                  M:   MUD FILTRATE SAMPLE SOURCE
 RMB .OHMM           1.70:   RESISTIVITY MUD AT BHT
 BHT .F               108:   BOTTOM HOLE TEMPERATURE
 TCS .HRS               1:   TIME CURCULATED STOPPED
 MRT .F               108:   MAXIMUM RECORDED TEMPERATURE
 LUN .               4507:   LOGGING UNIT NUMBER
 LUL .               CSPR:   LOGGING UNIT LOCATION
 ENGI.            MANGOLD:   RECORDING ENGINEER
 WITN.                MAY:   WITNESSED BY
 CLNT.            A2DTECH:   CLIENT CODE
 ORIG.       2", 5" PRINT:   ORIGIN OF DATA
 UWI .       490250958900:   UNIQUE WELL ID
 DICO. A2D Technologies, Inc.:   DIGITIZING COMPANY
~OTHER INFORMATION
~A   DEPT       GRD      CALD       RHOB       DPOR       DRHO        ASN        ILD       CILD        SPR   
# ...
  527.0000    91.2177     8.3469     2.5195     0.0845     0.0555     6.3261     5.5843   181.3903   -46.7117
  527.5000    95.5120     8.3046     2.4997     0.0923     0.0760     6.2811     5.6218   180.4792   -46.7905
  528.0000    99.1246     8.2626     2.4855     0.1001     0.0611     6.2858     5.6591   179.5709   -46.8694
  528.5000    98.3717     8.2207     2.4708     0.1051     0.0383     6.3157     5.6979   179.2479   -46.9489
  529.0000    96.4307     8.1788     2.4767     0.1013     0.0399     6.3464     5.6574   179.8838   -47.0285
  529.5000    94.4547     8.1366     2.4851     0.1024     0.0464     6.3776     5.5782   182.4738   -46.9537
  530.0000    92.4528     8.0921     2.4781     0.1043     0.0530     6.3996     5.4978   185.0638   -46.8538
  530.5000    91.7004     8.1596     2.4697     0.1062     0.0595     6.2836     5.4175   187.6538   -46.7540
  531.0000    91.1642     8.2535     2.4711     0.1071     0.0564     6.1669     5.3372   190.2439   -46.6558
  531.5000    94.6773     8.3489     2.4767     0.1051     0.0449     6.0515     5.2569   192.8339   -46.4745
  532.0000    98.4341     8.3840     2.4825     0.1033     0.0336     5.9647     5.1767   195.4239   -46.2750
  532.5000    96.6219     8.3836     2.4886     0.1014     0.0294     5.9581     5.0964   198.0139   -46.0747
  533.0000    94.5262     8.3826     2.4779     0.1063     0.0369     5.9515     5.0160   200.6039   -45.8727
  533.5000    97.4494     8.3814     2.4610     0.1183     0.0440     5.8971     4.9360   203.1939   -45.8665
  534.0000   100.1286     8.3804     2.4437     0.1314     0.0299     5.8257     4.8554   205.7840   -45.9053
  534.5000    98.2484     8.3793     2.4343     0.1338     0.0228     5.7538     4.8335   206.7316   -45.9451
  535.0000    96.4167     8.3783     2.4303     0.1365     0.0279     5.6841     4.8650   206.0576   -45.9846
  535.5000    95.5378     8.3773     2.4264     0.1391     0.0329     5.7130     4.8971   203.7587   -46.0240
  536.0000    97.8168     8.3762     2.4223     0.1318     0.0353     5.7940     4.9294   201.2612   -46.0634
  536.5000    97.0022     8.3752     2.4341     0.1209     0.0262     5.8742     4.9617   198.7637   -46.1028
  537.0000    95.7832     8.3741     2.4496     0.1144     0.0327     5.9294     4.9939   196.1271   -46.1422
  537.5000    94.5054     8.3731     2.4592     0.1119     0.0344     5.9280     5.0261   196.1271   -46.1816
  538.0000    95.6490     8.3720     2.4475     0.1155     0.0299     5.9772     5.0583   196.1271   -46.2210
  538.5000    97.3721     8.3710     2.4437     0.1187     0.0260     6.0643     5.0906   193.4525   -46.2604
  539.0000    97.1420     8.3699     2.4649     0.1087     0.0322     6.1506     5.1228   191.2325   -46.2998
  539.5000    96.6691     8.3689     2.4821     0.1001     0.0288     6.1880     5.1550   189.0125   -46.3392
  540.0000    97.2596     8.3679     2.4919     0.0956     0.0279     6.1332     5.1872   186.2278   -46.3785
  540.5000    98.0724     8.3667     2.4835     0.1018     0.0710     6.0805     5.2207   186.4965   -46.4183
  541.0000    95.8404     8.3659     2.4754     0.1059     0.0662     6.0477     5.2590   187.0711   -46.4123
  541.5000    93.5994     8.3410     2.4673     0.1090     0.0600     6.0781     5.2975   187.6104   -46.3712
  542.0000    93.8106     8.2979     2.4591     0.1122     0.0539     6.1568     5.3359   188.2378   -46.3296
  542.5000    95.7728     8.2542     2.4518     0.1154     0.0592     6.2350     5.3743   188.3448   -46.2879
  543.0000    97.7194     8.2078     2.4609     0.1125     0.0697     6.3135     5.4127   187.3724   -46.2464
  543.5000    96.4469     8.1450     2.4704     0.1084     0.0568     6.3933     5.4511   186.3734   -46.2048
  544.0000    94.7184     8.1386     2.4740     0.1052     0.0705     6.3742     5.4896   185.3744   -46.1632
  544.5000    96.2850     8.2242     2.4594     0.1099     0.0644     6.3366     5.5280   185.9468   -46.1216
  545.0000    97.9872     8.3016     2.4487     0.1138     0.0565     6.2987     5.5667   186.8434   -46.0798
  545.5000    97.4210     8.2570     2.4526     0.1183     0.0487     6.2609     5.6060   187.7399   -46.0405
  546.0000    95.6410     8.2080     2.4497     0.1163     0.0408     6.2231     5.5806   188.6365   -46.0394
  546.5000    94.1354     8.1593     2.4397     0.1182     0.0330     6.1854     5.5449   189.5330   -46.0396
  547.0000    95.5912     8.1101     2.4299     0.1199     0.0254     6.1476     5.5090   190.4296   -46.0396
  547.5000    93.6417     8.0727     2.4432     0.1223     0.0195     6.1099     5.4733   191.3261   -46.0396
  548.0000    89.5258     8.2106     2.4567     0.1250     0.0192     6.0710     5.4376   192.1549   -46.0396
  548.5000    92.3262     8.3494     2.4492     0.1221     0.0376     6.1318     5.4019   190.0060   -46.0396
  549.0000    96.6048     8.3304     2.4529     0.1165     0.0250     6.2236     5.3661   188.0079   -46.0396
  549.5000   100.9159     8.2898     2.4571     0.1183     0.0165     6.3193     5.3304   186.1966   -46.0396
  550.0000   102.9054     8.2499     2.4583     0.1209     0.0373     6.2738     5.2947   188.4828   -46.0396
  550.5000    97.2296     8.2752     2.4563     0.1236     0.0304     6.1925     5.2589   190.5736   -46.0396
  551.0000    94.5233     8.3087     2.4541     0.1228     0.0198     6.2660     5.2219   192.6644   -46.0396
  551.5000    94.9791     8.3419     2.4646     0.1141     0.0076     6.3373     5.2135   194.7553   -46.0396
  552.0000    95.6983     8.3529     2.4793     0.1053     0.0214     6.3743     5.2130   194.2220   -46.0399
  552.5000    98.9531     8.3612     2.4941     0.0966     0.0399     6.3374     5.2092   188.6818   -46.0397
  553.0000   102.2596     8.3540     2.5089     0.0853     0.0584     6.3019     5.3953   183.1416   -46.0174
  553.5000   105.4846     8.3315     2.4989     0.0910     0.0708     6.2665     5.6326   177.6014   -45.8815
  554.0000   103.6109     8.3090     2.4904     0.0964     0.0587     6.3273     5.8710   172.0612   -45.7476
  554.5000   101.1058     8.2864     2.5126     0.0803     0.0635     6.5329     6.1091   166.5210   -45.6418
  555.0000    98.5995     8.2638     2.5346     0.0651     0.0708     6.9061     6.3472   160.9808   -45.6646
  555.5000    96.4512     8.2415     2.5501     0.0675     0.0782     7.2747     6.5856   155.4406   -45.6859
  556.0000    95.6775     8.2310     2.5216     0.0717     0.0858     7.5747     6.8229   152.1470   -45.7068
  556.5000    98.6334     8.2516     2.4963     0.0844     0.0729     7.6563     7.0056   150.1370   -45.7278
  557.0000   101.6471     8.2712     2.4711     0.0974     0.0573     7.9220     7.0056   150.0857   -45.7487
  557.5000   104.2803     8.2667     2.4503     0.1011     0.0420     8.0922     6.8558   151.1501   -45.7696
  558.0000   106.5611     8.1990     2.4638     0.1109     0.0564     7.7560     6.6884   154.7048   -45.7905
  558.5000   103.5824     8.1324     2.4737     0.1066     0.0744     7.5260     6.5204   159.5873   -45.8114
  559.0000    99.0273     8.0659     2.4602     0.1101     0.0926     7.2982     6.3527   164.4261   -45.8323
  559.5000    99.0212     7.9997     2.4471     0.1146     0.1080     7.1184     6.1840   169.2648   -45.8533
  560.0000   100.7663     7.9843     2.4382     0.1168     0.0866     7.0606     6.0153   174.1480   -45.8742
  560.5000   102.5520     8.0201     2.4566     0.1100     0.0607     7.0002     6.0062   176.8904   -45.8951
  561.0000   103.2944     8.0678     2.4728     0.1043     0.0646     6.9471     6.0314   175.9309   -45.9160
  561.5000   102.9938     8.1432     2.4880     0.0986     0.0701     6.9084     6.0631   173.9534   -45.9369
  562.0000   102.6946     8.2181     2.5017     0.0905     0.0672     6.8669     6.0937   170.4013   -45.9578
  562.5000   102.3919     8.2929     2.4918     0.0942     0.0604     6.9529     6.1922   166.8493   -45.9788
  563.0000   102.1018     8.3678     2.4798     0.1011     0.0536     7.0728     6.3337   163.2973   -45.9997
