~VERSION INFORMATION
 VERS.                2.0:   CWLS LOG ASCII STANDARD - VERSION 2.0
 WRAP.                 NO:   ONE LINE PER DEPTH STEP
~WELL INFORMATION
#MNEM.UNIT      DATA TYPE    INFORMATION
#----------   ------------   ------------------------------
 STRT.F           21.0000:   START DEPTH
 STOP.F          495.0000:   STOP DEPTH
 STEP.F            0.5000:   STEP LENGTH
 NULL.          -999.2500:   NO VALUE
 COMP. FENIX & SCISSON U.S. NAVY:   COMPANY
 WELL.        NPR #42-S-3:   WELL
 FLD .             TEAPOT:   FIELD
 LOC .       S3 T38N R78W:   LOCATION
 CNTY.            NATRONA:   COUNTY
 STAT.            WYOMING:   STATE
 CTRY. UNITED STATES OF AMERICA:   COUNTRY
 SRVC.              Welex:   SERVICE COMPANY
 DATE.        05-MAY-1977:   LOGDATE
 API .       490251034800:   API NUMBER
~CURVE INFORMATION
#MNEM.UNIT       API CODE    CURVE DESCRIPTION
#----------   ------------   ------------------------------
 DEPT.F                  :   
 SPR .MV     07 010 01 00:   SPONTANEOUS POTENTIAL
 SGRD.OHMM   07 221 05 00:   SHALLOW SHORT GUARD RESISTIVITY
 ILD .OHMM   07 120 46 00:   INDUCTION LOG DEEP
 ILM .OHMM   07 120 44 00:   INDUCTION LOG MEDIUM
 GRD .GAPI   45 310 01 00:   GAMMA RAY FROM DENSITY LOG
 CALD.IN     45 280 60 00:   CALIPER FROM DENSITY LOG
 CORR.G/C3   45 356 01 00:   DENSITY CORRECTION
 RHOB.G/C3   45 350 01 00:   BULK DENSITY
 DPHI.DEC    45 890 12 00:   DENSITY POROSITY SANDSTONE
~PARAMETER INFORMATION
#MNEM.UNIT          VALUE    DESCRIPTION
#----------   ------------   ------------------------------
 PD  .                 GL:   PERMANENT DATUM
 EPD .F              5120:   ELEVATION PERMANENT DATUM
 LMF .                 GL:   LOG MEASURED FROM
 DMF .                 GL:   DRILLING MEASURED FROM
 EGL .F              5120:   GROUND LEVEL
 DATE.        05-MAY-1977:   RUN DATE
 RUN .                  1:   RUN NUMBER
 DD  .F               490:   DEPTH DRILLER
 DL  .F               495:   DEPTH LOGGER
 BLI .F               493:   BOTTOM LOG INTERVAL
 TLI .F                20:   TOP LOG INTERVAL
 CS  .IN            8.625:   CASING SIZE
 CBD .F                25:   CASING BOTTOM DRILLER
 CBL .F                25:   CASING BOTTOM LOGGER
 BS  .IN            7.875:   BIT SIZE
 BSD .F               490:   BIT SIZE AT DEPTH
 DFT .            KCL MUD:   DRILLING FLUID TYPE
 DFD .                8.8:   DRILLING FLUID DENSITY
 DFV .                 34:   DRILLING FLUID VISCOSITY
 DFPH.                8.0:   DRILLING FLUID PH
 DFL .                8.4:   DRILLING FLUID LOSS
 MSS .           FLOWLINE:   MUD SAMPLE SOURCE
 RMS .OHMM           0.26:   RESISTIVITY MUD SAMPLE
 MST .F                60:   MUD SAMPLE TEMPERATURE
 RMF .OHMM           0.14:   RESISTIVITY MUD FILTRATE SAMPLE
 MFST.F                60:   MUD FILTRATE SAMPLE TEMPERATURE
 RMC .OHMM           0.41:   RESISTIVITY MUD CAKE
 MCST.F                60:   MUD CAKE SAMPLE TEMPERATURE
 MFSS.           FANN KIT:   MUD FILTRATE SAMPLE SOURCE
 MCSS.            FANNKIT:   MUD CAKE SAMPLE SOURCE
 RMB .OHMM           0.21:   RESISTIVITY MUD AT BHT
 BHT .F                71:   BOTTOM HOLE TEMPERATURE
 TCS .HRS            0130:   TIME CURCULATED STOPPED
 MRT .F                71:   MAXIMUM RECORDED TEMPERATURE
 LUN .               8611:   LOGGING UNIT NUMBER
 LUL .             CASPER:   LOGGING UNIT LOCATION
 ENGI.            C. DOAK:   RECORDING ENGINEER
 WITN.            R. LYON:   WITNESSED BY
 CLNT.            A2DTECH:   CLIENT CODE
 ORIG.           5" PRINT:   ORIGIN OF DATA
 UWI .       490251034800:   UNIQUE WELL ID
 DICO. A2D Technologies, Inc.:   DIGITIZING COMPANY
~OTHER INFORMATION
~A   DEPT      SPR       SGRD        ILD        ILM         GRD        CALD       CORR       RHOB       DPHI 
# ...
  167.0000   -55.7113    10.8017     7.5993     9.3235   113.3564     7.8018     0.0110     2.4880     0.1135
  167.5000   -55.7237    11.2541     7.3906     9.0670   112.4135     7.8024     0.0133     2.4970     0.1063
  168.0000   -55.7336    11.4081     7.1877     8.7552   111.5159     7.8031     0.0133     2.5008     0.1054
  168.5000   -55.8923    11.0942     6.9423     8.3409   110.7484     7.8037     0.0118     2.4956     0.1075
  169.0000   -56.1999    10.7154     6.6592     8.0556   110.4719     7.8042     0.0103     2.4889     0.1110
  169.5000   -56.5079     9.9112     6.4315     7.7801   110.7780     7.8048     0.0088     2.4859     0.1119
  170.0000   -56.9663     8.8902     6.2982     7.5140   111.9853     7.8054     0.0088     2.4889     0.1086
  170.5000   -56.8274     8.5867     6.2532     7.4599   113.1926     7.8061     0.0088     2.4972     0.1065
  171.0000   -56.3909     8.8855     6.2948     7.4574   114.8911     7.8216     0.0089     2.4979     0.1080
  171.5000   -56.2520     9.7833     6.4247     7.6108   115.4579     7.8222     0.0089     2.4860     0.1110
  172.0000   -55.9643    10.2643     6.5122     7.8744   116.0637     7.8228     0.0089     2.4853     0.1143
  172.5000   -55.8254    10.4760     6.6460     8.2043   116.9703     7.8234     0.0089     2.4838     0.1167
  173.0000   -55.6866    10.5457     6.7836     8.4892   118.1776     7.8090     0.0089     2.4763     0.1182
  173.5000   -55.4013    10.7632     6.9230     8.5451   119.2545     7.8097     0.0089     2.4749     0.1181
  174.0000   -55.2625    10.9845     7.0658     8.5422   120.5933     7.8102     0.0090     2.4794     0.1172
  174.5000   -55.2724    11.0583     7.1621     8.5978   121.4998     7.8108     0.0105     2.4801     0.1166
  175.0000   -55.2848    11.1311     7.3098     8.7143   121.8038     7.8114     0.0105     2.4802     0.1163
  175.5000   -55.2947    11.2052     7.3584     8.8935   120.0047     7.8271     0.0112     2.4802     0.1163
  176.0000   -55.3047    11.2797     7.4069     9.0141   117.5331     7.8125     0.0113     2.4802     0.1163
  176.5000   -55.3146    11.3547     7.3540     9.0733   113.0970     7.8132     0.0120     2.4802     0.1166
  177.0000   -55.3245    11.1955     7.3016     9.0696   112.7995     7.8138     0.0120     2.4773     0.1187
  177.5000   -55.4836    10.9635     7.1997     9.0043   115.0605     7.8144     0.0121     2.4735     0.1205
  178.0000   -55.7933    10.5863     7.0992     8.8171   116.2678     7.8151     0.0128     2.4721     0.1214
  178.5000   -55.9520    10.2270     6.9440     8.5155   117.0440     7.8157     0.0128     2.4721     0.1213
  179.0000   -55.9620    10.1541     6.7143     8.0559   118.5331     7.8162     0.0121     2.4714     0.1213
  179.5000   -56.2695    10.0817     6.5299     7.6164   119.4397     7.8168     0.0114     2.4714     0.1222
  180.0000   -56.5972     9.9410     6.2637     7.1597   119.7447     7.8174     0.0106     2.4699     0.1240
  180.5000   -57.0359     9.8701     6.0083     7.0593   119.8994     7.8181     0.0091     2.4654     0.1270
  181.0000   -57.3434     9.6601     5.8032     7.1064   119.5930     7.8186     0.0054     2.4494     0.1315
  181.5000   -57.7998     9.3349     5.5601     7.0547   118.8554     7.8192     0.0023     2.4370     0.1399
  182.0000   -57.6609     6.1286     5.3392     6.8134   117.6577     7.8198    -0.0005     2.4341     0.1440
  182.5000   -57.0585     5.1927     5.2647     5.5757   116.3086     7.8204     0.0002     2.4386     0.1365
  183.0000   -56.4928     4.9470     5.2997     5.3124   115.5610     7.8211     0.0025     2.4543     0.1273
  183.5000   -56.0538     8.3512     5.4091     5.6892   115.8661     7.8216     0.0040     2.4798     0.1204
  184.0000   -55.6198     9.5332     5.5588     6.2636   114.6685     7.8222     0.0078     2.4873     0.1135
  184.5000   -55.4807    10.0537     5.7192     6.8016   114.0713     7.8077     0.0100     2.4911     0.1078
  185.0000   -55.0444    10.1213     5.9932     7.2880   113.9241     7.8084     0.0115     2.4963     0.1042
  185.5000   -54.9055    10.5452     6.2017     7.6945   113.9295     7.8091     0.0123     2.5038     0.1006
  186.0000   -54.7666    10.9877     6.4619     8.0168   114.2446     7.8097     0.0123     2.5084     0.0985
  186.5000   -54.4814    11.2143     6.7330     8.2389   115.2925     7.8102     0.0123     2.5091     0.0981
  187.0000   -54.4914    10.6596     7.0155     8.4665   116.3494     7.8108     0.0116     2.5032     0.1032
  187.5000   -54.3525    10.6069     7.2180     8.6996   115.3011     7.7964     0.0109     2.4987     0.1074
  188.0000   -54.3649    11.2047     7.4601     8.8785   114.8542     7.7971     0.0086     2.4911     0.1107
  188.5000   -54.3748    11.3572     7.6140     9.0603   115.9140     7.7977     0.0071     2.4868     0.1131
  189.0000   -54.3847    11.1218     7.7182     9.3105   117.1466     7.8132     0.0064     2.4838     0.1146
  189.5000   -54.2455    11.1978     7.8769     9.5020   115.4385     7.7987     0.0072     2.4868     0.1101
  190.0000   -54.1070    11.5846     7.8748     9.6981   110.4819     7.7994     0.0087     2.4988     0.1050
  190.5000   -53.9681    11.9061     7.8726     9.8967   110.0351     7.8001     0.0094     2.5118     0.1008
  191.0000   -53.9805    11.6586     7.8701     9.9619   112.4482     7.8007     0.0110     2.5176     0.0963
  191.5000   -53.9904    11.5754     7.9230    10.0275   115.6741     7.8013     0.0110     2.5131     0.0948
  192.0000   -54.0004    11.7330     7.9204    10.0935   118.1755     7.8018     0.0117     2.5064     0.0977
  192.5000   -54.0104    12.0579     7.9736    10.0893   119.8353     7.7874     0.0118     2.4997     0.1007
  193.0000   -54.0227    11.8889     8.0816    10.0167   121.7960     7.8031     0.0118     2.4959     0.1013
  193.5000   -54.0326    12.1341     8.1353    10.0134   122.1434     7.8037     0.0125     2.5050     0.0986
  194.0000   -54.0426    12.3844     8.1327    10.0794   120.5803     7.8042     0.0140     2.5147     0.0938
  194.5000   -54.0525    12.7273     8.1873    10.2159   119.5575     7.8048     0.0148     2.5267     0.0899
  195.0000   -54.0625    12.2928     8.2988    10.3535   119.4129     7.8054     0.0156     2.5320     0.0869
  195.5000   -54.0748    12.6518     8.3540    10.4946   119.7194     7.8061     0.0156     2.5327     0.0866
  196.0000   -54.0848    12.8052     8.3512    10.7095   118.9747     7.8067     0.0163     2.5155     0.0896
  196.5000   -54.2435    12.4528     8.3484    10.7800   119.2822     7.8072     0.0164     2.5103     0.0935
  197.0000   -54.4022    12.1946     8.3462    10.7756   120.3396     7.8078     0.0164     2.5096     0.0950
  197.5000   -54.5610    12.1914     8.2867    10.5515   118.9934     7.8084     0.0164     2.5134     0.0953
  198.0000   -54.7222    11.7752     8.2845    10.3321   117.7961     7.8091     0.0157     2.5201     0.0949
  198.5000   -55.0297    11.4518     8.1689    10.1173   117.3493     7.8097     0.0157     2.5239     0.0928
  199.0000   -55.1885    11.3695     8.1667     9.9069   117.3565     7.8102     0.0157     2.5209     0.0919
  199.5000   -55.1984    11.2884     8.1079     9.6342   117.5128     7.8258     0.0165     2.5149     0.0946
  200.0000   -55.3571    11.2637     8.0354     9.3517   117.3052     7.8263     0.0165     2.5082     0.0976
  200.5000   -56.0546    11.1284     7.8447     9.1326   116.5180     7.8260     0.0165     2.5034     0.1016
  201.0000   -56.8613    11.3592     7.6540     8.9135   115.2599     7.8258     0.0165     2.4985     0.1054
  201.5000   -57.3148    11.2784     7.4592     8.6193   114.5066     7.8254     0.0158     2.4926     0.1086
  202.0000   -57.6196    10.8192     7.2554     8.3832   118.4149     7.8102     0.0150     2.4851     0.1128
  202.5000   -57.9243    10.3075     7.0086     8.0976   118.2630     7.8099     0.0150     2.4806     0.1179
  203.0000   -58.3780     9.9535     6.7703     7.7146   116.4570     7.8096     0.0151     2.4739     0.1224
