~VERSION INFORMATION
 VERS.                2.0:   CWLS LOG ASCII STANDARD - VERSION 2.0
 WRAP.                 NO:   ONE LINE PER DEPTH STEP
~WELL INFORMATION
#MNEM.UNIT      DATA TYPE    INFORMATION
#----------   ------------   ------------------------------
 STRT.F           28.0000:   START DEPTH
 STOP.F          463.0000:   STOP DEPTH
 STEP.F            0.5000:   STEP LENGTH
 NULL.          -999.2500:   NO VALUE
 COMP.    FENIX & SCISSON:   COMPANY
 WELL.  NPR-3 #74 S 10-10:   WELL
 FLD .        TEAPOT DOME:   FIELD
 LOC .      S10 T38N R78W:   LOCATION
 CNTY.            NATRONA:   COUNTY
 STAT.            WYOMING:   STATE
 CTRY. UNITED STATES OF AMERICA:   COUNTRY
 SRVC.           BIRDWELL:   SERVICE COMPANY
 DATE.        12-FEB-1978:   LOGDATE
 API .       490251057000:   API NUMBER
~CURVE INFORMATION
#MNEM.UNIT       API CODE    CURVE DESCRIPTION
#----------   ------------   ------------------------------
 DEPT.F                  :   
 ILD .OHMM   05 120 46 00:   INDUCTION LOG DEEP
 SN  .OHMM   05 040 16 00:   SHORT NORMAL 16"
 SPR .MV     05 010 01 00:   SPONTANEOUS POTENTIAL FROM RES.
 CALD.IN     45 280 60 00:   CALIPER FROM DENSITY LOG
 CORR.G/C3   45 356 01 00:   DENSITY CORRECTION
 DPHI.DEC    45 890 12 00:   DENSITY POROSITY SANDSTONE
 GRD .GAPI   45 310 01 00:   GAMMA RAY FROM DENSITY LOG
 RHOB.G/C3   45 350 01 00:   BULK DENSITY
~PARAMETER INFORMATION
#MNEM.UNIT          VALUE    DESCRIPTION
#----------   ------------   ------------------------------
 PD  .                 GL:   PERMANENT DATUM
 EPD .F              5183:   ELEVATION PERMANENT DATUM
 LMF .                 KB:   LOG MEASURED FROM
 DAPD.F                 4:   FEET ABOVE PERMANENT DATUM
 DMF .                 KB:   DRILLING MEASURED FROM
 EKB .F              5187:   KELLING BUSHING
 EGL .F              5183:   GROUND LEVEL
 DATE.        12-FEB-1978:   RUN DATE
 RUN .                  1:   RUN NUMBER
 DD  .F               465:   DEPTH DRILLER
 DL  .F               465:   DEPTH LOGGER
 BLI .F               463:   BOTTOM LOG INTERVAL
 TLI .F                40:   TOP LOG INTERVAL
 CS  .IN            8.625:   CASING SIZE
 CBD .F                39:   CASING BOTTOM DRILLER
 BS  .IN            7.875:   BIT SIZE
 BSD .F               465:   BIT SIZE AT DEPTH
 DFT .         LIGNO-SULF:   DRILLING FLUID TYPE
 DFD .                8.8:   DRILLING FLUID DENSITY
 DFV .                 34:   DRILLING FLUID VISCOSITY
 DFPH.                 10:   DRILLING FLUID PH
 DFL .                4.0:   DRILLING FLUID LOSS
 MSS .                PIT:   MUD SAMPLE SOURCE
 RMS .OHMM            1.3:   RESISTIVITY MUD SAMPLE
 MST .F                62:   MUD SAMPLE TEMPERATURE
 RMF .OHMM            1.4:   RESISTIVITY MUD FILTRATE SAMPLE
 MFST.F                62:   MUD FILTRATE SAMPLE TEMPERATURE
 MCST.F                62:   MUD CAKE SAMPLE TEMPERATURE
 MFSS.               MEAS:   MUD FILTRATE SAMPLE SOURCE
 RMB .OHMM            1.3:   RESISTIVITY MUD AT BHT
 BHT .F                62:   BOTTOM HOLE TEMPERATURE
 TCS .HRS               2:   TIME CURCULATED STOPPED
 MRT .F                70:   MAXIMUM RECORDED TEMPERATURE
 LUN .               2953:   LOGGING UNIT NUMBER
 LUL .             CASPER:   LOGGING UNIT LOCATION
 ENGI.            POINTER:   RECORDING ENGINEER
 WITN.          MC GINLEY:   WITNESSED BY
 CLNT.            A2DTECH:   CLIENT CODE
 ORIG.           5" PRINT:   ORIGIN OF DATA
 UWI .       490251057000:   UNIQUE WELL ID
 DICO. A2D Technologies, Inc.:   DIGITIZING COMPANY
~OTHER INFORMATION
~A   DEPT      ILD         SN        SPR       CALD       CORR       DPHI         GRD      RHOB   
# ...
  433.0000    13.4835    14.5690   -23.9833     8.0829     0.1405     0.0828    83.4076     2.5232
  433.5000    13.4862    14.4703   -23.9649     8.0681     0.1420     0.0771    83.7095     2.5232
  434.0000    13.5826    14.3726   -23.8016     8.0685     0.1375     0.0534    79.2001     2.5375
  434.5000    13.5854    14.3747   -23.6382     8.0537     0.1148     0.0664    78.8942     2.5706
  435.0000    13.4946    14.3767   -23.4749     8.0541     0.0770     0.0823    81.3133     2.5609
  435.5000    13.5005    14.4787   -23.1630     8.0544     0.0740     0.0862    81.7609     2.5242
  436.0000    13.5938    14.3806   -22.9996     8.0547     0.0785     0.0846    79.9582     2.5145
  436.5000    13.5873    14.2832   -22.8363     8.0850     0.0800     0.0800    75.2980     2.5175
  437.0000    13.4126    14.2852   -22.6729     8.1003     0.0724     0.0745    73.6454     2.5296
  437.5000    13.3229    14.2872   -22.6582     8.1156     0.0694     0.0748    73.7972     2.5349
  438.0000    13.2338    14.1904   -22.6434     8.1159     0.0693     0.0766    75.4528     2.5349
  438.5000    12.9655    14.1871   -22.7810     8.1162     0.0678     0.0793    80.2663     2.5327
  439.0000    12.7019    14.0962   -22.6140     8.1165     0.0663     0.0859    82.9746     2.5290
  439.5000    12.3580    13.9039   -22.5992     8.1168     0.0647     0.0892    85.6828     2.5231
  440.0000    12.3605    13.5253   -22.5845     8.1172     0.0677     0.0907    88.9926     2.5164
  440.5000    12.2778    13.2341   -22.5697     8.1175     0.0722     0.0862    92.3023     2.5140
  441.0000    12.1958    12.8714   -22.7072     8.1028     0.0784     0.0793    91.4015     2.5232
  441.5000    11.9478    12.4508   -22.6888     8.1030     0.0857     0.0763    87.8946     2.5294
  442.0000    11.7049    12.4525   -22.5255     8.0883     0.0887     0.0784    84.9383     2.5398
  442.5000    11.6261    12.4543   -22.5107     8.0735     0.0887     0.0829    84.7894     2.5284
  443.0000    11.5483    12.4560   -22.3474     8.0588     0.0887     0.0836    85.0920     2.5272
  443.5000    11.3142    12.2861   -22.1840     8.0592     0.0886     0.0814    85.0935     2.5302
  444.0000    11.0078    12.2024   -22.1693     8.0745     0.0886     0.0793    86.4483     2.5325
  444.5000    10.8588    12.1198   -22.1545     8.0748     0.0916     0.0776    87.3521     2.5333
  445.0000    10.7113    12.0377   -22.1397     8.0601     0.0931     0.0773    87.6543     2.5341
  445.5000    10.6397    11.9561   -22.1248     8.0604     0.0945     0.0791    88.1069     2.5342
  446.0000    10.4240    11.7934   -22.2589     8.0607     0.0945     0.0815    88.7099     2.5312
  446.5000    10.3543    11.7951   -22.2441     8.0610     0.0975     0.0800    89.1625     2.5328
  447.0000    10.2142    11.7148   -22.5266     8.0613     0.0975     0.0782    88.7128     2.5328
  447.5000    10.1458    11.6354   -22.5111     8.0616     0.0989     0.0785    85.1053     2.5299
  448.0000    10.1480    11.5566   -22.6457     8.0619     0.0989     0.0740    85.1068     2.5382
  448.5000    10.1500    11.5586   -22.7795     8.0772     0.0989     0.0602    85.5749     2.5480
  449.0000    10.1521    11.5602   -22.7611     8.0925     0.0943     0.0683    86.3399     2.5574
  449.5000    10.1542    11.4814   -22.5977     8.1078     0.0898     0.0668    87.3672     2.5496
  450.0000     9.8794    11.4037   -22.5830     8.1231     0.0867     0.0728    89.6243     2.5519
  450.5000     9.8814    11.2481   -22.5682     8.1234     0.0837     0.0782    91.7310     2.5542
  451.0000     9.6806    11.1719   -22.5535     8.1237     0.0836     0.0693    95.1912     2.5451
  451.5000     9.6153    10.9438   -22.5387     8.1240     0.0851     0.0693    91.7340     2.5423
  452.0000     9.4204    10.7945   -22.6763     8.1393     0.0851     0.0732    87.3742     2.5515
  452.5000     9.3573    10.7210   -22.6578     8.1396     0.0867     0.0816    89.6317     2.5424
  453.0000     9.1671    10.5751   -22.6431     8.1249     0.0941     0.0738    99.7084     2.5364
  453.5000     9.0431    10.5766   -22.6300     8.1225     0.1001     0.0674    91.4226     2.5447
  454.0000     8.9207    10.5780   -22.6136     8.1105     0.1016     0.0660    90.5476     2.5500
  454.5000     8.8611    10.5064   -22.5988  -999.2500     0.0985     0.0657  -999.2500     2.5546
  455.0000     8.8629    10.5078   -22.5841  -999.2500     0.0940     0.0657  -999.2500     2.5636
  455.5000     8.9263    10.3645   -22.5693  -999.2500     0.0864     0.0669  -999.2500     2.5554
  456.0000     8.9942     9.6714   -22.5546  -999.2500     0.0788     0.0690  -999.2500     2.5517
  456.5000     9.0543     9.1481   -22.5398  -999.2500     0.0788     0.0672  -999.2500     2.5495
  457.0000     8.8702     9.3443   -22.6774  -999.2500     0.0789     0.0681  -999.2500     2.5496
  457.5000     8.6103     9.2810   -22.8112  -999.2500     0.0757     0.0696  -999.2500     2.5519
  458.0000     8.3963     9.2181   -22.7935  -999.2500     0.0573     0.0801  -999.2500     2.5407
  458.5000  -999.2500  -999.2500  -999.2500  -999.2500     0.0530     0.0879  -999.2500     2.5250
  459.0000  -999.2500  -999.2500  -999.2500  -999.2500     0.0560     0.0895  -999.2500     2.5153
  459.5000  -999.2500  -999.2500  -999.2500  -999.2500     0.0575     0.0889  -999.2500     2.5161
  460.0000  -999.2500  -999.2500  -999.2500  -999.2500     0.0575     0.0849  -999.2500     2.5266
  460.5000  -999.2500  -999.2500  -999.2500  -999.2500     0.0574     0.0679  -999.2500     2.5499
  461.0000  -999.2500  -999.2500  -999.2500  -999.2500     0.0574     0.0682  -999.2500     2.5500
  461.5000  -999.2500  -999.2500  -999.2500  -999.2500     0.0574     0.0682  -999.2500     2.5500
  462.0000  -999.2500  -999.2500  -999.2500  -999.2500     0.0573     0.0676  -999.2500     2.5501
  462.5000  -999.2500  -999.2500  -999.2500  -999.2500     0.0573     0.0667  -999.2500     2.5501
  463.0000  -999.2500  -999.2500  -999.2500  -999.2500     0.0573     0.0652  -999.2500     2.5502
