~VERSION INFORMATION
 VERS.                2.0:   CWLS LOG ASCII STANDARD - VERSION 2.0
 WRAP.                 NO:   ONE LINE PER DEPTH STEP
~WELL INFORMATION
#MNEM.UNIT      DATA TYPE    INFORMATION
#----------   ------------   ------------------------------
 STRT.F           20.0000:   START DEPTH
 STOP.F         1363.5000:   STOP DEPTH
 STEP.F            0.5000:   STEP LENGTH
 NULL.          -999.2500:   NO VALUE
 COMP.   FLUOR DANIEL INC:   COMPANY
 WELL.   NPR 3 "S" #83-14:   WELL
 FLD .             TEAPOT:   FIELD
 LOC .      S14 T38N R78W:   LOCATION
 CNTY.            NATRONA:   COUNTY
 STAT.            WYOMING:   STATE
 CTRY. UNITED STATES OF AMERICA:   COUNTRY
 SRVC. Schlumberger Well Surveying Corp:   SERVICE COMPANY
 DATE.        22-AUG-1966:   LOGDATE
 API .       490250971000:   API NUMBER
~CURVE INFORMATION
#MNEM.UNIT       API CODE    CURVE DESCRIPTION
#----------   ------------   ------------------------------
 DEPT.F                  :   
 SPR .MV     05 010 01 00:   SPONTANEOUS POTENTIAL FROM RES.
 ASN .OHMM   05 041 16 00:   AMPLIFIED SHORT NORMAL 16"
 CILD.MMHO   05 110 00 00:   CONDUCTIVITY INDUCTION LOG
 ILD .OHMM   05 120 46 00:   INDUCTION LOG DEEP
 CALD.IN     45 280 60 00:   CALIPER
 GRD .GAPI   45 310 01 00:   GAMMA RAY FROM DENSITY LOG
 CORR.G/C3   45 356 01 00:   DENSITY CORRECTION
 RHOB.G/C3   45 350 01 00:   BULK DENSITY
 DPOR.DEC    45 890 12 00:   DENSITY POROSITY SANDSTONE
~PARAMETER INFORMATION
#MNEM.UNIT          VALUE    DESCRIPTION
#----------   ------------   ------------------------------
 PD  .                 GL:   PERMANENT DATUM
 EPD .F              5300:   ELEVATION PERMANENT DATUM
 LMF .                 KB:   LOG MEASURED FROM
 DAPD.F                 5:   FEET ABOVE PERMANENT DATUM
 DMF .                 KB:   DRILLING MEASURED FROM
 EKB .F              5305:   KELLING BUSHING
 EGL .F              5300:   GROUND LEVEL
 DATE.          8-22-1966:   RUN DATE
 RUN .                  1:   RUN NUMBER
 DD  .F              1365:   DEPTH DRILLER
 DL  .F              1363:   DEPTH LOGGER
 BLI .F              1362:   BOTTOM LOG INTERVAL
 TLI .F                20:   TOP LOG INTERVAL
 CS  .IN            8.625:   CASING SIZE
 CBD .F                15:   CASING BOTTOM DRILLER
 CBL .F                20:   CASING BOTTOM LOGGER
 BS  .IN            7.875:   BIT SIZE
 BSD .F              1365:   BIT SIZE AT DEPTH
 DFT .           GEL-CHEM:   DRILLING FLUID TYPE
 DFD .                 10:   DRILLING FLUID DENSITY
 DFV .                 55:   DRILLING FLUID VISCOSITY
 DFL .                  8:   DRILLING FLUID LOSS
 MSS .          FLOW LINE:   MUD SAMPLE SOURCE
 RMS .OHMM           1.86:   RESISTIVITY MUD SAMPLE
 MST .F                73:   MUD SAMPLE TEMPERATURE
 RMF .OHMM           1.13:   RESISTIVITY MUD FILTRATE SAMPLE
 MFST.F                70:   MUD FILTRATE SAMPLE TEMPERATURE
 MFSS.                  M:   MUD FILTRATE SAMPLE SOURCE
 RMB .OHMM           1.32:   RESISTIVITY MUD AT BHT
 BHT .F               102:   BOTTOM HOLE TEMPERATURE
 TCS .HRS               1:   TIME CURCULATED STOPPED
 MRT .F               102:   MAXIMUM RECORDED TEMPERATURE
 LUN .               3527:   LOGGING UNIT NUMBER
 LUL .               CSPR:   LOGGING UNIT LOCATION
 ENGI.          TOLLEFSON:   RECORDING ENGINEER
 WITN.         MAY/TUTTLE:   WITNESSED BY
 CLNT.            A2DTECH:   CLIENT CODE
 ORIG.       2", 5" PRINT:   ORIGIN OF DATA
 UWI .       490250971000:   UNIQUE WELL ID
 DICO. A2D Technologies, Inc.:   DIGITIZING COMPANY
~OTHER INFORMATION
~A   DEPT       SPR       ASN         CILD      ILD         CALD       GRD       CORR        RHOB     DPOR   
# ...
 1261.0000   -55.1001    13.7866    91.7709    10.3427     7.8465    80.1020     0.0236     2.4004     0.1526
 1261.5000   -55.0101    13.7131    92.1882    10.1815     7.8437    81.1207     0.0276     2.4100     0.1386
 1262.0000   -54.1296    13.6404    92.5948    10.0236     7.8408    83.8353     0.0286     2.4197     0.1439
 1262.5000   -53.2869    13.3477    94.0652     9.8669     7.8378    87.6451     0.0293     2.3937     0.1522
 1263.0000   -52.6068    13.0406    95.7698     9.7102     7.8350    90.0785     0.0306     2.3987     0.1562
 1263.5000   -52.1501    12.7377    97.4795     9.5533     7.8320    90.4658     0.0305     2.4081     0.1519
 1264.0000   -51.6909    12.5481    99.1888     9.3958     7.8299    88.3482     0.0366     2.4249     0.1522
 1264.5000   -51.2300    12.5502   100.8974     9.2530     7.8312    84.1217     0.0433     2.4618     0.1155
 1265.0000   -50.8093    12.5498   102.6052     9.2770     7.8525    86.2169     0.0325     2.4343     0.1340
 1265.5000   -50.9658    12.5500   103.7074     9.3041     7.8789    87.3077     0.0217     2.4580     0.1324
 1266.0000   -51.5641    12.5500   103.5616     9.3307     7.9049    87.6336     0.0183     2.4489     0.1261
 1266.5000   -51.7029    12.5500   102.8875     9.3651     7.9285    84.6641     0.0161     2.4319     0.1359
 1267.0000   -51.1657    12.5500   102.2134     9.4310     7.9331    82.3951     0.0138     2.4143     0.1445
 1267.5000   -50.6236    12.5500   101.5393     9.4949     7.9358    83.3403     0.0113     2.4037     0.1491
 1268.0000   -50.6960    12.5500   100.8651     9.5587     7.9386    81.7869     0.0117     2.4098     0.1506
 1268.5000   -50.8346    12.5500   100.1910     9.6227     7.9414    75.6053     0.0204     2.4289     0.1414
 1269.0000   -50.9706    12.5500    99.5169     9.6870     7.9442    74.8405     0.0294     2.4463     0.1327
 1269.5000   -51.1058    12.5500    98.8428     9.7477     7.9469    76.8522     0.0379     2.4651     0.1227
 1270.0000   -51.2410    12.5500    98.1687     9.7289     7.9495    77.5433     0.0474     2.4935     0.1094
 1270.5000   -51.3759    12.5500    97.6954     9.7069     7.9434    77.9010     0.0391     2.4880     0.1139
 1271.0000   -51.5050    12.5501    98.2612     9.6854     7.9352    80.5425     0.0141     2.4693     0.1198
 1271.5000   -51.6525    12.5507    99.0378     9.6638     7.9272    83.9165     0.0069     2.4483     0.1302
 1272.0000   -51.8285    12.5462    99.8143     9.6423     7.9193    85.5128     0.0367     2.4595     0.1254
 1272.5000   -51.8878    12.4581   100.5909     9.6208     7.9111    83.0356     0.0317     2.4082     0.1225
 1273.0000   -51.9385    12.3710   101.3674     9.5994     7.9036    82.3999     0.0181     2.4111     0.1401
 1273.5000   -51.9932    12.2846   102.1440     9.5779     7.8943    81.2265     0.0281     2.4369     0.1245
 1274.0000   -51.8320    12.1982   102.9205     9.5567     7.8924    80.1199     0.0424     2.4453     0.1266
 1274.5000   -51.5993    12.1118   103.6971     9.4799     7.9027    79.8222     0.0309     2.4222     0.1400
 1275.0000   -51.6534    12.0254   104.4736     9.3814     7.9116    80.0385     0.0140     2.4052     0.1510
 1275.5000   -51.7588    11.9390   105.2502     9.2825     7.9215    79.9267     0.0046     2.3835     0.1635
 1276.0000   -51.8058    11.8526   106.0268     9.1835     7.9293    78.2322     0.0086     2.3867     0.1579
 1276.5000   -51.5452    11.7662   106.8033     9.0849     7.9287    76.0458     0.0188     2.4312     0.1420
 1277.0000   -51.1380    11.6798   107.5799     8.9851     7.9273    77.3116     0.0276     2.4456     0.1263
 1277.5000   -50.7276    11.5934   108.7174     8.9558     7.9260    80.7325     0.0382     2.4369     0.1320
 1278.0000   -50.3924    11.5498   108.6562     8.9636     7.9247    83.4902     0.0440     2.4447     0.1260
 1278.5000   -50.4005    11.5592   108.6010     8.9721     7.9233    86.7340     0.0376     2.4378     0.1290
 1279.0000   -50.4001    11.5717   108.5414     8.9807     7.9220    90.6773     0.0308     2.4292     0.1351
 1279.5000   -50.3456    11.5843   108.4840     8.9891     7.9206    90.0073     0.0233     2.4335     0.1318
 1280.0000   -50.1819    11.5969   108.4266     8.9975     7.9193    86.3213     0.0179     2.4601     0.1264
 1280.5000   -50.0199    11.6095   108.3692     9.0059     7.9180    81.6286     0.0243     2.4562     0.1229
 1281.0000   -49.8576    11.6220   108.3118     9.0144     7.9166    82.4345     0.0300     2.4412     0.1257
 1281.5000   -49.6954    11.6346   108.2544     9.0228     7.9153    84.3073     0.0262     2.4456     0.1271
 1282.0000   -49.5332    11.6474   108.1971     9.0312     7.9140    84.9582     0.0197     2.4552     0.1226
 1282.5000   -49.3711    11.6541   108.1396     9.0397     7.9126    85.3244     0.0360     2.4713     0.1160
 1283.0000   -49.2089    11.6611   108.0823     9.0481     7.9113    85.7290     0.0488     2.4921     0.1072
 1283.5000   -49.0467    11.6681   108.0248     9.0565     7.9106    85.9570     0.0416     2.5122     0.1005
 1284.0000   -48.8845    11.6751   107.9675     9.0650     7.9171    85.2726     0.0600     2.4809     0.1128
 1284.5000   -48.7223    11.6822   107.9101     9.0734     7.9246    84.4399     0.0542     2.4439     0.1278
 1285.0000   -48.5591    11.6892   107.8527     9.0818     7.9321    84.2195     0.0386     2.4517     0.1258
 1285.5000   -48.4017    11.6962   107.7953     9.0903     7.9393    84.0953     0.0256     2.4664     0.1196
 1286.0000   -48.3790    11.7032   107.7400     9.0987     7.9470    84.3905     0.0149     2.4774     0.1146
 1286.5000   -48.3531    11.7103   107.5901     9.1071     7.9503    85.5018     0.0149     2.4632     0.1198
 1287.0000   -48.3262    11.7173   107.2912     9.1156     7.9499    88.0655     0.0149     2.4867     0.1129
 1287.5000   -48.2992    11.7243   106.9923     9.1240     7.9501    92.4306     0.0155     2.4997     0.1043
 1288.0000   -48.2721    11.7314   106.6934     9.1324     7.9500    91.1562     0.0159     2.4952     0.1091
 1288.5000   -48.2452    11.7384   106.3945     9.1410     7.9500    83.6374     0.0254     2.5070     0.1052
 1289.0000   -48.2186    11.7455   106.0956     9.1495     7.9500    81.0088     0.0279     2.5042     0.0994
 1289.5000   -48.2037    11.7495   105.7967     9.1373     7.9500    80.9744     0.0254     2.5137     0.1017
 1290.0000   -47.8746    11.7212   105.4978     9.1231     7.9500    82.3704     0.0398     2.4917     0.1056
 1290.5000   -47.5915    11.6911   105.1989     9.1090     7.9500    83.6547     0.0327     2.4943     0.1091
 1291.0000   -47.6694    11.6611   104.9000     9.0950     7.9500    84.0914     0.0170     2.5205     0.1000
 1291.5000   -47.7523    11.6312   104.9303     9.0809     7.9500    83.8688     0.0198     2.4943     0.1082
 1292.0000   -47.7833    11.6012   105.5395     9.0668     7.9500    83.7638     0.0323     2.5003     0.1044
 1292.5000   -47.4898    11.5713   106.1482     9.0528     7.9500    83.6986     0.0399     2.5246     0.0978
 1293.0000   -47.2038    11.5414   106.7581     9.0387     7.9500    84.1205     0.0341     2.5134     0.1003
 1293.5000   -47.2634    11.5114   107.3674     9.0247     7.9500    85.0864     0.0390     2.4958     0.1043
 1294.0000   -47.3801    11.4815   107.9767     9.0106     7.9500    86.7340     0.0421     2.5031     0.1074
 1294.5000   -47.3162    11.4515   108.5860     8.9966     7.9500    87.1907     0.0298     2.5109     0.1018
 1295.0000   -47.0488    11.4216   109.1953     8.9825     7.9500    85.4320     0.0207     2.5001     0.1066
 1295.5000   -46.7859    11.3917   109.8046     8.9684     7.9500    85.9181     0.0277     2.5140     0.0936
 1296.0000   -46.5895    11.3617   110.4162     8.9544     7.9500    86.2835     0.0358     2.5096     0.0860
 1296.5000   -46.5925    11.3317   110.7230     8.9386     7.9500    85.3796     0.0478     2.4947     0.0940
 1297.0000   -46.5953    11.3017   110.3379     8.9223     7.9501    86.5337     0.0372     2.5154     0.1013
