~VERSION INFORMATION
 VERS.                2.0:   CWLS LOG ASCII STANDARD - VERSION 2.0
 WRAP.                 NO:   ONE LINE PER DEPTH STEP
~WELL INFORMATION
#MNEM.UNIT      DATA TYPE    INFORMATION
#----------   ------------   ------------------------------
 STRT.F           80.0000:   START DEPTH
 STOP.F          660.0000:   STOP DEPTH
 STEP.F            0.5000:   STEP LENGTH
 NULL.          -999.2500:   NO VALUE
 COMP. U S NAVY-INTEX OIL:   COMPANY
 WELL.    NPR #3 #34 S-11:   WELL
 FLD .             TEAPOT:   FIELD
 LOC .      S11 T38N R78W:   LOCATION
 CNTY.            NATRONA:   COUNTY
 STAT.            WYOMING:   STATE
 CTRY. UNITED STATES OF AMERICA:   COUNTRY
 SRVC.       Schlumberger:   SERVICE COMPANY
 DATE.        10-JUL-1962:   LOGDATE
 API .       490250635000:   API NUMBER
~CURVE INFORMATION
#MNEM.UNIT       API CODE    CURVE DESCRIPTION
#----------   ------------   ------------------------------
 DEPT.F                  :   
 SPR .MV     05 010 01 00:   SPONTANEOUS POTENTIAL FROM RES.
 ASN .OHMM   05 041 16 00:   AMPLIFIED SHORT NORMAL 16"
 ILD .OHMM   05 120 46 00:   INDUCTION LOG DEEP
 GR  .GAPI   30 310 01 00:   GAMMA RAY
 CALM.IN     15 280 01 00:   CALIPER FROM MICRO LOG
 CILD.MMHO   05 110 46 00:   CONDUCTIVITY INDUCTION LOG DEEP
~PARAMETER INFORMATION
#MNEM.UNIT          VALUE    DESCRIPTION
#----------   ------------   ------------------------------
 CLNT.            A2DTECH:   CLIENT CODE
 UWI .       490250635000:   UNIQUE WELL ID
 DICO. A2D Technologies, Inc.:   DIGITIZING COMPANY
~OTHER INFORMATION
~A   DEPT      SPR        ASN        ILD         GR       CALM        CILD  
# ...
  496.0000   -64.2569     6.5489     5.0158   144.5100     7.7400   184.1290
  496.5000   -64.2523     6.8296     5.5399   150.7984     7.7394   159.3240
  497.0000   -64.4009     7.0570     5.9893   155.6449     7.7387   150.3323
  497.5000   -64.5493     7.4666     6.4388   155.8728     7.7381   142.0936
  498.0000   -65.0035     7.7548     6.7412   143.1202     7.7375   134.5276
  498.5000   -65.6095     7.9367     7.1111   138.5603     7.7369   128.4442
  499.0000   -65.9108     8.0731     7.2576   127.9336     7.7363   123.4126
  499.5000   -65.9063     8.1944     7.3303   131.1128     7.7357   121.1979
  500.0000   -65.9508     8.3277     7.4105   137.2596     7.7351   120.3072
  500.5000   -66.2167     8.4009     7.5129   133.3708     7.7338   119.8191
  501.0000   -65.9166     8.4779     7.6206   126.3785     7.7326   119.3310
  501.5000   -65.4673     8.4756     7.6169   131.5257     7.7162   118.8429
  502.0000   -64.8632     8.5189     7.6888   138.3421     7.6998   118.3548
  502.5000   -64.5630     8.5774     7.6850   145.4621     7.6681   117.8667
  503.0000   -64.4176     8.6213     7.7568   146.8187     7.6365   117.6915
  503.5000   -64.2723     8.6488     7.7530   144.9827     7.6200   117.7377
  504.0000   -64.1284     8.6464     7.7492   134.8036     7.5732   118.5277
  504.5000   -64.2892     8.6286     7.5937   121.2862     7.5720   119.3176
  505.0000   -64.2968     8.5808     7.5144   110.5003     7.5251   120.8606
  505.5000   -64.3043     8.5179     7.5872   127.7871     7.5087   121.6505
  506.0000   -64.4648     8.4397     7.8091   127.1680     7.4922   120.9338
  506.5000   -64.6254     8.4375     8.1084   110.1605     7.4606   118.7124
  507.0000   -64.6330     8.5263     8.4814   103.0164     7.4441   114.8744
  507.5000   -64.7950     8.7517     8.7052   108.4671     7.4277   109.6384
  508.0000   -64.9555     9.0529     8.7006   121.6569     7.4098   105.2782
  508.5000   -65.1159     9.2024     8.3947   112.5401     7.3796   108.3272
  509.0000   -65.1234     9.2311     7.9378   124.5158     7.3784   115.1413
  509.5000   -65.1310     9.1676     7.1788   133.4567     7.3619   130.2384
  510.0000   -65.1385     9.0591     6.3443   139.3627     7.3453   150.6067
  510.5000   -65.1460     8.4347     5.5853   145.8831     7.3441   171.7280
  511.0000   -65.1536     7.6932     4.9773   143.4709     7.3276   182.3071
  511.5000   -64.8534     6.6361     5.0526   134.3186     7.3264   185.3561
  512.0000   -64.5570     6.4098     5.4391   116.8560     7.3252   180.8750
  512.5000   -63.4942     6.6802     5.4192   123.6722     7.3240   178.6521
  513.0000   -62.7370     6.4958     5.4911   129.1232     7.3228   180.1958
  513.5000   -63.6622     6.7515     5.6376   109.3409     7.3216   179.4283
  514.0000   -64.5892     8.0088     6.0115   111.8001     7.3204   173.8074
  514.5000   -64.9006     9.0688     6.9141   118.2522     7.3192   145.6774
  515.0000   -65.3670     9.6128     8.4210   124.6742     7.3180   113.3348
  515.5000   -65.3761     9.9834     9.2480   115.9969     7.3167    99.0645
  516.0000   -65.3837    10.4733     9.8486   110.6865     7.3155    88.5593
  516.5000   -65.5441    10.6987    10.0714   102.9384     7.3143    86.3279
  517.0000   -65.5516    10.7724     9.9166   115.3664     7.3131    90.1392
  517.5000   -65.5592    10.7700     9.6108   118.8445     7.3119    93.9412
  518.0000   -65.5667    10.7678     9.2294   115.1935     7.3107    96.9902
  518.5000   -65.7271    10.7656     9.2173   107.4394     7.3095    97.0271
  519.0000   -65.7347    10.8392     9.4486    98.1709     7.3083    95.5580
  519.5000   -65.5874    10.9990     9.8230    77.0662     7.3071    92.5829
  520.0000   -65.4439    11.4411    10.1259    61.5761     7.2906    88.0019
  520.5000   -65.4515    12.1217    10.7309    45.1756     7.2742    80.2859
  521.0000   -65.9177    13.1817    11.6802    35.7553     7.2426    71.6187
  521.5000   -66.3840    15.2280    13.5831    21.9344     7.2261    65.6315
  522.0000   -67.3089    17.1985    15.2410    12.3624     7.2097    57.3853
  522.5000   -68.8608    19.8518    16.5968     6.2835     7.1780    51.3982
  523.0000   -70.8837    21.2911    18.4813    16.2836     7.1616    45.4110
  523.5000   -73.2597    23.4133    20.0637    24.9209     7.1452    40.1769
  524.0000   -76.6682    26.2183    21.6461    34.4688     7.1440    35.6957
  524.5000   -77.1344    27.1266    23.9838    33.5462     7.1580    31.9676
  525.0000   -76.0716    27.3520    25.2640    39.9074     7.1872    31.2500
  525.5000   -74.8559    27.4256    24.8827    49.4583     7.2325    31.2885
  526.0000   -74.7086    27.0440    23.5950    50.9607     7.3074    33.5845
  526.5000   -75.0238    27.0417    23.0625    57.6253     7.3358    36.6341
  527.0000   -75.4901    27.4189    22.8322    60.0442     7.3025    36.6717
  527.5000   -77.0267    27.4165    22.6775    49.7104     7.2116    35.9543
  528.0000   -77.4929    26.8827    22.4451    49.2461     7.1446    35.2383
  528.5000   -76.5830    25.8941    22.2857    53.7864     7.0693    35.2844
  529.0000   -76.1319    25.3608    22.1375    39.9625     7.0250    35.3214
  529.5000   -76.1394    25.5862    21.9819    36.3115     7.0238    36.1113
  530.0000   -76.4527    25.5839    21.7516    42.9762     7.0381    37.6543
  530.5000   -76.7661    25.2782    20.9926    30.0628     7.0671    39.1973
  531.0000   -76.7737    24.7448    20.1580    28.0780     7.0963    41.4932
  531.5000   -76.6111    23.3010    19.4746    36.1084     7.1407    43.0362
  532.0000   -76.1508    22.1607    18.7911    47.3254     7.0939    44.5792
  532.5000   -75.5748    21.0204    18.2587    61.1222     7.0318    46.8752
  533.0000   -74.8178    21.0940    17.8018    57.7717     7.0306    48.4187
  533.5000   -74.3667    22.0022    17.3449    54.8764     7.0294    49.9624
  534.0000   -74.0665    22.3035    16.9635    43.4835     7.0437    50.7603
  534.5000   -73.4643    21.6156    16.6577    46.3545     7.0726    51.5502
  535.0000   -72.7073    21.0091    16.6540    55.5989     7.0714    50.0719
  535.5000   -72.2542    21.0192    16.8768    49.8205     7.0702    47.1060
  536.0000   -72.8753    21.3835    17.3263    41.4624     7.0385    45.6277
  536.5000   -73.3415    21.9123    18.0848    39.0224     7.0069    44.1586
  537.0000   -73.6549    22.5171    19.3067    34.9439     7.0057    41.9458
  537.5000   -73.6624    23.1977    20.6130    34.4459     6.9892    39.7237
  538.0000   -73.5168    24.1059    21.8422    36.8720     6.9576    38.2546
  538.5000   -73.6775    24.2560    22.3672    35.1654     6.8955    36.7855
  539.0000   -74.3028    23.1910    22.8166    31.5265     6.8794    35.3162
  539.5000   -75.7141    25.1614    23.0395    36.6737     6.9996    33.8474
  540.0000   -77.6249    26.7525    23.3379    37.8756     7.1811    33.1313
  540.5000   -78.1418    27.1302    23.4861    35.7086     7.3168    33.9305
  541.0000   -76.9280    25.5341    23.2549    35.4235     7.3766    34.7204
  541.5000   -75.1007    23.7868    22.2693    32.7784     7.3906    36.2634
  542.0000   -73.1204    22.5706    20.9816    36.7952     7.3741    38.5594
  542.5000   -72.3616    21.5819    20.4492    32.3523     7.3729    40.1024
  543.0000   -73.2884    21.6556    19.9168    43.8574     7.3717    41.6453
  543.5000   -73.9076    21.5774    19.3843    43.1020     7.3705    43.9413
  544.0000   -74.3738    21.4229    19.0785    49.1087     7.3693    46.2373
  544.5000   -74.3813    21.0413    18.6966    60.1639     7.3680    48.5333
  545.0000   -74.3889    20.6597    18.3057    67.1928     7.3668    50.0762
  545.5000   -74.2416    20.1264    17.7545    77.6515     7.3656    50.8662
  546.0000   -73.7923    19.5172    17.1470    62.1584     7.3644    51.6566
  546.5000   -73.1882    18.9079    16.5665    64.7260     7.3632    51.7921
  547.0000   -72.1254    18.1470    16.1852    68.6593     7.3619    52.4923
  547.5000   -71.6692    17.6895    15.9548    75.3240     7.3605    52.5292
