~VERSION INFORMATION
 VERS.                2.0:   CWLS LOG ASCII STANDARD - VERSION 2.0
 WRAP.                 NO:   ONE LINE PER DEPTH STEP
~WELL INFORMATION
#MNEM.UNIT      DATA TYPE    INFORMATION
#----------   ------------   ------------------------------
 STRT.F           30.0000:   START DEPTH
 STOP.F         2432.5000:   STOP DEPTH
 STEP.F            0.5000:   STEP LENGTH
 NULL.          -999.2500:   NO VALUE
 COMP. FENIX & SCISSON INC:   COMPANY
 WELL.     72 SHX 4 #72-4:   WELL
 FLD .             TEAPOT:   FIELD
 LOC .       S4 T38N R78W:   LOCATION
 CNTY.            NATRONA:   COUNTY
 STAT.            WYOMING:   STATE
 CTRY. UNITED STATES OF AMERICA:   COUNTRY
 SRVC.           BIRDWELL:   SERVICE COMPANY
 DATE.        05-MAR-1979:   LOGDATE
 API .       490251074300:   API NUMBER
~CURVE INFORMATION
#MNEM.UNIT       API CODE    CURVE DESCRIPTION
#----------   ------------   ------------------------------
 DEPT.F                  :   
 SPR .MV     05 010 01 00:   SPONTANEOUS POTENTIAL FROM RES.
 SN  .OHMM   05 040 16 00:   SHORT NORMAL 16"
 ILD .OHMM   05 120 46 00:   INDUCTION LOG DEEP
 CALD.IN     45 280 60 00:   CALIPER
 GRD .GAPI   45 310 01 00:   GAMMA RAY FROM DENSITY LOG
 RHOB.G/C3   45 350 01 00:   BULK DENSITY
 CORR.G/C3   45 356 01 00:   DENSITY CORRECTION
 DPHI.DEC    45 890 12 00:   DENSITY POROSITY SANDSTONE
~PARAMETER INFORMATION
#MNEM.UNIT          VALUE    DESCRIPTION
#----------   ------------   ------------------------------
 PD  .                 GL:   PERMANENT DATUM
 EPD .F              5194:   ELEVATION PERMANENT DATUM
 LMF .                 KB:   LOG MEASURED FROM
 DAPD.F                10:   FEET ABOVE PERMANENT DATUM
 DMF .                 KB:   DRILLING MEASURED FROM
 EKB .F              5204:   KELLING BUSHING
 EGL .F              5194:   GROUND LEVEL
 DATE.             3-5-79:   RUN DATE
 RUN .                  1:   RUN NUMBER
 DD  .F              2560:   DEPTH DRILLER
 DL  .F              2432:   DEPTH LOGGER
 BLI .F              2432:   BOTTOM LOG INTERVAL
 TLI .F               400:   TOP LOG INTERVAL
 CS  .IN            9.625:   CASING SIZE
 CBD .F               685:   CASING BOTTOM DRILLER
 CBL .F               685:   CASING BOTTOM LOGGER
 BS  .IN             8.75:   BIT SIZE
 BSD .F              2560:   BIT SIZE AT DEPTH
 DFT .                AIR:   DRILLING FLUID TYPE
 TCS .HRS               5:   TIME CURCULATED STOPPED
 LUN .               3006:   LOGGING UNIT NUMBER
 LUL .             CASPER:   LOGGING UNIT LOCATION
 ENGI.         B. ROLLINS:   RECORDING ENGINEER
 WITN.           DINSMORE:   WITNESSED BY
 CLNT.            A2DTECH:   CLIENT CODE
 ORIG.           5" PRINT:   ORIGIN OF DATA
 UWI .       490251074300:   UNIQUE WELL ID
 DICO. A2D Technologies, Inc.:   DIGITIZING COMPANY
~OTHER INFORMATION
~A   DEPT      SPR         SN        ILD        CALD       GRD       RHOB         CORR      DPHI  
# ...
  354.0000   -37.8381     5.4013     6.6155    12.4321    82.2423     2.1763     0.2719     0.2720
  354.5000   -37.9586     5.4336     6.6005    12.4286    82.0182     2.2337     0.2641     0.2527
  355.0000   -38.0785     5.4661     6.5922    12.4138    81.6244     2.3071     0.2150     0.2463
  355.5000   -38.1982     5.4988     6.7736    12.4131    81.2291     2.2945     0.1893     0.2481
  356.0000   -38.3180     5.5317     6.9020    12.4133    80.8262     2.2826     0.2154     0.2499
  356.5000   -38.4378     5.5648     7.0330    12.4133    80.2403     2.3311     0.2678     0.2148
  357.0000   -38.5577     5.5981     7.1666    12.4133    79.4123     2.3847     0.3205     0.1764
  357.5000   -38.6792     5.6316     7.3024    12.4133    78.7192     2.4149     0.3741     0.1373
  358.0000   -38.7991     5.6653     7.4307    12.4133    83.1857     2.4464     0.4386     0.1366
  358.5000   -38.8041     5.6889     7.3912    12.4133    88.1043     2.4761     0.5283     0.1480
  359.0000   -38.1289     5.6658     7.3545    12.4133    89.6430     2.4423     0.5666     0.1639
  359.5000   -38.2990     5.6451     7.3181    12.4133    84.1584     2.4233     0.5494     0.1637
  360.0000   -38.5120     5.5342     7.2818    12.4133    80.6685     2.4225     0.5213     0.1883
  360.5000   -38.6991     5.3671     7.2457    12.4133    84.2698     2.3838     0.5040     0.2272
  361.0000   -38.7009     5.2050     7.2098    12.4133    87.6392     2.3397     0.5117     0.2659
  361.5000   -38.7004     5.1682     7.1743    12.4131    85.1937     2.2434     0.4433     0.3000
  362.0000   -38.7004     5.1459     7.1384    12.4301    82.7225     2.0953     0.3767     0.3000
  362.5000   -38.6976     5.1236     7.1031    12.4576    84.8477     2.0000     0.3191     0.3000
  363.0000   -38.5636     5.1014     6.7369    12.4853    87.5296     2.0000     0.3231     0.3000
  363.5000   -38.2723     4.9640     6.3166    12.5131    88.8975     2.0000     0.3455     0.3000
  364.0000   -37.9819     4.7705     5.9226    12.5408    86.4542     2.0004     0.3964     0.3000
  364.5000   -37.6911     4.5845     5.5339    12.5695    81.7342     2.0728     0.4467     0.3000
  365.0000   -37.3998     4.4364     5.5656    12.5595    80.9382     2.1468     0.4856     0.3000
  365.5000   -37.4069     4.4352     5.6228    12.5401    84.4684     2.1887     0.4835     0.2924
  366.0000   -37.6456     4.5679     5.6806    12.5205    87.5601     2.2072     0.4229     0.2601
  366.5000   -37.6439     4.7325     5.7390    12.5010    90.6345     2.2719     0.3807     0.2281
  367.0000   -37.5419     4.9036     5.7980    12.4816    93.4107     2.3358     0.3510     0.2000
  367.5000   -37.5647     5.0807     5.8932    12.4620    93.0256     2.3997     0.4131     0.1809
  368.0000   -37.7211     5.2642     6.1926    12.4611    92.4276     2.4443     0.4722     0.1679
  368.5000   -37.8774     5.4543     6.5071    12.4739    92.5450     2.4288     0.4695     0.1683
  369.0000   -38.0340     5.6512     6.8376    12.4868    92.9115     2.4118     0.3612     0.1803
  369.5000   -38.1904     5.8055     7.1849    12.4924    92.8253     2.3936     0.2952     0.1951
  370.0000   -38.3469     5.8426     7.4995    12.4850    92.1619     2.3792     0.3003     0.1763
  370.5000   -38.5033     5.8798     7.4995    12.4779    91.5025     2.4419     0.3092     0.1529
  371.0000   -38.6597     5.9174     7.4995    12.4707    90.8408     2.4877     0.3174     0.1308
  371.5000   -38.8161     5.9551     7.4987    12.4636    90.2009     2.5319     0.2935     0.1308
  372.0000   -38.9725     5.9931     7.5147    12.4565    89.6676     2.5130     0.2408     0.1444
  372.5000   -39.1289     6.0477     7.5464    12.4494    89.1235     2.4943     0.2486     0.1312
  373.0000   -39.2855     6.1642     7.5787    12.4423    88.5740     2.4968     0.2569     0.1208
  373.5000   -39.4423     6.2836     7.6110    12.4352    88.0037     2.4997     0.2563     0.1231
  374.0000   -39.5965     6.3574     7.6435    12.4281    88.2707     2.5006     0.2248     0.1417
  374.5000   -39.6708     6.3765     7.6762    12.4210    91.2302     2.4785     0.1902     0.1574
  375.0000   -39.5781     6.3947     7.7089    12.4139    94.2203     2.4421     0.1791     0.1471
  375.5000   -39.4881     6.4132     7.7418    12.4067    95.2979     2.4589     0.1972     0.1359
  376.0000   -39.3967     6.4317     7.7749    12.3995    93.5439     2.4796     0.2185     0.1324
  376.5000   -39.3046     6.4504     7.8081    12.3938    89.4625     2.4819     0.2399     0.1300
  377.0000   -39.3443     6.4719     7.8414    12.4062    85.4024     2.4814     0.2475     0.1320
  377.5000   -39.3946     6.4412     7.8529    12.4184    81.3127     2.4723     0.2200     0.1501
  378.0000   -39.4442     6.3948     7.8177    12.4305    77.2876     2.4535     0.1996     0.1504
  378.5000   -39.4936     6.3488     7.7936    12.4427    77.5621     2.4451     0.1994     0.1548
  379.0000   -39.5430     6.3031     7.7696    12.4548    79.0921     2.4394     0.2006     0.1597
  379.5000   -39.5925     6.2577     7.7457    12.4669    79.8428     2.4337     0.2019     0.1647
  380.0000   -39.6422     6.2126     7.7220    12.4790    79.1722     2.4284     0.2045     0.1618
  380.5000   -39.6937     6.1508     7.6569    12.4911    78.7756     2.4330     0.2113     0.1567
  381.0000   -39.6413     6.0475     7.5484    12.5033    80.8422     2.4382     0.2258     0.1573
  381.5000   -39.5697     5.9460     7.4409    12.5156    83.5939     2.4380     0.2387     0.1586
  382.0000   -39.4979     5.8462     7.3351    12.5275    86.2122     2.4368     0.3079     0.1595
  382.5000   -39.4272     5.7481     7.2309    12.5162    86.2591     2.4403     0.3860     0.1450
  383.0000   -39.3550     5.6516     7.1281    12.4281    78.2619     2.4648     0.4590     0.1428
  383.5000   -39.2205     5.5555     7.0268    12.3423    77.9153     2.4213     0.4314     0.2108
  384.0000   -38.8334     5.2891     6.9269    12.2506    79.0700     2.2825     0.3751     0.2638
  384.5000   -38.4553     5.0350     6.7518    12.2363    79.8124     2.1437     0.3194     0.2990
  385.0000   -38.0758     4.7931     6.5572    12.2426    79.1661     2.0000     0.2730  -999.2500
  385.5000   -37.7097     4.5630     6.3683    12.2491    78.5045     2.0003     0.2476  -999.2500
  386.0000   -37.6697     4.3439     6.1847    12.2555    78.3861     2.0000     0.2559  -999.2500
  386.5000   -37.6436     4.1213     6.0065    12.2618    80.2040     2.0000     0.2986  -999.2500
  387.0000   -37.6159     4.0085     5.8334    12.2679    81.1105     2.0001     0.3406  -999.2500
  387.5000   -37.5878     3.8025     5.3068    12.2690    79.1201     2.0002     0.3821  -999.2500
  388.0000   -37.5598     3.4780     4.7356    12.2591    77.8047     2.0005     0.4024  -999.2500
  388.5000   -37.5327     3.1813     4.2259    12.2535    78.2060     2.0063     0.3639  -999.2500
  389.0000   -37.5120     2.9098     3.7710    12.3045    76.6770     2.0336     0.3045  -999.2500
  389.5000   -37.2445     2.6487     3.3651    12.3511    74.2862     2.0212     0.2442  -999.2500
  390.0000   -36.7332     2.6533     3.0029    12.3271    73.7664  -999.2500     0.1938  -999.2500
  390.5000   -36.0201     2.6579     2.9311    12.3020    74.3661  -999.2500     0.2170  -999.2500
  391.0000   -35.3077     2.6628     2.9311    12.2735    76.5219  -999.2500     0.2615  -999.2500
  391.5000   -34.5940     2.6677     2.9311    12.4323    78.8417  -999.2500     0.3116  -999.2500
  392.0000   -34.4989     2.6732     2.9955    12.6367    81.1592  -999.2500     0.3711  -999.2500
  392.5000   -34.6647     2.8922     3.1269    12.6460    83.5168  -999.2500     0.3789  -999.2500
  393.0000   -35.2164     3.2200     3.4442    12.3856    84.1137  -999.2500     0.3194  -999.2500
  393.5000   -35.7610     3.5848     3.9472    12.1152    80.9874  -999.2500     0.2732  -999.2500
  394.0000   -36.3036     3.9911     4.5236    11.9410    80.1156  -999.2500     0.2951  -999.2500
