~VERSION INFORMATION
 VERS.                2.0:   CWLS LOG ASCII STANDARD - VERSION 2.0
 WRAP.                 NO:   ONE LINE PER DEPTH STEP
~WELL INFORMATION
#MNEM.UNIT      DATA TYPE    INFORMATION
#----------   ------------   ------------------------------
 STRT.F           84.0000:   START DEPTH
 STOP.F         1141.0000:   STOP DEPTH
 STEP.F            0.5000:   STEP LENGTH
 NULL.          -999.2500:   NO VALUE
 COMP.           U S NAVY:   COMPANY
 WELL.     NPR#3 #78-S-11:   WELL
 FLD .             TEAPOT:   FIELD
 LOC .      S11 T38N R78W:   LOCATION
 CNTY.            NATRONA:   COUNTY
 STAT.            WYOMING:   STATE
 CTRY. UNITED STATES OF AMERICA:   COUNTRY
 SRVC.       Schlumberger:   SERVICE COMPANY
 DATE.        28-AUG-1966:   LOGDATE
 API .       490250970700:   API NUMBER
~CURVE INFORMATION
#MNEM.UNIT       API CODE    CURVE DESCRIPTION
#----------   ------------   ------------------------------
 DEPT.F                  :   
 SPR .MV     05 010 01 00:   SPONTANEOUS POTENTIAL FROM RES.
 ASN .OHMM   05 041 16 00:   AMPLIFIED SHORT NORMAL 16"
 ILD .OHMM   05 120 46 00:   INDUCTION LOG DEEP
 CILD.MMHO   05 110 46 00:   CONDUCTIVITY INDUCTION LOG DEEP
 GRD .GAPI   45 310 01 00:   GAMMA RAY FROM DENSITY LOG
 CALD.IN     45 280 60 00:   CALIPER FROM DENSITY LOG
 DPHI.DEC    45 890 12 00:   DENSITY POROSITY SANDSTONE
 RHOB.G/C3   45 350 01 00:   BULK DENSITY
~PARAMETER INFORMATION
#MNEM.UNIT          VALUE    DESCRIPTION
#----------   ------------   ------------------------------
 PD  .                 GL:   PERMANENT DATUM
 EPD .F              5245:   ELEVATION PERMANENT DATUM
 LMF .                 KB:   LOG MEASURED FROM
 DAPD.F                 5:   FEET ABOVE PERMANENT DATUM
 DMF .                 KB:   DRILLING MEASURED FROM
 EKB .F              5250:   KELLING BUSHING
 EGL .F              5245:   GROUND LEVEL
 DATE.            8-28-66:   RUN DATE
 RUN .                  1:   RUN NUMBER
 DD  .F              1142:   DEPTH DRILLER
 DL  .F              1142:   DEPTH LOGGER
 BLI .F              1141:   BOTTOM LOG INTERVAL
 TLI .F                85:   TOP LOG INTERVAL
 CS  .IN            8.625:   CASING SIZE
 CBD .F                10:   CASING BOTTOM DRILLER
 BS  .IN             6.75:   BIT SIZE
 BSD .F              1142:   BIT SIZE AT DEPTH
 DFT .           CHEM GEL:   DRILLING FLUID TYPE
 DFD .               10.7:   DRILLING FLUID DENSITY
 DFV .                 40:   DRILLING FLUID VISCOSITY
 MSS .          FLOW LINE:   MUD SAMPLE SOURCE
 RMS .OHMM           1.58:   RESISTIVITY MUD SAMPLE
 MST .F                70:   MUD SAMPLE TEMPERATURE
 RMF .OHMM            .93:   RESISTIVITY MUD FILTRATE SAMPLE
 MFST.F                70:   MUD FILTRATE SAMPLE TEMPERATURE
 MFSS.                  M:   MUD FILTRATE SAMPLE SOURCE
 RMB .OHMM           1.19:   RESISTIVITY MUD AT BHT
 BHT .F                94:   BOTTOM HOLE TEMPERATURE
 TCS .HRS               1:   TIME CURCULATED STOPPED
 MRT .F                94:   MAXIMUM RECORDED TEMPERATURE
 LUN .               4507:   LOGGING UNIT NUMBER
 LUL .               CSPR:   LOGGING UNIT LOCATION
 ENGI.             KNOBEL:   RECORDING ENGINEER
 WITN.         MAY/TUTTLE:   WITNESSED BY
 CLNT.            A2DTECH:   CLIENT CODE
 ORIG.           5" PRINT:   ORIGIN OF DATA
 UWI .       490250970700:   UNIQUE WELL ID
 DICO. A2D Technologies, Inc.:   DIGITIZING COMPANY
~OTHER INFORMATION
~A   DEPT      SPR          ASN        ILD      CILD       GRD       CALD       DPHI       RHOB   
# ...
  408.0000   -41.7798     6.4739     5.8438   175.1880  -999.2500  -999.2500  -999.2500  -999.2500
  408.5000   -41.7798     6.5791     5.9181   172.1805  -999.2500  -999.2500  -999.2500  -999.2500
  409.0000   -42.2323     6.7144     5.9925   171.4286  -999.2500  -999.2500  -999.2500  -999.2500
  409.5000   -42.5339     6.8948     6.0668   171.4286  -999.2500  -999.2500  -999.2500  -999.2500
  410.0000   -42.2323     6.9850     6.1411   172.9323  -999.2500  -999.2500  -999.2500  -999.2500
  410.5000   -41.6290     6.8200     6.1404   175.1880  -999.2500  -999.2500  -999.2500  -999.2500
  411.0000   -41.0256     6.6399     6.1397   178.1955  -999.2500  -999.2500  -999.2500  -999.2500
  411.5000   -41.4781     6.4449     6.2140   180.4511  -999.2500  -999.2500  -999.2500  -999.2500
  412.0000   -41.7798     6.2943     6.2131   183.4787  -999.2500  -999.2500  -999.2500  -999.2500
  412.5000   -41.7798     6.2350     6.2123   188.0328  -999.2500  -999.2500  -999.2500  -999.2500
  413.0000   -41.6290     6.2351     6.2868   189.4737  -999.2500  -999.2500  -999.2500  -999.2500
  413.5000   -41.4781     6.2653     6.2859   187.2180  -999.2500  -999.2500  -999.2500  -999.2500
  414.0000   -41.1765     6.2805     6.3604   184.2105  -999.2500  -999.2500  -999.2500  -999.2500
  414.5000   -41.0256     6.3107     6.3595   179.6992  -999.2500  -999.2500  -999.2500  -999.2500
  415.0000   -41.0256     6.3409     6.3588   178.1955  -999.2500  -999.2500  -999.2500  -999.2500
  415.5000   -41.0256     6.3710     6.2829   180.4511  -999.2500  -999.2500  -999.2500  -999.2500
  416.0000   -41.0256     6.3712     6.2072   187.2180  -999.2500  -999.2500  -999.2500  -999.2500
  416.5000   -40.8748     6.3563     6.1313   193.9850  -999.2500  -999.2500  -999.2500  -999.2500
  417.0000   -40.8748     6.1313     6.0554   199.2481  -999.2500  -999.2500  -999.2500  -999.2500
  417.5000   -41.0256     5.8161     5.8295   203.7594  -999.2500  -999.2500  -999.2500  -999.2500
  418.0000   -41.0256     5.6210     5.5284   206.0150  -999.2500  -999.2500  -999.2500  -999.2500
  418.5000   -41.0256     5.5011     5.3025   210.5263  -999.2500  -999.2500  -999.2500  -999.2500
  419.0000   -41.0256     5.4412     5.0014   214.2857  -999.2500  -999.2500  -999.2500  -999.2500
  419.5000   -41.0256     5.3962     4.8505   218.7970  -999.2500  -999.2500  -999.2500  -999.2500
  420.0000   -41.0256     5.3663     4.6996   223.3083  -999.2500  -999.2500  -999.2500  -999.2500
  420.5000   -40.8748     5.3515     4.6989   226.3158  -999.2500  -999.2500  -999.2500  -999.2500
  421.0000   -40.8748     5.3366     4.6982   227.8195  -999.2500  -999.2500  -999.2500  -999.2500
  421.5000   -40.8748     5.3218     4.8476   226.3158  -999.2500  -999.2500  -999.2500  -999.2500
  422.0000   -40.8748     5.3219     4.9970   223.9399  -999.2500  -999.2500  -999.2500  -999.2500
  422.5000   -40.8748     5.3221     5.1464   220.3008  -999.2500  -999.2500  -999.2500  -999.2500
  423.0000   -40.8748     5.3372     5.2207   216.5414  -999.2500  -999.2500  -999.2500  -999.2500
  423.5000   -40.7240     5.3985     5.2962   212.7820  -999.2500  -999.2500  -999.2500  -999.2500
  424.0000   -40.8748     5.4889     5.4445   209.0226  -999.2500  -999.2500  -999.2500  -999.2500
  424.5000   -40.8748     5.5835     5.5188   206.7669  -999.2500  -999.2500  -999.2500  -999.2500
  425.0000   -40.7240     5.6857     5.5180   203.0075  -999.2500  -999.2500  -999.2500  -999.2500
  425.5000   -40.5732     5.7735     5.5171   200.7519  -999.2500  -999.2500  -999.2500  -999.2500
  426.0000   -40.5732     5.8186     5.5164   199.2481  -999.2500  -999.2500  -999.2500  -999.2500
  426.5000   -40.5732     5.8638     5.5156   198.4962  -999.2500  -999.2500  -999.2500  -999.2500
  427.0000   -40.5732     5.8640     5.6650   197.7444  -999.2500  -999.2500  -999.2500  -999.2500
  427.5000   -40.4223     5.8792     5.8145   196.9925  -999.2500  -999.2500  -999.2500  -999.2500
  428.0000   -40.4223     5.9243     5.8888   196.2406  -999.2500  -999.2500  -999.2500  -999.2500
  428.5000   -40.4223     5.9545     6.0382   194.7368  -999.2500  -999.2500  -999.2500  -999.2500
  429.0000   -40.2715     5.9697     6.1127   193.2331  -999.2500  -999.2500  -999.2500  -999.2500
  429.5000   -39.8190     5.9248     6.1869   193.2258  -999.2500  -999.2500  -999.2500  -999.2500
  430.0000   -39.6682     5.9400     6.2612   192.4312  -999.2500  -999.2500  -999.2500  -999.2500
  430.5000   -39.3665     6.0602     6.3357   191.7293  -999.2500  -999.2500  -999.2500  -999.2500
  431.0000   -39.2157     6.1054     6.4101   190.9774  -999.2500  -999.2500  -999.2500  -999.2500
  431.5000   -39.2157     6.1206     6.4842   190.2256  -999.2500  -999.2500  -999.2500  -999.2500
  432.0000   -39.2157     6.1207     6.6336   187.9699  -999.2500  -999.2500  -999.2500  -999.2500
  432.5000   -39.2157     6.0458     6.7079   185.7143  -999.2500  -999.2500  -999.2500  -999.2500
  433.0000   -39.2157     6.0159     6.8574   181.9549  -999.2500  -999.2500  -999.2500  -999.2500
  433.5000   -39.2157     6.0461     6.9317   180.4511  -999.2500  -999.2500  -999.2500  -999.2500
  434.0000   -39.3665     6.1213     6.9309   184.9624  -999.2500  -999.2500  -999.2500  -999.2500
  434.5000   -39.8190     6.1815     6.9302   196.9925  -999.2500  -999.2500  -999.2500  -999.2500
  435.0000   -39.8190     6.2878     6.8418   203.7594  -999.2500  -999.2500  -999.2500  -999.2500
  435.5000   -39.9698     6.3632     6.5532   208.2707  -999.2500  -999.2500  -999.2500  -999.2500
  436.0000   -40.5732     6.2330     6.1020   210.5263  -999.2500  -999.2500  -999.2500  -999.2500
  436.5000   -40.5732     5.9845     5.5757   214.2857  -999.2500  -999.2500  -999.2500  -999.2500
  437.0000   -40.7240     5.8069     4.5239   219.5489  -999.2500  -999.2500  -999.2500  -999.2500
  437.5000   -40.7240     5.4017     3.3220   251.8797  -999.2500  -999.2500  -999.2500  -999.2500
  438.0000   -40.5732     5.1916     3.0960   258.6466  -999.2500  -999.2500  -999.2500  -999.2500
  438.5000   -40.2715     4.2008     3.3956   254.1128  -999.2500  -999.2500  -999.2500  -999.2500
  439.0000   -39.6682     3.9456     3.6200   249.4282  -999.2500  -999.2500  -999.2500  -999.2500
  439.5000   -39.0649     4.9668     3.6946   244.2530  -999.2500  -999.2500  -999.2500  -999.2500
  440.0000   -38.9140     5.4775     3.6186   241.3534  -999.2500  -999.2500  -999.2500  -999.2500
  440.5000   -39.2157     5.1773     3.5429   240.6015  -999.2500  -999.2500  -999.2500  -999.2500
  441.0000   -39.3665     5.0423     4.2177   230.0752  -999.2500  -999.2500  -999.2500  -999.2500
  441.5000   -39.5173     5.2827     4.8926   203.0075  -999.2500  -999.2500  -999.2500  -999.2500
  442.0000   -39.8190     5.6282     5.3423   196.2406  -999.2500  -999.2500  -999.2500  -999.2500
  442.5000   -39.8190     5.7485     5.5668   190.9774  -999.2500  -999.2500  -999.2500  -999.2500
  443.0000   -39.9698     5.8688     5.7913   184.9624  -999.2500  -999.2500  -999.2500  -999.2500
  443.5000   -40.2715     5.9890     5.9419   181.2030  -999.2500  -999.2500  -999.2500  -999.2500
  444.0000   -40.4223     6.1393     6.0951   178.1955  -999.2500  -999.2500  -999.2500  -999.2500
  444.5000   -40.5732     6.2746     6.3233   175.9398  -999.2500  -999.2500  -999.2500  -999.2500
  445.0000   -40.5732     6.4249     6.4765   172.1805  -999.2500  -999.2500  -999.2500  -999.2500
  445.5000   -40.5732     6.4101     6.7634   166.9173  -999.2500  -999.2500  -999.2500  -999.2500
  446.0000   -40.5732     6.4703     6.9130   162.4060  -999.2500  -999.2500  -999.2500  -999.2500
  446.5000   -40.5732     6.5910     7.0624   157.8947  -999.2500  -999.2500  -999.2500  -999.2500
  447.0000   -40.5732     6.6680     7.2867   151.8797  -999.2500  -999.2500  -999.2500  -999.2500
  447.5000   -40.5732     6.7913     7.2859   149.6241  -999.2500  -999.2500  -999.2500  -999.2500
  448.0000   -40.5732     6.9513     7.2852   152.0408  -999.2500  -999.2500  -999.2500  -999.2500
