~VERSION INFORMATION
 VERS.                2.0:   CWLS LOG ASCII STANDARD - VERSION 2.0
 WRAP.                 NO:   ONE LINE PER DEPTH STEP
~WELL INFORMATION
#MNEM.UNIT      DATA TYPE    INFORMATION
#----------   ------------   ------------------------------
 STRT.F           64.0000:   START DEPTH
 STOP.F          390.0000:   STOP DEPTH
 STEP.F            0.5000:   STEP LENGTH
 NULL.          -999.2500:   NO VALUE
 COMP. DEPARTMENT OF ENERGY:   COMPANY
 WELL. NPR-3 55-65-SX C-2 #55-3:   WELL
 FLD . TEAPOT NAVAL RESERVE:   FIELD
 LOC .       S3 T38N R78W:   LOCATION
 CNTY.            NATRONA:   COUNTY
 STAT.            WYOMING:   STATE
 CTRY. UNITED STATES OF AMERICA:   COUNTRY
 SRVC.      Dresser Atlas:   SERVICE COMPANY
 DATE.        29-JUN-1985:   LOGDATE
 API .       490251134500:   API NUMBER
~CURVE INFORMATION
#MNEM.UNIT       API CODE    CURVE DESCRIPTION
#----------   ------------   ------------------------------
 DEPT.F                  :   
 CALD.IN     45 280 60 00:   CALIPER FROM DENSITY LOG
 CNC .DEC    42 890 03 00:   NEUTRON POROSITY SANDSTONE
 CORR.G/C3   45 356 01 00:   DENSITY CORRECTION
 GRD .GAPI   45 310 01 00:   GAMMA RAY FROM DENSITY LOG
 PORD.DEC    45 890 12 00:   POROSITY DENSITY SANDSTONE
 RHOB.G/C3   45 350 01 00:   BULK DENSITY
 SPR .MV     07 010 01 00:   SPONTANEOUS POTENTIAL
 ILD .OHMM   06 120 46 00:   INDUCTION LOG DEEP
 ILM .OHMM   07 120 44 00:   INDUCTION LOG MEDIUM
~PARAMETER INFORMATION
#MNEM.UNIT          VALUE    DESCRIPTION
#----------   ------------   ------------------------------
 PD  .                 GL:   PERMANENT DATUM
 EPD .F              5168:   ELEVATION PERMANENT DATUM
 LMF .                 GL:   LOG MEASURED FROM
 DMF .                 GL:   DRILLING MEASURED FROM
 EGL .F              5168:   GROUND LEVEL
 DATE.        29-JUN-1985:   RUN DATE
 RUN .                  1:   RUN NUMBER
 DD  .F               394:   DEPTH DRILLER
 DL  .F               394:   DEPTH LOGGER
 BLI .F               386:   BOTTOM LOG INTERVAL
 CS  .IN                7:   CASING SIZE
 CBD .F                80:   CASING BOTTOM DRILLER
 CBL .F                82:   CASING BOTTOM LOGGER
 BS  .IN            4.875:   BIT SIZE
 BSD .F               394:   BIT SIZE AT DEPTH
 DFT .           FOAM AIR:   DRILLING FLUID TYPE
 TCS .HRS               5:   TIME CURCULATED STOPPED
 MRT .F               238:   MAXIMUM RECORDED TEMPERATURE
 LUN .               6274:   LOGGING UNIT NUMBER
 LUL .               GLTE:   LOGGING UNIT LOCATION
 ENGI.             RAUTIO:   RECORDING ENGINEER
 WITN.           JENNINGS:   WITNESSED BY
 CLNT.            A2DTECH:   CLIENT CODE
 ORIG.           5" PRINT:   ORIGIN OF DATA
 UWI .       490251134500:   UNIQUE WELL ID
 DICO. A2D Technologies, Inc.:   DIGITIZING COMPANY
~OTHER INFORMATION
~A   DEPT     CALD          CNC     CORR        GRD       PORD       RHOB        SPR        ILD        ILM   
   64.0000  -999.2500     0.4732  -999.2500   104.8808  -999.2500  -999.2500  -999.2500  -999.2500  -999.2500
   64.5000  -999.2500     0.4745  -999.2500   104.2839  -999.2500  -999.2500  -999.2500  -999.2500  -999.2500
   65.0000  -999.2500     0.4738  -999.2500   104.2931  -999.2500  -999.2500  -999.2500  -999.2500  -999.2500
   65.5000  -999.2500     0.4729  -999.2500   102.7944  -999.2500  -999.2500  -999.2500  -999.2500  -999.2500
   66.0000  -999.2500     0.4720  -999.2500   101.8964  -999.2500  -999.2500  -999.2500  -999.2500  -999.2500
   66.5000  -999.2500     0.4726  -999.2500   106.7249  -999.2500  -999.2500  -999.2500  -999.2500  -999.2500
   67.0000  -999.2500     0.4748  -999.2500   111.2503  -999.2500  -999.2500  -999.2500  -999.2500  -999.2500
   67.5000  -999.2500     0.4775  -999.2500   113.0649  -999.2500  -999.2500  -999.2500  -999.2500  -999.2500
   68.0000  -999.2500     0.4796  -999.2500   111.8675  -999.2500  -999.2500  -999.2500  -999.2500  -999.2500
   68.5000  -999.2500     0.4811  -999.2500   110.3439  -999.2500  -999.2500  -999.2500  -999.2500  -999.2500
   69.0000  -999.2500     0.4820  -999.2500   108.8203  -999.2500  -999.2500  -999.2500  -999.2500  -999.2500
   69.5000  -999.2500     0.4823  -999.2500   107.3734  -999.2500  -999.2500  -999.2500  -999.2500  -999.2500
   70.0000  -999.2500     0.4826  -999.2500   104.9711  -999.2500  -999.2500  -999.2500  -999.2500  -999.2500
   70.5000  -999.2500     0.4829  -999.2500   101.0628  -999.2500  -999.2500  -999.2500  -999.2500  -999.2500
   71.0000  -999.2500     0.4802  -999.2500    98.3594  -999.2500  -999.2500  -999.2500  -999.2500  -999.2500
   71.5000  -999.2500     0.4760  -999.2500    96.8607  -999.2500  -999.2500  -999.2500  -999.2500  -999.2500
   72.0000  -999.2500     0.4732  -999.2500    98.0729  -999.2500  -999.2500  -999.2500  -999.2500  -999.2500
   72.5000  -999.2500     0.4714  -999.2500   105.3092  -999.2500  -999.2500  -999.2500  -999.2500  -999.2500
   73.0000  -999.2500     0.4729  -999.2500   110.7383  -999.2500  -999.2500  -999.2500  -999.2500  -999.2500
   73.5000  -999.2500     0.4723  -999.2500   110.4443  -999.2500  -999.2500  -999.2500  -999.2500  -999.2500
   74.0000  -999.2500     0.4730  -999.2500   110.4518  -999.2500  -999.2500  -999.2500  -999.2500  -999.2500
   74.5000  -999.2500     0.4754  -999.2500   110.7605  -999.2500  -999.2500  -999.2500  -999.2500  -999.2500
   75.0000  -999.2500     0.4769  -999.2500   111.4207  -999.2500  -999.2500  -999.2500  -999.2500  -999.2500
   75.5000  -999.2500     0.4775  -999.2500   112.8854  -999.2500  -999.2500  -999.2500  -999.2500  -999.2500
   76.0000  -999.2500     0.4766  -999.2500   113.1922  -999.2500  -999.2500  -999.2500  -999.2500  -999.2500
   76.5000  -999.2500     0.4748  -999.2500   107.4785  -999.2500  -999.2500  -999.2500  -999.2500  -999.2500
   77.0000  -999.2500     0.4793  -999.2500   104.1726  -999.2500  -999.2500  -999.2500  -999.2500  -999.2500
   77.5000  -999.2500     0.4814  -999.2500   102.3728  -999.2500  -999.2500  -999.2500  -999.2500  -999.2500
   78.0000  -999.2500     0.4820  -999.2500    99.3681  -999.2500  -999.2500  -999.2500  -999.2500  -999.2500
   78.5000  -999.2500     0.4805  -999.2500    98.1688  -999.2500  -999.2500  -999.2500  -999.2500  -999.2500
   79.0000  -999.2500     0.4799  -999.2500    99.0816  -999.2500  -999.2500  -999.2500  -999.2500  -999.2500
   79.5000  -999.2500     0.4820  -999.2500    99.6914  -999.2500  -999.2500  -999.2500  -999.2500  -999.2500
   80.0000  -999.2500     0.4844  -999.2500    99.6988  -999.2500  -999.2500  -999.2500  -999.2500  -999.2500
   80.5000  -999.2500     0.4868  -999.2500   102.2163  -999.2500  -999.2500  -999.2500  -999.2500  -999.2500
   81.0000  -999.2500     0.4850  -999.2500   109.7540  -999.2500  -999.2500  -999.2500  -999.2500  -999.2500
   81.5000  -999.2500     0.4748  -999.2500   120.5059  -999.2500  -999.2500  -999.2500  -999.2500  -999.2500
   82.0000     6.3961     0.4559    -1.0668   133.1639     0.4906     1.9984   -91.9748  1947.1630  2003.7173
   82.5000     6.3965     0.3499    -0.8592   145.2195     0.3507     2.0004   -88.3475     8.6607  2003.7173
   83.0000     6.3968     0.2782    -0.3629   149.7449     0.2789     2.0528   -87.7368     3.5995     5.6805
   83.5000     6.3972     0.2559    -0.0377   149.4511     0.2028     2.3188   -87.7295     3.2872     2.6774
   84.0000     6.4127     0.2510    -0.0470   145.5428     0.2097     2.3014   -85.9121     3.4750     2.5849
   84.5000     6.4131     0.2489    -0.0997   142.2369     0.2034     2.3105   -84.6982     5.3890     4.9368
   85.0000     6.4134     0.2473    -0.0515   140.7383     0.1700     2.3414   -85.5958     9.0227     5.9144
   85.5000     6.4138     0.2413     0.0177   141.3481     0.1539     2.3934   -88.0920    13.1417     8.0875
   86.0000     6.4142     0.2365     0.0538   143.7651     0.1442     2.4092   -91.6124    14.6331    12.3623
   86.5000     6.4145     0.2344     0.0298   144.0736     0.1358     2.4190   -91.9085     8.7957    13.2014
   87.0000     6.4149     0.2353     0.0344   142.2239     0.1288     2.4318   -91.5977     7.8983    12.0147
   87.5000     6.4153     0.2374     0.0464   140.4758     0.1225     2.4440   -89.7804     8.3496    11.1059
   88.0000     6.4006     0.2389     0.0645   139.8807     0.1168     2.4531   -85.8514     8.4657    11.3553
   88.5000     6.4010     0.2401     0.0827   139.8881     0.1107     2.4635   -82.8275     7.7851    12.0016
   89.0000     6.4014     0.2413     0.1030   140.1967     0.1089     2.4687   -82.5203     7.4133    10.9595
   89.5000     6.4018     0.2420     0.1248   141.7101     0.1110     2.4695   -87.6393     8.1147     9.0784
   90.0000     6.4021     0.2423     0.1278   140.8139     0.1171     2.4582   -89.1403     9.5899     8.1755
   90.5000     6.4025     0.2426     0.0722   139.0140     0.1226     2.4484   -87.2926    10.2087     7.7300
   91.0000     6.4029     0.2432     0.0061   138.7199     0.1265     2.4416   -85.2021    10.1291     7.5676
   91.5000     6.4032     0.2438     0.0046   141.1372     0.1222     2.4446   -84.5915     9.3458     7.5120
   92.0000     6.4036     0.2441     0.0287   142.6506     0.1165     2.4552   -85.1874     8.3948     7.4574
   92.5000     6.4191     0.2450     0.0363   141.4282     0.1168     2.4589   -86.3867     8.1627     7.4549
   93.0000     6.4043     0.2453     0.0348   141.1593     0.1195     2.4528   -88.7926     8.2188     7.5575
   93.5000     6.4048     0.2444     0.0425   143.2770     0.1255     2.4404   -91.1985     8.3906     7.6078
   94.0000     6.4052     0.2413     0.0540   144.4892     0.1361     2.4250   -90.5879     8.5072     7.7651
   94.5000     6.4055     0.2380     0.0184   144.1935     0.1424     2.4152   -89.3739     8.5652     7.8167
   95.0000     6.4059     0.2362     0.0034   144.8051     0.1448     2.4107   -89.3665     8.5634     7.7592
   95.5000     6.4213     0.2350     0.0064   146.0173     0.1433     2.4145   -90.5958     8.5620     7.7028
   96.0000     6.4217     0.2374     0.0320   147.2295     0.1352     2.4220   -90.2549     8.5605     7.5410
   96.5000     6.4221     0.2392     0.0501   149.3454     0.1334     2.4295   -87.2310     8.4403     7.2806
   97.0000     6.4225     0.2392     0.0396   151.1599     0.1372     2.4280   -85.1120     8.3221     7.0783
   97.5000     6.4077     0.2404     0.0276   150.2637     0.1488     2.4069   -84.5032     8.2055     6.9781
   98.0000     6.4082     0.2426     0.0217   145.7530     0.1533     2.3949   -85.4008     8.0906     6.9225
   98.5000     6.4085     0.2441     0.0156   141.7947     0.1506     2.3988   -86.2966     8.0331     6.8287
   99.0000     6.4089     0.2459     0.0110   141.9528     0.1491     2.4047   -86.5927     7.9760     6.8264
   99.5000     6.4093     0.2477    -0.0188   146.3794     0.1527     2.3979   -85.9802     7.8643     6.7958
  100.0000     6.4096     0.2489    -0.0413   149.3988     0.1557     2.3934   -84.1629     7.8629     6.7968
