~VERSION INFORMATION
 VERS.                2.0:   CWLS LOG ASCII STANDARD - VERSION 2.0
 WRAP.                 NO:   ONE LINE PER DEPTH STEP
~WELL INFORMATION
#MNEM.UNIT      DATA TYPE    INFORMATION
#----------   ------------   ------------------------------
 STRT.F           60.0000:   START DEPTH
 STOP.F          945.0000:   STOP DEPTH
 STEP.F            0.5000:   STEP LENGTH
 NULL.          -999.2500:   NO VALUE
 COMP.          U.S. NAVY:   COMPANY
 WELL. RES 3 TEAPOT DOM #48S-35:   WELL
 FLD .           TEAPOT E:   FIELD
 LOC .      S35 T39N R78W:   LOCATION
 CNTY.            NATRONA:   COUNTY
 STAT.            WYOMING:   STATE
 CTRY. UNITED STATES OF AMERICA:   COUNTRY
 SRVC.       Schlumberger:   SERVICE COMPANY
 DATE.        15-JUL-1964:   LOGDATE
 API .       490250649200:   API NUMBER
~CURVE INFORMATION
#MNEM.UNIT       API CODE    CURVE DESCRIPTION
#----------   ------------   ------------------------------
 DEPT.F                  :   
 SPR .MV     05 010 01 00:   SPONTANEOUS POTENTIAL FROM RES.
 ILD .OHMM   05 120 46 00:   INDUCTION LOG DEEP
 ASN .OHMM   05 041 18 00:   AMPLIFIED SHORT NORMAL 18"
 CILD.MMHO   05 110 46 00:   CONDUCTIVITY INDUCTION LOG DEEP
 CALS.IN     60 280 50 00:   CALIPER FROM SONIC LOG
 DT  .US/F   60 520 00 00:   INTERVAL TRANSIT TIME
 GR  .GAPI   30 310 01 00:   GAMMA RAY
~PARAMETER INFORMATION
#MNEM.UNIT          VALUE    DESCRIPTION
#----------   ------------   ------------------------------
 PD  .                 GL:   PERMANENT DATUM
 EPD .F              5123:   ELEVATION PERMANENT DATUM
 LMF .                 KB:   LOG MEASURED FROM
 DAPD.F                 5:   FEET ABOVE PERMANENT DATUM
 DMF .                 KB:   DRILLING MEASURED FROM
 EKB .F              5128:   KELLING BUSHING
 EGL .F              5123:   GROUND LEVEL
 DATE.        15-JUL-1964:   RUN DATE
 RUN .                  1:   RUN NUMBER
 DD  .F               945:   DEPTH DRILLER
 DL  .F               946:   DEPTH LOGGER
 BLI .F               945:   BOTTOM LOG INTERVAL
 TLI .F                94:   TOP LOG INTERVAL
 CS  .IN            8.625:   CASING SIZE
 CBD .F                10:   CASING BOTTOM DRILLER
 BS  .IN             6.75:   BIT SIZE
 BSD .F               945:   BIT SIZE AT DEPTH
 DFT .                GEL:   DRILLING FLUID TYPE
 DFD .                9.5:   DRILLING FLUID DENSITY
 DFV .                 44:   DRILLING FLUID VISCOSITY
 DFPH.                8.0:   DRILLING FLUID PH
 DFL .               10.5:   DRILLING FLUID LOSS
 MSS .           FLOWLINE:   MUD SAMPLE SOURCE
 RMS .OHMM           3.37:   RESISTIVITY MUD SAMPLE
 MST .F                74:   MUD SAMPLE TEMPERATURE
 RMF .OHMM           2.97:   RESISTIVITY MUD FILTRATE SAMPLE
 MFST.F                78:   MUD FILTRATE SAMPLE TEMPERATURE
 MFSS.                 FP:   MUD FILTRATE SAMPLE SOURCE
 TCS .HRS             1.5:   TIME CURCULATED STOPPED
 MRT .F       T. L. T. M.:   MAXIMUM RECORDED TEMPERATURE
 LUN .               3527:   LOGGING UNIT NUMBER
 LUL .               CSPR:   LOGGING UNIT LOCATION
 ENGI.            WINKLER:   RECORDING ENGINEER
 WITN.          JORGENSEN:   WITNESSED BY
 CLNT.            A2DTECH:   CLIENT CODE
 ORIG.           2" PRINT:   ORIGIN OF DATA
 UWI .       490250649200:   UNIQUE WELL ID
 DICO. A2D Technologies, Inc.:   DIGITIZING COMPANY
~OTHER INFORMATION
~A   DEPT      SPR        ILD        ASN       CILD         CALS       DT         GR   
# ...
  424.0000   -56.4496    12.4461    12.3678    82.5934     6.6339   101.2797    57.3835
  424.5000   -56.4483    12.5934    12.4021    81.8326     6.6339   101.6572    53.6170
  425.0000   -56.4468    12.6942    12.4024    81.0709     6.6339   101.8840    53.4586
  425.5000   -56.2951    12.8203    12.4778    79.5538     6.6188   101.8092    57.0597
  426.0000   -56.2939    12.9424    12.5621    79.2710     6.6036   101.5841    57.9548
  426.5000   -56.2924    13.0664    12.7787    78.7797     6.5582   100.5298    57.3462
  427.0000   -56.2909    13.1985    12.8400    77.0437     6.4372    99.5509    52.8278
  427.5000   -56.3331    13.3546    13.0834    75.5342     6.3313    98.9362    51.6159
  428.0000   -56.4378    13.5138    13.2301    74.2380     6.2405    98.0454    52.8118
  428.5000   -56.4363    13.6520    13.4057    73.4767     6.1952    97.1418    57.3160
  429.0000   -56.4673    13.7619    13.6060    72.7149     6.1649    96.3889    60.1660
  429.5000   -56.7330    13.8930    13.7750    71.9526     6.1498    96.0129    60.2332
  430.0000   -56.7317    14.1054    14.0220    71.9457     6.1346    95.7874    59.3981
  430.5000   -56.9013    14.1621    14.2826    71.0771     6.1195    96.0897    59.6918
  431.0000   -57.3281    14.4085    14.4826    69.6672     6.1195    96.5426    58.6320
  431.5000   -57.6679    14.5817    14.7028    69.3400     6.1346    96.9239    58.3984
  432.0000   -58.5747    14.7538    14.9592    68.8487     6.1800    97.3831    55.1574
  432.5000   -59.8723    14.9361    15.1822    67.3818     6.2405    97.7507    54.0977
  433.0000   -60.6282    15.0983    15.4948    66.3575     6.2708    97.9775    52.4364
  433.5000   -61.3688    15.2544    15.7109    64.3514     6.2708    98.4304    52.8804
  434.0000   -62.0070    15.3895    15.8482    63.1121     6.2708    98.8079    57.5332
  434.5000   -62.2656    15.5777    16.0911    61.8664     6.2859    99.1101    60.8344
  435.0000   -62.2638    15.7018    16.3124    60.5577     6.3162    99.4122    61.2784
  435.5000   -61.9451    15.7678    16.3877    60.5505     6.3616   100.5433    54.2036
  436.0000   -61.9910    15.8436    16.4631    60.5430     6.3918   102.5084    54.1204
  436.5000   -62.2592    15.8443    16.4633    60.5347     6.4221   102.7302    57.6466
  437.0000   -62.8526    15.8453    16.4637    60.5279     6.4070   101.6761    59.7450
  437.5000   -63.5120    15.8459    16.4640    60.8032     6.4070   100.8479    60.6384
  438.0000   -64.3536    15.8466    16.3472    64.2825     6.4070   100.3211    59.8794
  438.5000   -64.9858    15.8473    16.0434    66.8464     6.4070    99.7943    57.6166
  439.0000   -65.4003    15.8481    15.6391    68.8310     6.4221    99.6442    53.6997
  439.5000   -65.5484    15.8489    15.3038    69.5400     6.4221   100.1726    52.3383
  440.0000   -65.4972    15.8496    14.8689    69.5325     6.4221   100.7762    54.2852
  440.5000   -65.3958    15.7622    14.5889    69.5248     6.4070   101.6323    60.5939
  441.0000   -65.3943    15.7007    14.3009    69.5174     6.3918   102.8125    64.6470
  441.5000   -65.1266    15.6674    14.1343    69.5098     6.3464   104.3204    65.9932
  442.0000   -64.1918    15.6130    13.9892    69.5018     6.2557   105.9036    65.9844
  442.5000   -63.9593    15.3272    14.0158    69.4947     6.1800   106.7333    66.4284
  443.0000   -63.8341    15.1965    14.2150    69.4872     6.1422   107.0355    69.5791
  443.5000   -62.8379    15.1030    14.7068    68.7247     6.1876   107.1114    70.9254
  444.0000   -61.3573    15.1038    15.0084    68.7179     6.3162   106.7355    69.2633
  444.5000   -61.3359    15.1045    15.1919    68.7104     6.3918   106.3519    68.0523
  445.0000   -61.9338    15.1053    15.3098    68.7017     6.4372   105.7196    68.3459
  445.5000   -62.0237    15.1060    15.4177    68.6953     6.4675   104.8539    70.2937
  446.0000   -61.7761    15.1068    15.3430    68.6877     6.4977   104.3272    72.2406
  446.5000   -61.4795    15.0324    15.3060    69.4329     6.5129   103.8004    73.1348
  447.0000   -61.2809    14.4355    15.1934    73.1219     6.5280   103.4241    77.1879
  447.5000   -61.0269    13.4399    14.9685    82.2396     6.5129   103.5004    78.9853
  448.0000   -60.6956    12.2527    14.7225    97.3155     6.4902   103.9533    80.9331
  448.5000   -60.3518    11.7171    13.8617   112.5226     6.4523   104.3308    85.4355
  449.0000   -59.8230    10.6029    11.2489   126.7114     6.4221   104.7083    87.9847
  449.5000   -58.6710     8.7212     9.9634   142.3713     6.3918   104.4832    88.7295
  450.0000   -55.9218     7.9198     9.6627   151.8359     6.3616   103.7711    87.0670
  450.5000   -52.6220     7.0684     9.3620   159.8709     6.3800   103.3467    86.6086
  451.0000   -51.0164     6.5088     9.0165   163.8991     6.3758   102.9223    87.6538
  451.5000   -50.2067     6.2047     8.5823   168.2905     6.3526   103.4264    86.7442
  452.0000   -50.0687     6.0181     8.2595   169.6531     6.3295   103.6519    88.0901
  452.5000   -49.8613     5.9035     8.0668   169.6456     6.3139   103.7266    91.2407
  453.0000   -49.7636     5.7939     7.8377   169.6254     6.2983   103.8012    93.3385
  453.5000   -49.6147     5.7948     7.5547   168.8763     6.2979   103.9510    93.6319
  454.0000   -49.6132     5.7955     7.4498   168.8688     6.4411   104.2517    96.0305
  454.5000   -49.6116     5.7962     7.4839   168.1068     6.6449   104.6276    99.1811
  455.0000   -49.8476     5.7971     7.5556   166.9054     6.6445   105.1544    99.6248
  455.5000   -50.0587     5.8258     7.6132   165.6599     6.6440   105.7565    98.5639
  456.0000   -50.2068     5.9489     7.6945   165.0673     6.6436   106.5094    97.5038
  456.5000   -50.2054     5.9496     7.7817   165.0604     6.6432   107.5675    95.8414
  457.0000   -50.1814     5.9503     7.8021   165.0528     6.6578   106.0556    95.3829
  457.5000   -50.0523     5.9512     7.8123   165.0443     6.6573   107.1853    95.8266
  458.0000   -50.0510     5.9519     7.8126   165.0377     6.6569   107.3354    92.2102
  458.5000   -50.0494     5.9686     7.7516   165.0302     6.6564   106.5056    89.1953
  459.0000   -49.8978     6.0286     7.5730   165.0213     6.6560   105.5252    88.5858
  459.5000   -49.8428     6.0293     7.3464   165.0150     6.6556   104.2849    88.7288
  460.0000   -49.7451     6.0301     7.3573   165.0075     6.6550   103.5643    85.7139
  460.5000   -49.5937     6.0309     7.4238   163.7619     6.6546   104.0911    86.9095
  461.0000   -49.5922     6.0316     7.5283   162.5163     6.6542   104.8440    82.6916
  461.5000   -49.5906     6.0323     7.6143   159.7055     6.6537   106.1997    82.5339
  462.0000   -49.5042     6.0332     7.7100   157.3353     6.6533   107.6661    84.3310
  462.5000   -49.4378     6.0338     7.7890   156.6752     6.6680   109.2124    84.6244
  463.0000   -49.4361     6.0346     7.8324   157.4208     6.6674   109.6640    81.9102
  463.5000   -49.4348     6.0353     7.8610   159.2923     6.6670   108.8341    79.7976
  464.0000   -49.4333     6.0361     7.8156   160.6234     6.6817   108.1552    84.3015
  464.5000   -49.4316     6.0369     7.7414   162.6762     6.6813   107.7777    90.3082
  465.0000   -49.2803     6.0376     7.6437   164.4922     6.6960   107.0986    93.6842
  465.5000   -49.2788     6.0384     7.5494   166.5209     6.6954   106.4196    94.9541
  466.0000   -49.2771     6.0392     7.4571   168.6864     6.7101   106.0421    92.9919
  466.5000   -49.2759     5.9647     7.3804   169.6921     6.7097   105.8155    92.0822
  467.0000   -49.1244     5.9584     7.3313   170.1810     6.7092   106.4928    95.2328
  467.5000   -49.1229     5.8910     7.2928   170.1734     6.7088   107.1828    98.0825
  468.0000   -49.1215     5.8917     7.2931   169.2107     6.7084   107.5464    94.7669
  468.5000   -49.1199     5.8935     7.2934   168.6497     6.7230   106.5658    93.1053
  469.0000   -49.1184     5.9684     7.3238   167.0589     6.7225   106.4899    88.8874
