~VERSION INFORMATION
 VERS.                2.0:   CWLS LOG ASCII STANDARD - VERSION 2.0
 WRAP.                 NO:   ONE LINE PER DEPTH STEP
~WELL INFORMATION
#MNEM.UNIT      DATA TYPE    INFORMATION
#----------   ------------   ------------------------------
 STRT.F           87.0000:   START DEPTH
 STOP.F          987.0000:   STOP DEPTH
 STEP.F            0.5000:   STEP LENGTH
 NULL.          -999.2500:   NO VALUE
 COMP.   FLUOR DANIEL INC:   COMPANY
 WELL. NAVAL PETROLEUM RESERVE 3 SH-2 #53-2:   WELL
 FLD .        TEAPOT DOME:   FIELD
 LOC .       S2 T38N R78W:   LOCATION
 CNTY.            NATRONA:   COUNTY
 STAT.            WYOMING:   STATE
 CTRY. UNITED STATES OF AMERICA:   COUNTRY
 SRVC. Schlumberger Well Surveying Corp:   SERVICE COMPANY
 DATE.        17-JUL-1963:   LOGDATE
 API .       490250645200:   API NUMBER
~CURVE INFORMATION
#MNEM.UNIT       API CODE    CURVE DESCRIPTION
#----------   ------------   ------------------------------
 DEPT.F                  :   
 GR  .GAPI   30 310 01 00:   GAMMA RAY
 SPR .MV     05 010 01 00:   SPONTANEOUS POTENTIAL
 CILD.MMHO   05 110 46 00:   CONDUCTIVITY INDUCTION LOG DEEP
 ILD .OHMM   05 120 46 00:   INDUCTION LOG DEEP
 ASN .OHMM   05 041 16 00:   AMPLIFIED SHORT NORMAL 16"
~PARAMETER INFORMATION
#MNEM.UNIT          VALUE    DESCRIPTION
#----------   ------------   ------------------------------
 PD  .                 GL:   PERMANENT DATUM
 EPD .F              5165:   ELEVATION PERMANENT DATUM
 LMF .                 KB:   LOG MEASURED FROM
 DAPD.F                 5:   FEET ABOVE PERMANENT DATUM
 DMF .                 KB:   DRILLING MEASURED FROM
 EKB .F              5170:   KELLING BUSHING
 EGL .F              5165:   GROUND LEVEL
 DATE.          7-17-1963:   RUN DATE
 RUN .                  1:   RUN NUMBER
 DD  .F               986:   DEPTH DRILLER
 DL  .F               987:   DEPTH LOGGER
 BLI .F               986:   BOTTOM LOG INTERVAL
 TLI .F                30:   TOP LOG INTERVAL
 CS  .IN            8.625:   CASING SIZE
 CBD .F                10:   CASING BOTTOM DRILLER
 BS  .IN            7.875:   BIT SIZE
 BSD .F               986:   BIT SIZE AT DEPTH
 DFT .            GEL-OIL:   DRILLING FLUID TYPE
 DFD .                9.4:   DRILLING FLUID DENSITY
 DFV .                 67:   DRILLING FLUID VISCOSITY
 DFPH.                8.5:   DRILLING FLUID PH
 DFL .                4.6:   DRILLING FLUID LOSS
 MSS .           FLOWLINE:   MUD SAMPLE SOURCE
 RMS .OHMM           3.37:   RESISTIVITY MUD SAMPLE
 MST .F                79:   MUD SAMPLE TEMPERATURE
 RMF .OHMM           1.49:   RESISTIVITY MUD FILTRATE SAMPLE
 MFST.F                83:   MUD FILTRATE SAMPLE TEMPERATURE
 MFSS.           MEASURED:   MUD FILTRATE SAMPLE SOURCE
 BHT .F                80:   BOTTOM HOLE TEMPERATURE
 TCS .HRS            0030:   TIME CURCULATED STOPPED
 MRT .F                80:   MAXIMUM RECORDED TEMPERATURE
 LUN .               4507:   LOGGING UNIT NUMBER
 LUL .              CSPR.:   LOGGING UNIT LOCATION
 ENGI.            WINKLER:   RECORDING ENGINEER
 WITN.          JORGENSON:   WITNESSED BY
 CLNT.            A2DTECH:   CLIENT CODE
 ORIG.      2" & 5" PRINT:   ORIGIN OF DATA
 UWI .       490250645200:   UNIQUE WELL ID
 DICO. A2D Technologies, Inc.:   DIGITIZING COMPANY
~OTHER INFORMATION
~A   DEPT       GR        SPR       CILD          ILD        ASN 
# ...
  819.0000   112.2711   -45.2811   252.9970     4.0937     5.3283
  819.5000   117.9963   -45.2811   255.2403     3.9782     5.1491
  820.0000   109.5603   -45.2811   247.0925     4.1357     5.2891
  820.5000   119.2373   -45.2811   233.5755     4.3782     5.6767
  821.0000   115.8384   -45.2811   219.9819     4.6304     5.8356
  821.5000   118.6744   -45.2811   206.4026     4.8850     5.9742
  822.0000   116.2987   -45.2811   192.8149     5.2738     6.2266
  822.5000   112.5803   -45.2811   179.3035     5.6596     6.6126
  823.0000   117.8285   -45.2811   169.7215     6.0440     6.9912
  823.5000   108.3408   -45.2811   160.9084     6.4278     7.3693
  824.0000   109.1022   -45.2811   151.8823     6.8122     7.7464
  824.5000   110.2041   -45.2811   142.6583     7.1825     8.1030
  825.0000   117.4860   -45.2811   134.1709     7.5649     8.3781
  825.5000   110.7880   -45.2811   129.8406     7.9753     8.5112
  826.0000   119.6832   -45.2809   126.9176     7.9938     8.5998
  826.5000   114.7011   -45.2809   126.1370     7.9910     8.6254
  827.0000   114.0050   -45.2936   128.6397     7.9677     8.6212
  827.5000   111.1421   -45.3836   131.3819     7.7931     8.5356
  828.0000   121.3497   -45.4735   134.5673     7.6178     8.4854
  828.5000   123.6142   -45.5632   138.6806     7.4431     8.4175
  829.0000   131.8735   -45.6530   142.7725     7.2685     8.3109
  829.5000   122.9284   -45.7426   146.8785     7.0949     8.0950
  830.0000   125.8074   -45.8311   152.3441     6.9268     7.8696
  830.5000   114.4409   -45.8432   164.4277     6.4886     7.6441
  831.0000   116.7936   -45.7453   180.5442     5.9826     7.3989
  831.5000   126.4982   -45.6493   199.5934     5.4752     7.1217
  832.0000   128.4512   -45.5518   218.6049     4.9714     6.8324
  832.5000   125.9927   -45.4287   233.3431     4.5124     6.2438
  833.0000   126.4446   -45.2046   238.3575     4.2793     5.7734
  833.5000   121.6822   -44.9860   235.8928     4.3561     5.3986
  834.0000   117.2241   -44.8814   232.5159     4.4416     5.5654
  834.5000   117.6506   -44.8793   228.0574     4.5669     5.6682
  835.0000   120.2986   -44.8794   222.6131     4.7085     5.7793
  835.5000   105.1897   -44.8788   207.8923     4.8377     6.4136
  836.0000    98.5407   -44.9706   186.5456     5.5024     7.0375
  836.5000   102.0626   -45.1326   165.2408     6.2253     7.5701
  837.0000   104.6959   -45.2952   149.7800     6.8943     7.8537
  837.5000   111.0920   -45.4577   143.2516     7.1876     7.9792
  838.0000   109.3199   -45.6217   137.1859     7.4666     8.1242
  838.5000   118.9264   -45.6819   136.1809     7.5868     8.2861
  839.0000   117.1256   -45.6829   136.1809     7.5953     8.4535
  839.5000   115.5801   -45.6829   136.1809     7.6589     8.5287
  840.0000   119.2752   -45.6831   134.8032     7.7624     8.6300
  840.5000   122.3884   -45.6825   133.3258     7.8994     8.8063
  841.0000   123.6270   -45.6571   131.8484     7.9913     8.8877
  841.5000   126.5586   -45.5459   130.3753     7.9900     8.9356
  842.0000   125.3206   -45.4388   129.3869     7.9639     8.9342
  842.5000   122.8933   -45.3318   130.9504     7.9182     8.9217
  843.0000   122.8727   -45.2249   132.4920     7.8719     8.8849
  843.5000   121.9257   -45.1179   134.0336     7.7692     8.8435
  844.0000   117.7939   -45.0107   135.5753     7.6679     8.8168
  844.5000   107.3728   -44.9000   135.7965     7.5942     8.7890
  845.0000   112.7013   -44.9230   135.1633     7.6409     8.7321
  845.5000   108.0682   -44.9786   134.5302     7.6853     8.6293
  846.0000   104.8007   -45.0359   133.8846     7.7301     8.5940
  846.5000   113.6606   -45.1204   133.2276     7.7773     8.6274
  847.0000   120.2943   -45.3265   134.1393     7.7694     8.6391
  847.5000   128.4810   -45.4856   144.8241     7.3094     8.5491
  848.0000   120.6256   -45.4831   159.1508     6.8628     8.3848
  848.5000   113.8751   -45.4871   175.6131     6.0708     8.1266
  849.0000   121.5938   -45.3066   192.0890     5.4256     7.7132
  849.5000   122.4949   -45.1035   201.8933     5.2788     7.0678
  850.0000   127.6815   -44.8994   204.6383     5.2076     6.3391
  850.5000   128.4463   -44.6942   207.4002     5.1324     6.2392
  851.0000   117.5100   -44.4885   210.1488     5.0554     6.2704
  851.5000   109.2233   -44.5541   212.4516     4.9784     5.8715
  852.0000   116.5402   -44.6407   208.9950     4.9737     5.8001
  852.5000   122.6257   -44.6782   201.3819     5.1161     6.7320
  853.0000   123.4891   -44.6789   193.4673     5.3693     7.0523
  853.5000   122.2484   -44.6780   197.8191     5.3587     7.1480
  854.0000   120.7378   -44.6229   206.9548     5.0821     6.9588
  854.5000   117.8488   -44.4768   212.5628     4.9764     6.6389
  855.0000   115.1463   -44.3299   211.2228     4.9746     6.1486
  855.5000   119.5773   -44.3178   209.5477     4.9747     5.7896
  856.0000   121.8380   -44.3799   209.1206     4.9748     5.7908
  856.5000   119.2954   -44.4458   208.6976     4.9732     5.9561
  857.0000   119.0774   -44.6117   204.6336     4.9630     5.9457
  857.5000   122.8228   -44.9032   194.4576     5.4011     6.4862
  858.0000   127.9553   -45.1965   178.4790     5.9083     7.1823
  858.5000   117.9111   -45.2803   157.0477     6.4168     7.5408
  859.0000   119.6502   -45.2817   148.2412     6.8639     7.7244
  859.5000   112.7038   -45.2814   142.7638     7.1175     7.8178
  860.0000   124.0102   -45.2823   146.0774     7.1931     7.8699
  860.5000   116.2839   -45.2290   155.2920     6.9312     7.8412
  861.0000   115.9297   -45.1591   168.2894     6.3838     7.8000
  861.5000   125.8183   -45.0889   183.3026     5.8413     7.7659
  862.0000   116.0907   -45.0191   193.0172     5.2998     7.3866
  862.5000   104.9818   -44.9502   196.2216     5.2722     6.8963
  863.0000    96.2975   -44.8723   195.5276     5.2751     6.4343
  863.5000    97.9827   -44.5988   194.2588     5.2762     6.4171
  864.0000   100.2473   -44.3130   192.5126     5.3059     6.4436
  864.5000   100.8587   -44.4969   189.9749     5.4905     6.6114
  865.0000    93.2877   -44.7599   181.2635     5.6909     7.1706
  865.5000    95.2996   -45.0248   165.3123     6.2961     7.7872
  866.0000    85.0062   -45.2874   149.3611     6.9187     8.4054
  866.5000    80.4443   -45.5517   136.4196     7.5397     8.7798
  867.0000    91.9076   -45.6591   127.5377     8.0382     8.9871
  867.5000    96.6807   -45.6192   123.4611     8.3790     9.1694
  868.0000   104.6553   -45.5771   121.1055     8.4912     9.3480
  868.5000   109.7213   -45.5345   121.1055     8.4930     9.4942
  869.0000   103.5778   -45.4921   121.1055     8.4909     9.5630
  869.5000   101.9216   -45.4498   120.6805     8.4865     9.6660
  870.0000   109.5016   -45.4075   119.2002     8.6400     9.7175
  870.5000   111.2656   -45.3651   117.7198     8.7441     9.7608
  871.0000   110.1732   -45.3228   116.2395     8.8465     9.8016
  871.5000   103.3560   -45.2805   114.7592     8.8941     9.8135
  872.0000   103.2638   -45.2381   114.4724     8.8086     9.8271
  872.5000   111.7198   -45.1959   117.3726     8.6486     9.8352
  873.0000   101.6150   -45.1540   120.2728     8.4877     9.7589
  873.5000   107.1307   -45.1106   121.8449     8.3205     9.5873
  874.0000   104.7812   -45.0267   121.1055     8.4170     9.5142
  874.5000   105.8015   -44.7943   118.4872     8.5785     9.5948
  875.0000   102.2958   -44.7439   115.8159     8.7417     9.4218
  875.5000   101.2496   -44.8770   113.1447     8.9056     9.5991
  876.0000   108.0676   -45.0091   111.0553     9.0728     9.8538
  876.5000   103.4883   -45.1428   114.0704     8.9710     9.9950
  877.0000   107.8609   -45.2757   127.7387     8.5117    10.1069
  877.5000   110.8086   -45.2823   145.4774     7.6176    10.0957
  878.0000   117.8863   -45.2804   170.8543     6.7314     9.9625
  878.5000   122.0781   -45.2146   190.4523     5.8437     9.3501
  879.0000   119.3003   -45.0333   195.0084     5.3670     8.2783
  879.5000   108.8269   -44.8531   193.3166     5.3520     6.9756
