~VERSION INFORMATION
 VERS.                2.0:   CWLS LOG ASCII STANDARD - VERSION 2.0
 WRAP.                 NO:   ONE LINE PER DEPTH STEP
~WELL INFORMATION
#MNEM.UNIT      DATA TYPE    INFORMATION
#----------   ------------   ------------------------------
 STRT.F           32.0000:   START DEPTH
 STOP.F          502.0000:   STOP DEPTH
 STEP.F            0.5000:   STEP LENGTH
 NULL.          -999.2500:   NO VALUE
 COMP.    FENIX & SCISSON:   COMPANY
 WELL. NPR # #3 65-36-SX-3-FP:   WELL
 FLD .             TEAPOT:   FIELD
 LOC .       S3 T38N R78W:   LOCATION
 CNTY.            NATRONA:   COUNTY
 STAT.            WYOMING:   STATE
 CTRY. UNITED STATES OF AMERICA:   COUNTRY
 SRVC.              Welex:   SERVICE COMPANY
 DATE.        15-JUN-1980:   LOGDATE
 API .       490251082600:   API NUMBER
~CURVE INFORMATION
#MNEM.UNIT       API CODE    CURVE DESCRIPTION
#----------   ------------   ------------------------------
 DEPT.F                  :   
 CALD.IN     45 280 60 00:   CALIPER FROM DENSITY LOG
 CORR.G/C3   45 356 01 00:   DENSITY CORRECTION
 DPHI.DEC    45 890 12 00:   DENSITY POROSITY SANDSTONE
 GRD .GAPI   45 310 01 00:   GAMMA RAY FROM DENSITY LOG
 RHOB.G/C3   45 350 01 00:   BULK DENSITY
 NPHI.DEC    42 890 03 00:   NEUTRON POROSITY SANDSTONE
 ILD .OHMM   07 120 46 00:   INDUCTION LOG DEEP
 ILM .OHMM   07 120 44 00:   INDUCTION LOG MEDIUM
 SGRD.OHMM   07 220 05 00:   SHALLOW GUARD RESISTIVITY
 SPR .MV     07 010 01 00:   SPONTANEOUS POTENTIAL FROM RES.
~PARAMETER INFORMATION
#MNEM.UNIT          VALUE    DESCRIPTION
#----------   ------------   ------------------------------
 PD  .                 GL:   PERMANENT DATUM
 EPD .F              5159:   ELEVATION PERMANENT DATUM
 LMF .                 KB:   LOG MEASURED FROM
 DAPD.F                 5:   FEET ABOVE PERMANENT DATUM
 DMF .                 KB:   DRILLING MEASURED FROM
 EKB .F              5164:   KELLING BUSHING
 EGL .F              5159:   GROUND LEVEL
 DATE.            6-15-80:   RUN DATE
 RUN .                  1:   RUN NUMBER
 DD  .F               505:   DEPTH DRILLER
 DL  .F               504:   DEPTH LOGGER
 BLI .F               502:   BOTTOM LOG INTERVAL
 TLI .F                30:   TOP LOG INTERVAL
 BS  .IN            9.875:   BIT SIZE
 BSD .F               505:   BIT SIZE AT DEPTH
 DFT .             2% KCL:   DRILLING FLUID TYPE
 DFD .                9.4:   DRILLING FLUID DENSITY
 DFV .                 51:   DRILLING FLUID VISCOSITY
 DFPH.                 12:   DRILLING FLUID PH
 DFL .                5.6:   DRILLING FLUID LOSS
 MSS .           FLOWLINE:   MUD SAMPLE SOURCE
 RMS .OHMM            .36:   RESISTIVITY MUD SAMPLE
 MST .F                65:   MUD SAMPLE TEMPERATURE
 RMF .OHMM            .29:   RESISTIVITY MUD FILTRATE SAMPLE
 MFST.F                65:   MUD FILTRATE SAMPLE TEMPERATURE
 RMC .OHMM            .42:   RESISTIVITY MUD CAKE
 MCST.F                65:   MUD CAKE SAMPLE TEMPERATURE
 MFSS.           MEASURED:   MUD FILTRATE SAMPLE SOURCE
 MCSS.           MEASURED:   MUD CAKE SAMPLE SOURCE
 RMB .OHMM            .32:   RESISTIVITY MUD AT BHT
 BHT .F                74:   BOTTOM HOLE TEMPERATURE
 TCS .HRS               2:   TIME CURCULATED STOPPED
 MRT .F                74:   MAXIMUM RECORDED TEMPERATURE
 LUN .               1892:   LOGGING UNIT NUMBER
 LUL .             CASPER:   LOGGING UNIT LOCATION
 ENGI.               REIN:   RECORDING ENGINEER
 WITN.              AMEND:   WITNESSED BY
 CLNT.            A2DTECH:   CLIENT CODE
 ORIG.       2", 5" PRINT:   ORIGIN OF DATA
 UWI .       490251082600:   UNIQUE WELL ID
 DICO. A2D Technologies, Inc.:   DIGITIZING COMPANY
~OTHER INFORMATION
~A   DEPT     CALD       CORR       DPHI        GRD       RHOB       NPHI         ILD         ILM       SGRD      SPR   
# ...
  400.5000     9.9833     0.0288     0.1577    84.8888     2.3703     0.2754    11.7518    11.6692    15.3857   -42.9647
  401.0000     9.9256     0.0380     0.1530    84.7120     2.3751     0.2735    11.6444    11.3762    15.3817   -43.2360
  401.5000     9.9266     0.0532     0.1451    85.3169     2.3924     0.2708    11.5370    11.0451    15.3777   -43.4187
  402.0000     9.9571     0.0715     0.1265    84.8863     2.4344     0.2660    11.0451    10.8910    15.3737   -43.5647
  402.5000     9.9609     0.0822     0.1184    84.3082     2.4494     0.2669    10.7426    10.8134    15.3687   -43.7107
  403.0000     9.9885     0.0793     0.1165    82.9926     2.4532     0.2713    10.4484    10.7357    15.3647   -43.7135
  403.5000     9.9895     0.0764     0.1231    82.1166     2.4368     0.2752    10.4463    10.7329    15.3610   -43.7167
  404.0000     9.9906     0.0750     0.1272    83.7538     2.4339     0.2776    10.4438    10.7301    15.4630   -43.5755
  404.5000     9.9916     0.0751     0.1269    85.3881     2.4317     0.2724    10.5146    10.8015    15.5659   -43.1491
  405.0000     9.9631     0.0858     0.1232    86.1375     2.4303     0.2724    10.5852    10.8734    15.6686   -42.5597
  405.5000     9.9417     0.1131     0.1094    85.4119     2.4513     0.2736    10.7296    11.3290    15.9918   -42.1523
  406.0000     9.9062     0.1344     0.0965    84.6863     2.4798     0.2765    11.0269    11.9682    15.9876   -41.5819
  406.5000     9.8482     0.1505     0.0985    84.1082     2.4948     0.2768    11.3335    12.2997    15.9825   -41.1547
  407.0000     9.8198     0.1623     0.0979    83.3826     2.5001     0.2777    11.4887    12.2957    15.9784   -40.7277
  407.5000     9.8174     0.1725     0.0942    83.2440     2.5024     0.2804    11.7326    12.2081    15.8645   -40.8739
  408.0000     9.8071     0.1741     0.0921    83.8489     2.5017     0.2866    11.8858    12.1210    15.7513   -41.0640
  408.5000     9.7932     0.1803     0.0902    85.0407     2.4996     0.2911    12.0490    11.9519    15.3180   -41.4528
  409.0000     9.7944     0.1819     0.0866    86.4602     2.5012     0.2947    11.9634    11.9481    15.1043   -41.7574
  409.5000     9.7955     0.1987     0.0919    87.7640     2.5281     0.2982    11.7972    12.1946    15.1004   -42.0320
  410.0000     9.7965     0.1807     0.0982    88.9086     2.4930     0.2982    11.6329    12.9719    15.0964   -41.8907
  410.5000     9.7975     0.1672     0.1006    89.0678     2.4886     0.2927    11.4713    13.0582    15.0916   -41.8941
  411.0000     9.7985     0.1628     0.1038    89.0796     2.4879     0.2891    11.1572    12.4390    15.0877   -41.7535
  411.5000     9.7996     0.1629     0.1089    88.9361     2.4872     0.2842    11.0783    12.0975    15.0838   -41.5969
  412.0000     9.8205     0.1525     0.1169    88.3657     2.4611     0.2809    11.0756    12.0944    15.0715   -41.3298
  412.5000     9.8460     0.1299     0.1187    88.2301     2.4499     0.2785    11.1501    12.2583    14.8686   -41.0460
  413.0000     9.8617     0.1270     0.1090    88.5369     2.4530     0.2782    11.1479    12.4253    14.6611   -40.7621
  413.5000     9.8628     0.1332     0.1111    89.7288     2.4747     0.2803    11.1393    12.7694    14.3573   -40.7655
  414.0000     9.8786     0.1122     0.1119    89.0032     2.4770     0.2788    10.9905    13.1230    14.2549   -40.4817
  414.5000     9.8796     0.0971     0.1128    88.4251     2.4749     0.2778    10.8379    13.3018    14.1525   -40.0802
  415.0000     9.8954     0.0988     0.1193    88.4370     2.4660     0.2778    10.4686    13.2975    14.1492   -39.4747
  415.5000     9.9259     0.0763     0.1229    89.6288     2.4503     0.2769    10.2523    13.2940    14.2430   -38.7712
  416.0000     9.9417     0.0613     0.1271    90.2306     2.4361     0.2726    10.2498    13.2906    14.2392   -38.0576
  416.5000     9.9723     0.0418     0.1228    89.5051     2.4302     0.2708    10.1774    13.2863    14.2347   -37.4866
  417.0000     9.9881     0.0494     0.1219    88.6320     2.4363     0.2717    10.1755    13.1916    14.3304   -37.4900
  417.5000     9.9891     0.0647     0.1194    88.3459     2.4416     0.2729    10.1734    13.0076    14.3257   -37.7798
  418.0000     9.9604     0.0618     0.1197    90.8681     2.4543     0.2740    10.1713    12.7357    14.3101   -37.9258
  418.5000     9.9319     0.0558     0.1181    91.9125     2.4484     0.2749    10.1690    12.4733    14.2190   -38.3583
  419.0000     9.9332     0.0560     0.1139    93.2518     2.4485     0.2752    10.1670    12.5571    14.1176   -38.9341
  419.5000     9.9343     0.0636     0.1042    95.6235     2.4526     0.2751    10.1650    12.6399    13.8251   -38.6502
  420.0000     9.9353     0.0955     0.0907    93.8655     2.4973     0.2748    10.1629    12.7240    13.8214   -37.9373
  420.5000     9.9363     0.1137     0.0910    91.8125     2.5041     0.2751    10.1606    12.8087    13.7221   -37.3669
  421.0000     9.9374     0.1154     0.0924    90.6444     2.5026     0.2768    10.1585    12.8046    13.7185   -37.2263
  421.5000     9.9382     0.1094     0.0933    90.2138     2.5027     0.2792    10.1566    12.7133    13.7150   -37.2297
  422.0000     9.9392     0.0990     0.0959    89.7832     2.5013     0.2804    10.1623    12.7099    13.7113   -37.3757
  422.5000     9.9403     0.0901     0.1139    88.6152     2.4706     0.2783    10.2226    12.7059    13.6128   -37.6649
  423.0000     9.9413     0.0720     0.1180    88.6270     2.4542     0.2767    10.2204    12.7026    13.6093   -37.9542
  423.5000     9.9423     0.0601     0.1228    90.1138     2.4363     0.2767    10.2184    12.6993    13.3272   -37.9575
  424.0000     9.9434     0.0617     0.1206    90.4207     2.4401     0.2779    10.2160    12.6087    13.0502   -37.5304
  424.5000     9.9444     0.0639     0.1199    89.5476     2.4492     0.2799    10.2140    12.4322    13.0468   -36.6735
  425.0000     9.9454     0.0680     0.1208    88.0846     2.4507     0.2805    10.2120    12.2587    13.0434   -35.8166
  425.5000     9.9465     0.0715     0.1208    87.9460     2.4463     0.2808    10.2100    12.0047    12.8615   -34.9604
  426.0000     9.9475     0.0883     0.1103    88.1083     2.4546     0.2801    10.2075    11.5145    12.5076   -34.5333
  426.5000     9.9485     0.1018     0.0997    90.0376     2.4771     0.2821    10.1354    11.2759    12.3331   -34.1062
  427.0000     9.9496     0.1259     0.0995    91.2294     2.4869     0.2846    10.1334    11.1956    12.1611   -33.8224
  427.5000     9.9294     0.1275     0.1023    91.6814     2.4930     0.2865     9.8502    10.8882    11.9915   -33.8257
  428.0000     9.9074     0.1306     0.1017    91.8407     2.4878     0.2938     9.3893    10.2299    11.5814   -33.8284
  428.5000     9.8937     0.1368     0.0992    92.0216     2.5129     0.2998     9.0071     9.4803    11.3414   -33.6879
  429.0000     9.8797     0.1263     0.0945    92.1593     2.5041     0.3016     8.0648     8.4880    11.0301   -33.5473
  429.5000     9.8958     0.0993     0.1009    92.1708     2.4950     0.3063     7.6176     7.6511    10.8762   -33.5507
  430.0000     9.8968     0.0662     0.1051    90.9144     2.4746     0.3099     6.7385     7.0423    10.5043   -33.5530
  430.5000     9.8979     0.0678     0.1036    88.7965     2.4791     0.3059     6.3756     6.3488    10.2159   -33.5563
  431.0000     9.8988     0.0694     0.0924    88.6666     2.4874     0.3026     5.6305     5.7632    10.0042   -33.7020
  431.5000     9.9147     0.0771     0.0873    89.7110     2.4949     0.3005     5.3243     5.6032     9.7969   -33.8487
  432.0000     9.9452     0.1029     0.0839    92.2302     2.5085     0.3008     5.2531     5.5265     9.3323   -34.1379
  432.5000     9.9610     0.1000     0.0956    94.3070     2.5227     0.3014     5.2521     5.4871     7.7989   -34.5704
  433.0000     9.9768     0.0820     0.1117    96.0888     2.4816     0.3007     5.2511     5.4857     6.0000   -35.5760
  433.5000     9.9628     0.0730     0.1132    97.4281     2.4660     0.3004     5.2500     5.5222     6.1237   -35.5793
