~VERSION INFORMATION
 VERS.                2.0:   CWLS LOG ASCII STANDARD - VERSION 2.0
 WRAP.                 NO:   ONE LINE PER DEPTH STEP
~WELL INFORMATION
#MNEM.UNIT      DATA TYPE    INFORMATION
#----------   ------------   ------------------------------
 STRT.F            0.0000:   START DEPTH
 STOP.F         1027.0000:   STOP DEPTH
 STEP.F            0.1000:   STEP LENGTH
 NULL.          -999.2500:   NO VALUE
 COMP.       F D SERV INC:   COMPANY
 WELL.   77-1 X 27 #77-27:   WELL
 FLD .             TEAPOT:   FIELD
 LOC .      S27 T39N R78W:   LOCATION
 CNTY.            NATRONA:   COUNTY
 STAT.            WYOMING:   STATE
 CTRY. UNITED STATES OF AMERICA:   COUNTRY
 SRVC.      Western Atlas:   SERVICE COMPANY
 DATE.        04-NOV-1991:   LOGDATE
 API .       490252248600:   API NUMBER
~CURVE INFORMATION
#MNEM.UNIT       API CODE    CURVE DESCRIPTION
#----------   ------------   ------------------------------
 DEPT.F                  :   
 GRR .GAPI   07 310 01 00:   GAMMA RAY
 RILD.OHMM   07 120 46 00:   INDUCTION LOG DEEP RESISTIVITY
 RFOC.OHMM   07 220 04 00:   RESISTIVITY FOCUSED LOG
 RILM.OHMM   07 120 44 00:   INDUCTION LOG MEDIUM RESISTIVITY
 SPR .MV     07 010 01 00:   SPONTANEOUS POTENTIAL
~PARAMETER INFORMATION
#MNEM.UNIT          VALUE    DESCRIPTION
#----------   ------------   ------------------------------
 PD  .                 GL:   PERMANENT DATUM
 EPD .F              5077:   ELEVATION PERMANENT DATUM
 LMF .                 KB:   LOG MEASURED FROM
 DAPD.F                10:   FEET ABOVE PERMANENT DATUM
 DMF .                 KB:   DRILLING MEASURED FROM
 EKB .F              5087:   KELLING BUSHING
 EDF .F              5086:   DRILLING FLOOR
 EGL .F              5077:   GROUND LEVEL
 DATE.        04-NOV-1991:   RUN DATE
 RUN .                  1:   RUN NUMBER
 DD  .F              1030:   DEPTH DRILLER
 DL  .F              1030:   DEPTH LOGGER
 BLI .F              1027:   BOTTOM LOG INTERVAL
 CS  .IN            9.625:   CASING SIZE
 CBD .F                50:   CASING BOTTOM DRILLER
 CBL .F                52:   CASING BOTTOM LOGGER
 BS  .IN             8.75:   BIT SIZE
 BSD .F              1030:   BIT SIZE AT DEPTH
 DFT .          KCL WATER:   DRILLING FLUID TYPE
 MSS .           FLOWLINE:   MUD SAMPLE SOURCE
 RMS .OHMM            .24:   RESISTIVITY MUD SAMPLE
 MST .F                72:   MUD SAMPLE TEMPERATURE
 RMB .OHMM            .19:   RESISTIVITY MUD AT BHT
 BHT .F                90:   BOTTOM HOLE TEMPERATURE
 TCS .HRS               2:   TIME CURCULATED STOPPED
 MRT .F                90:   MAXIMUM RECORDED TEMPERATURE
 LUN .            HL-6274:   LOGGING UNIT NUMBER
 LUL .             CASPER:   LOGGING UNIT LOCATION
 ENGI.             RAUTIO:   RECORDING ENGINEER
 WITN.             STRONG:   WITNESSED BY
 CLNT.            A2DTECH:   CLIENT CODE
 ORIG.           5" PRINT:   ORIGIN OF DATA
 UWI .       490252248600:   UNIQUE WELL ID
 DICO. A2D Technologies, Inc.:   DIGITIZING COMPANY
~OTHER INFORMATION
~A    DEPT      GRR      RILD       RFOC       RILM        SPR   
# ...
  305.0000    91.2799     2.7083     2.9161     2.6082   -24.4611
  305.1000    91.2826     2.7702     3.0308     2.7152   -24.5204
  305.2000    91.4359     2.8384     3.1392     2.7798   -24.5198
  305.3000    91.5112     2.9141     3.2996     2.8501   -24.5192
  305.4000    91.5844     2.9980     3.4284     2.9157   -24.5185
  305.5000    91.7403     3.0756     3.5695     2.9856   -24.5180
  305.6000    91.7426     3.1460     3.7772     3.0761   -24.5940
  305.7000    91.9194     3.2179     4.0925     3.1434   -24.6665
  305.8000    92.1060     3.3049     4.5337     3.2158   -24.6882
  305.9000    92.1983     3.3674     4.7660     3.2801   -24.8149
  306.0000    92.2545     3.4446     4.9322     3.3365   -24.8144
  306.1000    92.4274     3.5235     5.0206     3.3924   -24.8138
  306.2000    92.4300     3.6041     5.0658     3.4368   -24.8132
  306.3000    92.7471     3.6915     5.0658     3.4874   -24.8126
  306.4000    92.8832     3.7713     5.0658     3.5475   -24.8120
  306.5000    92.9625     3.8578     5.0216     3.5998   -24.8113
  306.6000    93.1491     3.9462     4.9960     3.6409   -24.9154
  306.7000    93.3391     4.0366     4.9865     3.6833   -24.9599
  306.8000    93.3413     4.1331     4.9582     3.7246   -24.9593
  306.9000    93.6246     4.3281     4.9272     3.7509   -24.9587
  307.0000    93.7949     4.4327     4.9022     3.7840   -24.9581
  307.1000    93.8571     4.5440     4.8744     3.8200   -25.0760
  307.2000    94.0437     4.6375     4.8343     3.8417   -25.1066
  307.3000    94.2510     4.7120     4.7946     3.8660   -25.1060
  307.4000    94.4167     4.7678     4.8043     3.8855   -25.0683
  307.5000    94.6033     4.8196     4.8140     3.9076   -24.9551
  307.6000    94.7899     4.8540     4.8237     3.9298   -24.9544
  307.7000    94.9764     4.8670     4.8334     3.9522   -24.9539
  307.8000    95.1656     4.8667     4.8431     3.9743   -24.9533
  307.9000    95.5364     4.8664     4.8527     3.9742   -24.9527
  308.0000    95.7605     4.8660     4.8593     3.9922   -24.9521
  308.1000    95.9470     4.8657     4.8593     4.0016   -24.9515
  308.2000    96.1997     4.8654     4.8593     4.0097   -24.9509
  308.3000    96.5447     4.8650     4.8349     4.0293   -24.9503
  308.4000    96.7457     4.8594     4.8075     4.0292   -24.9497
  308.5000    96.9177     4.8307     4.7681     4.0503   -24.9491
  308.6000    96.9746     4.8038     4.7202     4.0570   -24.9593
  308.7000    97.0662     4.7763     4.6932     4.0569   -25.0975
  308.8000    97.2036     4.7347     4.6402     4.0568   -25.0970
  308.9000    97.2058     4.6808     4.5878     4.0567   -25.0964
  309.0000    97.2085     4.6252     4.5214     4.0565   -25.0958
  309.1000    97.2103     4.5365     4.4536     4.0565   -25.1199
  309.2000    97.1000     4.4917     4.3968     4.0705   -25.2443
  309.3000    96.8456     4.4407     4.2890     4.0845   -25.3639
  309.4000    96.4152     4.3902     4.2779     4.0844   -25.3928
  309.5000    95.6476     4.3402     4.2658     4.0843   -25.3922
  309.6000    94.9454     4.2902     4.2940     4.0841   -25.3916
  309.7000    94.3464     4.2421     4.3678     4.0840   -25.4026
  309.8000    93.7958     4.2121     4.4420     4.0839   -25.5400
  309.9000    93.3557     4.1623     4.5024     4.0838   -25.5395
  310.0000    93.1736     4.1066     4.5232     4.0837   -25.5389
  310.1000    92.9666     4.0830     4.5337     4.0836   -25.5383
  310.2000    93.1276     4.0569     4.5337     4.0835   -25.5377
  310.3000    93.3141     4.0363     4.5337     4.0833   -25.5371
  310.4000    93.4221     4.0283     4.5337     4.0734   -25.5365
  310.5000    93.4626     4.0179     4.5337     4.0549   -25.5359
  310.6000    93.6512     3.9999     4.5153     4.0548   -25.5353
  310.7000    93.8356     3.9997     4.5024     4.0547   -25.5347
  310.8000    94.0222     3.9994     4.5024     4.0368   -25.5465
  310.9000    94.2087     3.9991     4.5024     4.0138   -25.6832
  311.0000    94.3338     3.9988     4.5024     3.9909   -25.6826
  311.1000    94.3783     3.9986     4.4810     3.9681   -25.6820
  311.2000    94.7877     3.9983     4.4712     3.9431   -25.7349
  311.3000    94.7897     3.9980     4.4712     3.9229   -25.8569
  311.4000    94.9168     3.9977     4.4667     3.9005   -25.9796
  311.5000    95.1033     3.9974     4.4403     3.8783   -25.9790
  311.6000    95.1569     3.9972     4.4162     3.8561   -25.9784
  311.7000    94.7906     3.9969     4.4096     3.8341   -26.0453
  311.8000    94.3522     3.9966     4.3837     3.8079   -26.1672
  311.9000    93.7617     3.9963     4.3489     3.7905   -26.2761
  312.0000    93.1347     3.9961     4.3449     3.7689   -26.2754
  312.1000    92.5841     3.9958     4.2890     3.7473   -26.2749
  312.2000    92.0608     3.9955     4.2680     3.7259   -26.3557
  312.3000    91.6686     3.9922     4.2438     3.7032   -26.4776
  312.4000    91.3282     3.9673     4.2299     3.6835   -26.5725
  312.5000    90.9619     3.9465     4.2250     3.6774   -26.5719
  312.6000    90.7769     3.9239     4.2007     3.6568   -26.6938
  312.7000    90.7287     3.9014     4.1773     3.6152   -26.7204
  312.8000    90.5467     3.8734     4.1356     3.5753   -26.7880
  312.9000    90.3349     3.8294     4.1015     3.5515   -26.8689
  313.0000    90.3368     3.7777     4.0707     3.5346   -26.8683
  313.1000    90.2251     3.7257     4.0270     3.5021   -26.8676
  313.2000    90.1168     3.6625     4.0016     3.4623   -26.8671
  313.3000    90.1190     3.5928     4.0016     3.4230   -26.8665
  313.4000    90.1213     3.5117     3.9865     3.3826   -26.8659
  313.5000    90.1235     3.4270     3.9639     3.3275   -26.8653
  313.6000    90.2629     3.3377     3.9465     3.2574   -26.8647
  313.7000    90.4494     3.2058     3.9465     3.1839   -26.8641
  313.8000    90.6359     3.0881     3.9465     3.1120   -26.8635
  313.9000    90.8551     3.0057     3.9288     3.0373   -26.7938
  314.0000    91.4823     2.9402     3.9066     2.9031   -26.7126
  314.1000    91.8049     2.9205     3.8844     2.8324   -26.6972
  314.2000    92.1757     2.9066     3.8624     2.7629   -26.5616
  314.3000    92.4668     2.8899     3.8385     2.6941   -26.5611
  314.4000    92.7324     2.8734     3.7990     2.6245   -26.5605
  314.5000    93.2897     2.8596     3.7561     2.5797   -26.5040
  314.6000    93.4755     2.8594     3.6940     2.5505   -26.3808
  314.7000    93.8052     2.8592     3.6057     2.5327   -26.2593
  314.8000    94.1760     2.8590     3.5056     2.5263   -26.2587
  314.9000    94.6096     2.8670     3.4353     2.5262   -26.1611
  315.0000    95.1422     2.8831     3.3573     2.5262   -26.0379
  315.1000    95.5489     2.8983     3.2741     2.5261   -25.9575
  315.2000    95.7174     2.8981     3.2071     2.5391   -25.9413
  315.3000    95.9039     2.9259     3.1500     2.5535   -25.8065
  315.4000    96.0045     2.9382     3.0745     2.5680   -25.6950
  315.5000    96.0067     2.9515     3.0100     2.5826   -25.4880
  315.6000    95.9982     2.9850     2.9072     2.5973   -25.2990
  315.7000    95.5625     3.0202     2.8248     2.6148   -25.1463
  315.8000    95.2656     3.0366     2.7989     2.6269   -24.9030
  315.9000    94.5720     3.0537     2.8318     2.6508   -24.7798
  316.0000    93.8593     3.0800     2.8885     2.6869   -24.6567
  316.1000    93.5215     3.1150     2.9302     2.7306   -24.4629
  316.2000    93.3280     3.1489     2.9806     2.7638   -24.2607
  316.3000    93.3301     3.1691     3.0319     2.8084   -24.1212
  316.4000    93.3323     3.2158     3.0840     2.8568   -23.8538
  316.5000    93.3346     3.2471     3.1392     2.8893   -23.7415
  316.6000    93.3368     3.2811     3.1911     2.9104   -23.6184
  316.7000    93.3276     3.3334     3.2599     2.9436   -23.5527
  316.8000    93.1171     3.3721     3.3349     2.9825   -23.5217
  316.9000    93.1190     3.4286     3.4235     3.0259   -23.4018
  317.0000    93.1213     3.4723     3.5420     3.0560   -23.4011
  317.1000    93.0485     3.5226     3.6821     3.0878   -23.3020
