~VERSION INFORMATION
 VERS.                2.0:   CWLS LOG ASCII STANDARD - VERSION 2.0
 WRAP.                 NO:   ONE LINE PER DEPTH STEP
~WELL INFORMATION
#MNEM.UNIT      DATA TYPE    INFORMATION
#----------   ------------   ------------------------------
 STRT.F           85.5000:   START DEPTH
 STOP.F         1080.5000:   STOP DEPTH
 STEP.F            0.5000:   STEP LENGTH
 NULL.          -999.2500:   NO VALUE
 COMP.         U.S.  NAVY:   COMPANY
 WELL.  N.P.R. #3 #67-S-2:   WELL
 FLD .             TEAPOT:   FIELD
 LOC .       S2 T38N R78W:   LOCATION
 CNTY.            NATRONA:   COUNTY
 STAT.            WYOMING:   STATE
 CTRY. UNITED STATES OF AMERICA:   COUNTRY
 SRVC.       Schlumberger:   SERVICE COMPANY
 DATE.        20-JUL-1964:   LOGDATE
 API .       490250639700:   API NUMBER
~CURVE INFORMATION
#MNEM.UNIT       API CODE    CURVE DESCRIPTION
#----------   ------------   ------------------------------
 DEPT.F                  :   
 GR  .GAPI   30 310 01 00:   GAMMA RAY
 DT  .US/F   60 520 33 00:   INTERVAL TRANSIT TIME
 SPR .MV     06 010 01 00:   SPONTANEOUS POTENTIAL
 CILD.MMHO   06 110 46 00:   CONDUCTIVITY INDUCTION LOG DEEP
 ASN .OHMM   06 041 16 00:   AMPLIFIED SHORT NORMAL 16"
 ILD .OHMM   06 120 46 00:   INDUCTION LOG DEEP
~PARAMETER INFORMATION
#MNEM.UNIT          VALUE    DESCRIPTION
#----------   ------------   ------------------------------
 PD  .                 GL:   PERMANENT DATUM
 EPD .F              5207:   ELEVATION PERMANENT DATUM
 LMF .                 KB:   LOG MEASURED FROM
 DAPD.F                 5:   FEET ABOVE PERMANENT DATUM
 DMF .                 KB:   DRILLING MEASURED FROM
 EKB .F              5212:   KELLING BUSHING
 EGL .F              5207:   GROUND LEVEL
 DATE.          7-20-1964:   RUN DATE
 RUN .                  1:   RUN NUMBER
 DD  .F              1080:   DEPTH DRILLER
 DL  .F              1081:   DEPTH LOGGER
 BLI .F              1080:   BOTTOM LOG INTERVAL
 TLI .F                86:   TOP LOG INTERVAL
 CS  .IN            8.625:   CASING SIZE
 CBD .F                10:   CASING BOTTOM DRILLER
 BS  .IN             6.75:   BIT SIZE
 BSD .F              1080:   BIT SIZE AT DEPTH
 DFT .            GEL-OIL:   DRILLING FLUID TYPE
 DFD .                9.5:   DRILLING FLUID DENSITY
 DFV .                 43:   DRILLING FLUID VISCOSITY
 MSS .           FLOWLINE:   MUD SAMPLE SOURCE
 RMS .OHMM           1.85:   RESISTIVITY MUD SAMPLE
 MST .F                83:   MUD SAMPLE TEMPERATURE
 RMF .OHMM           1.29:   RESISTIVITY MUD FILTRATE SAMPLE
 MFST.F                83:   MUD FILTRATE SAMPLE TEMPERATURE
 RMC .OHMM           2.49:   RESISTIVITY MUD CAKE
 MCST.F                83:   MUD CAKE SAMPLE TEMPERATURE
 MFSS.                 FP:   MUD FILTRATE SAMPLE SOURCE
 MCSS.                 FP:   MUD CAKE SAMPLE SOURCE
 TCS .HRS               2:   TIME CURCULATED STOPPED
 LUN .               4507:   LOGGING UNIT NUMBER
 LUL .               CSPR:   LOGGING UNIT LOCATION
 ENGI.             DANNER:   RECORDING ENGINEER
 WITN.          JORGENSEN:   WITNESSED BY
 CLNT.            A2DTECH:   CLIENT CODE
 ORIG.           2" PRINT:   ORIGIN OF DATA
 UWI .       490250639700:   UNIQUE WELL ID
 DICO. A2D Technologies, Inc.:   DIGITIZING COMPANY
~OTHER INFORMATION
~A   DEPT       GR         DT        SPR       CILD        ASN        ILD   
# ...
  501.5000    57.8055   102.7531   -21.9741   226.6454     6.0215     3.7471
  502.0000    66.7138   102.5238   -21.7281   289.2789     5.4930     3.2143
  502.5000    73.9239   103.1428   -21.4826   351.9124     4.8719     2.6908
  503.0000    68.1275   106.1783   -21.2366   414.5458     4.2550     2.1812
  503.5000    66.7568   113.3766   -21.1599   463.6454     3.6328     1.9332
  504.0000    66.4498   120.5748   -21.1596   480.1461     3.3683     1.7692
  504.5000    58.9656   127.7730   -21.1598   498.5060     3.2375     1.6488
  505.0000    55.7239   134.9713   -21.3808   487.3506     3.1406     1.9419
  505.5000    46.8440   142.1695   -21.7180   447.2198     3.3065     2.1951
  506.0000    37.9067   143.8438   -22.0548   396.6109     3.5527     2.4371
  506.5000    30.5281   135.8284   -22.3920   346.0020     3.7971     2.6441
  507.0000    40.8666   127.5832   -22.7289   295.3931     3.1374     4.2247
  507.5000    35.3154   119.3236   -23.0662   244.7842     5.5762     5.5672
  508.0000    37.1195   111.0657   -23.4032   194.1753     6.5870     6.8997
  508.5000    39.0566   103.6759   -23.5660   143.5664     7.4310     8.2413
  509.0000    35.3033   101.3268   -23.6053   101.0956     8.1921     9.5746
  509.5000    33.4792   101.3898   -23.6447    95.9188     8.8347    10.7072
  510.0000    25.4149   100.3392   -23.6840    92.1315     9.3616    11.0028
  510.5000    31.6572    99.0360   -23.7233    98.2138     9.7510    10.5492
  511.0000    35.5028    97.7328   -23.6363   103.4993     9.7382    10.1509
  511.5000    34.0767    96.9173   -23.4398   108.7849     9.7184     9.8099
  512.0000    31.2833    96.7342   -23.2432   114.0704     9.5286     9.4875
  512.5000    40.1912    96.6383   -23.0468   119.3559     9.2403     9.2051
  513.0000    41.4429    97.4544   -22.8502   124.6414     8.9520     8.9220
  513.5000    33.2578    98.6163   -22.6537   129.9323     8.6637     8.6390
  514.0000    31.6262    99.6997   -22.4571   133.1988     8.3754     8.3563
  514.5000    40.0820    99.5328   -22.5955   134.9628     8.1175     8.0729
  515.0000    39.4531    98.9198   -23.1200   134.4679     8.0777     7.8192
  515.5000    39.8693    98.3068   -23.6442   131.9847     8.6012     8.0820
  516.0000    35.7465    97.6939   -24.0760   127.1156     9.0769     8.5233
  516.5000    33.0544    97.0809   -24.3861   120.5996     9.5526     8.9630
  517.0000    28.6581    96.9394   -24.6971   114.0879     9.9900     9.4044
  517.5000    34.0244    97.4115   -25.0068   108.0661    10.0100     9.8109
  518.0000    37.2377    97.8835   -25.3182   104.8695    10.3830    10.0246
  518.5000    27.2748    98.2495   -25.6275   101.8967    10.7072    10.2220
  519.0000    20.6059    97.9748   -25.9392    98.9241    10.9465    10.4207
  519.5000    24.3259    98.5790   -26.2481    95.9513    11.1711    10.6184
  520.0000    29.3665    99.1592   -26.5602    93.1282    11.3958    10.8169
  520.5000    42.7848    99.5907   -26.9189    92.5605    11.6204    11.0147
  521.0000    35.6141    99.8024   -26.8659    92.0204    11.8450    11.2130
  521.5000    34.4488    99.9397   -26.7982    91.4786    12.0696    11.4039
  522.0000    35.7211   100.0706   -26.7223    90.9381    12.2936    11.5036
  522.5000    36.2975   100.2002   -26.8791    90.3975    12.4454    11.5181
  523.0000    33.6490   100.1025   -27.0781    89.8569    12.5311    11.5322
  523.5000    33.0365   100.0018   -27.2727    89.3164    12.6173    11.5466
  524.0000    31.8354    99.8999   -27.4715    88.7758    12.7031    11.5607
  524.5000    30.3860   100.5122   -27.7139    88.2352    12.7892    11.5752
  525.0000    35.6676   101.1319   -27.6827    87.6947    12.8750    11.5892
  525.5000    38.4476   101.5015   -27.6374    87.1541    12.9610    11.6038
  526.0000    37.2492   100.8617   -27.5954    86.6135    13.0469    11.7022
  526.5000    39.9720   100.2262   -27.5503    86.0730    13.1329    11.8016
  527.0000    36.5909    99.5922   -27.5081    85.5324    13.2189    11.9005
  527.5000    31.1287    98.8226   -27.4633    84.9919    13.3048    12.0000
  528.0000    28.9720    97.5934   -27.4209    84.4513    13.3908    12.0989
  528.5000    33.0748    96.6802   -27.3762    83.6758    13.4768    12.2020
  529.0000    34.8159    96.2557   -27.3333    82.6326    13.5623    12.3482
  529.5000    29.3821    96.0871   -27.5362    81.5894    13.6482    12.5003
  530.0000    33.4315    95.8579   -27.8647    80.5462    13.7913    12.6518
  530.5000    39.0541    95.8512   -28.1915    79.5030    14.0036    12.8040
  531.0000    37.6614    96.1869   -28.4006    78.4598    14.2160    12.9554
  531.5000    38.2807    96.4377   -28.5403    77.4166    14.4284    13.1078
  532.0000    32.5128    96.6488   -28.6810    76.3735    14.6407    13.2584
  532.5000    25.0285    96.7787   -28.8209    75.3303    14.8531    13.4110
  533.0000    21.3880    96.7144   -28.9621    74.2032    15.0654    13.4972
  533.5000    33.8247    97.0466   -29.1021    73.7898    15.3310    13.6721
  534.0000    33.9222    97.5095   -29.2434    72.7988    15.6707    14.0892
  534.5000    30.5110    97.6214   -29.5637    71.8078    16.0105    14.5082
  535.0000    26.8483    97.7333   -30.0235    70.8167    16.3845    14.9255
  535.5000    26.4309    97.8452   -30.4815    68.7578    16.9193    15.3880
  536.0000    28.1077    96.9840   -30.4853    65.0768    17.5139    16.0970
  536.5000    29.8143    94.3874   -30.0908    61.3959    18.1086    17.1811
  537.0000    32.3608    93.1997   -29.6991    57.7168    18.7032    18.7323
  537.5000    20.6049    92.6333   -29.3041    54.0348    20.1631    20.2791
  538.0000    10.7901    88.9215   -28.9090    50.3553    23.0536    21.8316
  538.5000    10.0166    84.1697   -27.9824    46.6733    25.9441    23.3765
  539.0000    13.5877    79.4179   -27.0508    43.4291    28.8347    25.1488
  539.5000    18.1567    75.4741   -26.1146    40.9506    31.7252    25.2110
  540.0000    29.3048    72.1384   -25.1359    40.5657    34.6157    25.2969
  540.5000    33.4928    68.8027   -25.8057    44.0330    36.7032    25.3413
  541.0000    31.7919    66.7668   -26.5156    47.5024    31.5239    22.0218
  541.5000    33.7145    70.4060   -27.6719    50.9700    29.1398    20.7851
  542.0000    34.3233    75.5331   -29.4430    54.4396    26.2988    19.5533
  542.5000    33.8683    81.6311   -31.2110    57.9074    22.9582    18.2817
  543.0000    34.8399    87.7291   -32.5165    61.3771    21.6747    17.0265
  543.5000    39.8246    93.6937   -33.1055    64.8447    20.1174    15.7555
  544.0000    40.4608    97.9820   -33.4379    67.1456    18.5600    14.9372
  544.5000    40.3693   100.9600   -33.3394    66.8597    17.4289    15.0732
  545.0000    36.8107   101.5689   -33.2401    66.5766    17.2620    15.2193
  545.5000    30.1851   102.0020   -33.1428    66.2934    17.0951    15.3571
  546.0000    26.6141   103.0551   -33.0428    66.0102    16.9282    15.5020
  546.5000    25.6815   104.0621   -32.9462    65.7271    16.7613    15.6411
  547.0000    28.4529   104.5045   -32.9379    65.4439    16.5944    15.7850
  547.5000    37.5188   103.3739   -33.1368    66.2351    16.4275    15.7682
  548.0000    41.0009   102.5863   -33.1722    66.2351    16.2605    15.3451
  548.5000    32.7596   102.5271   -32.8314    68.5209    16.0936    14.9191
  549.0000    30.5284   102.4679   -32.4842    72.2112    15.8864    14.3926
  549.5000    40.3621   102.4077   -32.1439    79.9686    15.7598    13.3894
  550.0000    45.6854   102.4825   -31.4683    90.1919    14.3043    12.0688
  550.5000    46.3970   102.5730   -29.8278   100.4152    13.4048    10.7471
  551.0000    52.2681   103.0437   -28.1799   110.6385    12.5052     9.4263
  551.5000    49.7394   103.6817   -26.5393   120.8618    11.6056     8.4167
  552.0000    54.6233   104.1579   -24.8913   131.0851    10.7061     7.7127
  552.5000    53.3008   104.4701   -23.2504   141.3085    10.0092     7.1433
  553.0000    51.9419   104.7823   -22.5661   151.5318     8.3976     6.5740
