~VERSION INFORMATION
 VERS.                2.0:   CWLS LOG ASCII STANDARD - VERSION 2.0
 WRAP.                 NO:   ONE LINE PER DEPTH STEP
~WELL INFORMATION
#MNEM.UNIT      DATA TYPE    INFORMATION
#----------   ------------   ------------------------------
 STRT.F           36.0000:   START DEPTH
 STOP.F          700.0000:   STOP DEPTH
 STEP.F            0.5000:   STEP LENGTH
 NULL.          -999.2500:   NO VALUE
 COMP. FENIX & SCISSON INC:   COMPANY
 WELL. NPR #3 13SX14 #13-14:   WELL
 FLD .             TEAPOT:   FIELD
 LOC .      S14 T38N R78W:   LOCATION
 CNTY.            NATRONA:   COUNTY
 STAT.            WYOMING:   STATE
 CTRY. UNITED STATES OF AMERICA:   COUNTRY
 SRVC.              Welex:   SERVICE COMPANY
 DATE.        28-FEB-1977:   LOGDATE
 API .       490251029600:   API NUMBER
~CURVE INFORMATION
#MNEM.UNIT       API CODE    CURVE DESCRIPTION
#----------   ------------   ------------------------------
 DEPT.F                  :   
 CALD.IN     45 280 60 00:   CALIPER FROM DENSITY LOG
 GRD .GAPI   45 310 01 00:   GAMMA RAY FROM DENSITY LOG
 CORR.G/C3   45 356 01 00:   DENSITY CORRECTION
 RHOB.G/C3   45 350 01 00:   BULK DENSITY
 DPHI.DEC    45 890 12 00:   DENSITY POROSITY SANDSTONE
 SPR .MV     07 010 01 00:   SPONTANEOUS POTENTIAL
 SGRD.OHMM   07 220 05 00:   SHALLOW RESISTIVITY
 ILD .OHMM   07 120 46 00:   INDUCTION LOG DEEP
 ILM .OHMM   07 120 44 00:   INDUCTION LOG MEDIUM
~PARAMETER INFORMATION
#MNEM.UNIT          VALUE    DESCRIPTION
#----------   ------------   ------------------------------
 PD  .                 GL:   PERMANENT DATUM
 EPD .F              5238:   ELEVATION PERMANENT DATUM
 LMF .                 GL:   LOG MEASURED FROM
 DMF .                 GL:   DRILLING MEASURED FROM
 EGL .F              5238:   GROUND LEVEL
 DATE.            2-28-77:   RUN DATE
 RUN .                  1:   RUN NUMBER
 DD  .F               710:   DEPTH DRILLER
 DL  .F               706:   DEPTH LOGGER
 BLI .F               704:   BOTTOM LOG INTERVAL
 TLI .F                42:   TOP LOG INTERVAL
 CS  .IN            8.625:   CASING SIZE
 CBD .F                42:   CASING BOTTOM DRILLER
 CBL .F                42:   CASING BOTTOM LOGGER
 BS  .IN            7.875:   BIT SIZE
 BSD .F               710:   BIT SIZE AT DEPTH
 DFT .           CHEM-GEL:   DRILLING FLUID TYPE
 DFD .                8.7:   DRILLING FLUID DENSITY
 DFV .                 33:   DRILLING FLUID VISCOSITY
 DFPH.                  7:   DRILLING FLUID PH
 DFL .                  8:   DRILLING FLUID LOSS
 MSS .          FLOW LINE:   MUD SAMPLE SOURCE
 RMS .OHMM           .382:   RESISTIVITY MUD SAMPLE
 MST .F                54:   MUD SAMPLE TEMPERATURE
 RMF .OHMM           .342:   RESISTIVITY MUD FILTRATE SAMPLE
 MFST.F                54:   MUD FILTRATE SAMPLE TEMPERATURE
 RMC .OHMM           .821:   RESISTIVITY MUD CAKE
 MCST.F                54:   MUD CAKE SAMPLE TEMPERATURE
 MFSS.           MEASURED:   MUD FILTRATE SAMPLE SOURCE
 MCSS.           MEASURED:   MUD CAKE SAMPLE SOURCE
 RMB .OHMM           .333:   RESISTIVITY MUD AT BHT
 BHT .F                62:   BOTTOM HOLE TEMPERATURE
 TCS .HRS               3:   TIME CURCULATED STOPPED
 MRT .F                62:   MAXIMUM RECORDED TEMPERATURE
 LUN .               8611:   LOGGING UNIT NUMBER
 LUL .           GILLETTE:   LOGGING UNIT LOCATION
 ENGI.               DOAK:   RECORDING ENGINEER
 WITN.               JAPP:   WITNESSED BY
 CLNT.            A2DTECH:   CLIENT CODE
 ORIG.       2", 5" PRINT:   ORIGIN OF DATA
 UWI .       490251029600:   UNIQUE WELL ID
 DICO. A2D Technologies, Inc.:   DIGITIZING COMPANY
~OTHER INFORMATION
~A   DEPT       CALD       GRD       CORR        RHOB     DPHI         SPR        SGRD      ILD        ILM   
# ...
  656.5000     7.8313   140.1363     0.0088     2.3813     0.1371   -38.1336     4.4502     5.3022     5.5013
  657.0000     7.8298   135.2536     0.0052     2.3961     0.1432   -38.1217     6.5758     5.5263     5.7080
  657.5000     7.8282   125.6022     0.0084     2.4351     0.1219   -38.1098    12.9671     5.8209     6.1674
  658.0000     7.8267   113.0892     0.0119     2.4734     0.0978   -38.0979    12.7200     6.1311     6.7040
  658.5000     7.8252   108.6971     0.0153     2.5062     0.0823   -38.0860    12.1556     6.4890     7.2927
  659.0000     7.8236   109.9136     0.0187     2.5089     0.0797   -38.0741    12.3549     6.8898     7.9324
  659.5000     7.8202   111.8872     0.0221     2.5124     0.0772   -38.0622    12.6902     7.3152     8.4916
  660.0000     7.8141   113.8826     0.0250     2.5144     0.0790   -38.0503    12.9671     7.7669     8.6868
  660.5000     7.8081   115.8752     0.0238     2.5075     0.0828   -38.0383    12.8290     8.2466     8.8963
  661.0000     7.8021   115.7405     0.0224     2.5006     0.0867   -38.0264    12.6133     8.6210     9.1108
  661.5000     7.7961   114.6371     0.0210     2.4939     0.0906   -38.0145    12.7342     8.7776     9.3305
  662.0000     7.7901   113.5371     0.0196     2.4888     0.0938   -38.0026    13.0872     8.9370     9.5655
  662.5000     7.7836   113.0384     0.0181     2.4919     0.0866   -37.9907    12.6133     9.0993     9.7108
  663.0000     7.7956   113.5129     0.0167     2.4948     0.0886   -37.9788    12.7976     9.2646     9.9067
  663.5000     7.8113   113.9054     0.0153     2.4964     0.0906   -37.9669    13.0839     9.4329    10.1066
  664.0000     7.8273   110.2621     0.0139     2.4945     0.0878   -37.9550    13.5310     9.6042    10.3104
  664.5000     7.8432   107.3306     0.0125     2.4927     0.0887   -37.9431    13.9934     9.7787    10.5184
  665.0000     7.8593   109.5336     0.0110     2.4909     0.0910   -37.9312    14.2194     9.9563    10.7307
  665.5000     7.8607   111.6099     0.0109     2.4889     0.0926   -37.9193    13.9596    10.1372    10.9471
  666.0000     7.8502   109.1957     0.0120     2.4934     0.0885   -37.9076    14.2689    10.3214    11.1887
  666.5000     7.8396   110.6858     0.0134     2.5002     0.0844   -37.8940    14.5254    10.5058    11.6068
  667.0000     7.8290   112.6100     0.0147     2.5070     0.0803   -37.8782    14.7866    10.6675    12.0857
  667.5000     7.8185   114.1796     0.0171     2.5143     0.0802   -37.9104    15.0282    10.7973    12.8410
  668.0000     7.8079   115.0744     0.0203     2.5243     0.0768   -38.0975    14.6182    10.8445    12.0260
  668.5000     7.7974   112.3221     0.0235     2.5341     0.0664   -38.1457    14.8903    10.8919    12.5178
  669.0000     7.7868   109.6138     0.0266     2.5404     0.0621   -38.1838    15.2971    10.9393    13.4540
  669.5000     7.7763   106.9136     0.0278     2.5349     0.0678   -38.2217    15.7371    10.9839    12.7323
  670.0000     7.7654   105.8708     0.0229     2.5192     0.0738   -38.2603    15.5784    11.0681    13.2341
  670.5000     7.7626   107.3081     0.0182     2.5037     0.0855   -38.2989    15.4496    11.1956    13.8380
  671.0000     7.7757   108.8432     0.0134     2.4885     0.0974   -38.3375    15.5927    11.2923    13.0307
  671.5000     7.7928   110.2828     0.0092     2.4731     0.1034   -38.3761    15.3078    11.2879    12.4976
  672.0000     7.8102   108.1795     0.0122     2.4643     0.1082   -38.4147    15.5624    11.2701    13.4584
  672.5000     7.8274   105.2870     0.0153     2.4688     0.1036   -38.4533    15.9687    11.2522    14.0889
  673.0000     7.8426   104.1244     0.0185     2.4782     0.0991   -38.4919    16.3856    11.2346    13.2084
  673.5000     7.8427   104.8096     0.0227     2.4873     0.0939   -38.5305    16.6322    11.2168    13.5106
  674.0000     7.8426   107.4987     0.0209     2.4861     0.0963   -38.5690    16.1550    11.1991    13.9596
  674.5000     7.8426   110.8660     0.0184     2.4785     0.0995   -38.6077    15.5894    11.1814    13.5277
  675.0000     7.8426   113.2794     0.0159     2.4711     0.1026   -38.6463    15.0436    11.1638    12.8481
  675.5000     7.8426   112.3965     0.0135     2.4656     0.1058   -38.6848    14.5856    11.1461    13.3737
  676.0000     7.8426   111.4511     0.0110     2.4687     0.1057   -38.7234    14.4840    11.1286    13.7046
  676.5000     7.8426   110.5070     0.0085     2.4712     0.1023   -38.7620    14.9654    11.0998    13.3033
  677.0000     7.8426   109.5687     0.0060     2.4683     0.1050   -38.8006    15.3825    11.0902    12.9671
  677.5000     7.8426   109.3059     0.0035     2.4687     0.1055   -38.8392    15.7371    10.9808    13.4542
  678.0000     7.8426   109.9602     0.0031     2.4746     0.1015   -38.8778    15.2778    10.9247    12.0451
  678.5000     7.8426   111.0332     0.0045     2.4807     0.0976   -38.9164    14.8903    10.7702    12.6354
  679.0000     7.8426   112.1346     0.0081     2.4868     0.0936   -38.9550    15.0982    10.6163    13.5788
  679.5000     7.8426   112.3303     0.0122     2.4906     0.0929   -38.9937    15.4533    10.4645    12.6442
  680.0000     7.8426   112.1130     0.0162     2.4925     0.0941   -39.0322    14.9444    10.3148    11.6090
  680.5000     7.8426   111.8473     0.0178     2.4944     0.0904   -39.0657    14.2213    10.1674    13.3307
  681.0000     7.8426   110.8155     0.0135     2.4894     0.0929   -39.0747    14.2838    10.0220    12.4867
  681.5000     7.8422   104.4312     0.0094     2.4838     0.0962   -39.0843    14.3533     9.8839    11.9666
  682.0000     7.8405    87.7836     0.0048     2.4782     0.0994   -39.0940    13.8387     9.7583    11.5322
  682.5000     7.8387  -999.2500     0.0037     2.4797     0.1010   -39.1037    12.9636     9.6343    11.7165
  683.0000     7.8370  -999.2500     0.0063     2.4876     0.0930   -39.1134    13.0601     9.5119    11.3792
  683.5000     7.8352  -999.2500     0.0089     2.4954     0.0869   -39.1231    13.2455     9.3910    10.9195
  684.0000     7.8335  -999.2500     0.0115     2.4961     0.0865   -39.1328    13.4542     9.2717    10.7468
  684.5000     7.8317  -999.2500     0.0140     2.4957     0.0890   -39.1425    13.2671     9.1539    10.6941
  685.0000     7.8300  -999.2500     0.0166     2.5083     0.0811   -39.1521    12.8766     9.0376    10.6414
  685.5000     7.8283  -999.2500     0.0225     2.5206     0.0738   -39.1618    13.0437     8.9228    10.5897
  686.0000     7.8265  -999.2500     0.0289     2.5329     0.0664   -39.1715    13.2084     8.7106    10.5380
  686.5000     7.8248  -999.2500     0.0347     2.5436     0.0597   -39.1812    12.8467     8.4569    10.4897
  687.0000     7.8230  -999.2500     0.0325     2.5374     0.0634   -39.1909    12.5749     8.2106    10.5465
  687.5000     7.8292  -999.2500     0.0303     2.5293     0.0683   -39.2006    12.3089     7.9714    10.6001
  688.0000     7.8397  -999.2500     0.0280     2.5212     0.0732   -39.2103    12.1566     7.7392    10.6540
  688.5000     7.8504  -999.2500     0.0258     2.5148     0.0780   -39.2200    12.2270     7.5137    10.6850
  689.0000     7.8610  -999.2500     0.0235     2.5177     0.0747   -39.2296    12.3881     7.3214    10.6582
  689.5000     7.8717  -999.2500     0.0211     2.5139     0.0773   -39.2392    12.5513     7.3214    10.6370
  690.0000     7.8822  -999.2500     0.0255     2.5107     0.0803   -39.2495    12.7168     7.3892    10.6159
  690.5000     7.8825  -999.2500     0.0307     2.5166     0.0757   -39.2687    12.8481     7.5267    10.5947
  691.0000     7.8825  -999.2500     0.0303     2.5203     0.0731   -39.2524    12.7565     7.9255    10.4192
  691.5000     7.8825  -999.2500     0.0296     2.5232     0.0721   -38.8659    12.6224     8.2536    10.2500
  692.0000     7.8825  -999.2500     0.0289     2.5265     0.0702   -38.4690    12.7124     9.4501    10.0837
  692.5000     7.8823  -999.2500     0.0322     2.5343     0.0654   -34.9758    12.9671    11.3030     9.9753
