~VERSION INFORMATION
 VERS.                2.0:   CWLS LOG ASCII STANDARD - VERSION 2.0
 WRAP.                 NO:   ONE LINE PER DEPTH STEP
~WELL INFORMATION
#MNEM.UNIT      DATA TYPE    INFORMATION
#----------   ------------   ------------------------------
 STRT.F           34.0000:   START DEPTH
 STOP.F         1014.5000:   STOP DEPTH
 STEP.F            0.5000:   STEP LENGTH
 NULL.          -999.2500:   NO VALUE
 COMP. FENIX & SCISSON INC:   COMPANY
 WELL.       NPR-3 #54-14:   WELL
 FLD .             TEAPOT:   FIELD
 LOC .      S14 T38N R78W:   LOCATION
 CNTY.            NATRONA:   COUNTY
 STAT.            WYOMING:   STATE
 CTRY. UNITED STATES OF AMERICA:   COUNTRY
 SRVC.            Unknown:   SERVICE COMPANY
 DATE.        20-APR-1978:   LOGDATE
 API .       490251062100:   API NUMBER
~CURVE INFORMATION
#MNEM.UNIT       API CODE    CURVE DESCRIPTION
#----------   ------------   ------------------------------
 DEPT.F                  :   
 SPR .MV     05 010 01 00:   SPONTANEOUS POTENTIAL FROM RES.
 SN  .OHMM   05 040 16 00:   SHORT NORMAL 16"
 ILD .OHMM   05 120 46 00:   INDUCTION LOG DEEP
 CALD.IN     45 280 60 00:   CALIPER
 GRD .GAPI   45 310 01 00:   GAMMA RAY FROM DENSITY LOG
 RHOB.G/C3   45 350 01 00:   BULK DENSITY
 DPOR.DEC    45 890 12 00:   DENSITY POROSITY SANDSTONE
 CORR.G/C3   45 356 01 00:   DENSITY CORRECTION
~PARAMETER INFORMATION
#MNEM.UNIT          VALUE    DESCRIPTION
#----------   ------------   ------------------------------
 PD  .                 GL:   PERMANENT DATUM
 EPD .F              5268:   ELEVATION PERMANENT DATUM
 LMF .                 KB:   LOG MEASURED FROM
 DAPD.F                 4:   FEET ABOVE PERMANENT DATUM
 DMF .                 KB:   DRILLING MEASURED FROM
 EKB .F              5272:   KELLING BUSHING
 EGL .F              5268:   GROUND LEVEL
 DATE.          4-20-1978:   RUN DATE
 RUN .                  1:   RUN NUMBER
 DD  .F              1030:   DEPTH DRILLER
 DL  .F              1021:   DEPTH LOGGER
 BLI .F              1014:   BOTTOM LOG INTERVAL
 TLI .F                50:   TOP LOG INTERVAL
 CS  .IN            8.625:   CASING SIZE
 CBD .F                40:   CASING BOTTOM DRILLER
 BS  .IN            7.875:   BIT SIZE
 BSD .F              1030:   BIT SIZE AT DEPTH
 DFT .                KCL:   DRILLING FLUID TYPE
 DFD .                8.6:   DRILLING FLUID DENSITY
 DFV .                 33:   DRILLING FLUID VISCOSITY
 DFPH.                 10:   DRILLING FLUID PH
 DFL .                  8:   DRILLING FLUID LOSS
 MSS .          FLOW LINE:   MUD SAMPLE SOURCE
 RMS .OHMM            .34:   RESISTIVITY MUD SAMPLE
 MST .F                64:   MUD SAMPLE TEMPERATURE
 RMF .OHMM            .36:   RESISTIVITY MUD FILTRATE SAMPLE
 MFST.F                60:   MUD FILTRATE SAMPLE TEMPERATURE
 RMC .OHMM            .48:   RESISTIVITY MUD CAKE
 MCST.F                68:   MUD CAKE SAMPLE TEMPERATURE
 MFSS.               MEAS:   MUD FILTRATE SAMPLE SOURCE
 MCSS.               MEAS:   MUD CAKE SAMPLE SOURCE
 RMB .OHMM            .29:   RESISTIVITY MUD AT BHT
 BHT .F                74:   BOTTOM HOLE TEMPERATURE
 TCS .HRS               6:   TIME CURCULATED STOPPED
 MRT .F                74:   MAXIMUM RECORDED TEMPERATURE
 LUN .               2958:   LOGGING UNIT NUMBER
 LUL .               CASP:   LOGGING UNIT LOCATION
 ENGI.             MILLER:   RECORDING ENGINEER
 WITN.           MCGINELY:   WITNESSED BY
 CLNT.            A2DTECH:   CLIENT CODE
 ORIG.       2", 5" PRINT:   ORIGIN OF DATA
 UWI .       490251062100:   UNIQUE WELL ID
 DICO. A2D Technologies, Inc.:   DIGITIZING COMPANY
~OTHER INFORMATION
~A   DEPT      SPR         SN        ILD       CALD         GRD      RHOB       DPOR       CORR   
# ...
  358.0000   -35.8547     3.0752     3.4921     8.0526   105.6809     2.4076     0.1542     0.0172
  358.5000   -35.8859     3.1717     3.8913     8.0633   106.3058     2.4114     0.1576     0.0167
  359.0000   -35.9171     3.1717     3.9580     8.0740   108.3459     2.3993     0.1648     0.0162
  359.5000   -35.9483     3.1717     3.8639     8.0848   109.4551     2.3863     0.1720     0.0158
  360.0000   -35.9795     3.1417     3.7771     8.0955   109.3762     2.3733     0.1792     0.0153
  360.5000   -36.0107     3.0416     3.6923     8.0914   108.3508     2.3602     0.1865     0.0148
  361.0000   -36.0419     2.9448     3.6093     8.0863   107.5414     2.3472     0.1937     0.0143
  361.5000   -36.0732     2.8433     3.5282     8.0813   108.0360     2.3342     0.2011     0.0139
  362.0000   -36.1045     2.7055     3.3661     8.0759   111.7103     2.3192     0.2109     0.0135
  362.5000   -36.1346     2.5744     3.0826     8.0597   116.0352     2.3007     0.2209     0.0134
  363.0000   -36.1085     2.4496     2.8230     8.0429   119.2428     2.2823     0.2309     0.0170
  363.5000   -35.9719     2.3309     2.5852     8.0261   120.1409     2.2638     0.2410     0.0234
  364.0000   -35.8331     2.2180     2.3652     8.0093   124.1461     2.2455     0.2506     0.0329
  364.5000   -35.5070     2.1105     2.2945     7.9926   129.2155     2.2370     0.2511     0.0423
  365.0000   -34.8955     2.0164     2.3673     7.9758   123.7653     2.2668     0.2260     0.0388
  365.5000   -34.2889     2.0158     2.4513     7.9593   112.7222     2.3236     0.2011     0.0332
  366.0000   -33.9390     2.1350     2.5382     7.9591   101.5561     2.3813     0.1760     0.0318
  366.5000   -33.8896     2.2899     2.6274     7.8833    98.1887     2.4328     0.1509     0.0323
  367.0000   -33.8386     2.5890     2.8120     7.7993   100.7666     2.4315     0.1412     0.0328
  367.5000   -33.7883     3.0194     3.1788     7.7365   102.2321     2.4293     0.1400     0.0334
  368.0000   -33.7377     3.5324     3.5946     7.6921   105.2057     2.4344     0.1385     0.0304
  368.5000   -33.6870     3.9283     4.0645     7.6483   106.8627     2.4404     0.1371     0.0263
  369.0000   -33.6361     4.1466     4.5987     7.6044   106.9062     2.4397     0.1368     0.0221
  369.5000   -33.5866     4.3007     4.8043     7.5611   103.4719     2.4400     0.1368     0.0179
  370.0000   -33.4505     4.4011     4.8199     7.5549   102.5513     2.4430     0.1383     0.0137
  370.5000   -33.2638     4.4624     4.8426     7.5505   101.8419     2.4359     0.1403     0.0096
  371.0000   -33.0758     4.5455     4.8938     7.5460   103.6407     2.4349     0.1391     0.0090
  371.5000   -32.8876     4.6861     4.9752     7.5415   105.0612     2.4396     0.1371     0.0086
  372.0000   -32.7025     4.8402     5.0866     7.5369   101.2392     2.4443     0.1352     0.0081
  372.5000   -32.5712     4.9994     5.1996     7.5324   102.7524     2.4445     0.1352     0.0077
  373.0000   -32.5874     5.1638     5.3724     7.5280   105.2055     2.4447     0.1352     0.0072
  373.5000   -32.6003     5.3336     5.6306     7.5230   107.4651     2.4459     0.1352     0.0067
  374.0000   -32.6138     5.5090     5.9020     7.5011   106.9328     2.4429     0.1352     0.0063
  374.5000   -32.6272     5.5687     6.1070     7.4341   103.0461     2.4333     0.1419     0.0058
  375.0000   -32.6405     5.5567     6.1070     7.4127    98.6425     2.4240     0.1482     0.0060
  375.5000   -32.6538     5.5486     6.1070     7.3912    97.6486     2.4147     0.1546     0.0088
  376.0000   -32.6672     5.5403     6.1070     7.3096    99.7591     2.4054     0.1571     0.0138
  376.5000   -32.6805     5.5322     6.1070     7.1737   102.2832     2.4002     0.1559     0.0274
  377.0000   -32.6939     5.5241     6.1070     7.0778   104.8102     2.4047     0.1534     0.0397
  377.5000   -32.7072     5.5159     6.1070     7.2389   106.0680     2.4220     0.1510     0.0353
  378.0000   -32.7205     5.5078     6.1070     7.4454   106.4803     2.4118     0.1538     0.0424
  378.5000   -32.7339     5.4997     6.1070     7.6537   107.3824     2.3964     0.1619     0.0579
  379.0000   -32.7472     5.4917     6.1075     7.7791   107.9205     2.4092     0.1508     0.0716
  379.5000   -32.7606     5.4836     6.0973     7.7935   106.9449     2.4248     0.1424     0.0732
  380.0000   -32.7789     5.4755     6.0774     7.8121   107.2271     2.4324     0.1471     0.0816
  380.5000   -32.8060     5.4675     6.0574     7.8309   106.6739     2.4214     0.1416     0.0918
  381.0000   -32.8331     5.4594     6.0374     7.8497   106.2381     2.4362     0.1371     0.1011
  381.5000   -32.8601     5.4514     6.0175     7.8686   109.7076     2.4430     0.1348     0.1041
  382.0000   -32.8872     5.4434     5.9977     7.8878   113.4300     2.4466     0.1336     0.1053
  382.5000   -32.9142     5.4354     5.9779     7.9213   115.2141     2.4707     0.1204     0.0846
  383.0000   -32.9412     5.4275     5.9582     7.9718   109.1414     2.4928     0.1116     0.0499
  383.5000   -32.9683     5.4171     5.9385     8.0187   108.5325     2.4727     0.1251     0.0235
  384.0000   -32.9953     5.4364     5.9189     8.0249   112.0658     2.4518     0.1340     0.0237
  384.5000   -33.0224     5.4677     5.8993     8.0322   115.9850     2.4481     0.1338     0.0260
  385.0000   -33.0494     5.4990     5.8857     8.0397   117.8471     2.4486     0.1335     0.0283
  385.5000   -33.0764     5.5305     5.9158     8.0472   107.9336     2.4462     0.1332     0.0306
  386.0000   -33.1034     5.5621     5.9493     8.0574   104.1937     2.4477     0.1306     0.0331
  386.5000   -33.1306     5.5940     5.9830     7.9365   101.3420     2.4554     0.1279     0.0286
  387.0000   -33.1571     5.6260     6.0168     7.8577    98.5119     2.4630     0.1274     0.0222
  387.5000   -33.2200     5.6582     6.0509     7.9139    97.4474     2.4567     0.1287     0.0157
  388.0000   -33.3009     5.6905     6.0852     7.9554   100.8934     2.4487     0.1335     0.0098
  388.5000   -33.3825     5.7231     6.1196     7.9409   103.8524     2.4406     0.1392     0.0146
  389.0000   -33.4642     5.7559     6.1543     7.8873   104.6326     2.4359     0.1374     0.0196
  389.5000   -33.5457     5.7888     6.1891     7.8273   102.6506     2.4420     0.1339     0.0233
  390.0000   -33.6273     5.8322     6.2207     7.7919   104.7829     2.4491     0.1304     0.0213
  390.5000   -33.7089     5.7823     6.2207     7.7615   107.0016     2.4562     0.1291     0.0152
  391.0000   -33.7905     5.6866     6.2040     7.7311   108.5309     2.4573     0.1306     0.0092
  391.5000   -33.8721     5.5923     6.1857     7.7006   108.8940     2.4486     0.1322     0.0032
  392.0000   -33.9537     5.4997     6.1675     7.6701   103.9459     2.4380     0.1417     0.0004
  392.5000   -34.0352     5.4086     6.1494     7.6399    97.5840     2.4274     0.1491    -0.0012
  393.0000   -34.1168     5.3190     6.1315     7.6160    93.2862     2.4173     0.1507    -0.0028
  393.5000   -34.1984     5.2203     6.1065     7.6071    94.5151     2.4139     0.1564    -0.0045
  394.0000   -34.2800     5.0778     6.1034     7.5979    95.6352     2.3995     0.1632    -0.0032
  394.5000   -34.3618     4.8938     6.0519     7.5888    96.1816     2.3767     0.1764    -0.0014
  395.0000   -34.4430     4.6516     5.4657     7.5796    92.6607     2.3538     0.1897     0.0003
  395.5000   -34.5261     4.3152     4.8013     7.5705    96.9471     2.3310     0.2031     0.0021
  396.0000   -34.4497     3.7960     4.2113     7.5614   106.7561     2.2968     0.2238     0.0056
  396.5000   -34.2517     3.3393     3.6952     7.5522   116.5028     2.2598     0.2448     0.0172
  397.0000   -33.7121     2.9375     3.2424     7.5430   123.1944     2.2228     0.2657     0.0240
  397.5000   -32.9419     2.5840     2.8451     7.5398   125.1463     2.1858     0.2866     0.0279
  398.0000   -32.1691     2.2731     2.4964     7.5397   126.5613     2.1572     0.2983     0.0407
