~VERSION INFORMATION
 VERS.                2.0:   CWLS LOG ASCII STANDARD - VERSION 2.0
 WRAP.                 NO:   ONE LINE PER DEPTH STEP
~WELL INFORMATION
#MNEM.UNIT      DATA TYPE    INFORMATION
#----------   ------------   ------------------------------
 STRT.F            0.0000:   START DEPTH
 STOP.F          675.0000:   STOP DEPTH
 STEP.F            0.5000:   STEP LENGTH
 NULL.          -999.2500:   NO VALUE
 COMP.       F D SERV INC:   COMPANY
 WELL. NAVEL PETROLEUM RESERVE 3 SX-2 #18-1-2:   WELL
 FLD .             TEAPOT:   FIELD
 LOC .       S2 T38N R78W:   LOCATION
 CNTY.            NATRONA:   COUNTY
 STAT.            WYOMING:   STATE
 CTRY. UNITED STATES OF AMERICA:   COUNTRY
 SRVC.     Atlas Wireline:   SERVICE COMPANY
 DATE.        23-DEC-1991:   LOGDATE
 API .       490252247200:   API NUMBER
~CURVE INFORMATION
#MNEM.UNIT       API CODE    CURVE DESCRIPTION
#----------   ------------   ------------------------------
 DEPT.F                  :   
 GRR .GAPI   07 310 01 00:   GAMMA RAY FROM RES. LOG.
 SPR .MV     07 010 01 00:   SPONTANEOUS POTENTIAL
 SFL .OHMM   07 220 01 00:   SHALLOW FOCUSED LOG RESISTIVITY
 ILD .OHMM   07 120 46 00:   INDUCTION LOG DEEP
 ILM .OHMM   07 120 44 00:   INDUCTION LOG MEDIUM
~PARAMETER INFORMATION
#MNEM.UNIT          VALUE    DESCRIPTION
#----------   ------------   ------------------------------
 PD  .                 GL:   PERMANENT DATUM
 EPD .F              5148:   ELEVATION PERMANENT DATUM
 LMF .                 KB:   LOG MEASURED FROM
 DAPD.F                10:   FEET ABOVE PERMANENT DATUM
 DMF .                 KB:   DRILLING MEASURED FROM
 EKB .F              5158:   KELLING BUSHING
 EGL .F              5148:   GROUND LEVEL
 DATE.        23-DEC-1991:   RUN DATE
 RUN .                  1:   RUN NUMBER
 DD  .F               630:   DEPTH DRILLER
 DL  .F               678:   DEPTH LOGGER
 BLI .F               675:   BOTTOM LOG INTERVAL
 CS  .IN            9.625:   CASING SIZE
 CBD .F                44:   CASING BOTTOM DRILLER
 CBL .F                48:   CASING BOTTOM LOGGER
 BS  .IN             8.75:   BIT SIZE
 BSD .F               680:   BIT SIZE AT DEPTH
 DFT .           CHEM GEL:   DRILLING FLUID TYPE
 DFD .                9.7:   DRILLING FLUID DENSITY
 DFV .                 79:   DRILLING FLUID VISCOSITY
 DFPH.                  9:   DRILLING FLUID PH
 DFL .                 10:   DRILLING FLUID LOSS
 MSS .           MUD TANK:   MUD SAMPLE SOURCE
 RMS .OHMM            .82:   RESISTIVITY MUD SAMPLE
 MST .F                54:   MUD SAMPLE TEMPERATURE
 RMF .OHMM           1.02:   RESISTIVITY MUD FILTRATE SAMPLE
 MFST.F                54:   MUD FILTRATE SAMPLE TEMPERATURE
 RMC .OHMM            .51:   RESISTIVITY MUD CAKE
 MCST.F                54:   MUD CAKE SAMPLE TEMPERATURE
 MFSS.               CALC:   MUD FILTRATE SAMPLE SOURCE
 MCSS.               CALC:   MUD CAKE SAMPLE SOURCE
 RMB .OHMM            .43:   RESISTIVITY MUD AT BHT
 BHT .F               102:   BOTTOM HOLE TEMPERATURE
 TCS .HRS               2:   TIME CURCULATED STOPPED
 MRT .F               102:   MAXIMUM RECORDED TEMPERATURE
 LUN .            HL-6307:   LOGGING UNIT NUMBER
 LUL .             CASPER:   LOGGING UNIT LOCATION
 ENGI.            WADDELL:   RECORDING ENGINEER
 WITN.              FJVAS:   WITNESSED BY
 CLNT.            A2DTECH:   CLIENT CODE
 ORIG.      2" & 5" PRINT:   ORIGIN OF DATA
 UWI .       490252247200:   UNIQUE WELL ID
 DICO. A2D Technologies, Inc.:   DIGITIZING COMPANY
~OTHER INFORMATION
~A    DEPT      GRR       SPR        SFL        ILD        ILM   
# ...
  244.0000   109.5653   -21.7473     8.5942     7.5946     8.1998
  244.5000   112.9611   -21.8965     8.5611     7.5001     8.1287
  245.0000   114.2377   -21.8441     8.5463     7.4322     8.0583
  245.5000   110.9996   -21.7511     8.5315     7.3649     7.9884
  246.0000   106.1985   -21.7178     8.5168     7.2982     7.9192
  246.5000   105.4223   -21.7171     8.5020     7.2321     7.8506
  247.0000   108.3437   -21.7165     8.4878     7.1666     7.7825
  247.5000   110.1066   -21.6842     8.3634     7.0520     7.7151
  248.0000   107.8645   -21.6111     8.2179     7.0027     7.6302
  248.5000   107.1049   -21.5386     8.0750     6.9561     7.4954
  249.0000   110.2182   -21.4657     7.9345     6.9097     7.3630
  249.5000   114.4927   -21.3924     7.8087     6.7954     7.2329
  250.0000   115.7641   -21.3170     7.8551     6.8222     7.1177
  250.5000   110.6887   -21.3706     7.9075     6.8610     7.2092
  251.0000   107.1057   -21.4866     7.9603     6.9001     7.2934
  251.5000   108.7254   -21.6021     8.0134     6.9394     7.3789
  252.0000   110.7375   -21.7176     8.0669     6.9789     7.4652
  252.5000   110.9540   -21.8331     8.1437     7.0186     7.5523
  253.0000   110.6081   -21.9486     8.3320     7.0586     7.6416
  253.5000   109.9691   -22.0641     8.2812     7.0984     7.7132
  254.0000   108.2851   -22.1797     8.1854     7.1472     7.7807
  254.5000   106.7531   -22.2986     8.0244     7.2026     7.8483
  255.0000   106.4447   -22.3231     8.1048     7.2586     7.9165
  255.5000   107.0572   -22.3235     8.2429     7.3151     7.9853
  256.0000   107.4382   -22.3233     8.3853     7.3721     8.0547
  256.5000   105.9985   -22.3233     8.5319     7.4294     8.1247
  257.0000   105.0935   -22.3237     8.5853     7.4873     8.1953
  257.5000   105.3092   -22.3273     8.6110     7.5246     8.2551
  258.0000   105.0050   -22.1624     8.6464     7.4815     8.2184
  258.5000   104.5769   -21.9597     8.6058     7.4499     8.1802
  259.0000   105.0189   -21.7560     8.5329     7.4185     8.1423
  259.5000   105.9953   -21.5526     8.4610     7.3872     8.1045
  260.0000   107.2981   -21.3486     8.3897     7.3560     8.0668
  260.5000   108.9973   -21.1412     8.3320     7.3249     8.0294
  261.0000   106.9708   -21.1948     8.4474     7.2940     7.9921
  261.5000   104.3498   -21.2960     8.5668     7.2632     7.9550
  262.0000   102.2189   -21.3978     8.4414     7.2508     7.9181
  262.5000   102.9998   -21.4947     8.2858     7.2812     7.8814
  263.0000   105.3125   -21.7310     8.1036     7.3031     7.8998
  263.5000   107.4937   -21.9848     8.1980     7.3250     7.9225
  264.0000   108.9002   -22.2395     8.3151     7.3470     7.9461
  264.5000   108.6164   -22.4939     8.4086     7.3691     8.0267
  265.0000   107.1648   -22.7469     8.3313     7.3864     8.1470
  265.5000   105.7465   -22.9331     8.2578     7.5499     8.2685
  266.0000   105.0232   -22.9296     8.7451     7.7138     8.3918
  266.5000   106.3480   -22.9294     9.0040     7.8812     8.5374
  267.0000   105.0370   -22.9293     9.0534     8.0522     8.7624
  267.5000   101.9342   -22.9293     9.1031     8.2269     8.9915
  268.0000    99.0677   -22.9293     9.1798     8.3521     9.2270
  268.5000    99.3702   -22.9292     9.3413     8.5055     9.4685
  269.0000    99.1201   -22.9293     9.4285     8.6617     9.7164
  269.5000    97.4760   -22.9290     9.4748     8.8208     9.9707
  270.0000    96.1597   -22.9879     9.5213     8.9718    10.2182
  270.5000    95.0556   -23.0966     9.5680     9.0869    10.6183
  271.0000    94.3370   -23.2054    10.4730     9.2185    11.0147
  271.5000    91.5163   -23.3140    11.6181     9.3540    11.3122
  272.0000    89.5579   -23.4217    12.5260     9.5635    11.3893
  272.5000    89.8320   -23.5400    11.5534     9.8139    11.4618
  273.0000    91.3801   -23.9176    10.7185    10.0708    11.5347
  273.5000    95.5059   -24.3139    10.3050    10.3111    11.6310
  274.0000    99.6541   -24.7065    10.9484    10.2590    11.5654
  274.5000   100.5450   -24.9459    11.3122    10.2114    11.4709
  275.0000    97.2116   -24.9043    11.2078    10.1640    11.3771
  275.5000    93.8593   -24.8672    11.1044    10.1169    11.2841
  276.0000    93.0536   -24.8293    11.0020    10.0699    11.1918
  276.5000    94.3835   -24.7920    10.8434    10.0232    11.1003
  277.0000    95.6953   -24.7567    10.6615     9.9767    11.0020
  277.5000    96.1343   -24.6278    10.5039     9.8443    10.9020
  278.0000    95.7654   -24.4828    10.3727     9.7134    10.7939
  278.5000    95.2523   -24.3373    10.3071     9.5733    10.6868
  279.0000    94.7463   -24.1921    10.2419     9.4351    10.5806
  279.5000    94.4490   -24.0480    10.1771     9.3038    10.4785
  280.0000    95.9408   -23.9313    10.0726     9.2798    10.3003
  280.5000    97.8398   -23.8210     9.8405     9.2559    10.2566
  281.0000    99.3080   -23.7782    10.0446     9.2260    10.2160
  281.5000    97.7602   -23.9694    10.2656     9.2718    10.3934
  282.0000    96.1218   -24.1526    10.4055     9.3556    10.5505
  282.5000    96.7915   -24.3356    10.2297     9.4403    10.7100
  283.0000    97.6345   -24.5185    10.1217     9.5256    10.8719
  283.5000    95.2301   -24.7014    10.4734     9.6118    11.0363
  284.0000    92.0899   -24.8843    10.8257     9.6987    11.2078
  284.5000    89.8134   -25.0674    11.1891     9.7535    11.0272
  285.0000    90.3466   -25.2505    11.4201     9.7169    10.8444
  285.5000    93.1872   -25.4308    11.0075     9.6922    10.6646
  286.0000    95.1311   -25.5334    10.6714     9.6729    10.4878
  286.5000    93.3187   -25.4539    10.4071     9.4496    10.3139
  287.0000    90.7472   -25.3781    10.1932     9.2890    10.1430
  287.5000    88.3827   -25.3018     9.9820     9.1332     9.9748
  288.0000    89.3446   -25.2256     9.7753     8.9800     9.8095
  288.5000    91.3145   -25.1494     9.5744     8.8294     9.6468
  289.0000    93.1695   -25.0732     9.5540     8.6813     9.4869
  289.5000    97.4648   -24.9968     9.5338     8.5668     9.3296
  290.0000   100.9982   -24.9019     9.5137     8.5230     9.1750
  290.5000   101.0650   -24.7741     9.4936     8.4800     9.0566
  291.0000    97.3470   -24.6474     9.4824     8.4372     9.0747
  291.5000    95.9576   -24.5503     9.4660     8.3947     9.0895
  292.0000    97.0865   -24.5957     9.4497     8.3523     9.1044
  292.5000    97.7161   -24.6382     9.4335     8.3102     9.1193
  293.0000    97.7173   -24.6806     9.4172     8.2683     9.1341
  293.5000    97.7389   -24.7253     9.4011     8.2266     9.1491
  294.0000    96.7987   -24.8906     9.3875     8.1790     9.1640
  294.5000    95.0955   -25.2328     9.3633     8.1923     9.1790
  295.0000    92.5029   -25.5472     9.3387     8.2130     9.1939
  295.5000    91.0890   -25.5138     9.3102     8.2337     9.2090
  296.0000    92.1869   -25.4695     9.4206     8.2545     9.2240
  296.5000    92.8259   -25.4263     9.5864     8.2753     9.2260
  297.0000    89.8852   -25.3849     9.7550     8.2961     9.1498
  297.5000    86.5700   -25.3891     9.8443     8.3168     9.0984
  298.0000    86.6900   -25.5514     9.4364     8.3317     9.0473
  298.5000    93.7089   -25.7117     9.1409     8.2737     8.9964
  299.0000    93.9264   -25.6688     9.2997     8.2285     8.9458
  299.5000    93.0044   -25.5444     9.4817     8.1836     8.8955
  300.0000    92.6826   -25.4172     9.5744     7.9917     8.6418
  300.5000    92.4059   -25.2901     9.2276     7.7878     8.3727
  301.0000    91.5396   -25.1632     9.0032     7.5892     8.1120
  301.5000    91.8100   -25.0377     8.7697     7.3837     7.8595
  302.0000    95.9817   -24.9318     8.4313     7.1582     7.5946
  302.5000    99.2595   -24.8793     8.1059     6.9397     7.3738
  303.0000    99.6641   -24.8261     7.6807     6.7751     7.1401
  303.5000    99.3437   -24.7716     7.0520     6.7123     6.9870
  304.0000   100.0026   -24.9275     7.1836     6.6502     7.0863
  304.5000   101.4553   -25.2649     7.6046     6.6091     7.1756
