~VERSION INFORMATION
 VERS.                2.0:   CWLS LOG ASCII STANDARD - VERSION 2.0
 WRAP.                 NO:   ONE LINE PER DEPTH STEP
~WELL INFORMATION
#MNEM.UNIT      DATA TYPE    INFORMATION
#----------   ------------   ------------------------------
 STRT.F          600.0000:   START DEPTH
 STOP.F         2218.0000:   STOP DEPTH
 STEP.F            0.5000:   STEP LENGTH
 NULL.          -999.2500:   NO VALUE
 COMP. US DEPTMNT OF ENRGY:   COMPANY
 WELL.   37 STX 10 #37-10:   WELL
 FLD .             TEAPOT:   FIELD
 LOC .      S10 T38N R78W:   LOCATION
 CNTY.            NATRONA:   COUNTY
 STAT.            WYOMING:   STATE
 CTRY. UNITED STATES OF AMERICA:   COUNTRY
 SRVC.            Unknown:   SERVICE COMPANY
 DATE.        15-MAY-1991:   LOGDATE
 API .       490251094200:   API NUMBER
~CURVE INFORMATION
#MNEM.UNIT       API CODE    CURVE DESCRIPTION
#----------   ------------   ------------------------------
 DEPT.F                  :   
 TGAS.UNITS  91 830 01 00:   TOTAL GAS FROM HOTWIRE
 ROP .MIN/FT 91 810 01 00:   RATE OF DRILLING PENETRATION
~PARAMETER INFORMATION
#MNEM.UNIT          VALUE    DESCRIPTION
#----------   ------------   ------------------------------
 EKB .F              5231:   KELLING BUSHING
 EGL .F              5221:   GROUND LEVEL
 DATE.            5-15-91:   RUN DATE
 DD  .F              2218:   DEPTH DRILLER
 BLI .F              2218:   BOTTOM LOG INTERVAL
 TLI .F               960:   TOP LOG INTERVAL
 ENGI.              TOWER:   RECORDING ENGINEER
 WITN.               HUSK:   WITNESSED BY
 CLNT.            A2DTECH:   CLIENT CODE
 ORIG.           5" PRINT:   ORIGIN OF DATA
 UWI .       490251094200:   UNIQUE WELL ID
 DICO. A2D Technologies, Inc.:   DIGITIZING COMPANY
~OTHER INFORMATION
~A   DEPT     TGAS          ROP 
# ...
 1936.5000    51.1925     0.4505
 1937.0000    51.1101     0.4505
 1937.5000    51.0277     0.4505
 1938.0000    50.9453     0.4585
 1938.5000    50.8629     0.4698
 1939.0000    50.7805     0.4897
 1939.5000    50.6980     0.5275
 1940.0000    50.6288     0.5604
 1940.5000    50.7238     0.5556
 1941.0000    50.8057     0.5498
 1941.5000    50.8876     0.5441
 1942.0000    50.9695     0.5383
 1942.5000    51.0514     0.5632
 1943.0000    51.1333     0.6005
 1943.5000    51.2153     0.6264
 1944.0000    51.2972     0.6407
 1944.5000    51.3791     0.6514
 1945.0000    51.4610     0.6538
 1945.5000    51.5429     0.6448
 1946.0000    51.6249     0.6417
 1946.5000    51.7068     0.6411
 1947.0000    51.7887     0.6406
 1947.5000    51.8706     0.6291
 1948.0000    51.9525     0.6285
 1948.5000    52.0345     0.6170
 1949.0000    52.1164     0.6165
 1949.5000    52.1983     0.6049
 1950.0000    52.2802     0.6044
 1950.5000    52.3621     0.5929
 1951.0000    52.4440     0.5923
 1951.5000    52.5260     0.5918
 1952.0000    52.6079     0.5912
 1952.5000    52.6898     0.5907
 1953.0000    52.7717     0.5918
 1953.5000    52.8536     0.6025
 1954.0000    52.9356     0.6176
 1954.5000    53.0175     0.6533
 1955.0000    53.0994     0.6951
 1955.5000    53.1813     0.7223
 1956.0000    53.2632     0.7297
 1956.5000    53.3451     0.7327
 1957.0000    53.4271     0.7396
 1957.5000    53.5090     0.7390
 1958.0000    53.5909     0.7385
 1958.5000    53.6728     0.7379
 1959.0000    53.7547     0.7374
 1959.5000    53.8367     0.7316
 1960.0000    53.9120     0.7033
 1960.5000    53.8823     0.6719
 1961.0000    53.8548     0.6539
 1961.5000    53.8272     0.6360
 1962.0000    53.7997     0.6180
 1962.5000    53.7722     0.6099
 1963.0000    53.7447     0.6088
 1963.5000    53.7172     0.6152
 1964.0000    53.6897     0.6255
 1964.5000    53.6622     0.6440
 1965.0000    53.6347     0.6658
 1965.5000    53.6072     0.6910
 1966.0000    53.5797     0.7010
 1966.5000    53.5522     0.6999
 1967.0000    53.5247     0.6988
 1967.5000    53.4972     0.6978
 1968.0000    53.4697     0.7077
 1968.5000    53.4422     0.7066
 1969.0000    53.4146     0.7055
 1969.5000    53.3871     0.7044
 1970.0000    53.3596     0.7033
 1970.5000    53.3321     0.7022
 1971.0000    53.3046     0.7011
 1971.5000    53.2771     0.6969
 1972.0000    53.2496     0.6844
 1972.5000    53.2221     0.6680
 1973.0000    53.1946     0.6398
 1973.5000    53.1671     0.6092
 1974.0000    53.1396     0.5853
 1974.5000    53.1121     0.5725
 1975.0000    53.0846     0.5714
 1975.5000    53.0571     0.5703
 1976.0000    53.0295     0.5828
 1976.5000    53.0020     0.5973
 1977.0000    52.9745     0.6228
 1977.5000    52.9470     0.6559
 1978.0000    52.9195     0.6637
 1978.5000    52.8920     0.6514
 1979.0000    52.8645     0.6394
 1979.5000    52.8370     0.6273
 1980.0000    54.4794     0.6272
 1980.5000    54.4292     0.6270
 1981.0000    54.3745     0.6268
 1981.5000    54.3198     0.6266
 1982.0000    54.2651     0.6264
 1982.5000    54.2104     0.6593
 1983.0000    54.1557     0.7033
 1983.5000    54.1010     0.7473
 1984.0000    54.0463     0.7912
 1984.5000    53.9916     0.8352
 1985.0000    53.9369     0.8791
 1985.5000    53.8822     0.9341
 1986.0000    53.8275     0.9231
 1986.5000    53.7728     0.8343
 1987.0000    53.7181     0.7892
 1987.5000    53.6634     0.7465
 1988.0000    53.6087     0.7352
 1988.5000    53.5539     0.7253
 1989.0000    53.4992     0.7270
 1989.5000    53.4445     0.7363
 1990.0000    53.3898     0.7363
 1990.5000    53.3351     0.7363
 1991.0000    53.2804     0.7391
 1991.5000    53.2257     0.7473
 1992.0000    53.1710     0.7507
 1992.5000    53.1163     0.7620
 1993.0000    53.0616     0.7652
 1993.5000    53.0069     0.7539
 1994.0000    52.9522     0.7332
 1994.5000    52.8975     0.7093
 1995.0000    52.8428     0.7033
 1995.5000    52.7881     0.6977
 1996.0000    52.7334     0.6923
 1996.5000    52.6787     0.6923
 1997.0000    52.6240     0.6923
 1997.5000    52.5693     0.6923
 1998.0000    52.5146     0.6923
 1998.5000    52.4599     0.6923
 1999.0000    52.4052     0.6923
 1999.5000    52.3505     0.6844
 2000.0000    52.3002     0.6642
 2000.5000    52.4769     0.6408
 2001.0000    52.6402     0.6175
 2001.5000    52.8035     0.5941
 2002.0000    52.9669     0.5813
 2002.5000    53.1302     0.5810
 2003.0000    53.2935     0.5862
 2003.5000    53.4568     0.5915
 2004.0000    53.6202     0.5969
 2004.5000    53.7835     0.6077
 2005.0000    53.9468     0.6245
 2005.5000    54.1102     0.6465
 2006.0000    54.2735     0.6623
 2006.5000    54.4368     0.6604
 2007.0000    54.6001     0.6555
 2007.5000    54.7635     0.6552
 2008.0000    54.9268     0.6549
 2008.5000    55.0901     0.6685
 2009.0000    55.2534     0.6975
 2009.5000    55.4168     0.7378
 2010.0000    55.5801     0.7674
 2010.5000    55.7434     0.7745
 2011.0000    55.9067     0.7666
 2011.5000    56.0701     0.7552
 2012.0000    56.2334     0.7438
 2012.5000    56.3967     0.7244
 2013.0000    56.5600     0.7018
 2013.5000    56.7234     0.7042
 2014.0000    56.8867     0.7403
 2014.5000    57.0500     0.8102
 2015.0000    57.2134     0.9313
 2015.5000    57.3767     1.0903
 2016.0000    57.5400     1.1890
 2016.5000    57.7033     1.2766
 2017.0000    57.8667     1.3533
 2017.5000    58.0300     1.4299
 2018.0000    58.1933     1.5835
 2018.5000    58.3566     1.4953
 2019.0000    58.5200     1.2862
 2019.5000    58.6833     1.1211
 2020.0000    58.8333     1.0110
 2020.5000    58.5975     1.0540
 2021.0000    58.3793     1.1010
 2021.5000    58.1612     1.1479
 2022.0000    57.9431     1.0672
 2022.5000    57.7250     0.9231
 2023.0000    57.5068     0.8025
 2023.5000    57.2887     0.7465
 2024.0000    57.0706     0.7643
 2024.5000    56.8524     0.7937
 2025.0000    56.6343     0.8160
 2025.5000    56.4162     0.8272
 2026.0000    56.1980     0.8385
 2026.5000    55.9799     0.8278
 2027.0000    55.7618     0.8280
 2027.5000    55.5437     0.8283
 2028.0000    55.3255     0.8293
 2028.5000    55.1074     0.8410
 2029.0000    54.8893     0.8541
 2029.5000    54.6711     0.8772
 2030.0000    54.4530     0.9025
 2030.5000    54.2349     0.9369
 2031.0000    54.0167     0.9713
 2031.5000    53.7986     0.9988
 2032.0000    53.5805     1.0027
 2032.5000    53.3624     0.9789
 2033.0000    53.1442     0.9244
 2033.5000    52.9261     0.8615
 2034.0000    52.7080     0.8103
 2034.5000    52.4898     0.7708
 2035.0000    52.2717     0.7493
 2035.5000    52.0536     0.7448
 2036.0000    51.8354     0.7451
 2036.5000    51.6173     0.7453
 2037.0000    51.3992     0.7456
 2037.5000    51.1811     0.7459
 2038.0000    50.9629     0.7462
 2038.5000    50.7448     0.7465
 2039.0000    50.5267     0.7467
 2039.5000    50.3085     0.7470
 2040.0000    50.1254     0.7408
 2040.5000    50.2198     0.7339
 2041.0000    50.3011     0.7269
 2041.5000    50.3824     0.7199
 2042.0000    50.4636     0.7132
 2042.5000    50.5449     0.7609
 2043.0000    50.6262     0.8161
 2043.5000    50.7075     0.8567
 2044.0000    50.7888     0.8660
 2044.5000    50.8700     0.8657
 2045.0000    50.9513     0.8654
 2045.5000    51.0326     0.8651
 2046.0000    51.1139     0.8712
 2046.5000    51.1952     0.8901
 2047.0000    51.2765     0.9011
 2047.5000    51.3577     0.9122
 2048.0000    51.4390     0.9233
 2048.5000    51.5203     0.9294
 2049.0000    51.6016     0.9239
 2049.5000    51.6829     0.8842
 2050.0000    51.7642     0.8516
 2050.5000    51.8454     0.8514
 2051.0000    51.9267     0.8511
 2051.5000    52.0080     0.8508
 2052.0000    52.0893     0.8505
 2052.5000    52.1706     0.8579
 2053.0000    52.2519     0.8610
 2053.5000    52.3331     0.8524
 2054.0000    52.4144     0.8233
 2054.5000    52.4957     0.7942
 2055.0000    52.5770     0.7500
 2055.5000    52.6583     0.7387
 2056.0000    52.7396     0.7384
 2056.5000    52.8208     0.7382
 2057.0000    52.9021     0.7379
 2057.5000    52.9834     0.7376
