~VERSION INFORMATION
 VERS.                2.0:   CWLS LOG ASCII STANDARD - VERSION 2.0
 WRAP.                 NO:   ONE LINE PER DEPTH STEP
~WELL INFORMATION
#MNEM.UNIT      DATA TYPE    INFORMATION
#----------   ------------   ------------------------------
 STRT.F           86.0000:   START DEPTH
 STOP.F         1134.0000:   STOP DEPTH
 STEP.F            0.5000:   STEP LENGTH
 NULL.          -999.2500:   NO VALUE
 COMP.          U.S. NAVY:   COMPANY
 WELL. RES 3 TEAPOT DOM #64-S-2:   WELL
 FLD .             TEAPOT:   FIELD
 LOC .       S2 T38N R78W:   LOCATION
 CNTY.            NATRONA:   COUNTY
 STAT.            WYOMING:   STATE
 CTRY. UNITED STATES OF AMERICA:   COUNTRY
 SRVC. Schlumberger Well Surveying Corp:   SERVICE COMPANY
 DATE.        28-JUL-1964:   LOGDATE
 API .       490250644400:   API NUMBER
~CURVE INFORMATION
#MNEM.UNIT       API CODE    CURVE DESCRIPTION
#----------   ------------   ------------------------------
 DEPT.F                  :   
 ASN .OHMM   05 041 16 00:   AMPLIFIED SHORT NORMAL 16"
 CILD.MMHO   05 110 46 00:   CONDUCTIVITY INDUCTION LOG DEEP
 ILD .OHMM   05 120 46 00:   INDUCTION LOG DEEP
 SPR .MV     05 010 01 00:   SPONTANEOUS POTENTIAL FROM RES.
 DT  .US/F   60 520 33 00:   INTERVAL TRANSIT TIME
 GR  .GAPI   30 310 01 00:   GAMMA RAY
~PARAMETER INFORMATION
#MNEM.UNIT          VALUE    DESCRIPTION
#----------   ------------   ------------------------------
 PD  .                 GL:   PERMANENT DATUM
 EPD .F              5204:   ELEVATION PERMANENT DATUM
 LMF .                 KB:   LOG MEASURED FROM
 DAPD.F                 5:   FEET ABOVE PERMANENT DATUM
 DMF .                 KB:   DRILLING MEASURED FROM
 EKB .F              5209:   KELLING BUSHING
 EGL .F              5204:   GROUND LEVEL
 DATE.        28-JUL-1964:   RUN DATE
 RUN .                  1:   RUN NUMBER
 DD  .F              1135:   DEPTH DRILLER
 DL  .F              1135:   DEPTH LOGGER
 BLI .F              1134:   BOTTOM LOG INTERVAL
 TLI .F                86:   TOP LOG INTERVAL
 CS  .IN            10.75:   CASING SIZE
 CBD .F                11:   CASING BOTTOM DRILLER
 BS  .IN            7.875:   BIT SIZE
 BSD .F              1135:   BIT SIZE AT DEPTH
 DFT .            GEL-OIL:   DRILLING FLUID TYPE
 DFD .                9.5:   DRILLING FLUID DENSITY
 DFV .                 49:   DRILLING FLUID VISCOSITY
 DFL .                 10:   DRILLING FLUID LOSS
 MSS .           FLOWLINE:   MUD SAMPLE SOURCE
 RMS .OHMM           2.35:   RESISTIVITY MUD SAMPLE
 MST .F                89:   MUD SAMPLE TEMPERATURE
 RMF .OHMM           1.71:   RESISTIVITY MUD FILTRATE SAMPLE
 MFST.F                89:   MUD FILTRATE SAMPLE TEMPERATURE
 RMC .OHMM           3.01:   RESISTIVITY MUD CAKE
 MCST.F                89:   MUD CAKE SAMPLE TEMPERATURE
 MFSS.                 FP:   MUD FILTRATE SAMPLE SOURCE
 MCSS.                 FP:   MUD CAKE SAMPLE SOURCE
 TCS .HRS               1:   TIME CURCULATED STOPPED
 LUN .               3527:   LOGGING UNIT NUMBER
 LUL .               CSPR:   LOGGING UNIT LOCATION
 ENGI.             KNOBEL:   RECORDING ENGINEER
 WITN.          JORGENSEN:   WITNESSED BY
 CLNT.            A2DTECH:   CLIENT CODE
 ORIG.        2" 5" PRINT:   ORIGIN OF DATA
 UWI .       490250644400:   UNIQUE WELL ID
 DICO. A2D Technologies, Inc.:   DIGITIZING COMPANY
~OTHER INFORMATION
~A   DEPT        ASN      CILD        ILD       SPR         DT         GR   
# ...
  294.0000     6.7985   173.8559     6.3383   -29.3793  -999.2500  -999.2500
  294.5000     6.7094   181.3783     6.1982   -29.2682  -999.2500  -999.2500
  295.0000     6.6158   185.7681     5.9309   -29.1804  -999.2500  -999.2500
  295.5000     6.5230   191.1980     5.7422   -29.1124  -999.2500  -999.2500
  296.0000     6.4158   195.3214     5.5315   -28.9593  -999.2500  -999.2500
  296.5000     6.2401   202.5980     5.2553   -28.9565  -999.2500  -999.2500
  297.0000     5.9561   210.7992     5.0370   -28.9325  -999.2500  -999.2500
  297.5000     5.5362   213.7174     4.7973   -28.8002  -999.2500  -999.2500
  298.0000     5.4132   215.4518     4.7297   -28.7976  -999.2500  -999.2500
  298.5000     5.3832   217.5991     4.7297   -28.6447  -999.2500  -999.2500
  299.0000     5.3683   218.3584     4.8048   -28.6412  -999.2500  -999.2500
  299.5000     5.3684   216.0015     4.8799   -28.6387  -999.2500  -999.2500
  300.0000     5.3885   205.8228     4.9800   -28.4858  -999.2500  -999.2500
  300.5000     5.4437   193.9029     5.0300   -28.4828  -999.2500  -999.2500
  301.0000     5.6552   186.7622     5.1051   -28.6302  -999.2500  -999.2500
  301.5000     5.9005   182.3869     5.2963   -28.6266  -999.2500  -999.2500
  302.0000     6.1657   178.4838     5.5556   -28.7096  -999.2500  -999.2500
  302.5000     6.7312   173.2309     5.8759   -28.8031  -999.2500  -999.2500
  303.0000     6.9958   172.5552     6.2042   -29.0672  -999.2500  -999.2500
  303.5000     6.9930   176.6941     6.3814   -29.2899  -999.2500  -999.2500
  304.0000     6.8114   180.0309     6.2302   -29.3833  -999.2500  -999.2500
  304.5000     6.4726   181.5235     6.1446   -29.6578  -999.2500  -999.2500
  305.0000     6.3767   183.1576     6.0811   -29.8051  -999.2500  -999.2500
  305.5000     6.3467   183.8188     6.0060   -29.8136  -999.2500  -999.2500
  306.0000     6.3468   182.1085     6.0811   -29.9490  -999.2500  -999.2500
  306.5000     6.3619   179.2044     6.1562   -29.8916  -999.2500  -999.2500
  307.0000     6.3620   176.3115     6.1562   -29.7931  -999.2500  -999.2500
  307.5000     6.3771   174.2596     6.2312   -29.7901  -999.2500  -999.2500
  308.0000     6.4016   171.7873     6.3063   -29.6372  -999.2500  -999.2500
  308.5000     6.4414   169.3148     6.3308   -29.6341  -999.2500  -999.2500
  309.0000     6.4826   166.8424     6.4565   -29.6312  -999.2500  -999.2500
  309.5000     6.5846   165.0529     6.5030   -29.6282  -999.2500  -999.2500
  310.0000     6.7925   163.1777     6.5315   -29.4750  -999.2500  -999.2500
  310.5000     7.0693   161.1960     6.6066   -29.4723  -999.2500  -999.2500
  311.0000     7.2193   158.9691     6.6486   -29.4693  -999.2500  -999.2500
  311.5000     7.1877   157.7523     6.7568   -29.4659  -999.2500  -999.2500
  312.0000     7.1447   156.7169     6.8318   -29.5532  -999.2500  -999.2500
  312.5000     7.1297   155.9676     6.9038   -29.5540  -999.2500  -999.2500
  313.0000     7.1298   155.8057     6.9625   -29.4048  -999.2500  -999.2500
  313.5000     7.1299   155.2221     7.0727   -29.2555  -999.2500  -999.2500
  314.0000     7.1502   154.8544     7.1196   -29.1065  -999.2500  -999.2500
  314.5000     7.1902   153.6258     7.1854   -29.1072  -999.2500  -999.2500
  315.0000     7.2734   151.4689     7.2135   -29.1079  -999.2500  -999.2500
  315.5000     7.3832   149.3586     7.2604   -28.9589  -999.2500  -999.2500
  316.0000     7.4611   146.9277     7.3333   -29.0535  -999.2500  -999.2500
  316.5000     7.5382   145.4563     7.3326   -28.9603  -999.2500  -999.2500
  317.0000     7.5696   150.6402     7.3318   -28.9610  -999.2500  -999.2500
  317.5000     7.5816   158.2644     7.2560   -28.9618  -999.2500  -999.2500
  318.0000     7.5592   164.9949     7.1657   -28.9626  -999.2500  -999.2500
  318.5000     7.4983   168.2292     7.0292   -28.9633  -999.2500  -999.2500
  319.0000     7.3412   170.3241     6.8088   -28.9640  -999.2500  -999.2500
  319.5000     6.9381   172.5816     6.5626   -28.9648  -999.2500  -999.2500
  320.0000     6.6586   175.1507     6.3512   -28.9655  -999.2500  -999.2500
  320.5000     6.5606   177.8657     6.2479   -28.9663  -999.2500  -999.2500
  321.0000     6.4866   176.1972     6.1995   -28.9671  -999.2500  -999.2500
  321.5000     6.4328   172.5037     6.1718   -29.1177  -999.2500  -999.2500
  322.0000     6.8307   167.3351     6.1983   -29.1184  -999.2500  -999.2500
  322.5000     7.0501   165.5936     6.2725   -29.2166  -999.2500  -999.2500
  323.0000     7.0537   164.3299     6.3126   -29.2699  -999.2500  -999.2500
  323.5000     7.0140   163.1363     6.3595   -29.2706  -999.2500  -999.2500
  324.0000     6.9889   162.8308     6.4204   -29.4213  -999.2500  -999.2500
  324.5000     6.9796   162.8354     6.4533   -29.4220  -999.2500  -999.2500
  325.0000     6.9737   162.0858     6.5002   -29.5728  -999.2500  -999.2500
  325.5000     6.9886   158.3572     6.5683   -29.5735  -999.2500  -999.2500
  326.0000     7.1429   146.2806     6.6692   -29.5742  -999.2500  -999.2500
  326.5000     7.5494   140.5309     6.8671   -29.5751  -999.2500  -999.2500
  327.0000     8.0260   135.6050     7.1569   -29.5757  -999.2500  -999.2500
  327.5000     8.4892   130.4789     7.5438   -29.7264  -999.2500  -999.2500
  328.0000     8.8541   126.7470     7.9159   -29.7271  -999.2500  -999.2500
  328.5000     8.8829   122.9557     8.1446   -29.7279  -999.2500  -999.2500
  329.0000     8.8925   122.2063     8.3649   -29.7287  -999.2500  -999.2500
  329.5000     8.8677   122.3833     8.3640   -29.8138  -999.2500  -999.2500
  330.0000     8.7845   123.7202     8.2232   -29.8801  -999.2500  -999.2500
  330.5000     8.6777   126.7458     8.0520   -29.8809  -999.2500  -999.2500
  331.0000     8.5066   134.1489     7.8362   -29.8816  -999.2500  -999.2500
  331.5000     8.2640   140.2980     7.7097   -29.7323  -999.2500  -999.2500
  332.0000     8.0798   142.4297     7.5345   -29.7332  -999.2500  -999.2500
  332.5000     8.0252   144.1077     7.4587   -29.5840  -999.2500  -999.2500
  333.0000     8.0031   145.5806     7.3646   -29.5817  -999.2500  -999.2500
  333.5000     7.9634   145.5836     7.3070   -29.4355  -999.2500  -999.2500
  334.0000     7.9046   145.5874     7.2312   -29.2862  -999.2500  -999.2500
  334.5000     7.8518   145.1418     7.2193   -29.2871  -999.2500  -999.2500
  335.0000     7.7381   144.8413     7.1546   -29.2879  -999.2500  -999.2500
  335.5000     7.6789   144.0929     7.1539   -29.1386  -999.2500  -999.2500
  336.0000     7.7416   144.0964     7.1532   -29.1395  -999.2500  -999.2500
  336.5000     7.8441   144.1002     7.2273   -29.2901  -999.2500  -999.2500
  337.0000     7.9535   143.3514     7.2510   -29.2909  -999.2500  -999.2500
  337.5000     7.9944   143.3547     7.3011   -29.2917  -999.2500  -999.2500
  338.0000     7.7537   143.3584     7.4199   -29.4423  -999.2500  -999.2500
  338.5000     7.7162   143.3629     7.5419   -29.4430  -999.2500  -999.2500
  339.0000     7.7515   143.3660     7.5991   -29.4438  -999.2500  -999.2500
  339.5000     8.0542   144.8758     7.6734   -29.4445  -999.2500  -999.2500
  340.0000     8.1233   146.8374     7.6627   -29.4453  -999.2500  -999.2500
  340.5000     7.8088   148.2518     7.5217   -29.5315  -999.2500  -999.2500
  341.0000     7.6480   150.1584     7.4459   -29.5967  -999.2500  -999.2500
  341.5000     7.6432   150.9149     7.3701   -29.7474  -999.2500  -999.2500
  342.0000     7.6177   151.6717     7.2941   -29.8201  -999.2500  -999.2500
  342.5000     7.5581   151.6759     7.2935   -29.8988  -999.2500  -999.2500
  343.0000     7.3932   152.4322     7.2928   -29.8997  -999.2500  -999.2500
  343.5000     7.3468   152.4360     7.2486   -29.9003  -999.2500  -999.2500
  344.0000     7.3544   152.4405     7.2162   -29.7471  -999.2500  -999.2500
  344.5000     7.3811   152.4435     7.2154   -29.5025  -999.2500  -999.2500
  345.0000     7.4368   152.4474     7.1396   -29.1079  -999.2500  -999.2500
  345.5000     7.5009   152.4510     7.1389   -28.8539  -999.2500  -999.2500
