~VERSION INFORMATION
 VERS.                2.0:   CWLS LOG ASCII STANDARD - VERSION 2.0
 WRAP.                 NO:   ONE LINE PER DEPTH STEP
~WELL INFORMATION
#MNEM.UNIT      DATA TYPE    INFORMATION
#----------   ------------   ------------------------------
 STRT.F           57.5000:   START DEPTH
 STOP.F         4049.0000:   STOP DEPTH
 STEP.F            0.5000:   STEP LENGTH
 NULL.          -999.2500:   NO VALUE
 COMP. LAWRENCE/ALLISON INC:   COMPANY
 WELL.     NPR #3` #13-11:   WELL
 FLD .             NPR #3:   FIELD
 LOC .      S11 T38N R78W:   LOCATION
 CNTY.            NATRONA:   COUNTY
 STAT.            WYOMING:   STATE
 CTRY. UNITED STATES OF AMERICA:   COUNTRY
 SRVC.      Dresser Atlas:   SERVICE COMPANY
 DATE.        13-MAR-1986:   LOGDATE
 API .       490251106500:   API NUMBER
~CURVE INFORMATION
#MNEM.UNIT       API CODE    CURVE DESCRIPTION
#----------   ------------   ------------------------------
 DEPT.F                  :   
 CALR.IN     07 280 01 00:   CALIPER FROM RESISTIVITY
 GRR .GAPI   07 310 01 00:   GAMMA RAY FROM RESISTIVITY
 RILD.OHMM   07 120 46 00:   RESISTIVITY INDUCTION LOG DEEP
 RILM.OHMM   07 120 44 00:   RESISTIVITY INDUCTION LOG MEDIUM
 RFOC.OHMM   07 220 04 00:   RESISTIVITY FOCUSED LOG
 SPR .MV     07 010 01 00:   SPONTANEOUS POTENTIAL FROM RES.
 PORD.DEC    45 890 12 00:   POROSITY DENSITY SANDSTONE
 CNC .DEC    42 890 03 00:   COMPENSATED NEUTRON POROSITY SANDSTONE
 CORR.G/C3   45 356 01 00:   DENSITY CORRECTION
 DEN .G/C3   45 350 01 00:   COMPENSATED BULK DENSTIY
 DT  .US/F   60 520 00 00:   INTERVAL TRANSIT TIME
~PARAMETER INFORMATION
#MNEM.UNIT          VALUE    DESCRIPTION
#----------   ------------   ------------------------------
 PD  .                 GL:   PERMANENT DATUM
 EPD .F              5176:   ELEVATION PERMANENT DATUM
 LMF .                 KB:   LOG MEASURED FROM
 DAPD.F              11.8:   FEET ABOVE PERMANENT DATUM
 DMF .                 KB:   DRILLING MEASURED FROM
 EKB .F            5187.8:   KELLING BUSHING
 EGL .F              5176:   GROUND LEVEL
 DATE.        13-MAR-1986:   RUN DATE
 RUN .                  1:   RUN NUMBER
 DD  .F              4051:   DEPTH DRILLER
 DL  .F              4051:   DEPTH LOGGER
 BLI .F              4049:   BOTTOM LOG INTERVAL
 TLI .F               564:   TOP LOG INTERVAL
 CS  .IN            8.625:   CASING SIZE
 CBD .F               564:   CASING BOTTOM DRILLER
 CBL .F               564:   CASING BOTTOM LOGGER
 BS  .IN            7.875:   BIT SIZE
 BSD .F              4051:   BIT SIZE AT DEPTH
 DFT .          POLY- KCL:   DRILLING FLUID TYPE
 DFD .                8.9:   DRILLING FLUID DENSITY
 DFV .                 36:   DRILLING FLUID VISCOSITY
 DFPH.                8.5:   DRILLING FLUID PH
 DFL .               13.5:   DRILLING FLUID LOSS
 MSS .           FLOWLINE:   MUD SAMPLE SOURCE
 RMS .OHMM           .275:   RESISTIVITY MUD SAMPLE
 MST .F                55:   MUD SAMPLE TEMPERATURE
 RMF .OHMM           .206:   RESISTIVITY MUD FILTRATE SAMPLE
 MFST.F                55:   MUD FILTRATE SAMPLE TEMPERATURE
 RMC .OHMM           .344:   RESISTIVITY MUD CAKE
 MCST.F                55:   MUD CAKE SAMPLE TEMPERATURE
 MFSS.               CALC:   MUD FILTRATE SAMPLE SOURCE
 MCSS.               CALC:   MUD CAKE SAMPLE SOURCE
 RMB .OHMM           .092:   RESISTIVITY MUD AT BHT
 BHT .F               164:   BOTTOM HOLE TEMPERATURE
 TCS .HRS            0400:   TIME CURCULATED STOPPED
 MRT .F               164:   MAXIMUM RECORDED TEMPERATURE
 LUN .               6274:   LOGGING UNIT NUMBER
 LUL .           GILLETTE:   LOGGING UNIT LOCATION
 ENGI.             MILLER:   RECORDING ENGINEER
 WITN.             STRONG:   WITNESSED BY
 CLNT.            A2DTECH:   CLIENT CODE
 ORIG.         2.5" PRINT:   ORIGIN OF DATA
 UWI .       490251106500:   UNIQUE WELL ID
 DICO. A2D Technologies, Inc.:   DIGITIZING COMPANY
~OTHER INFORMATION
~A   DEPT     CALR         GRR      RILD       RILM       RFOC        SPR       PORD        CNC       CORR        DEN         DT   
# ...
 1033.5000    11.2495    90.3817     7.2043     7.4538     7.0391   -54.3735  -999.2500  -999.2500  -999.2500  -999.2500  -999.2500
 1034.0000    11.2183    95.8878     7.2043     7.4533     7.0381   -54.3841  -999.2500  -999.2500  -999.2500  -999.2500  -999.2500
 1034.5000    11.1871    97.8559     7.2043     7.4527     7.1356   -54.3948  -999.2500  -999.2500  -999.2500  -999.2500  -999.2500
 1035.0000    11.0948    95.8571     7.1049     7.4522     7.1346   -54.4055  -999.2500  -999.2500  -999.2500  -999.2500  -999.2500
 1035.5000    11.0636    94.6147     7.2043     7.4517     7.2334   -54.4162  -999.2500  -999.2500  -999.2500  -999.2500  -999.2500
 1036.0000    10.9712    93.3724     7.2043     7.3481     7.2324   -54.2764  -999.2500  -999.2500  -999.2500  -999.2500  -999.2500
 1036.5000    10.9400    92.7435     7.2043     7.3293     7.2314   -54.1326  -999.2500  -999.2500  -999.2500  -999.2500  -999.2500
 1037.0000    10.9088    92.7282     7.2043     7.2454     7.2304   -54.1433  -999.2500  -999.2500  -999.2500  -999.2500  -999.2500
 1037.5000    10.9388    93.3263     7.1877     7.2449     7.2294   -54.1540  -999.2500  -999.2500  -999.2500  -999.2500  -999.2500
 1038.0000    10.9382    96.9919     7.0069     7.1441     7.2283   -54.1646  -999.2500  -999.2500  -999.2500  -999.2500  -999.2500
 1038.5000    10.9070   102.4980     7.0069     7.1436     7.1865   -54.1753  -999.2500  -999.2500  -999.2500  -999.2500  -999.2500
 1039.0000    10.9064   101.8692     6.9102     7.0443     7.0867   -54.1860  -999.2500  -999.2500  -999.2500  -999.2500  -999.2500
 1039.5000    10.8752    96.3323     6.9102     7.0438     7.0274   -54.1966  -999.2500  -999.2500  -999.2500  -999.2500  -999.2500
 1040.0000    10.8746    90.7955     6.9102     7.0433     7.0264   -54.5122  -999.2500  -999.2500  -999.2500  -999.2500  -999.2500
 1040.5000    10.8739    90.1666     6.8905     7.0428     7.0254   -54.5229  -999.2500  -999.2500  -999.2500  -999.2500  -999.2500
 1041.0000    10.8733    93.2188     6.8149     7.0423     7.0244   -54.8384  -999.2500  -999.2500  -999.2500  -999.2500  -999.2500
 1041.5000    10.8727    98.7249     6.8149     7.0418     7.0234   -54.9604  -999.2500  -999.2500  -999.2500  -999.2500  -999.2500
 1042.0000    10.8721    95.6420     6.8365     7.0519     7.0225   -55.2723  -999.2500  -999.2500  -999.2500  -999.2500  -999.2500
 1042.5000    10.8715    92.5592     6.9102     7.1397     7.0215   -55.7851  -999.2500  -999.2500  -999.2500  -999.2500  -999.2500
 1043.0000    10.9015    88.2493     7.0069     7.2488     7.1189   -55.7957  -999.2500  -999.2500  -999.2500  -999.2500  -999.2500
 1043.5000    10.9315    85.7800     7.1294     7.4434     7.1552   -55.4044  -999.2500  -999.2500  -999.2500  -999.2500  -999.2500
 1044.0000    10.9308    83.3106     7.3310     7.5644     7.2540   -55.1138  -999.2500  -999.2500  -999.2500  -999.2500  -999.2500
 1044.5000    10.9302    87.5897     7.4615     7.8770     7.3541   -54.9115  -999.2500  -999.2500  -999.2500  -999.2500  -999.2500
 1045.0000    10.9602    92.4824     7.7513     8.1060     7.4941   -54.9238  -999.2500  -999.2500  -999.2500  -999.2500  -999.2500
 1045.5000    10.9595    94.4961     8.0012     8.4427     7.7714   -54.9344  -999.2500  -999.2500  -999.2500  -999.2500  -999.2500
 1046.0000    10.9589    89.9976     8.2780     8.8016     8.2140   -55.0243  -999.2500  -999.2500  -999.2500  -999.2500  -999.2500
 1046.5000    10.9890    85.6878     8.5453     9.1758     8.6051   -55.6412  -999.2500  -999.2500  -999.2500  -999.2500  -999.2500
 1047.0000    11.0189    80.1510     8.7510     9.4283     8.9691   -56.1860  -999.2500  -999.2500  -999.2500  -999.2500  -999.2500
 1047.5000    11.0489    79.3302     9.0352     9.4277     9.3028   -56.2653  -999.2500  -999.2500  -999.2500  -999.2500  -999.2500
 1048.0000    11.0789    83.8012     9.1625     9.4270     9.5171   -56.8171  -999.2500  -999.2500  -999.2500  -999.2500  -999.2500
 1048.5000    11.1088    88.0803     9.2510     9.4263     9.2548   -56.8893  -999.2500  -999.2500  -999.2500  -999.2500  -999.2500
 1049.0000    11.1082    86.8380     9.2510     9.4257     9.2102   -57.1433  -999.2500  -999.2500  -999.2500  -999.2500  -999.2500
 1049.5000    11.1075    83.7551     9.1234     9.2946     9.1246   -57.1540  -999.2500  -999.2500  -999.2500  -999.2500  -999.2500
 1050.0000    11.1681    80.6723     9.0814     9.2940     9.1234   -57.1138  -999.2500  -999.2500  -999.2500  -999.2500  -999.2500
 1050.5000    11.2286    80.0434     8.9975     9.2933     8.9963   -56.8696  -999.2500  -999.2500  -999.2500  -999.2500  -999.2500
 1051.0000    11.2892    80.6442     8.8734     9.2927     9.1210   -56.8811  -999.2500  -999.2500  -999.2500  -999.2500  -999.2500
 1051.5000    11.3497    80.6262     8.8734     9.2920     9.1196   -56.8918  -999.2500  -999.2500  -999.2500  -999.2500  -999.2500
 1052.0000    11.4103    79.9973     8.9181     9.4217     9.1591   -56.9390  -999.2500  -999.2500  -999.2500  -999.2500  -999.2500
 1052.5000    11.4403    79.9820     8.9975     9.6873     9.2448   -57.2180  -999.2500  -999.2500  -999.2500  -999.2500  -999.2500
 1053.0000    11.4396    83.0341     9.1234     9.8226     9.4136   -57.5335  -999.2500  -999.2500  -999.2500  -999.2500  -999.2500
 1053.5000    11.4391    85.0807     9.2510     9.9597     9.5436   -57.5442  -999.2500  -999.2500  -999.2500  -999.2500  -999.2500
 1054.0000    11.4079    84.6257     9.4311    10.2404     9.7689   -57.5549  -999.2500  -999.2500  -999.2500  -999.2500  -999.2500
 1054.5000    11.4073    87.2825     9.6447    10.3834     9.9042   -57.5656  -999.2500  -999.2500  -999.2500  -999.2500  -999.2500
 1055.0000    11.4067    91.5616     9.7796    10.3827    10.0833   -57.5762  -999.2500  -999.2500  -999.2500  -999.2500  -999.2500
 1055.5000    11.3755    90.9327     9.9728    10.2383    10.1804   -57.5986  -999.2500  -999.2500  -999.2500  -999.2500  -999.2500
 1056.0000    11.3749    82.9419     9.9978    10.0959    10.3214   -57.9024  -999.2500  -999.2500  -999.2500  -999.2500  -999.2500
 1056.5000    11.3743    79.8591     9.7796     9.9555    10.3198   -57.6082  -999.2500  -999.2500  -999.2500  -999.2500  -999.2500
 1057.0000    11.3737    78.9999     9.7220     9.6812    10.1760   -57.6189  -999.2500  -999.2500  -999.2500  -999.2500  -999.2500
 1057.5000    11.3731    82.2823     9.5116     9.5466     9.9950   -57.6296  -999.2500  -999.2500  -999.2500  -999.2500  -999.2500
 1058.0000    11.3724    84.7210     9.3804     9.4138     9.7579   -57.6404  -999.2500  -999.2500  -999.2500  -999.2500  -999.2500
 1058.5000    11.3718    87.1596     9.2510     9.2829     9.6219   -57.6511  -999.2500  -999.2500  -999.2500  -999.2500  -999.2500
 1059.0000    11.4018    87.7607     9.2510     9.2823     9.4879   -57.3567  -999.2500  -999.2500  -999.2500  -999.2500  -999.2500
 1059.5000    11.4012    87.7423     9.2510     9.2816     9.3208   -57.3677  -999.2500  -999.2500  -999.2500  -999.2500  -999.2500
 1060.0000    11.4006    86.7485     9.2510     9.2810     9.2253   -56.7687  -999.2500  -999.2500  -999.2500  -999.2500  -999.2500
 1060.5000    11.4000    85.5081     9.3122     9.2803     9.0968   -56.7794  -999.2500  -999.2500  -999.2500  -999.2500  -999.2500
 1061.0000    11.3993    84.6319     9.3804     9.2797     9.0629   -57.0950  -999.2500  -999.2500  -999.2500  -999.2500  -999.2500
 1061.5000    11.3987    84.0031     9.4442     9.2790     8.9688   -57.4106  -999.2500  -999.2500  -999.2500  -999.2500  -999.2500
 1062.0000    11.3370    84.6012     9.5116     9.4086     8.9994   -57.7262  -999.2500  -999.2500  -999.2500  -999.2500  -999.2500
 1062.5000    11.3363    85.1994     9.5116     9.4079     9.0919   -57.7369  -999.2500  -999.2500  -999.2500  -999.2500  -999.2500
 1063.0000    11.3051    86.1533     9.4451     9.4073     9.2178   -57.4428  -999.2500  -999.2500  -999.2500  -999.2500  -999.2500
 1063.5000    11.3045    86.3957     9.3804     9.6724     9.3771   -57.4535  -999.2500  -999.2500  -999.2500  -999.2500  -999.2500
