~VERSION INFORMATION
 VERS.                2.0:   CWLS LOG ASCII STANDARD - VERSION 2.0
 WRAP.                 NO:   ONE LINE PER DEPTH STEP
~WELL INFORMATION
#MNEM.UNIT      DATA TYPE    INFORMATION
#----------   ------------   ------------------------------
 STRT.F           70.0000:   START DEPTH
 STOP.F          865.0000:   STOP DEPTH
 STEP.F            0.5000:   STEP LENGTH
 NULL.          -999.2500:   NO VALUE
 COMP. U S NAVY/INTEX OIL CO:   COMPANY
 WELL.   54S 11 NPR #3-11:   WELL
 FLD .             TEAPOT:   FIELD
 LOC .      S11 T38N R78W:   LOCATION
 CNTY.            NATRONA:   COUNTY
 STAT.            WYOMING:   STATE
 CTRY. UNITED STATES OF AMERICA:   COUNTRY
 SRVC.         Lane Wells:   SERVICE COMPANY
 DATE.        11-MAR-1960:   LOGDATE
 API .       490250634900:   API NUMBER
~CURVE INFORMATION
#MNEM.UNIT       API CODE    CURVE DESCRIPTION
#----------   ------------   ------------------------------
 DEPT.F                  :   
 SPR .MV     05 010 01 00:   SPONTANEOUS POTENTIAL FROM RES.
 ASN .OHMM   05 041 16 00:   AMPLIFIED SHORT NORMAL 16"
 ILD .OHMM   05 120 46 00:   INDUCTION LOG DEEP
 CILD.MMHO   05 110 46 00:   CONDUCTIVITY INDUCTION LOG DEEP
~PARAMETER INFORMATION
#MNEM.UNIT          VALUE    DESCRIPTION
#----------   ------------   ------------------------------
 PD  .                 GL:   PERMANENT DATUM
 EPD .F              5198:   ELEVATION PERMANENT DATUM
 LMF .                 KB:   LOG MEASURED FROM
 DAPD.F                 5:   FEET ABOVE PERMANENT DATUM
 DMF .                 KB:   DRILLING MEASURED FROM
 EKB .F              5203:   KELLING BUSHING
 EGL .F              5198:   GROUND LEVEL
 DATE.            3-11-60:   RUN DATE
 RUN .                  1:   RUN NUMBER
 DD  .F               870:   DEPTH DRILLER
 DL  .F               867:   DEPTH LOGGER
 BLI .F               865:   BOTTOM LOG INTERVAL
 TLI .F                70:   TOP LOG INTERVAL
 CS  .IN            8.625:   CASING SIZE
 CBD .F                12:   CASING BOTTOM DRILLER
 BS  .IN            7.875:   BIT SIZE
 BSD .F               870:   BIT SIZE AT DEPTH
 DFT .   GEL/OIL EMULSION:   DRILLING FLUID TYPE
 DFD .                9.2:   DRILLING FLUID DENSITY
 DFV .                 36:   DRILLING FLUID VISCOSITY
 DFPH.                7.5:   DRILLING FLUID PH
 DFL .                4.4:   DRILLING FLUID LOSS
 MSS .                PIT:   MUD SAMPLE SOURCE
 RMS .OHMM            6.8:   RESISTIVITY MUD SAMPLE
 MST .F                54:   MUD SAMPLE TEMPERATURE
 RMF .OHMM            4.2:   RESISTIVITY MUD FILTRATE SAMPLE
 MFST.F                69:   MUD FILTRATE SAMPLE TEMPERATURE
 RMC .OHMM            5.1:   RESISTIVITY MUD CAKE
 MCST.F                69:   MUD CAKE SAMPLE TEMPERATURE
 MFSS.              PRESS:   MUD FILTRATE SAMPLE SOURCE
 MCSS.              PRESS:   MUD CAKE SAMPLE SOURCE
 RMB .OHMM            5.2:   RESISTIVITY MUD AT BHT
 BHT .F                70:   BOTTOM HOLE TEMPERATURE
 TCS .HRS              .5:   TIME CURCULATED STOPPED
 MRT .F                70:   MAXIMUM RECORDED TEMPERATURE
 LUN .             L-4474:   LOGGING UNIT NUMBER
 LUL .             CASPER:   LOGGING UNIT LOCATION
 ENGI.      GRIGGS/NELSON:   RECORDING ENGINEER
 WITN.   JORGENSEN/HUDSON:   WITNESSED BY
 CLNT.            A2DTECH:   CLIENT CODE
 ORIG.       2", 5" PRINT:   ORIGIN OF DATA
 UWI .       490250634900:   UNIQUE WELL ID
 DICO. A2D Technologies, Inc.:   DIGITIZING COMPANY
~OTHER INFORMATION
~A   DEPT       SPR         ASN        ILD      CILD  
# ...
  727.0000   -14.5972     8.3823     7.8343   153.5153
  727.5000   -14.8095     8.4754     7.9840   150.3830
  728.0000   -15.2220     8.6093     8.1313   147.2486
  728.5000   -16.3899     9.0546     8.2626   144.1667
  729.0000   -17.4801     9.7595     8.6180   139.2820
  729.5000   -17.2943    10.8616     8.9762   132.5674
  730.0000   -15.8347    12.2082     9.4000   125.8527
  730.5000   -16.9823    13.6103    10.1002   119.1368
  731.0000   -18.4825    15.4825    10.7763   112.4224
  731.5000   -19.6721    17.8157    11.4562   105.6497
  732.0000   -21.4486    20.1687    12.1365   101.3695
  732.5000   -23.6841    21.7370    12.1624   101.7110
  733.0000   -25.8964    21.8370    12.1490   102.0525
  733.5000   -27.1477    21.3649    12.1388   102.3940
  734.0000   -25.7443    20.4799    12.1296   102.7355
  734.5000   -24.1702    19.8327    12.1204   103.0770
  735.0000   -22.5695    19.3034    12.1112   103.4185
  735.5000   -22.0490    18.7860    12.1020   103.7601
  736.0000   -21.8523    18.4814    12.0930   104.1016
  736.5000   -21.1660    18.3498    12.0840   104.4446
  737.0000   -21.0200    18.5031    12.0631   104.7696
  737.5000   -20.1294    18.6445    11.9722   106.3671
  738.0000   -20.0065    17.9874    11.7141   108.1720
  738.5000   -21.2484    17.0963    11.4919   109.9821
  739.0000   -23.1839    15.9312    11.2722   111.7921
  739.5000   -22.6629    16.1805    11.0528   113.6021
  740.0000   -20.8491    16.4029    10.8332   115.3047
  740.5000   -18.0262    15.3200    10.6137   117.4767
  741.0000   -17.2904    14.8142    10.3938   119.6488
  741.5000   -17.2007    14.4132    10.1659   121.8208
  742.0000   -17.1662    14.0085    10.1374   123.9928
  742.5000   -16.2005    13.5962    10.1654   123.6250
  743.0000   -15.2291    13.4267    10.1951   122.3767
  743.5000   -14.2914    13.7134    10.2241   121.1284
  744.0000   -14.7955    13.9849    10.2521   119.8801
  744.5000   -16.2024    13.8651    10.2893   118.6333
  745.0000   -17.0054    13.7871    10.2744   117.3827
  745.5000   -17.5605    14.2984    10.4751   115.7859
  746.0000   -18.7424    14.6432    10.6694   114.1893
  746.5000   -19.7850    14.0781    10.6663   112.5922
  747.0000   -19.9076    13.3739    10.6509   112.7471
  747.5000   -19.9470    13.0114    10.6509   113.9149
  748.0000   -19.1438    14.3937    10.6505   115.0827
  748.5000   -18.5374    15.3874    10.6284   116.2504
  749.0000   -18.6992    14.9774    10.5283   117.4199
  749.5000   -19.3558    14.1875    10.4317   118.5866
  750.0000   -19.8203    13.7866    10.3351   119.2724
  750.5000   -19.3384    14.2356    10.2386   119.4581
  751.0000   -18.6812    14.3748    10.1420   119.6470
  751.5000   -18.5213    14.0520    10.0453   119.8359
  752.0000   -18.9736    13.8287     9.9479   120.0248
  752.5000   -19.4222    13.6694     9.8528   120.2137
  753.0000   -19.1999    13.6071     9.8798   120.4026
  753.5000   -18.0184    13.5405     9.9141   120.5915
  754.0000   -16.8448    13.3913     9.9479   120.7804
  754.5000   -15.6806    13.1032     9.9815   120.9693
  755.0000   -14.8964    12.8733    10.0151   121.1582
  755.5000   -14.2883    12.8782    10.0487   121.3472
  756.0000   -14.9963    12.8787    10.0822   121.5360
  756.5000   -15.8570    12.8788    10.1158   121.7250
  757.0000   -16.1280    12.8787    10.1494   121.9139
  757.5000   -16.3782    12.8788    10.1830   122.1028
  758.0000   -16.6387    12.8792    10.2166   122.2917
  758.5000   -17.2395    12.9037    10.2502   122.4826
  759.0000   -18.2056    12.9538    10.2837   122.6691
  759.5000   -19.1771    13.0033    10.3173   122.3581
  760.0000   -19.0551    13.0576    10.3509   121.5782
  760.5000   -18.0156    13.2383    10.3846   120.8002
  761.0000   -16.9659    13.4319    10.4182   120.0225
  761.5000   -16.7556    13.6257    10.4511   119.2453
  762.0000   -16.7487    13.8191    10.4474   118.4680
  762.5000   -16.3203    14.0101    10.3794   117.6907
  763.0000   -15.1880    14.0722    10.3123   117.7654
  763.5000   -14.0615    13.9313    10.2451   118.7035
  764.0000   -12.9455    13.7969    10.1779   119.6416
  764.5000   -12.3430    13.5642    10.1108   120.5792
  765.0000   -13.6476    13.3183    10.0436   121.5153
  765.5000   -14.9001    13.0720     9.9765   122.4636
  766.0000   -16.0245    12.8258     9.9098   123.5771
  766.5000   -16.2054    12.5797     9.8439   124.7861
  767.0000   -16.3818    12.3364     9.7443   125.9952
  767.5000   -16.5629    12.1263     9.6481   127.2048
  768.0000   -16.7456    12.0080     9.5524   128.4117
  768.5000   -16.9277    11.8871     9.4567   129.6332
  769.0000   -16.9370    11.7669     9.3612   130.1104
  769.5000   -16.9344    11.6465     9.2648   130.3637
  770.0000   -17.0894    11.5273     9.2378   130.6112
  770.5000   -17.3546    11.4553     9.2588   130.8592
  771.0000   -17.6221    11.4654     9.2807   131.1077
  771.5000   -17.9004    11.4742     9.3026   131.3561
  772.0000   -18.2530    11.4833     9.3244   131.6046
  772.5000   -17.9526    11.4923     9.3462   131.8530
  773.0000   -17.3117    11.5014     9.3680   132.1014
  773.5000   -16.6681    11.5104     9.3899   132.3499
  774.0000   -16.3619    11.5195     9.4117   132.5983
  774.5000   -16.1148    11.5284     9.4335   132.8468
  775.0000   -15.8687    11.5376     9.4554   133.0952
  775.5000   -15.6208    11.4767     9.4768   133.3436
  776.0000   -15.5129    11.3478     9.4821   132.7384
  776.5000   -15.5402    11.2151     9.4484   130.3202
  777.0000   -15.5694    11.1577     9.4155   127.8804
  777.5000   -15.5989    11.1197     9.3824   126.7263
  778.0000   -15.6282    11.0824     9.3494   127.7537
  778.5000   -15.6574    11.0449     9.3164   128.8062
  779.0000   -15.6867    11.0074     9.2836   129.8550
  779.5000   -15.7159    10.9699     9.2505   130.9030
  780.0000   -15.7452    10.9306     9.2077   131.9778
  780.5000   -15.7744    10.8457     9.1218   133.1792
  781.0000   -15.8043    10.6730     9.0371   134.3761
  781.5000   -15.8358    10.5031     8.9525   135.5738
  782.0000   -15.8439    10.3216     8.8679   136.7715
  782.5000   -15.4910     9.9622     8.7831   137.9692
  783.0000   -15.1397     9.7649     8.6993   139.1668
  783.5000   -14.9812     9.6770     8.6827   140.3645
  784.0000   -15.0164     9.5923     8.6752   141.5622
  784.5000   -15.0514     9.5585     8.6677   142.7599
  785.0000   -15.0871     9.5221     8.6601   143.9575
  785.5000   -15.1180     9.4882     8.6524   144.0831
  786.0000   -14.9399     9.4532     8.6448   143.8400
  786.5000   -14.3565     9.4461     8.6371   143.5936
  787.0000   -13.8823     9.4594     8.6295   143.3479
  787.5000   -14.0931     9.4764     8.6219   143.1028
  788.0000   -14.3028     9.4938     8.6144   142.8577
  788.5000   -14.3799     9.5070     8.6066   142.6126
  789.0000   -14.2620     9.4447     8.5838   142.9827
  789.5000   -14.1467     9.4061     8.4997   144.1615
  790.0000   -14.0307     9.3817     8.4176   145.3477
  790.5000   -13.9150     9.2953     8.3356   146.5315
  791.0000   -13.7992     9.2092     8.2536   147.7139
  791.5000   -13.6834     9.1229     8.1716   148.1896
  792.0000   -13.5668     9.0438     8.0896   148.6843
  792.5000   -13.4508     9.0293     8.0077   149.1789
  793.0000   -13.3803     9.0439     7.9254   149.6735
  793.5000   -13.6335     9.0205     7.8902   150.1681
  794.0000   -13.8723     8.9856     7.9034   150.6628
  794.5000   -13.5352     8.9504     7.9173   151.1574
  795.0000   -13.1598     8.9152     7.9313   151.6520
  795.5000   -12.7807     8.8815     7.9452   152.1466
  796.0000   -12.8005     8.8748     7.9591   152.6413
  796.5000   -13.0678     8.9111     7.9729   153.1359
  797.0000   -13.3416     8.9475     7.9868   153.7390
  797.5000   -13.6090     8.9936     8.0007   151.6781
  798.0000   -14.1860     9.0817     8.0146   149.6171
  798.5000   -14.8259     9.1683     8.0285   147.5562
  799.0000   -15.4767     9.2544     8.0424   146.2724
  799.5000   -16.1308     9.3399     8.0562   147.0609
