~VERSION INFORMATION
 VERS.                2.0:   CWLS LOG ASCII STANDARD - VERSION 2.0
 WRAP.                 NO:   ONE LINE PER DEPTH STEP
~WELL INFORMATION
#MNEM.UNIT      DATA TYPE    INFORMATION
#----------   ------------   ------------------------------
 STRT.F            0.0000:   START DEPTH
 STOP.F          547.0000:   STOP DEPTH
 STEP.F            0.1000:   STEP LENGTH
 NULL.          -999.2500:   NO VALUE
 COMP.       F D SERV INC:   COMPANY
 WELL.    87-5 SX 3 #87-3:   WELL
 FLD .             TEAPOT:   FIELD
 LOC .       S3 T38N R78W:   LOCATION
 CNTY.            NATRONA:   COUNTY
 STAT.            WYOMING:   STATE
 CTRY. UNITED STATES OF AMERICA:   COUNTRY
 SRVC.     Atlas Wireline:   SERVICE COMPANY
 DATE.        31-OCT-1992:   LOGDATE
 API .       490252254800:   API NUMBER
~CURVE INFORMATION
#MNEM.UNIT       API CODE    CURVE DESCRIPTION
#----------   ------------   ------------------------------
 DEPT.F                  :   
 GRR .GAPI   07 310 01 00:   GAMMA RAY
 RILD.OHMM   07 120 46 00:   INDUCTION LOG DEEP RESISTIVITY
 RILM.OHMM   07 120 44 00:   INDUCTION LOG MEDIUM RESISTIVITY
~PARAMETER INFORMATION
#MNEM.UNIT          VALUE    DESCRIPTION
#----------   ------------   ------------------------------
 PD  .                 GL:   PERMANENT DATUM
 EPD .F              5119:   ELEVATION PERMANENT DATUM
 LMF .                 KB:   LOG MEASURED FROM
 DAPD.F                10:   FEET ABOVE PERMANENT DATUM
 DMF .                 KB:   DRILLING MEASURED FROM
 EKB .F              5129:   KELLING BUSHING
 EDF .F              5128:   DRILLING FLOOR
 EGL .F              5119:   GROUND LEVEL
 DATE.        31-OCT-1992:   RUN DATE
 RUN .                  1:   RUN NUMBER
 DD  .F               568:   DEPTH DRILLER
 DL  .F               555:   DEPTH LOGGER
 BLI .F               547:   BOTTOM LOG INTERVAL
 TLI .F                71:   TOP LOG INTERVAL
 CS  .IN            8.625:   CASING SIZE
 CBD .F                70:   CASING BOTTOM DRILLER
 CBL .F                71:   CASING BOTTOM LOGGER
 BS  .IN            7.875:   BIT SIZE
 BSD .F               568:   BIT SIZE AT DEPTH
 DFT .           AIR FOAM:   DRILLING FLUID TYPE
 TCS .HRS               2:   TIME CURCULATED STOPPED
 MRT .F                64:   MAXIMUM RECORDED TEMPERATURE
 LUN .            HL-6274:   LOGGING UNIT NUMBER
 LUL .             CASPER:   LOGGING UNIT LOCATION
 ENGI.        P.RASHUSSEN:   RECORDING ENGINEER
 WITN.     BRUCE ANDERSON:   WITNESSED BY
 CLNT.            A2DTECH:   CLIENT CODE
 ORIG.           5" PRINT:   ORIGIN OF DATA
 UWI .       490252254800:   UNIQUE WELL ID
 DICO. A2D Technologies, Inc.:   DIGITIZING COMPANY
~OTHER INFORMATION
~A    DEPT      GRR      RILD       RILM   
# ...
  200.2000   132.7255     7.9059     8.4422
  200.3000   132.2705     7.9054     8.4416
  200.4000   132.0174     7.9424     8.4413
  200.5000   131.7147     7.9599     8.4713
  200.6000   131.7147     7.9787     8.5205
  200.7000   131.5616     8.0249     8.5699
  200.8000   131.4112     8.0704     8.6196
  200.9000   131.4112     8.0699     8.6778
  201.0000   131.4112     8.1083     8.6774
  201.1000   131.4112     8.1256     8.7096
  201.2000   131.4112     8.1455     8.7601
  201.3000   131.4112     8.1816     8.8109
  201.4000   131.5152     8.1811     8.8621
  201.5000   131.7683     8.1806     8.9207
  201.6000   132.0247     8.2202     8.9202
  201.7000   132.6252     8.2370     8.9197
  201.8000   132.2133     8.2793     8.9192
  201.9000   131.5515     8.3518     8.9331
  202.0000   130.7921     8.3537     8.9808
  202.1000   130.1424     8.4093     8.9802
  202.2000   129.8938     8.4089     9.0263
  202.3000   129.8938     8.4406     9.0787
  202.4000   130.1010     8.4668     9.1050
  202.5000   130.3541     8.4664     9.1045
  202.6000   130.8200     8.4659     9.1040
  202.7000   131.6354     8.4653     9.1034
  202.8000   132.6422     8.4649     9.1514
  202.9000   133.5357     8.4975     9.1662
  203.0000   134.3693     8.5233     9.1657
  203.1000   135.0657     8.5228     9.1652
  203.2000   135.6795     8.5223     9.1647
  203.3000   136.3816     8.5218     9.1642
  203.4000   136.8878     8.5652     9.1637
  203.5000   137.4810     8.5805     9.1632
  203.6000   137.2714     8.5801     9.1918
  203.7000   137.1775     8.5796     9.2264
  203.8000   137.1775     8.5791     9.2258
  203.9000   136.9436     8.5786     9.2253
  204.0000   135.9392     8.5781     9.2248
  204.1000   135.0531     8.5777     9.2243
  204.2000   134.4207     8.5772     9.2238
  204.3000   133.9822     8.5767     9.2433
  204.4000   133.5090     8.5762     9.2875
  204.5000   132.8093     8.5757     9.2868
  204.6000   132.2752     8.5753     9.3397
  204.7000   130.8042     8.6105     9.3509
  204.8000   130.3802     8.6344     9.3504
  204.9000   130.1973     8.6339     9.3498
  205.0000   130.1973     8.6334     9.3493
  205.1000   130.1973     8.6329     9.3486
  205.2000   130.2183     8.6324     9.2831
  205.3000   130.8042     8.6319     9.2827
  205.4000   131.2307     8.6315     9.2822
  205.5000   131.4112     8.6310     9.2591
  205.6000   131.5237     8.6305     9.2046
  205.7000   131.7147     8.6300     9.1519
  205.8000   131.7265     8.6295     9.1513
  205.9000   132.0182     8.6291     9.0625
  206.0000   132.0182     8.6286     8.9900
  206.1000   132.0182     8.6281     8.9371
  206.2000   131.9045     8.6276     8.8845
  206.3000   131.6514     8.6271     8.8296
  206.4000   131.4112     8.6266     8.7119
  206.5000   131.4112     8.5884     8.6680
  206.6000   131.4112     8.5380     8.6170
  206.7000   131.4112     8.4702     8.5664
  206.8000   131.4112     8.3873     8.5294
  206.9000   131.4758     8.3868     8.5252
  207.0000   131.7289     8.3394     8.4691
  207.1000   132.0182     8.2535     8.4252
  207.2000   132.4520     8.1845     8.4092
  207.3000   132.7917     8.1542     8.4088
  207.4000   133.6256     8.1454     8.4083
  207.5000   135.2758     8.0966     8.4078
  207.6000   137.2545     8.0501     8.4073
  207.7000   138.6950     8.0394     8.4069
  207.8000   139.5674     8.0390     8.4064
  207.9000   140.4121     8.0385     8.4313
  208.0000   140.9368     8.0291     8.4644
  208.1000   141.2568     7.9817     8.4639
  208.2000   141.7299     7.9813     8.4634
  208.3000   141.4264     7.9439     8.4630
  208.4000   141.2071     7.9249     8.4989
  208.5000   140.9540     7.9245     8.5213
  208.6000   140.5823     7.9240     8.5208
  208.7000   140.0761     7.9236     8.5277
  208.8000   139.5343     7.9230     8.5796
  208.9000   138.3915     7.9227     8.5791
  209.0000   137.7299     7.9222     8.5786
  209.1000   136.8004     7.9218     8.6064
  209.2000   135.0693     7.9214     8.6378
  209.3000   132.5382     7.9209     8.6373
  209.4000   130.1402     7.9204     8.6368
  209.5000   129.2868     7.9200     8.6363
  209.6000   128.8433     7.9196     8.6359
  209.7000   128.1657     7.9191     8.6354
  209.8000   124.8636     7.9187     8.6349
  209.9000   124.3539     7.9183     8.6344
  210.0000   123.7632     7.9178     8.6339
  210.1000   123.7627     7.9563     8.6938
  210.2000   123.5970     7.9724     8.7345
  210.3000   123.3418     7.9719     8.7539
  210.4000   123.0867     7.9715     8.7534
  210.5000   122.8498     7.9686     8.7529
  210.6000   122.8491     7.9151     8.7536
  210.7000   123.2961     7.9147     8.8132
  210.8000   123.8046     7.9143     8.8128
  210.9000   124.3130     7.9138     8.8123
  211.0000   124.8215     7.9134     8.8118
  211.1000   125.3578     7.9130     8.7988
  211.2000   126.1839     7.9125     8.7495
  211.3000   126.8838     7.9121     8.7489
  211.4000   127.2777     7.9116     8.7485
  211.5000   127.8028     7.9112     8.7480
  211.6000   128.3925     7.9108     8.7475
  211.7000   128.7217     7.9103     8.7470
  211.8000   129.5186     7.9098     8.7429
  211.9000   130.0045     7.9094     8.6851
  212.0000   130.7072     7.9090     8.6847
  212.1000   131.4701     7.9085     8.6498
  212.2000   132.0405     7.9081     8.6233
  212.3000   132.3418     7.9077     8.6228
  212.4000   132.8534     7.9072     8.6224
  212.5000   133.4597     7.9068     8.6218
  212.6000   133.6631     7.9063     8.5762
  212.7000   133.9170     7.9059     8.5609
  212.8000   134.1710     7.9055     8.5350
  212.9000   134.3678     7.9050     8.4848
  213.0000   134.3591     7.9045     8.4408
  213.1000   134.0630     7.9041     8.4403
  213.2000   133.8489     7.9037     8.3944
  213.3000   133.5938     7.9033     8.3806
  213.4000   133.3386     7.9028     8.3802
  213.5000   133.0167     7.9024     8.3797
  213.6000   132.5070     7.9019     8.3792
  213.7000   131.9350     7.9015     8.3787
  213.8000   131.2644     7.9010     8.3783
  213.9000   130.8490     7.9006     8.3411
  214.0000   130.7193     7.9002     8.3191
  214.1000   130.7187     7.8997     8.3186
  214.2000   130.7181     7.8993     8.3181
  214.3000   130.7174     7.8988     8.3177
  214.4000   130.7168     7.8984     8.3172
  214.5000   130.7162     7.8980     8.3167
  214.6000   130.7156     7.8975     8.3163
  214.7000   130.7150     7.8971     8.3158
  214.8000   130.7144     7.8966     8.3154
  214.9000   130.7138     7.8962     8.3149
  215.0000   130.9560     7.8958     8.3143
  215.1000   131.0161     7.8953     8.3140
  215.2000   131.0155     7.8949     8.3135
  215.3000   131.0149     7.8944     8.3130
  215.4000   131.0143     7.8940     8.3022
  215.5000   131.0137     7.8936     8.2543
  215.6000   131.2656     7.8931     8.2537
  215.7000   131.3159     7.8927     8.2533
  215.8000   131.3153     7.8922     8.2529
  215.9000   131.2091     7.8918     8.2524
  216.0000   131.0106     7.8913     8.2520
  216.1000   131.0023     7.8909     8.2515
  216.2000   130.7058     7.8905     8.2510
  216.3000   130.4921     7.8900     8.2506
  216.4000   130.2369     7.8716     8.2501
  216.5000   129.9818     7.8343     8.2497
  216.6000   129.7930     7.8339     8.2492
  216.7000   129.7750     7.7789     8.2487
  216.8000   129.4882     7.7423     8.2482
  216.9000   129.0418     7.7240     8.2478
  217.0000   128.8801     7.7053     8.2473
  217.1000   129.0045     7.6694     8.2469
  217.2000   129.1824     7.6690     8.2464
  217.3000   129.1818     7.6685     8.2416
  217.4000   129.1811     7.6681     8.1881
  217.5000   129.1806     7.6677     8.1877
  217.6000   129.3637     7.6673     8.1872
  217.7000   129.4828     7.6669     8.1626
  217.8000   129.4822     7.6664     8.1293
  217.9000   129.3343     7.6659     8.1289
  218.0000   128.2670     7.7028     8.1284
  218.1000   127.2969     7.7188     8.1280
  218.2000   126.4716     7.7184     8.0932
  218.3000   126.1408     7.7073     8.0456
