~VERSION INFORMATION
 VERS.                2.0:   CWLS LOG ASCII STANDARD - VERSION 2.0
 WRAP.                 NO:   ONE LINE PER DEPTH STEP
~WELL INFORMATION
#MNEM.UNIT      DATA TYPE    INFORMATION
#----------   ------------   ------------------------------
 STRT.F           32.0000:   START DEPTH
 STOP.F          557.0000:   STOP DEPTH
 STEP.F            0.5000:   STEP LENGTH
 NULL.          -999.2500:   NO VALUE
 COMP. FENIX & SCISSON U.S. NAVY:   COMPANY
 WELL.   S-3 NPR #3 #31-3:   WELL
 FLD .              NPR-3:   FIELD
 LOC .       S3 T38N R78W:   LOCATION
 CNTY.            NATRONA:   COUNTY
 STAT.            WYOMING:   STATE
 CTRY. UNITED STATES OF AMERICA:   COUNTRY
 SRVC.              Welex:   SERVICE COMPANY
 DATE.        05-MAR-1977:   LOGDATE
 API .       490251039500:   API NUMBER
~CURVE INFORMATION
#MNEM.UNIT       API CODE    CURVE DESCRIPTION
#----------   ------------   ------------------------------
 DEPT.F                  :   
 CALD.IN     45 280 60 00:   CALIPER FROM DENSITY LOG
 DPHI.DEC    45 890 12 00:   DENSITY POROSITY SANDSTONE
 DRHO.G/C3   45 356 01 00:   DENSITY CORRECTION
 GRD .GAPI   45 310 01 00:   GAMMA RAY FROM DENSITY LOG
 RHOB.G/C3   45 350 01 00:   BULK DENSITY
 ILD .OHMM   07 120 46 00:   INDUCTION LOG DEEP
 ILM .OHMM   07 120 44 00:   INDUCTION LOG MEDIUM
 SGRD.OHMM   07 220 05 00:   SHALLOW GUARD RESISTIVITY
 SPR .MV     07 010 01 00:   SPONTANEOUS POTENTIAL FROM RES.
~PARAMETER INFORMATION
#MNEM.UNIT          VALUE    DESCRIPTION
#----------   ------------   ------------------------------
 PD  .                 GL:   PERMANENT DATUM
 EPD .F              5178:   ELEVATION PERMANENT DATUM
 LMF .                 GL:   LOG MEASURED FROM
 DMF .                 GL:   DRILLING MEASURED FROM
 EGL .F              5178:   GROUND LEVEL
 DATE.        05-MAR-1977:   RUN DATE
 RUN .                  1:   RUN NUMBER
 DD  .F               560:   DEPTH DRILLER
 DL  .F               560:   DEPTH LOGGER
 BLI .F               558:   BOTTOM LOG INTERVAL
 TLI .F                40:   TOP LOG INTERVAL
 CS  .IN            8.625:   CASING SIZE
 CBD .F                43:   CASING BOTTOM DRILLER
 CBL .F                43:   CASING BOTTOM LOGGER
 BS  .IN            7.875:   BIT SIZE
 BSD .F               560:   BIT SIZE AT DEPTH
 DFT .                KCL:   DRILLING FLUID TYPE
 DFD .                8.8:   DRILLING FLUID DENSITY
 DFV .                 32:   DRILLING FLUID VISCOSITY
 MSS .           FLOWLINE:   MUD SAMPLE SOURCE
 RMS .OHMM           1.46:   RESISTIVITY MUD SAMPLE
 MST .F                48:   MUD SAMPLE TEMPERATURE
 RMF .OHMM          0.972:   RESISTIVITY MUD FILTRATE SAMPLE
 MFST.F                48:   MUD FILTRATE SAMPLE TEMPERATURE
 RMC .OHMM           2.32:   RESISTIVITY MUD CAKE
 MCST.F                48:   MUD CAKE SAMPLE TEMPERATURE
 MFSS.               MEAS:   MUD FILTRATE SAMPLE SOURCE
 MCSS.               MEAS:   MUD CAKE SAMPLE SOURCE
 RMB .OHMM           1.03:   RESISTIVITY MUD AT BHT
 BHT .F                68:   BOTTOM HOLE TEMPERATURE
 TCS .HRS               2:   TIME CURCULATED STOPPED
 MRT .F                68:   MAXIMUM RECORDED TEMPERATURE
 LUN .               8611:   LOGGING UNIT NUMBER
 LUL .           GILLETTE:   LOGGING UNIT LOCATION
 ENGI.          D. LAWSON:   RECORDING ENGINEER
 WITN.     MR. STUEBINGER:   WITNESSED BY
 CLNT.            A2DTECH:   CLIENT CODE
 ORIG.           5" PRINT:   ORIGIN OF DATA
 UWI .       490251039500:   UNIQUE WELL ID
 DICO. A2D Technologies, Inc.:   DIGITIZING COMPANY
~OTHER INFORMATION
~A   DEPT       CALD     DPHI        DRHO        GRD        RHOB      ILD        ILM       SGRD        SPR   
# ...
  433.5000     8.1135     0.1331     0.0288    96.2066     2.4113    11.6121    13.8994    14.4000   -18.0015
  434.0000     8.0999     0.1328     0.0290    95.4712     2.4144    11.7801    14.2969    14.6066   -17.8393
  434.5000     8.1015     0.1309     0.0322    96.5307     2.4235    11.7865    14.5038    14.9190   -17.8236
  435.0000     8.0876     0.1291     0.0353    96.8418     2.4282    11.7928    14.6103    15.1330   -17.8106
  435.5000     8.0741     0.1234     0.0400    95.8117     2.4439    11.7992    14.3200    15.2442   -17.4999
  436.0000     8.0608     0.1102     0.0447    93.1421     2.4747    11.7242    14.1291    14.8273   -17.4869
  436.5000     8.0472     0.1126     0.0478    91.3668     2.4665    11.6497    13.9442    14.6361   -17.7748
  437.0000     8.0485     0.1197     0.0480    88.6657     2.4508    11.6559    13.7603    14.8475   -17.7585
  437.5000     8.0201     0.1311     0.0451    86.5747     2.4307    11.4243    13.7679    14.8535   -17.7455
  438.0000     7.9026     0.1400     0.0423    86.0408     2.3970    11.3502    13.7770    14.4539   -17.8988
  438.5000     7.9188     0.1406     0.0364    86.6532     2.3948    11.2003    13.5933    14.0649   -18.0171
  439.0000     7.9648     0.1343     0.0289    86.6663     2.4036    11.0525    13.4157    13.7815   -18.0009
  439.5000     8.0405     0.1255     0.0247    85.9342     2.4422    10.9065    13.0567    13.6918   -17.9879
  440.0000     8.0864     0.1213     0.0248    90.2691     2.4483    10.6898    12.8826    13.7926   -17.8261
  440.5000     8.1175     0.1201     0.0265    92.9647     2.4484    10.4758    12.6266    13.8942   -17.6643
  441.0000     8.1188     0.1206     0.0281    95.0642     2.4477    10.3377    12.5447    13.9010   -17.9494
  441.5000     8.1052     0.1212     0.0313    94.2996     2.4455    10.2012    12.5532    13.7155   -17.9359
  442.0000     8.0916     0.1221     0.0314    93.6000     2.4441    10.0665    12.4734    13.5311   -17.9226
  442.5000     8.0932     0.1235     0.0286    96.8950     2.4419    10.0038    12.3941    13.4432   -17.9066
  443.0000     8.0946     0.1253     0.0287    98.9945     2.4397    10.0092    12.4025    13.6374   -17.8936
  443.5000     8.0959     0.1271     0.0306    96.4740     2.4347    10.0841    12.4092    13.9291   -17.8806
  444.0000     8.0972     0.1270     0.0336   100.2128     2.4294    10.2300    12.5887    13.9347   -18.0197
  444.5000     8.1130     0.1276     0.0382    97.8413     2.4325    10.5226    12.5955    13.5598   -18.1555
  445.0000     8.0699     0.1291     0.0399    95.4699     2.4265    11.2820    12.9558    13.5970   -18.4401
  445.5000     8.0415     0.1365     0.0430    91.9062     2.4116    12.0980    13.7000    14.3446   -18.4238
  446.0000     8.0429     0.1479     0.0447    86.7553     2.3892    12.9912    15.3110    16.4805   -18.4107
  446.5000     8.0445     0.1664     0.0418    80.3111     2.3668    14.0036    17.5913    24.1231   -18.3973
  447.0000     8.0458     0.1831     0.0389    77.6416     2.3391    15.1184    19.1423    32.4931   -18.3816
  447.5000     8.0471     0.1949     0.0328    78.5488     2.3182    16.0978    20.2647    29.5078   -18.3686
  448.0000     8.0484     0.1729     0.0287    82.2876     2.3550    17.3794    21.2393    23.6561   -18.3556
  448.5000     8.0196     0.1746     0.0349    82.7478     2.3551    18.3778    21.9983    23.6657   -18.3426
  449.0000     7.9614     0.1872     0.0336    81.1215     2.3426    19.4335    22.4715    24.0054   -18.3296
  449.5000     7.9332     0.1896     0.0307    78.6010     2.3245    20.2676    22.9549    31.4578   -18.3166
  450.0000     7.9048     0.1859     0.0248    77.1237     2.3388    21.1375    23.6114    29.9824   -18.4524
  450.5000     7.8140     0.1829     0.0220    75.9111     2.3449    21.7589    23.9531    26.6657   -17.8452
  451.0000     7.7295     0.1745     0.0221    74.4705     2.3585    22.0596    24.8091    26.4898   -17.8310
  451.5000     7.7309     0.1376     0.0283    74.1822     2.3975    22.0715    25.6957    29.6062   -17.8194
  452.0000     7.7472     0.1223     0.0345    75.0927     2.4366    22.0834    26.4308    46.7632   -17.8078
  452.5000     7.7636     0.1099     0.0466    76.5960     2.4674    22.0953    25.9053    47.0032   -17.7962
  453.0000     7.7650     0.1104     0.0558    78.6955     2.4638    21.9548    25.0385    28.7689   -17.7846
  453.5000     7.7962     0.1405     0.0560    80.4969     2.4226    21.5157    24.3686    26.5460   -17.7729
  454.0000     7.7080     0.1758     0.0471    84.0867     2.3635    21.2313    24.0436    27.3048   -18.0618
  454.5000     7.6801     0.1877     0.0352    84.9940     2.3351    20.6635    23.7294    26.2049   -18.3452
  455.0000     7.7113     0.1914     0.0308    83.3085     2.3292    20.3907    23.7422    25.6768   -18.6310
  455.5000     7.7440     0.1992     0.0295    81.4466     2.3172    20.4044    23.7549    25.5075   -18.9170
  456.0000     7.7741     0.1942     0.0206    79.9693     2.3175    20.1323    23.7677    24.5418   -18.9024
  456.5000     7.7904     0.1887     0.0240    78.9391     2.3341    19.8665    23.7807    28.5991   -18.8908
  457.0000     7.8068     0.1839     0.0300    77.6109     2.3400    19.8799    23.6294    28.2231   -18.8792
  457.5000     7.8380     0.1779     0.0361    75.9846     2.3506    19.6148    23.4792    27.0917   -18.8676
  458.0000     7.8394     0.1731     0.0348    76.4447     2.3582    19.2250    23.1693    25.8264   -18.8560
  458.5000     7.8558     0.1742     0.0304    77.9481     2.3552    18.5607    23.0251    23.6188   -18.8444
  459.0000     7.8721     0.1793     0.0230    79.7675     2.3508    18.3144    22.8757    23.9625   -18.8328
  459.5000     7.9033     0.1826     0.0186    81.2533     2.3434    18.1968    22.8911    25.0030   -18.8211
  460.0000     7.9196     0.1795     0.0218    80.3750     2.3472    18.0778    22.9034    23.9047   -18.8095
  460.5000     7.9211     0.1771     0.0220    79.9409     2.3496    17.7171    22.7576    22.7133   -18.7976
  461.0000     7.9077     0.1753     0.0251    79.6559     2.3526    17.6033    22.6132    24.3592   -18.7834
  461.5000     7.9095     0.1758     0.0223    79.8180     2.3557    17.3697    22.3147    25.7613   -18.7718
  462.0000     7.9109     0.1752     0.0239    80.1291     2.3543    17.3799    22.0201    23.3969   -18.7602
  462.5000     7.9124     0.1721     0.0225    80.7383     2.3579    17.1493    21.4338    22.7720   -18.7485
  463.0000     7.9436     0.1658     0.0227    81.3474     2.3725    16.6874    20.8603    21.1157   -18.7369
  463.5000     7.9298     0.1613     0.0229    82.1148     2.3756    16.2398    20.4431    20.9825   -19.0258
  464.0000     7.9164     0.1589     0.0260    82.5663     2.3786    16.0243    19.7590    21.2882   -19.0113
  464.5000     7.9182     0.1576     0.0277    81.0918     2.3832    15.8117    19.3638    21.6263   -19.2973
  465.0000     7.9345     0.1588     0.0293    79.9125     2.3803    15.8210    19.2404    21.9155   -19.2857
  465.5000     7.9509     0.1600     0.0279    81.4159     2.3781    15.8285    19.2511    19.6305   -19.2738
  466.0000     7.9527     0.1587     0.0296    86.2445     2.3812    15.7268    19.2617    19.3695   -19.2596
  466.5000     7.9839     0.1555     0.0328    86.2831     2.3880    15.7361    19.2744    20.4875   -19.2480
  467.0000     8.0151     0.1605     0.0329    87.3950     2.3806    15.8528    19.1493    21.2217   -19.2364
  467.5000     8.0166     0.1622     0.0301    89.2724     2.3732    15.8602    19.1622    21.3820   -19.2247
  468.0000     8.0180     0.1637     0.0272    89.8795     2.3718    15.8677    19.3056    20.5249   -19.2131
  468.5000     8.0195     0.1651     0.0274    88.1093     2.3726    15.8752    19.1803    20.8235   -19.2015
  469.0000     8.0209     0.1624     0.0305    86.0374     2.3742    15.7733    19.1932    21.4370   -19.1899
  469.5000     8.0224     0.1603     0.0337    84.4126     2.3765    15.7807    19.0708    22.1891   -19.4759
