~VERSION INFORMATION
 VERS.                2.0:   CWLS LOG ASCII STANDARD - VERSION 2.0
 WRAP.                 NO:   ONE LINE PER DEPTH STEP
~WELL INFORMATION
#MNEM.UNIT      DATA TYPE    INFORMATION
#----------   ------------   ------------------------------
 STRT.F           20.0000:   START DEPTH
 STOP.F          503.5000:   STOP DEPTH
 STEP.F            0.5000:   STEP LENGTH
 NULL.          -999.2500:   NO VALUE
 COMP.   FLUOR DANIEL INC:   COMPANY
 WELL. NAVAL PETROLEUM RESERVE 3 X-10 #71-3-10:   WELL
 FLD .          N.P.R. #3:   FIELD
 LOC .      S10 T37N R78W:   LOCATION
 CNTY.            NATRONA:   COUNTY
 STAT.            WYOMING:   STATE
 CTRY. UNITED STATES OF AMERICA:   COUNTRY
 SRVC.      Western Atlas:   SERVICE COMPANY
 DATE.        02-MAY-1996:   LOGDATE
 API .       490252277900:   API NUMBER
~CURVE INFORMATION
#MNEM.UNIT       API CODE    CURVE DESCRIPTION
#----------   ------------   ------------------------------
 DEPT.F                  :   
 AMP .MV     81 524 00 00:   AMPLITUD
 GR  .GAPI   81 310 01 00:   GAMMA RAY
~PARAMETER INFORMATION
#MNEM.UNIT          VALUE    DESCRIPTION
#----------   ------------   ------------------------------
 PD  .                 GL:   PERMANENT DATUM
 EPD .F            5165.5:   ELEVATION PERMANENT DATUM
 LMF .                 KB:   LOG MEASURED FROM
 DAPD.F                10:   FEET ABOVE PERMANENT DATUM
 DMF .                 KB:   DRILLING MEASURED FROM
 EKB .F            5175.5:   KELLING BUSHING
 EDF .F            5174.5:   DRILLING FLOOR
 EGL .F            5165.5:   GROUND LEVEL
 DATE.        02-MAY-1996:   RUN DATE
 RUN .                  1:   RUN NUMBER
 DD  .F               515:   DEPTH DRILLER
 DL  .F               511:   DEPTH LOGGER
 BLI .F               504:   BOTTOM LOG INTERVAL
 TLI .F                20:   TOP LOG INTERVAL
 CS  .IN              4.5:   CASING SIZE
 BSD .F               515:   BIT SIZE AT DEPTH
 DFT .              WATER:   DRILLING FLUID TYPE
 TCS .HRS              75:   TIME CURCULATED STOPPED
 LUN .            ML 4116:   LOGGING UNIT NUMBER
 LUL .             CASPER:   LOGGING UNIT LOCATION
 ENGI.          MARK HAMM:   RECORDING ENGINEER
 WITN.        STEVE HARDY:   WITNESSED BY
 CLNT.            A2DTECH:   CLIENT CODE
 ORIG.           5" PRINT:   ORIGIN OF DATA
 UWI .       490252277900:   UNIQUE WELL ID
 DICO. A2D Technologies, Inc.:   DIGITIZING COMPANY
~OTHER INFORMATION
~A   DEPT        AMP        GR  
   20.0000     0.2137    27.2239
   20.5000     0.2137    30.1189
   21.0000     0.4275    29.8696
   21.5000     0.6412    28.5864
   22.0000     0.6412    27.8258
   22.5000     0.8550    27.0652
   23.0000     0.6412    25.7295
   23.5000     0.6412    24.7772
   24.0000     0.6412    24.2067
   24.5000     0.8550    25.5566
   25.0000     1.0687    26.5215
   25.5000     1.0687    25.5692
   26.0000     1.0687    24.6169
   26.5000     1.0687    24.3801
   27.0000     1.0687    26.1632
   27.5000     1.0687    27.1281
   28.0000     1.2824    25.7669
   28.5000     1.7099    24.4057
   29.0000     1.7099    26.1899
   29.5000     1.7260    28.4968
   30.0000     1.7099    30.8037
   30.5000     1.4962    32.7272
   31.0000     1.4962    33.1169
   31.5000     1.2824    32.7382
   32.0000     1.0687    33.5129
   32.5000     1.0687    35.0529
   33.0000     1.0687    32.7586
   33.5000     0.8550    29.5057
   34.0000     0.6412    26.8279
   34.5000     0.6412    26.2334
   35.0000     0.6412    28.7577
   35.5000     0.4275    31.0902
   36.0000     0.4275    32.4386
   36.5000     0.2137    32.0373
   37.0000     0.2137    30.3181
   37.5000     0.4542    28.0238
   38.0000     0.6412    25.7295
   38.5000     0.8550    23.2434
   39.0000     1.0687    21.3325
   39.5000     1.2824    20.3802
   40.0000     1.2824    21.9203
   40.5000     1.0687    23.2686
   41.0000     0.8550    24.8086
   41.5000     0.8550    26.3486
   42.0000     0.8550    25.3963
   42.5000     0.8550    22.5268
   43.0000     0.6412    22.3414
   43.5000     0.4275    24.5079
   44.0000     0.4275    26.3816
   44.5000     0.4275    26.5796
   45.0000     0.4275    26.5859
   45.5000     0.4275    26.7839
   46.0000     0.8550    28.7074
   46.5000     0.8550    29.8624
   47.0000     0.8550    28.3365
   47.5000     0.8550    27.7677
   48.0000     0.6412    26.8153
   48.5000     0.8550    24.3293
   49.0000     0.8550    21.8433
   49.5000     0.8550    21.2615
   50.0000     0.6412    23.8547
   50.5000     0.2506    23.6601
   51.0000     0.0040    23.4338
   51.5000     1.0753    24.4160
   52.0000     5.3522    27.2748
   52.5000     8.7742    32.9167
   53.0000     8.5625    35.6643
   53.5000     9.4196    34.8962
   54.0000    11.1316    28.9765
   54.5000    13.0930    23.6292
   55.0000    14.3776    22.6713
   55.5000    14.3440    24.3851
   56.0000    14.3466    27.2440
   56.5000    13.9207    28.5761
   57.0000    12.7831    28.7634
   57.5000    11.7880    27.8053
   58.0000    11.6831    27.2290
   58.5000    14.5708    26.4300
   59.0000    17.5653    25.2494
   59.5000    21.2010    23.9726
   60.0000    24.8366    23.7780
   60.5000    27.6530    23.9651
   61.0000    27.3346    24.1531
   61.5000    25.0572    23.7668
   62.0000    18.0058    22.9997
   62.5000    12.4507    22.8051
   63.0000     6.6818    23.7556
   63.5000     2.1953    26.0419
   64.0000     0.7012    27.3740
   64.5000     0.7033    27.9428
   65.0000     0.2779    27.9389
   65.5000     0.0663    28.1262
   66.0000     0.0684    28.5041
   66.5000     0.0705    27.3544
   67.0000     0.1083    26.7782
   67.5000     0.2889    27.5378
   68.0000     0.5048    28.8699
   68.5000     0.7206    30.3929
   69.0000     0.5090    31.7250
   69.5000     0.2968    32.4847
   70.0000    -0.1281    30.7630
   70.5000    -0.1260    30.1868
   71.0000     0.0899    30.3739
   71.5000     0.0920    31.1335
   72.0000     0.3078    31.8931
   72.5000     0.3099    33.0662
   73.0000     0.3121    36.9746
   73.5000     0.7421    43.9039
   74.0000     0.9579    43.1368
   74.5000     1.1737    40.2704
   75.0000     0.7478    39.3125
   75.5000     0.3230    41.7897
   76.0000     1.3938    44.6485
   76.5000     1.8233    44.0723
   77.0000     1.8254    44.2594
   77.5000     1.8275    44.6374
   78.0000     1.8296    45.0153
   78.5000     1.8318    45.9816
   79.0000     1.8339    47.3613
   79.5000     1.6222    47.6758
   80.0000     1.6248    45.7627
   80.5000     1.6269    42.8964
   81.0000     1.6290    43.2743
   81.5000     1.8448    45.9424
   82.0000     2.0606    46.3212
   82.5000     2.2765    47.2708
   83.0000     2.4923    51.4655
   83.5000     2.4944    53.5610
   84.0000     2.4965    52.9847
   84.5000     2.2848    51.6450
   85.0000     2.2870    52.2774
   85.5000     2.0753    54.4993
   86.0000     2.2916    54.4956
   86.5000     2.0800    53.1559
   87.0000     2.0821    51.8163
   87.5000     1.8699    49.5225
   88.0000     1.6583    47.2287
   88.5000     1.4466    46.2708
   89.0000     1.0218    45.3128
   89.5000     0.8101    44.3549
   90.0000     0.3847    45.1145
   90.5000     0.3869    46.9077
   91.0000     0.3890    49.4963
   91.5000     0.6053    48.5375
   92.0000     0.6074    47.3887
   92.5000     0.6095    48.3391
   93.0000     0.3973    49.0997
   93.5000     0.3999    48.7134
   94.0000     0.4020    48.7096
   94.5000     0.4041    52.1410
   95.0000     0.4062    52.9008
   95.5000     0.4083    52.1335
   96.0000     0.1966    45.2595
   96.5000     0.2166    45.2716
   97.0000     0.4503    46.6514
   97.5000     0.4167    47.7292
   98.0000     0.4193    48.2971
   98.5000     0.4214    49.2475
   99.0000     0.4235    49.8163
   99.5000     0.2118    50.7668
  100.0000     0.2142    50.1908
  100.5000     0.2210    49.0420
  101.0000     0.2273    49.0700
  101.5000     0.2335    50.9420
  102.0000     0.4520    51.1301
  102.5000     0.2458    49.2170
  103.0000     0.2523    45.5873
  103.5000     0.2586    45.7744
  104.0000     0.2650    47.4882
  104.5000     0.2726    48.2488
  105.0000     0.2789    46.1449
  105.5000     0.2851    46.3320
  106.0000     0.2914    47.8550
  106.5000     0.2976    49.7914
  107.0000     0.5176    50.5192
  107.5000     0.3099    48.2245
  108.0000     0.3164    43.6406
  108.5000     0.3227    42.8735
  109.0000     0.5442    44.3965
  109.5000     0.5504    45.1570
  110.0000     0.5567    44.0083
  110.5000     0.3476    44.5761
  111.0000     0.1417    45.5266
  111.5000     0.1479    46.6679
  112.0000     0.3679    47.0458
  112.5000     0.3742    44.4816
  113.0000     0.3805    41.2812
  113.5000     0.6006    40.9277
  114.0000     0.8220    43.5948
  114.5000     1.0420    43.4012
  115.0000     1.0482    43.7791
  115.5000     1.0545    43.5836
  116.0000     0.8454    43.0073
  116.5000     0.6379    41.6677
  117.0000     1.0732    42.0456
  117.5000     1.0795    43.9503
  118.0000     1.0858    45.0916
  118.5000     1.0922    44.4994
  119.0000     1.0998    43.7481
  119.5000     1.1060    44.1253
  120.0000     1.1123    43.1673
  120.5000     0.9032    37.4384
  121.0000     0.9110    34.7629
  121.5000     0.9173    35.3317
  122.0000     0.9235    36.6638
  122.5000     0.9298    36.8509
  123.0000     0.9177    36.6563
  123.5000     0.7286    36.2709
  124.0000     0.7364    36.2672
  124.5000     0.7426    36.6451
  125.0000     0.5351    36.8322
  125.5000     0.5414    37.0193
  126.0000     0.5476    37.0146
  126.5000     0.3401    37.7743
  127.0000     0.3464    38.9156
  127.5000     0.3527    39.8660
  128.0000     0.3591    40.4357
  128.5000     0.3667    39.6677
  129.0000     0.5867    38.5189
  129.5000     4.2265    40.0419
  130.0000     8.7213    43.0916
  130.5000    11.5062    45.6482
  131.0000    14.0758    48.0460
  131.5000    10.6638    46.8962
  132.0000     8.1051    40.7856
  132.5000     4.6702    35.6292
  133.0000     3.8428    33.1446
  133.5000     6.4155    33.9042
  134.0000    13.2615    38.0989
  134.5000    17.1150    42.8662
  135.0000    20.3274    44.5800
  135.5000    20.7611    44.7831
  136.0000    21.1949    43.4275
  136.5000    21.8423    43.6304
  137.0000    22.9173    44.5967
  137.5000    23.7964    45.1338
  138.0000    24.4275    43.4116
  138.5000    25.2887    39.7819
  139.0000    26.1500    39.5883
  139.5000    27.2249    41.1103
  140.0000    27.6586    42.4424
  140.5000    28.3061    43.0112
  141.0000    28.5245    42.8166
