~VERSION INFORMATION
 VERS.                2.0:   CWLS LOG ASCII STANDARD - VERSION 2.0
 WRAP.                 NO:   ONE LINE PER DEPTH STEP
~WELL INFORMATION
#MNEM.UNIT      DATA TYPE    INFORMATION
#----------   ------------   ------------------------------
 STRT.F           80.0000:   START DEPTH
 STOP.F          808.0000:   STOP DEPTH
 STEP.F            0.5000:   STEP LENGTH
 NULL.          -999.2500:   NO VALUE
 COMP.           U S NAVY:   COMPANY
 WELL.     NRP #3 #38-S-2:   WELL
 FLD .             TEAPOT:   FIELD
 LOC .       S2 T38N R78W:   LOCATION
 CNTY.            NATRONA:   COUNTY
 STAT.            WYOMING:   STATE
 CTRY. UNITED STATES OF AMERICA:   COUNTRY
 SRVC.       Schlumberger:   SERVICE COMPANY
 DATE.        18-JUN-1962:   LOGDATE
 API .       490250639100:   API NUMBER
~CURVE INFORMATION
#MNEM.UNIT       API CODE    CURVE DESCRIPTION
#----------   ------------   ------------------------------
 DEPT.F                  :   
 GR  .GAPI   30 310 01 00:   GAMMA RAY
 SPR .MV     05 010 01 00:   SPONTANEOUS POTENTIAL FROM RES.
 ASN .OHMM   05 041 16 00:   AMPLIFIED SHORT NORMAL 16"
 ILD .OHMM   05 120 46 00:   INDUCTION LOG DEEP
 CILD.MMHO   05 110 46 00:   CONDUCTIVITY INDUCTION LOG DEEP
 CALM.IN     15 280 01 00:   CALIPER FROM MICRO LOG
~PARAMETER INFORMATION
#MNEM.UNIT          VALUE    DESCRIPTION
#----------   ------------   ------------------------------
 PD  .                 GL:   PERMANENT DATUM
 EPD .F              5146:   ELEVATION PERMANENT DATUM
 LMF .                 KB:   LOG MEASURED FROM
 DAPD.F                 5:   FEET ABOVE PERMANENT DATUM
 DMF .                 KB:   DRILLING MEASURED FROM
 EKB .F              5151:   KELLING BUSHING
 EGL .F              5146:   GROUND LEVEL
 DATE.          6-18-1962:   RUN DATE
 RUN .                  1:   RUN NUMBER
 DD  .F              1000:   DEPTH DRILLER
 DL  .F               808:   DEPTH LOGGER
 BLI .F               807:   BOTTOM LOG INTERVAL
 TLI .F                80:   TOP LOG INTERVAL
 BS  .IN             8.75:   BIT SIZE
 BSD .F              1000:   BIT SIZE AT DEPTH
 DFT .       OIL EMULSION:   DRILLING FLUID TYPE
 DFD .                8.7:   DRILLING FLUID DENSITY
 DFV .                 58:   DRILLING FLUID VISCOSITY
 DFL .                  4:   DRILLING FLUID LOSS
 RMS .OHMM           3.77:   RESISTIVITY MUD SAMPLE
 MST .F                79:   MUD SAMPLE TEMPERATURE
 RMF .OHMM           2.47:   RESISTIVITY MUD FILTRATE SAMPLE
 MFST.F                79:   MUD FILTRATE SAMPLE TEMPERATURE
 RMC .OHMM           3.29:   RESISTIVITY MUD CAKE
 MCST.F                79:   MUD CAKE SAMPLE TEMPERATURE
 TCS .HRS               1:   TIME CURCULATED STOPPED
 LUN .               2503:   LOGGING UNIT NUMBER
 LUL .               CSPR:   LOGGING UNIT LOCATION
 ENGI.             DANNER:   RECORDING ENGINEER
 WITN.          JORGENSEN:   WITNESSED BY
 CLNT.            A2DTECH:   CLIENT CODE
 ORIG.   1", 2", 5" PRINT:   ORIGIN OF DATA
 UWI .       490250639100:   UNIQUE WELL ID
 DICO. A2D Technologies, Inc.:   DIGITIZING COMPANY
~OTHER INFORMATION
~A   DEPT       GR        SPR          ASN        ILD      CILD      CALM   
# ...
  496.0000    80.9000   -70.5410     7.6483    10.6314   172.6085  -999.2500
  496.5000    82.5088   -70.4379     7.4573    10.2781   184.1152  -999.2500
  497.0000    89.0449   -70.3348     7.2610     9.9233   195.6219     8.6089
  497.5000    96.8561   -70.2321     7.0121     9.5682   209.3318     8.7722
  498.0000    90.7609   -70.1291     6.7477     9.2141   223.7919     8.7861
  498.5000    82.2108   -70.0905     6.4807     8.9053   232.7932     8.7707
  499.0000    95.7320   -70.1067     6.2398     8.9034   233.8691     8.7687
  499.5000    87.7666   -70.1230     6.1413     8.9045   231.1493     8.7674
  500.0000    95.5432   -70.1397     6.1957     8.9035   228.0073     8.7661
  500.5000   103.5345   -70.1563     6.3250     8.8993   221.0995     8.7648
  501.0000   102.6898   -70.1729     6.5069     8.9290   211.3624     8.7635
  501.5000   105.1300   -70.1895     7.0143     9.5096   198.7963     8.7622
  502.0000   115.5280   -70.2061     7.4651    10.0714   184.0596     8.7609
  502.5000   120.5319   -70.2226     7.7441    10.6278   167.1525     8.7596
  503.0000   116.1668   -70.2391     7.9353    11.1814   153.4325     8.7583
  503.5000   113.3508   -70.2554     8.0547    11.6226   148.6917     8.7570
  504.0000   103.0877   -70.2729     8.1739    11.7813   145.4930     8.7557
  504.5000   103.0658   -70.3169     8.2930    11.9340   142.9189     8.7543
  505.0000   110.7966   -70.4423     8.4132    11.9548   141.8019     8.7530
  505.5000   111.6208   -70.5643     8.5361    11.9532   140.6849     8.7570
  506.0000   101.0747   -70.6863     8.6042    11.9523   139.5679     8.7900
  506.5000    92.4550   -70.8061     8.6906    11.9524   139.4841     8.8228
  507.0000    96.4791   -70.8556     8.7439    11.9524   139.8432     8.8555
  507.5000   100.3240   -70.7040     8.7873    11.9524   140.2022     8.8883
  508.0000    95.5961   -70.5589     8.8300    11.9524   140.5612     8.9212
  508.5000    91.9798   -70.4140     8.8742    11.9524   140.9203     8.9524
  509.0000   109.8681   -70.2849     8.8856    11.9524   141.2793     8.9356
  509.5000   119.0298   -70.2833     8.8865    11.9524   141.6383     8.8894
  510.0000   119.1459   -70.2839     8.8830    11.9524   141.9976     8.8438
  510.5000   110.9409   -70.2839     8.8165    11.9524   142.3566     8.7984
  511.0000   118.6553   -70.2840     8.7525    11.9524   142.7133     8.7741
  511.5000   123.2718   -70.2840     8.6892    11.9524   143.0689     8.7795
  512.0000   110.6530   -70.2840     8.6627    11.9524   142.5838     8.7845
  512.5000   105.4407   -70.2840     8.6732    11.9525   141.2434     8.7896
  513.0000   110.2986   -70.2840     8.6838    11.9529   139.9030     8.7946
  513.5000   115.6947   -70.2840     8.6945    11.9519   139.7487     8.7997
  514.0000   111.0561   -70.2840     8.6589    11.8543   140.7579     8.8048
  514.5000   106.1797   -70.2840     8.6190    11.7430   144.0856     8.8098
  515.0000   121.0161   -70.2840     8.5768    11.6042   149.7326     8.8149
  515.5000   116.2576   -70.2840     8.4529    11.3731   155.3803     8.8200
  516.0000   122.0483   -70.2840     8.2995    11.1479   160.1506     8.8251
  516.5000   121.6992   -70.2852     8.0341    10.9229   162.8571     8.8301
  517.0000   120.5368   -70.2318     7.7954    10.7647   165.5637     8.8244
  517.5000   125.7200   -70.1580     7.6526    10.6738   168.2702     8.8079
  518.0000   120.4044   -70.0837     7.5176    10.5832   170.9768     8.7914
  518.5000   111.3776   -70.0094     7.3770    10.4912   173.4127     8.7749
  519.0000   118.0274   -69.9353     7.4349    10.3680   178.9418     8.7584
  519.5000   128.4471   -69.8612     7.5646    10.1427   183.9682     8.7418
  520.0000   120.6385   -69.7865     7.5357     9.9228   190.7899     8.7253
  520.5000   112.3688   -69.7117     7.3848     9.7027   199.4066     8.7086
  521.0000   104.1344   -69.5391     7.0880     9.4821   208.0234     8.6924
  521.5000    99.2543   -69.2699     6.7639     9.2903   210.6085     8.6994
  522.0000    89.9835   -69.0006     6.5240     9.3645   208.9257     8.7080
  522.5000    90.8420   -68.8634     6.5222     9.4392   207.3959     8.7165
  523.0000    88.3500   -68.9404     6.5713     9.5125   205.8661     8.7249
  523.5000    80.5815   -69.0470     6.6263     9.5850   204.3363     8.7334
  524.0000    74.9295   -69.1552     6.9465     9.6661   196.4506     8.7418
  524.5000    86.0828   -69.2633     7.4244    10.0472   182.2090     8.7503
  525.0000    92.9252   -69.3712     7.6833    10.4706   169.3915     8.7587
  525.5000   109.5041   -69.4791     7.8292    10.8951   158.3333     8.7672
  526.0000   109.8176   -69.5872     7.9239    11.2727   153.0556     8.7756
  526.5000   102.4156   -69.6953     7.9919    11.4470   152.5529     8.7841
  527.0000   103.7145   -69.8021     8.0290    11.3109   156.6724     8.7925
  527.5000   106.9015   -69.8665     8.0282    11.1746   165.4245     8.8010
  528.0000   110.6451   -69.8124     7.9131    10.7751   174.1399     8.8095
  528.5000   107.0461   -69.7616     7.7840    10.3899   182.8501     8.8134
  529.0000   102.6699   -69.7110     7.5304    10.0083   192.5132     8.8156
  529.5000    98.3294   -69.6602     7.2286     9.6690   195.5291     8.8178
  530.0000   107.1842   -69.6094     7.0005     9.6644   198.8801     8.8200
  530.5000    97.1655   -69.5585     6.8948     9.6650   199.0476     8.8222
  531.0000    93.0788   -69.5086     6.8562     9.6687   196.0318     8.8244
  531.5000    92.3878   -69.4884     7.0599     9.7781   192.0106     8.8265
  532.0000    88.2668   -69.5534     7.3614    10.2061   187.4868     8.8287
  532.5000    82.2827   -69.6155     7.6543    10.6209   173.9712     8.8309
  533.0000    81.6539   -69.6775     7.9735    11.0353   162.2385     8.8331
  533.5000    94.3879   -69.7396     8.3193    11.4507   151.7989     8.8353
  534.0000   107.1471   -69.8017     8.6158    11.8650   141.3594     8.8375
  534.5000   108.5017   -69.8639     8.7952    12.2405   134.7090     8.8396
  535.0000   101.5260   -69.9261     8.9759    12.3595   130.8554     8.8418
  535.5000    95.0740   -69.9878     9.1642    12.4687   128.9866     8.8440
  536.0000    96.2859   -70.0495     9.2614    12.5315   128.5999     8.8462
  536.5000    72.5547   -70.0355     9.2937    12.5475   128.1746     8.8483
  537.0000    71.6531   -69.9457     9.3062    12.5636   127.4709     8.8504
  537.5000    67.7537   -69.8559     9.3181    12.5794   126.4656     8.8533
  538.0000    65.5180   -69.7657     9.3420    12.5952   125.4603     8.8862
  538.5000    74.4710   -69.6755     9.3797    12.6111   125.2565     8.9216
  539.0000    90.3533   -69.5853     9.4212    12.6270   125.3961     8.9570
  539.5000   103.8872   -69.4950     9.4659    12.6429   125.5357     8.9920
  540.0000   102.2884   -69.4052     9.5123    12.6587   125.6753     9.0070
  540.5000   102.5668   -69.3153     9.5161    12.6745   125.8150     8.9610
  541.0000   110.0585   -69.2866     9.4557    12.6906   125.9519     8.9158
  541.5000   104.8904   -69.3190     9.3727    12.7067   126.0877     8.8718
  542.0000   103.4741   -69.3514     9.2891    12.7664   125.1513     8.8307
  542.5000    94.6175   -69.3842     9.2489    12.8697   123.1446     8.8294
  543.0000    84.0066   -69.4170     9.2963    12.9733   121.1376     8.8268
  543.5000    79.1527   -69.4497     9.4825    13.0791   119.1270     8.8244
  544.0000    94.3239   -69.4824     9.6625    13.1849   119.8810     8.8220
  544.5000    82.6515   -69.5152     9.8427    12.9128   123.4007     8.8196
  545.0000    77.9650   -69.5479     9.9238    12.5907   128.9154     8.8172
  545.5000    79.2184   -69.5806     9.7979    11.8398   144.9665     8.8145
  546.0000    91.9842   -69.6138     9.5554    11.1177   164.6592     8.8136
  546.5000    84.7758   -69.6480     9.0391    10.4017   186.3846     8.8398
  547.0000    73.6919   -69.6669     8.0406     9.7690   194.7539     8.8900
  547.5000    63.7264   -69.4683     7.3498     9.8237   196.8284     8.9697
