~VERSION INFORMATION
 VERS.                2.0:   CWLS LOG ASCII STANDARD - VERSION 2.0
 WRAP.                 NO:   ONE LINE PER DEPTH STEP
~WELL INFORMATION
#MNEM.UNIT      DATA TYPE    INFORMATION
#----------   ------------   ------------------------------
 STRT.F           26.0000:   START DEPTH
 STOP.F          655.0000:   STOP DEPTH
 STEP.F            0.5000:   STEP LENGTH
 NULL.          -999.2500:   NO VALUE
 COMP. FENIX & SCISSON, INCORPORATED:   COMPANY
 WELL. RES 3 TEAPOT DOM #22S-11:   WELL
 FLD .             TEAPOT:   FIELD
 LOC .      S11 T38N R78W:   LOCATION
 CNTY.            NATRONA:   COUNTY
 STAT.            WYOMING:   STATE
 CTRY. UNITED STATES OF AMERICA:   COUNTRY
 SRVC.            Unknown:   SERVICE COMPANY
 DATE.        03-FEB-1978:   LOGDATE
 API .       490251057200:   API NUMBER
~CURVE INFORMATION
#MNEM.UNIT       API CODE    CURVE DESCRIPTION
#----------   ------------   ------------------------------
 DEPT.F                  :   
 ILD .OHMM   05 120 46 00:   INDUCTION LOG DEEP
 SN  .OHMM   05 040 16 00:   SHORT NORMAL 16"
 SPR .MV     05 010 01 00:   SPONTANEOUS POTENTIAL.
 CALD.IN     45 280 60 00:   CALIPER FROM DENSITY LOG
 CORR.G/C3   45 356 01 00:   DENSITY CORRECTION
 DPHI.DEC    45 890 12 00:   DENSITY POROSITY SANDSTONE
 GRD .GAPI   45 310 01 00:   GAMMA RAY FROM DENSITY LOG
 RHOB.G/C3   45 350 01 00:   BULK DENSITY
~PARAMETER INFORMATION
#MNEM.UNIT          VALUE    DESCRIPTION
#----------   ------------   ------------------------------
 PD  .                 GL:   PERMANENT DATUM
 EPD .F              5168:   ELEVATION PERMANENT DATUM
 LMF .                 KB:   LOG MEASURED FROM
 DMF .                 KB:   DRILLING MEASURED FROM
 EKB .F              5171:   KELLING BUSHING
 EGL .F              5168:   GROUND LEVEL
 DATE.        03-FEB-1978:   RUN DATE
 RUN .                  1:   RUN NUMBER
 DD  .F               650:   DEPTH DRILLER
 DL  .F               655:   DEPTH LOGGER
 BLI .F               655:   BOTTOM LOG INTERVAL
 TLI .F                40:   TOP LOG INTERVAL
 CS  .IN            8.625:   CASING SIZE
 CBD .F                39:   CASING BOTTOM DRILLER
 CBL .F                40:   CASING BOTTOM LOGGER
 BS  .IN            7.875:   BIT SIZE
 BSD .F               650:   BIT SIZE AT DEPTH
 DFT .                KCL:   DRILLING FLUID TYPE
 DFD .                8.6:   DRILLING FLUID DENSITY
 DFV .                 31:   DRILLING FLUID VISCOSITY
 DFPH.                9.5:   DRILLING FLUID PH
 DFL .               12.8:   DRILLING FLUID LOSS
 MSS .           FLOWLINE:   MUD SAMPLE SOURCE
 RMS .OHMM           0.38:   RESISTIVITY MUD SAMPLE
 MST .F                62:   MUD SAMPLE TEMPERATURE
 RMF .OHMM            4.4:   RESISTIVITY MUD FILTRATE SAMPLE
 MFST.F                62:   MUD FILTRATE SAMPLE TEMPERATURE
 RMC .OHMM            0.8:   RESISTIVITY MUD CAKE
 MCST.F                62:   MUD CAKE SAMPLE TEMPERATURE
 MFSS.               MEAS:   MUD FILTRATE SAMPLE SOURCE
 RMB .OHMM           0.35:   RESISTIVITY MUD AT BHT
 BHT .F                68:   BOTTOM HOLE TEMPERATURE
 TCS .HRS               1:   TIME CURCULATED STOPPED
 MRT .F                68:   MAXIMUM RECORDED TEMPERATURE
 LUN .               2958:   LOGGING UNIT NUMBER
 LUL .             CASPER:   LOGGING UNIT LOCATION
 ENGI.           REYNOLDS:   RECORDING ENGINEER
 WITN.         HARRINGTON:   WITNESSED BY
 CLNT.            A2DTECH:   CLIENT CODE
 ORIG.           5" PRINT:   ORIGIN OF DATA
 UWI .       490251057200:   UNIQUE WELL ID
 DICO. A2D Technologies, Inc.:   DIGITIZING COMPANY
~OTHER INFORMATION
~A   DEPT      ILD         SN        SPR       CALD       CORR       DPHI         GRD      RHOB   
# ...
  269.0000     8.2973     8.6260   -68.3278     7.9435     0.0488     0.1080   106.3716     2.4769
  269.5000     8.2934     8.5623   -68.3386     7.9422     0.0457     0.1074   105.1521     2.4844
  270.0000     8.2895     8.4402   -68.3460     7.9409     0.0367     0.1081   107.0975     2.4716
  270.5000     8.2854     8.3190   -68.3551     7.9396     0.0277     0.1117   108.5934     2.4746
  271.0000     8.2807     8.3151   -68.4236     7.9382     0.0276     0.1147   106.3128     2.4767
  271.5000     8.2768     8.3117   -68.5257     7.9218     0.0335     0.1171   103.8812     2.4564
  272.0000     8.3310     8.3073   -68.5341     7.9204     0.0393     0.1156   103.2623     2.4496
  272.5000     8.3270     8.3612   -68.6952     7.9170     0.0439     0.1142   106.4198     2.4586
  273.0000     8.3469     8.4156   -68.7041     7.9023     0.0481     0.1124   106.5561     2.4668
  273.5000     8.4352     8.5291   -68.7132     7.9010     0.0510     0.1109   104.9788     2.4727
  274.0000     8.4947     8.5843   -68.5722     7.8998     0.0539     0.1109   104.1061     2.4750
  274.5000     8.6037     8.6401   -68.5797     7.8985     0.0598     0.1136   104.6956     2.4682
  275.0000     8.7210     8.6350   -68.4359     7.8970     0.0672     0.1152   106.1915     2.4606
  275.5000     8.7912     8.7526   -68.4470     7.8958     0.0701     0.1137   107.8384     2.4561
  276.0000     8.8340     8.7475   -68.4552     7.8944     0.0700     0.1110   108.8811     2.4635
  276.5000     8.9532     8.8666   -68.4647     7.9082     0.0684     0.1086   107.6580     2.4732
  277.0000     9.0376     8.9487   -68.4735     7.9068     0.0683     0.1071   102.8094     2.4807
  277.5000     9.1328     9.1065   -68.4825     7.9132     0.0697     0.1060    98.8444     2.4822
  278.0000     9.2591     9.2295   -68.4917     7.9192     0.0741     0.1054    97.7946     2.4843
  278.5000     9.3559     9.3541   -68.4767     7.9179     0.0800     0.1064    98.0789     2.4933
  279.0000     9.5069     9.4804   -68.2054     7.9318     0.0829     0.1078    99.2726     2.4880
  279.5000     9.6350     9.6083   -68.2165     7.9454     0.0843     0.1091   101.8259     2.4775
  280.0000     9.7864     9.7369   -68.2253     7.9439     0.0857     0.1109   102.8723     2.4698
  280.5000     9.9665     9.8684   -68.0802     7.9490     0.0901     0.0965   100.5881     2.4646
  281.0000    10.1012     9.9594   -67.9395     7.9564     0.0915     0.0926    99.9691     2.4826
  281.5000    10.2377    10.1366   -67.9484     7.9592     0.0929     0.0920    98.8970     2.4983
  282.0000    10.3913    10.3450   -67.8496     7.9689     0.0913     0.0935    97.0684     2.5065
  282.5000    10.6632    10.6409   -67.6631     7.9672     0.0912     0.0972    95.0900     2.4997
  283.0000    10.8827    11.0768   -67.6444     7.9659     0.0911     0.0954    93.2626     2.4944
  283.5000    11.1066    11.3058   -67.5285     7.9648     0.0910     0.0936    96.6153     2.4929
  284.0000    11.2566    11.2992   -67.5396     7.9481     0.0909     0.0942    99.9013     2.4973
  284.5000    11.4087    11.1381   -67.5484     7.9417     0.0908     0.0981   100.1671     2.4995
  285.0000    11.4020    11.0559   -67.7090     7.9303     0.0907     0.1027    99.8466     2.4954
  285.5000    11.3966    10.9742   -67.7179     7.8988     0.0892     0.1087    98.4724     2.4837
  286.0000    11.2339    10.9682   -67.7269     7.8821     0.0873     0.1096    95.8897     2.4784
  286.5000    11.1498    11.1163   -67.7378     7.8640     0.0815     0.1093    92.8539     2.4776
  287.0000    11.0674    11.1110   -67.7451     7.8339     0.0710     0.1091    95.1050     2.4783
  287.5000    10.9095    10.9976   -67.7542     7.8303     0.0619     0.1106    96.9030     2.4767
  288.0000    10.7540    10.8718   -67.9161     7.8163     0.0514     0.1160    98.5659     2.4662
  288.5000    10.6006    10.7916   -68.0766     7.8148     0.0424     0.1199   101.3364     2.4481
  289.0000    10.5223    10.7108   -68.0850     7.8136     0.0345     0.1203   100.9338     2.4459
  289.5000    10.5173    10.6271   -68.2461     7.8123     0.0272     0.1194    98.0490     2.4433
  290.0000    10.5122    10.4800   -68.4067     7.8108     0.0227     0.1191    96.3344     2.4247
  290.5000    10.5071    10.4026   -68.4158     7.8095     0.0211     0.1213    97.4141     2.4082
  291.0000    10.5744    10.3263   -68.4249     7.8233     0.0210     0.1260    99.6653     2.4067
  291.5000    10.5694    10.3209   -68.4354     7.8217     0.0209     0.1288   103.1249     2.4134
  292.0000    10.5649    10.3163   -68.4431     7.8203     0.0223     0.1240   105.0776     2.4246
  292.5000    10.5880    10.3343   -68.6335     7.8192     0.0252     0.1222   101.1318     2.4245
  293.0000    10.6282    10.4503   -68.7655     7.8179     0.0296     0.1216    96.7364     2.4297
  293.5000    10.5495    10.4453   -68.7739     7.8164     0.0295     0.1198    94.9090     2.4349
  294.0000    10.5444    10.4405   -68.7831     7.8301     0.0279     0.1163    94.1390     2.4380
  294.5000    10.5343    10.5078   -68.7921     7.8316     0.0263     0.1115    93.6707     2.4519
  295.0000    10.4467    10.5027   -68.8012     7.8428     0.0233     0.1094    93.5017     2.4738
  295.5000    10.3711    10.4250   -68.8103     7.8413     0.0232     0.1121    93.0338     2.4753
  296.0000    10.2351    10.4196   -68.6690     7.8399     0.0231     0.1158    91.9617     2.4707
  296.5000    10.1885    10.4147   -68.5813     7.8538     0.0260     0.1194    92.2491     2.4632
  297.0000    10.1229    10.3040   -68.5327     7.8523     0.0259     0.1206    95.2556     2.4511
  297.5000    10.0784    10.2613   -68.5438     7.8659     0.0258     0.1212    97.8089     2.4421
  298.0000     9.9357    10.1140   -68.5195     7.8648     0.0257     0.1209    98.3988     2.4405
  298.5000     9.8613    10.0330   -68.4097     7.8634     0.0241     0.1201    99.4421     2.4435
  299.0000     9.8252     9.8962   -68.4188     7.8620     0.0240     0.1195    99.7285     2.4465
  299.5000     9.7838     9.8237   -68.2779     7.8606     0.0240     0.1195    98.5017     2.4494
  300.0000     9.6446     9.6835   -68.2941     7.8593     0.0227     0.1218    98.6394     2.4524
  300.5000     9.5102     9.4724   -68.3304     7.9099     0.0193     0.1261   102.4026     2.4553
  301.0000     9.5090     9.2815   -68.3668     7.9017     0.0162     0.1286   104.5043     2.4470
  301.5000     9.3765     9.2142   -68.4031     7.8853     0.0131     0.1313   103.2543     2.4424
  302.0000     9.3752     9.2115   -68.4394     7.8840     0.0085     0.1338   100.6224     2.4409
  302.5000     9.2443     9.2080   -68.4757     7.8675     0.0039     0.1367    99.3255     2.4356
  303.0000     9.2431     9.2051   -68.6434     7.8511     0.0008     0.1395    99.3123     2.4294
  303.5000     9.2418     9.2019   -68.8060     7.8497     0.0007     0.1422    98.8460     2.4212
  304.0000     9.2406     9.1987   -69.1183     7.8484     0.0005     0.1440    96.2648     2.4189
  304.5000     9.2393     9.2597   -69.2789     7.8471     0.0004     0.1413    95.0432     2.4196
  305.0000     9.2381     9.2558   -69.4394     7.8760     0.0003     0.1395    95.4832     2.4218
  305.5000     9.3661     9.2532   -69.4482     7.9047     0.0017     0.1462    98.5724     2.4248
  306.0000     9.3648     9.2496   -69.4571     7.9339     0.0015     0.1516   103.4595     2.4165
  306.5000     9.3632     9.1825   -69.4659     7.9477     0.0014     0.1525    95.7457     2.4097
  307.0000     9.2972     9.0529   -69.4750     7.9763     0.0028     0.1486    98.9015     2.4034
  307.5000     9.1042     8.9872   -69.4858     7.9902     0.0039     0.1421   101.0031     2.4081
  308.0000     8.9774     8.9221   -69.4932     7.9888     0.0085     0.1403   102.5005     2.4185
  308.5000     8.9140     8.8479   -69.5034     7.9872     0.0144     0.1418    99.7683     2.4207
  309.0000     8.7290     8.7924   -69.5122     8.0013     0.0207     0.1463    98.5467     2.4184
