~VERSION INFORMATION
 VERS.                2.0:   CWLS LOG ASCII STANDARD - VERSION 2.0
 WRAP.                 NO:   ONE LINE PER DEPTH STEP
~WELL INFORMATION
#MNEM.UNIT      DATA TYPE    INFORMATION
#----------   ------------   ------------------------------
 STRT.F           30.0000:   START DEPTH
 STOP.F          502.0000:   STOP DEPTH
 STEP.F            0.5000:   STEP LENGTH
 NULL.          -999.2500:   NO VALUE
 COMP.   FLUOR DANIEL INC:   COMPANY
 WELL. NPR 3  74-66 SX-1 #66-10:   WELL
 FLD .             TEAPOT:   FIELD
 LOC .      S10 T38N R78W:   LOCATION
 CNTY.            NATRONA:   COUNTY
 STAT.            WYOMING:   STATE
 CTRY. UNITED STATES OF AMERICA:   COUNTRY
 SRVC.           Gearhart:   SERVICE COMPANY
 DATE.        19-JUL-1987:   LOGDATE
 API .       490251114700:   API NUMBER
~CURVE INFORMATION
#MNEM.UNIT       API CODE    CURVE DESCRIPTION
#----------   ------------   ------------------------------
 DEPT.F                  :   
 RLL .OHMM   07 220 00 00:   LATEROLOG RESISTIVITY
 RILD.OHMM   07 120 46 00:   INDUCTION LOG DEEP RESISTIVITY
 RILM.OHMM   07 120 44 00:   INDUCTION LOG MEDIUM RESISTIVITY
 GRR .GAPI   07 310 01 00:   GAMMA RAY FROM RES. LOG
 SPR .MV     07 010 01 00:   SPONTANEOUS POTENTIAL FROM RES. LOG
~PARAMETER INFORMATION
#MNEM.UNIT          VALUE    DESCRIPTION
#----------   ------------   ------------------------------
 PD  .                 GL:   PERMANENT DATUM
 EPD .F              5163:   ELEVATION PERMANENT DATUM
 LMF .                 KB:   LOG MEASURED FROM
 DAPD.F                 8:   FEET ABOVE PERMANENT DATUM
 DMF .                 KB:   DRILLING MEASURED FROM
 EKB .F              5171:   KELLING BUSHING
 EDF .F              5169:   DRILLING FLOOR
 EGL .F              5163:   GROUND LEVEL
 DATE.            7-19-87:   RUN DATE
 RUN .                  1:   RUN NUMBER
 DD  .F               500:   DEPTH DRILLER
 DL  .F               502:   DEPTH LOGGER
 BLI .F               500:   BOTTOM LOG INTERVAL
 TLI .F                30:   TOP LOG INTERVAL
 CS  .IN            8.625:   CASING SIZE
 CBD .F                40:   CASING BOTTOM DRILLER
 CBL .F                48:   CASING BOTTOM LOGGER
 BS  .IN            7.875:   BIT SIZE
 BSD .F               500:   BIT SIZE AT DEPTH
 DFT .                MUD:   DRILLING FLUID TYPE
 DFD .                8.9:   DRILLING FLUID DENSITY
 DFV .                 40:   DRILLING FLUID VISCOSITY
 MSS .            MUD PIT:   MUD SAMPLE SOURCE
 RMS .OHMM             .4:   RESISTIVITY MUD SAMPLE
 MST .F                70:   MUD SAMPLE TEMPERATURE
 RMF .OHMM             .3:   RESISTIVITY MUD FILTRATE SAMPLE
 MFST.F                70:   MUD FILTRATE SAMPLE TEMPERATURE
 RMC .OHMM            .32:   RESISTIVITY MUD CAKE
 MCST.F                70:   MUD CAKE SAMPLE TEMPERATURE
 MFSS.              CHART:   MUD FILTRATE SAMPLE SOURCE
 MCSS.              CHART:   MUD CAKE SAMPLE SOURCE
 RMB .OHMM            .35:   RESISTIVITY MUD AT BHT
 BHT .F                80:   BOTTOM HOLE TEMPERATURE
 TCS .HRS            2230:   TIME CURCULATED STOPPED
 TLAB.HRS            2330:   TIME LOGGER AT BOTTOM
 MRT .F                80:   MAXIMUM RECORDED TEMPERATURE
 LUN .               7597:   LOGGING UNIT NUMBER
 LUL .           GILLETTE:   LOGGING UNIT LOCATION
 ENGI.         WEATHERMON:   RECORDING ENGINEER
 WITN.             STRONG:   WITNESSED BY
 CLNT.            A2DTECH:   CLIENT CODE
 ORIG.       2", 5" PRINT:   ORIGIN OF DATA
 UWI .       490251114700:   UNIQUE WELL ID
 DICO. A2D Technologies, Inc.:   DIGITIZING COMPANY
~OTHER INFORMATION
~A   DEPT      RLL       RILD       RILM         GRR       SPR   
# ...
  213.0000     8.2664     6.7550     6.2546   111.5706   -83.7363
  213.5000     7.7680     6.2375     5.8440   111.9767   -83.7766
  214.0000     7.2989     5.6989     5.4603   112.9089   -84.6379
  214.5000     6.8583     4.9921     5.1019   114.0873   -85.6696
  215.0000     6.4443     4.3767     4.7669   114.1759   -86.5998
  215.5000     6.0555     3.8367     4.3451   113.1829   -87.0559
  216.0000     5.6900     3.3999     3.8613   111.1699   -87.5445
  216.5000     5.4812     3.2416     3.4313   109.2933   -87.6786
  217.0000     5.1381     3.0907     3.0492   108.4122   -87.4549
  217.5000     4.6412     3.0061     2.7136   107.5630   -86.9032
  218.0000     4.1923     2.8938     2.5408   106.6956   -86.2052
  218.5000     4.0437     2.9437     2.5951   105.3242   -86.7347
  219.0000     4.0707     3.0227     2.7119   103.7338   -86.2636
  219.5000     4.2993     3.2483     2.8938   102.1526   -85.3823
  220.0000     4.7689     3.5960     3.1166   101.4266   -85.3899
  220.5000     5.2900     3.9766     3.4615   103.0439   -85.4996
  221.0000     5.8291     4.3976     3.8850   109.1325   -85.6036
  221.5000     6.2162     4.8633     4.3604   115.2507   -85.7082
  222.0000     6.6317     5.2945     4.8698   118.4568   -85.4250
  222.5000     6.8684     5.6465     5.3031   116.6324   -84.7846
  223.0000     6.8696     6.0219     5.5931   114.3584   -84.1596
  223.5000     6.8685     6.4222     5.8198   113.7491   -84.0734
  224.0000     6.8681     6.6795     5.9770   113.7331   -84.0134
  224.5000     6.8684     6.6441     5.9938   113.7342   -83.9732
  225.0000     6.9003     6.6177     6.0106   113.7234   -83.0424
  225.5000     7.0668     6.4395     6.0304   114.1672   -82.4012
  226.0000     7.2373     6.2522     5.9625   115.7119   -83.8642
  226.5000     7.4119     6.0704     5.7516   119.2159   -84.5945
  227.0000     7.4676     5.8938     5.4074   121.4138   -83.7503
  227.5000     6.9555     5.7283     5.0839   122.8170   -84.2573
  228.0000     6.5209     5.5729     4.8038   124.2534   -85.0896
  228.5000     6.1136     5.4217     4.6920   126.0417   -85.6400
  229.0000     5.9670     5.2746     4.6920   127.8124   -86.2091
  229.5000     5.7824     5.1315     4.6913   127.5151   -88.1510
  230.0000     5.5497     5.0542     4.6908   124.6337   -90.2474
  230.5000     6.4144     5.2459     4.8010   120.1279   -93.0495
  231.0000     6.5912     5.4082     4.9295   116.1594   -85.0972
  231.5000     6.9127     5.6319     5.0618   114.9845   -84.0904
  232.0000     7.2502     5.8627     5.2422   116.4332   -83.8575
  232.5000     7.6041     6.1032     5.5142   118.5470   -83.7578
  233.0000     7.8228     6.3535     5.8002   120.7798   -83.4553
  233.5000     7.8228     6.6141     6.1010   122.0779   -82.9405
  234.0000     7.8228     6.8854     6.4174   120.7116   -83.1722
  234.5000     7.8228     7.1679     6.7503   117.8675   -83.4752
  235.0000     7.8228     7.4619     7.1285   115.6287   -83.7666
  235.5000     8.2074     7.7679     7.2992   118.0439   -83.8354
  236.0000     8.7675     7.9696     7.4891   120.2908   -83.9042
  236.5000     9.2473     7.8958     7.6077   122.5177   -84.9021
  237.0000     9.0319     7.8958     7.3986   121.8561   -85.7451
  237.5000     8.7708     7.8958     7.2523   121.8717   -84.8358
  238.0000     8.4481     7.8958     7.1052   123.7020   -83.8715
  238.5000     7.9594     7.6965     6.9666   125.3360   -83.6929
  239.0000     7.7504     7.4142     6.8986   123.1105   -83.9311
  239.5000     7.7791     7.1422     6.7561   120.7501   -84.2949
  240.0000     7.8223     6.8803     6.5531   119.8236   -84.6219
  240.5000     7.7011     6.6279     6.3561   119.4156   -85.0018
  241.0000     7.4960     6.3848     6.1651   119.6834   -85.3677
  241.5000     7.2974     6.1506     5.9798   122.1040   -85.1828
  242.0000     7.1953     5.8651     5.6476   124.9715   -84.8993
  242.5000     7.1772     5.5297     5.2633   127.1310   -84.7455
  243.0000     7.0086     5.2134     4.9051   126.4629   -84.7474
  243.5000     6.6838     4.9611     4.5713   125.8764   -84.7448
  244.0000     6.2509     5.0523     4.3155   126.1581   -85.8445
  244.5000     5.8487     5.2155     4.3155   125.3317   -87.6718
  245.0000     5.6982     5.3840     4.5156   123.7371   -86.0661
  245.5000     6.3179     5.5578     4.8559   122.2297   -85.4462
  246.0000     7.1004     5.8201     5.2218   122.9326   -85.0607
  246.5000     7.7414     6.1817     5.6129   123.7832   -84.9501
  247.0000     7.9050     6.5703     5.9550   122.3301   -84.9496
  247.5000     8.0676     6.9825     6.2293   120.6769   -84.9559
  248.0000     8.2372     7.4205     6.5198   121.3601   -84.9233
  248.5000     8.3964     7.9696     6.8231   123.7526   -83.9232
  249.0000     8.7081     7.9454     7.0642   126.7736   -82.8374
  249.5000     9.0315     7.9163     7.0640   128.8190   -84.1109
  250.0000     9.3227     7.8958     7.0627   129.0019   -85.4761
  250.5000     9.2107     7.9859     7.0624   126.6737   -85.3998
  251.0000     9.1004     8.0563     7.0776   124.1991   -83.6342
  251.5000     8.9907     8.1274     7.0976   121.8855   -81.8753
  252.0000     8.8827     8.1947     7.1178   122.2801   -77.4666
  252.5000     8.8276     8.1432     7.1272   122.7621   -86.0836
  253.0000     8.8268     8.0937     7.0704   123.2348   -93.4309
  253.5000     8.8287     8.0449     7.0315   123.2236   -89.2263
  254.0000     8.5191     7.9964     6.9928   123.0672   -84.3885
  254.5000     8.3486     7.9483     6.9542   124.1132   -83.7017
  255.0000     8.6283     7.8958     6.9159   125.1810   -83.2995
  255.5000     8.8274     7.8757     6.8685   126.2189   -83.2093
  256.0000     8.8175     7.8476     6.9130   125.9676   -83.3692
  256.5000     8.7998     7.8195     6.9729   124.5792   -84.3882
  257.0000     8.7821     7.7915     7.0333   122.0624   -84.3581
  257.5000     8.7644     7.7505     7.0943   121.0481   -83.9497
  258.0000     8.7453     7.7619     7.1558   121.5901   -83.5368
  258.5000     8.7672     7.7840     7.1991   122.3492   -84.1122
  259.0000     8.8058     7.8061     7.2223   123.3810   -84.3148
  259.5000     8.8274     7.8228     7.2456   124.9922   -83.7879
  260.0000     8.5858     7.5497     7.2622   126.6575   -83.8999
  260.5000     8.6302     7.3381     7.0396   130.0598   -83.7731
  261.0000     8.7201     7.1324     6.8715   130.3011   -83.2665
  261.5000     8.8274     6.9325     6.6430   127.8115   -80.1033
  262.0000     8.1856     6.7382     6.1945   124.5599   -82.5928
  262.5000     7.5373     6.5493     5.9368   121.7398   -86.4279
  263.0000     7.4088     6.4777     5.8607   123.5464   -87.8855
  263.5000     7.2443     6.4430     5.7571   131.1720   -87.8347
  264.0000     7.0626     6.3437     5.8297   135.2225   -85.0166
  264.5000     7.1285     6.1922     5.9743   133.6302   -82.3364
  265.0000     7.5041     6.0304     5.9198   130.2877   -80.6654
  265.5000     8.1185     5.9649     5.9203   127.9946   -87.8290
  266.0000     8.0632     5.8646     5.5876   127.6511   -80.5822
  266.5000     7.5107     5.8928     5.3492   128.6230   -85.5790
  267.0000     6.8850     5.9404     5.1209   130.3915   -86.1137
  267.5000     6.2588     5.9885     5.0062   133.0022   -86.0400
  268.0000     6.2281     6.0304     5.0904   135.1261   -85.9864
  268.5000     6.2009     6.0484     5.3754   134.4869   -84.9161
  269.0000     6.5189     6.0810     5.6766   130.0967   -84.9449
  269.5000     6.9440     6.1138     5.9749   125.6216   -84.3201
  270.0000     7.4056     6.1435     6.0257   123.6515   -84.6162
  270.5000     7.6229     6.6516     6.0744   124.1158   -84.7452
  271.0000     7.7979     6.9264     6.1756   124.9892   -84.3134
  271.5000     7.9703     7.0318     6.2961   124.9364   -85.1637
  272.0000     8.0633     7.1421     6.4190   122.8567   -85.1057
  272.5000     8.1949     7.1932     6.4958   120.3670   -84.6282
  273.0000     8.0182     6.7350     6.4977   118.5935   -84.9076
  273.5000     7.8785     6.4391     6.2488   117.3768   -85.4254
