~VERSION INFORMATION
 VERS.                2.0:   CWLS LOG ASCII STANDARD - VERSION 2.0
 WRAP.                 NO:   ONE LINE PER DEPTH STEP
~WELL INFORMATION
#MNEM.UNIT      DATA TYPE    INFORMATION
#----------   ------------   ------------------------------
 STRT.F            0.0000:   START DEPTH
 STOP.F         2838.0000:   STOP DEPTH
 STEP.F            0.5000:   STEP LENGTH
 NULL.          -999.2500:   NO VALUE
 COMP. INTEX OIL CO U S NAVY:   COMPANY
 WELL. NAVAL PETROLEUM RESERVE 3 29 #NPR #3 (204A29)-29:   WELL
 FLD .                N/A:   FIELD
 LOC .      S29 T39N R78W:   LOCATION
 CNTY.            NATRONA:   COUNTY
 STAT.            WYOMING:   STATE
 CTRY. UNITED STATES OF AMERICA:   COUNTRY
 SRVC.      NL McCullough:   SERVICE COMPANY
 DATE.        24-JUN-1965:   LOGDATE
 API .       490251021700:   API NUMBER
~CURVE INFORMATION
#MNEM.UNIT       API CODE    CURVE DESCRIPTION
#----------   ------------   ------------------------------
 DEPT.F                  :   
 GR  .GAPI   30 310 01 00:   GAMMA RAY
 HD  .IN     70 280 01 00:   DAIMETER
~PARAMETER INFORMATION
#MNEM.UNIT          VALUE    DESCRIPTION
#----------   ------------   ------------------------------
 PD  .                 GL:   PERMANENT DATUM
 LMF .                 GL:   LOG MEASURED FROM
 EDF .F              5016:   DRILLING FLOOR
 DATE.        24-JUN-1965:   RUN DATE
 RUN .                  1:   RUN NUMBER
 DD  .F              2838:   DEPTH DRILLER
 DL  .F              2838:   DEPTH LOGGER
 BLI .F              2836:   BOTTOM LOG INTERVAL
 TLI .F              2400:   TOP LOG INTERVAL
 CS  .IN            6.625:   CASING SIZE
 CBD .F              2820:   CASING BOTTOM DRILLER
 BSD .F              2838:   BIT SIZE AT DEPTH
 LUN .               1497:   LOGGING UNIT NUMBER
 ENGI.         COWLTHORPE:   RECORDING ENGINEER
 WITN.         MR. HUDSON:   WITNESSED BY
 CLNT.            A2DTECH:   CLIENT CODE
 ORIG.           5" PRINT:   ORIGIN OF DATA
 UWI .       490251021700:   UNIQUE WELL ID
 DICO. A2D Technologies, Inc.:   DIGITIZING COMPANY
~OTHER INFORMATION
~A    DEPT      GR           HD 
# ...
  121.5000  -999.2500     6.3327
  122.0000  -999.2500     6.3181
  122.5000  -999.2500     6.3336
  123.0000  -999.2500     6.3189
  123.5000  -999.2500     6.3195
  124.0000  -999.2500     6.3350
  124.5000  -999.2500     6.3354
  125.0000  -999.2500     6.3358
  125.5000  -999.2500     6.3363
  126.0000  -999.2500     6.3368
  126.5000  -999.2500     6.3373
  127.0000  -999.2500     6.3377
  127.5000  -999.2500     6.3382
  128.0000  -999.2500     6.3389
  128.5000  -999.2500     6.3397
  129.0000  -999.2500     6.3404
  129.5000  -999.2500     6.3412
  130.0000  -999.2500     6.3420
  130.5000  -999.2500     6.3428
  131.0000  -999.2500     6.3435
  131.5000  -999.2500     6.3443
  132.0000  -999.2500     6.3451
  132.5000  -999.2500     6.3459
  133.0000  -999.2500     6.3466
  133.5000  -999.2500     6.3474
  134.0000  -999.2500     6.3482
  134.5000  -999.2500     6.3490
  135.0000  -999.2500     6.3497
  135.5000  -999.2500     6.3505
  136.0000  -999.2500     6.3513
  136.5000  -999.2500     6.3521
  137.0000  -999.2500     6.3528
  137.5000  -999.2500     6.3536
  138.0000  -999.2500     6.3544
  138.5000  -999.2500     6.3552
  139.0000  -999.2500     6.3559
  139.5000  -999.2500     6.3567
  140.0000  -999.2500     6.3575
  140.5000  -999.2500     6.3583
  141.0000  -999.2500     6.3590
  141.5000  -999.2500     6.3598
  142.0000  -999.2500     6.3606
  142.5000  -999.2500     6.3614
  143.0000  -999.2500     6.3621
  143.5000  -999.2500     6.3629
  144.0000  -999.2500     6.3637
  144.5000  -999.2500     6.3645
  145.0000  -999.2500     6.3652
  145.5000  -999.2500     6.3660
  146.0000  -999.2500     6.3668
  146.5000  -999.2500     6.3676
  147.0000  -999.2500     6.3683
  147.5000  -999.2500     6.3691
  148.0000  -999.2500     6.3699
  148.5000  -999.2500     6.3707
  149.0000  -999.2500     6.3714
  149.5000  -999.2500     6.3722
  150.0000  -999.2500     6.3730
  150.5000  -999.2500     6.3738
  151.0000  -999.2500     6.3746
  151.5000  -999.2500     6.3756
  152.0000  -999.2500     6.3766
  152.5000  -999.2500     6.3776
  153.0000  -999.2500     6.3786
  153.5000  -999.2500     6.3796
  154.0000  -999.2500     6.3805
  154.5000  -999.2500     6.3815
  155.0000  -999.2500     6.3825
  155.5000  -999.2500     6.3835
  156.0000  -999.2500     6.3845
  156.5000  -999.2500     6.3855
  157.0000  -999.2500     6.3865
  157.5000  -999.2500     6.3874
  158.0000  -999.2500     6.3884
  158.5000  -999.2500     6.3894
  159.0000  -999.2500     6.3904
  159.5000  -999.2500     6.3914
  160.0000  -999.2500     6.3924
  160.5000  -999.2500     6.3933
  161.0000  -999.2500     6.3943
  161.5000  -999.2500     6.3953
  162.0000  -999.2500     6.3958
  162.5000  -999.2500     6.3961
  163.0000  -999.2500     6.3964
  163.5000  -999.2500     6.3967
  164.0000  -999.2500     6.3970
  164.5000  -999.2500     6.3973
  165.0000  -999.2500     6.3976
  165.5000  -999.2500     6.3979
  166.0000  -999.2500     6.3982
  166.5000  -999.2500     6.3985
  167.0000  -999.2500     6.3988
  167.5000  -999.2500     6.3992
  168.0000  -999.2500     6.3994
  168.5000  -999.2500     6.3997
  169.0000  -999.2500     6.4151
  169.5000  -999.2500     6.4154
  170.0000  -999.2500     6.4157
  170.5000  -999.2500     6.4159
  171.0000  -999.2500     6.4163
  171.5000  -999.2500     6.4166
  172.0000  -999.2500     6.4319
  172.5000  -999.2500     6.4171
  173.0000  -999.2500     6.4175
  173.5000  -999.2500     6.4178
  174.0000  -999.2500     6.4030
  174.5000  -999.2500     6.4033
  175.0000  -999.2500     6.4036
  175.5000  -999.2500     6.4039
  176.0000  -999.2500     6.3891
  176.5000  -999.2500     6.3895
  177.0000  -999.2500     6.3898
  177.5000  -999.2500     6.3901
  178.0000  -999.2500     6.3904
  178.5000  -999.2500     6.3907
  179.0000  -999.2500     6.3759
  179.5000  -999.2500     6.3762
  180.0000  -999.2500     6.3614
  180.5000  -999.2500     6.3618
  181.0000  -999.2500     6.3470
  181.5000  -999.2500     6.3323
  182.0000  -999.2500     6.3326
  182.5000  -999.2500     6.3177
  183.0000  -999.2500     6.3181
  183.5000  -999.2500     6.3184
  184.0000  -999.2500     6.3187
  184.5000  -999.2500     6.3190
  185.0000  -999.2500     6.3344
  185.5000  -999.2500     6.3346
  186.0000  -999.2500     6.3350
  186.5000  -999.2500     6.3353
  187.0000  -999.2500     6.3506
  187.5000  -999.2500     6.3509
  188.0000  -999.2500     6.3512
  188.5000  -999.2500     6.3516
  189.0000  -999.2500     6.3519
  189.5000  -999.2500     6.3521
  190.0000  -999.2500     6.3524
  190.5000  -999.2500     6.3527
  191.0000  -999.2500     6.3530
  191.5000  -999.2500     6.3533
  192.0000  -999.2500     6.3536
  192.5000  -999.2500     6.3540
  193.0000  -999.2500     6.3543
  193.5000  -999.2500     6.3546
  194.0000  -999.2500     6.3549
  194.5000  -999.2500     6.3551
  195.0000  -999.2500     6.3532
  195.5000  -999.2500     6.3512
  196.0000  -999.2500     6.3491
  196.5000  -999.2500     6.3471
  197.0000  -999.2500     6.3450
  197.5000  -999.2500     6.3430
  198.0000  -999.2500     6.3409
  198.5000  -999.2500     6.3389
  199.0000  -999.2500     6.3368
  199.5000  -999.2500     6.3348
  200.0000  -999.2500     6.3327
  200.5000  -999.2500     6.3307
  201.0000  -999.2500     6.3289
  201.5000  -999.2500     6.3342
  202.0000  -999.2500     6.3388
  202.5000  -999.2500     6.3434
  203.0000  -999.2500     6.3480
  203.5000  -999.2500     6.3526
  204.0000  -999.2500     6.3572
  204.5000  -999.2500     6.3619
  205.0000  -999.2500     6.3665
  205.5000  -999.2500     6.3711
  206.0000  -999.2500     6.3757
  206.5000  -999.2500     6.3803
  207.0000  -999.2500     6.3849
  207.5000  -999.2500     6.3896
  208.0000  -999.2500     6.3934
  208.5000  -999.2500     6.3937
  209.0000  -999.2500     6.3940
  209.5000  -999.2500     6.4093
  210.0000  -999.2500     6.3946
  210.5000  -999.2500     6.3949
  211.0000  -999.2500     6.3952
  211.5000  -999.2500     6.3955
  212.0000  -999.2500     6.4109
  212.5000  -999.2500     6.4112
  213.0000  -999.2500     6.4115
  213.5000  -999.2500     6.4117
  214.0000  -999.2500     6.4121
  214.5000  -999.2500     6.4124
  215.0000  -999.2500     6.4277
  215.5000  -999.2500     6.4280
  216.0000  -999.2500     6.4284
  216.5000  -999.2500     6.4287
  217.0000  -999.2500     6.4138
  217.5000  -999.2500     6.4142
  218.0000  -999.2500     6.4145
  218.5000  -999.2500     6.4009
  219.0000  -999.2500     6.4030
  219.5000  -999.2500     6.4051
  220.0000  -999.2500     6.4072
  220.5000  -999.2500     6.4093
  221.0000  -999.2500     6.4114
  221.5000  -999.2500     6.4135
  222.0000  -999.2500     6.4156
  222.5000  -999.2500     6.4177
  223.0000  -999.2500     6.4198
  223.5000  -999.2500     6.4219
  224.0000  -999.2500     6.4240
  224.5000  -999.2500     6.4262
  225.0000  -999.2500     6.4283
  225.5000  -999.2500     6.4304
  226.0000  -999.2500     6.4325
  226.5000  -999.2500     6.4347
  227.0000  -999.2500     6.4349
  227.5000  -999.2500     6.4352
  228.0000  -999.2500     6.4355
  228.5000  -999.2500     6.4354
  229.0000  -999.2500     6.4338
  229.5000  -999.2500     6.4322
  230.0000  -999.2500     6.4307
  230.5000  -999.2500     6.4291
  231.0000  -999.2500     6.4275
  231.5000  -999.2500     6.4260
  232.0000  -999.2500     6.4244
  232.5000  -999.2500     6.4228
  233.0000  -999.2500     6.4213
  233.5000  -999.2500     6.4197
  234.0000  -999.2500     6.4181
  234.5000  -999.2500     6.4166
  235.0000  -999.2500     6.4150
  235.5000  -999.2500     6.4134
  236.0000  -999.2500     6.4118
  236.5000  -999.2500     6.4103
  237.0000  -999.2500     6.4087
  237.5000  -999.2500     6.4071
  238.0000  -999.2500     6.4056
  238.5000  -999.2500     6.4040
  239.0000  -999.2500     6.4024
  239.5000  -999.2500     6.4009
  240.0000  -999.2500     6.3993
  240.5000  -999.2500     6.3977
  241.0000  -999.2500     6.3962
  241.5000  -999.2500     6.3946
  242.0000  -999.2500     6.3930
  242.5000  -999.2500     6.3915
