~VERSION INFORMATION
 VERS.                2.0:   CWLS LOG ASCII STANDARD - VERSION 2.0
 WRAP.                 NO:   ONE LINE PER DEPTH STEP
~WELL INFORMATION
#MNEM.UNIT      DATA TYPE    INFORMATION
#----------   ------------   ------------------------------
 STRT.F         2640.0000:   START DEPTH
 STOP.F         2958.0000:   STOP DEPTH
 STEP.F            0.5000:   STEP LENGTH
 NULL.          -999.2500:   NO VALUE
 COMP. DEPARTMENT OF ENERGY:   COMPANY
 WELL.     WELL #201-A-34:   WELL
 FLD .                 WC:   FIELD
 LOC .      S34 T39N R78W:   LOCATION
 CNTY.            NATRONA:   COUNTY
 STAT.            WYOMING:   STATE
 CTRY. UNITED STATES OF AMERICA:   COUNTRY
 SRVC.            Unknown:   SERVICE COMPANY
 DATE.        23-AUG-1967:   LOGDATE
 API .       490251146200:   API NUMBER
~CURVE INFORMATION
#MNEM.UNIT       API CODE    CURVE DESCRIPTION
#----------   ------------   ------------------------------
 DEPT.F                  :   
 GRN .GAPI   35 310 01 00:   GAMMA RAY
 NEUT.NAPI   35 330 01 00:   NEUTRON
~PARAMETER INFORMATION
#MNEM.UNIT          VALUE    DESCRIPTION
#----------   ------------   ------------------------------
 PD  .                 GL:   PERMANENT DATUM
 LMF .                 GL:   LOG MEASURED FROM
 DATE.            8-23-67:   RUN DATE
 RUN .                  1:   RUN NUMBER
 DD  .F              2975:   DEPTH DRILLER
 DL  .F              2959:   DEPTH LOGGER
 BLI .F              2958:   BOTTOM LOG INTERVAL
 TLI .F              2650:   TOP LOG INTERVAL
 BSD .F              2975:   BIT SIZE AT DEPTH
 DFT .              WATER:   DRILLING FLUID TYPE
 TCS .HRS               2:   TIME CURCULATED STOPPED
 ENGI. FITZSIMMONS/BROADWAT:   RECORDING ENGINEER
 WITN.             HUDSON:   WITNESSED BY
 CLNT.            A2DTECH:   CLIENT CODE
 ORIG.           5" PRINT:   ORIGIN OF DATA
 UWI .       490251146200:   UNIQUE WELL ID
 DICO. A2D Technologies, Inc.:   DIGITIZING COMPANY
~OTHER INFORMATION
~A  DEPT        GRN      NEUT   
# ...
 2761.5000    51.3275   365.7233
 2762.0000    49.8271   392.0826
 2762.5000    49.3136   366.6457
 2763.0000    47.8930   350.9820
 2763.5000    48.9032   369.8883
 2764.0000    53.3547   349.8384
 2764.5000    51.2752   371.6928
 2765.0000    50.4451   337.0034
 2765.5000    53.4515   357.7127
 2766.0000    54.9854   337.9775
 2766.5000    58.2966   385.1803
 2767.0000    58.3042   418.1466
 2767.5000    54.7560   386.7892
 2768.0000    52.5177   364.5898
 2768.5000    53.6969   383.7810
 2769.0000    54.9194   355.0020
 2769.5000    54.0605   338.8465
 2770.0000    54.5914   392.4714
 2770.5000    56.1927   397.4016
 2771.0000    55.7823   403.2154
 2771.5000    52.4639   421.2594
 2772.0000    49.8162   440.1326
 2772.5000    49.1782   442.7560
 2773.0000    49.9452   422.0772
 2773.5000    54.1279   422.0843
 2774.0000    52.2836   400.0516
 2774.5000    55.2077   382.0079
 2775.0000    55.4611   376.3508
 2775.5000    54.5699   399.2251
 2776.0000    53.0374   453.5068
 2776.5000    48.6862   456.5227
 2777.0000    48.2740   476.2464
 2777.5000    51.4689   496.9995
 2778.0000    49.1842   472.0137
 2778.5000    47.3167   446.9839
 2779.0000    46.9389   437.2130
 2779.5000    47.6464   378.9132
 2780.0000    46.1017   396.0491
 2780.5000    45.6452   388.5082
 2781.0000    51.2784   410.7250
 2781.5000    48.4348   432.6960
 2782.0000    46.9311   420.5306
 2782.5000    46.8311   442.1256
 2783.0000    46.6860   423.8371
 2783.5000    45.4586   434.7960
 2784.0000    46.7959   404.9261
 2784.5000    49.5466   399.3966
 2785.0000    49.4360   386.8305
 2785.5000    50.6839   368.6544
 2786.0000    53.5306   356.6865
 2786.5000    53.6694   378.8658
 2787.0000    54.8867   384.2120
 2787.5000    56.7049   334.2852
 2788.0000    58.7369   326.2826
 2788.5000    66.3238   349.2279
 2789.0000    70.5504   315.9665
 2789.5000    72.6127   275.4037
 2790.0000    75.1940   238.3065
 2790.5000    78.4430   252.1248
 2791.0000    84.6510   254.5132
 2791.5000    86.3070   206.2910
 2792.0000    85.3920   186.3764
 2792.5000    86.8360   207.0418
 2793.0000    87.9147   233.8200
 2793.5000    86.4698   249.9633
 2794.0000    78.0281   214.9576
 2794.5000    74.3605   220.3066
 2795.0000    78.8245   238.6300
 2795.5000    73.9825   257.0537
 2796.0000    64.9634   246.0971
 2796.5000    54.7784   299.5040
 2797.0000    48.1253   337.5586
 2797.5000    53.6520   319.1093
 2798.0000    55.7858   318.2587
 2798.5000    56.7822   304.6070
 2799.0000    55.3717   333.8782
 2799.5000    53.4582   357.1857
 2800.0000    52.4555   364.6808
 2800.5000    55.1262   385.3167
 2801.0000    49.3981   435.6621
 2801.5000    43.1213   497.2438
 2802.0000    37.4159   543.6749
 2802.5000    35.3979   623.0847
 2803.0000    34.3024   691.0283
 2803.5000    34.7064   705.3958
 2804.0000    35.2931   715.2886
 2804.5000    36.1865   628.5662
 2805.0000    39.1227   556.5233
 2805.5000    39.5642   490.8663
 2806.0000    40.2370   462.5719
 2806.5000    41.5998   463.1959
 2807.0000    45.6873   434.8831
 2807.5000    49.6707   420.6211
 2808.0000    51.6238   361.1009
 2808.5000    49.6032   395.0889
 2809.0000    49.8856   401.3337
 2809.5000    49.9035   411.1949
 2810.0000    46.1092   430.0587
 2810.5000    44.1510   453.6216
 2811.0000    43.2593   441.6024
 2811.5000    46.3355   435.3416
 2812.0000    49.7009   452.2726
 2812.5000    58.2356   434.8907
 2813.0000    67.5643   395.6365
 2813.5000    73.6610   384.8530
 2814.0000    68.3636   453.1845
 2814.5000    64.3057   527.4336
 2815.0000    70.9915   558.7204
 2815.5000    72.0810   566.0777
 2816.0000    70.3784   565.2253
 2816.5000    70.9897   537.7388
 2817.0000    65.5082   585.5732
 2817.5000    61.2574   637.3339
 2818.0000    62.1459   694.2386
 2818.5000    59.7989   706.2697
 2819.0000    64.8736   719.7308
 2819.5000    68.9546   674.5870
 2820.0000    70.8090   618.1200
 2820.5000    73.2089   600.1798
 2821.0000    70.9004   608.6812
 2821.5000    70.2523   592.6339
 2822.0000    68.8727   571.1558
 2822.5000    69.4666   579.0198
 2823.0000    69.6866   554.2324
 2823.5000    71.8086   544.9312
 2824.0000    77.2895   546.7589
 2824.5000    81.3353   450.0002
 2825.0000    87.3084   397.2204
 2825.5000    90.6977   331.0938
 2826.0000    90.7199   340.1777
 2826.5000    91.1449   347.3830
 2827.0000    87.4103   346.9326
 2827.5000    89.4779   352.3954
 2828.0000    87.7760   345.6306
 2828.5000    88.3928   347.6147
 2829.0000    88.2953   355.2607
 2829.5000    89.4418   352.1576
 2830.0000    92.5546   339.9108
 2830.5000    92.0567   367.1274
 2831.0000    95.0658   366.8922
 2831.5000    89.3639   361.4741
 2832.0000    88.4145   348.5173
 2832.5000    85.2012   334.4922
 2833.0000    87.6173   345.6558
 2833.5000    89.0151   327.8181
 2834.0000    89.0176   311.2415
 2834.5000    88.2973   320.7441
 2835.0000    87.5229   327.2587
 2835.5000    86.6520   320.8517
 2836.0000    87.1570   338.0983
 2836.5000    86.6136   355.5246
 2837.0000    84.2268   347.6864
 2837.5000    84.5644   339.5998
 2838.0000    86.1580   354.5680
 2838.5000    89.7605   341.0073
 2839.0000    86.7045   398.5136
 2839.5000    87.0491   383.0540
 2840.0000    90.1353   390.4912
 2840.5000    91.0584   382.0739
 2841.0000    88.3723   392.9824
 2841.5000    88.8331   373.9290
 2842.0000    85.5491   345.4914
 2842.5000    87.8182   359.0185
 2843.0000    90.4508   330.2289
 2843.5000    90.3490   330.9589
 2844.0000    92.5490   356.1313
 2844.5000    85.2649   346.2735
 2845.0000    88.1491   335.2780
 2845.5000    92.0039   338.3981
 2846.0000    90.6516   338.7654
 2846.5000    89.8901   322.5610
 2847.0000    90.8713   306.2548
 2847.5000    91.8996   290.4916
 2848.0000    96.5598   274.4879
 2848.5000   100.6134   306.1855
 2849.0000    96.7413   302.5844
 2849.5000    95.5674   314.5544
 2850.0000    93.9474   290.5871
 2850.5000    96.6467   337.5619
 2851.0000    96.3578   316.9553
 2851.5000    97.1628   310.4997
 2852.0000    94.7914   307.6956
 2852.5000    93.8578   362.4324
 2853.0000    95.4323   355.4680
 2853.5000    91.9683   344.9173
 2854.0000    91.4125   350.0610
 2854.5000    86.1357   355.8674
 2855.0000    90.3804   365.7234
 2855.5000    97.7215   374.7654
 2856.0000    94.8421   390.9039
 2856.5000    90.8410   377.0437
 2857.0000    92.7733   392.2444
 2857.5000    91.8369   386.2448
 2858.0000    92.4960   393.1656
 2858.5000    89.1575   398.1100
 2859.0000    89.1464   395.1828
 2859.5000    89.6362   416.7619
 2860.0000    90.9876   442.1064
 2860.5000    89.4435   468.3199
 2861.0000    90.4229   477.9347
 2861.5000    90.2933   463.8257
 2862.0000    87.7442   408.4414
 2862.5000    93.5540   365.9913
 2863.0000    96.9162   398.7954
 2863.5000    95.2171   384.5372
 2864.0000    93.5362   411.1516
 2864.5000    93.3867   444.4916
 2865.0000    96.1731   488.1802
 2865.5000    91.6891   470.6713
 2866.0000    89.0928   489.5350
 2866.5000    90.8644   467.7699
 2867.0000    93.0285   486.7713
 2867.5000    90.3005   500.2471
 2868.0000    90.8010   507.4629
 2868.5000    88.3071   491.1144
 2869.0000    86.7756   498.3445
 2869.5000    88.1540   492.2527
 2870.0000    90.3882   506.4340
 2870.5000    89.3166   490.3780
 2871.0000    92.2073   504.2403
 2871.5000    90.8266   551.2323
 2872.0000    90.2663   577.5530
 2872.5000    90.7545   583.7061
 2873.0000    91.8155   530.9505
 2873.5000    93.8714   503.8114
 2874.0000    94.5182   498.0908
 2874.5000    98.6255   482.6814
 2875.0000   100.6783   410.0711
 2875.5000    98.1691   370.5100
 2876.0000    97.6907   348.0502
 2876.5000   108.8803   332.1784
 2877.0000   108.3443   303.1972
 2877.5000   102.0787   330.8574
 2878.0000    96.3032   368.5229
 2878.5000    92.4416   398.6482
 2879.0000    88.4820   461.4236
 2879.5000    88.0757   502.7656
 2880.0000    86.6663   518.7384
 2880.5000    87.2366   526.1451
 2881.0000    87.7025   553.4366
 2881.5000    85.7633   554.7133
 2882.0000    85.0225   512.1370
 2882.5000    82.7290   505.9579
