~VERSION INFORMATION
 VERS.                2.0:   CWLS LOG ASCII STANDARD - VERSION 2.0
 WRAP.                 NO:   ONE LINE PER DEPTH STEP
~WELL INFORMATION
#MNEM.UNIT      DATA TYPE    INFORMATION
#----------   ------------   ------------------------------
 STRT.F           38.5000:   START DEPTH
 STOP.F          606.0000:   STOP DEPTH
 STEP.F            0.5000:   STEP LENGTH
 NULL.          -999.2500:   NO VALUE
 COMP. FENIX & SCISSON INC:   COMPANY
 WELL.      NPR-X3 #185-2:   WELL
 FLD .             TEAPOT:   FIELD
 LOC .       S2 T38N R78W:   LOCATION
 CNTY.            NATRONA:   COUNTY
 STAT.            WYOMING:   STATE
 CTRY. UNITED STATES OF AMERICA:   COUNTRY
 SRVC.            Unknown:   SERVICE COMPANY
 DATE.        30-JAN-1978:   LOGDATE
 API .       490251056200:   API NUMBER
~CURVE INFORMATION
#MNEM.UNIT       API CODE    CURVE DESCRIPTION
#----------   ------------   ------------------------------
 DEPT.F                  :   
 CALD.IN     45 280 60 00:   CALIPER
 GRD .GAPI   45 310 01 00:   GAMMA RAY FROM DENSITY LOG
 CORR.G/C3   45 356 01 00:   DENSITY CORRECTION
 RHOB.G/C3   45 350 01 00:   BULK DENSITY
 DPHI.DEC    45 890 12 00:   DENSITY POROSITY SANDSTONE
 SPR .MV     05 010 01 00:   SPONTANEOUS POTENTIAL FROM RES.
 SN  .OHMM   05 040 16 00:   SHORT NORMAL 16"
 ILD .OHMM   05 120 46 00:   INDUCTION LOG DEEP
~PARAMETER INFORMATION
#MNEM.UNIT          VALUE    DESCRIPTION
#----------   ------------   ------------------------------
 PD  .                 GL:   PERMANENT DATUM
 EPD .F              5134:   ELEVATION PERMANENT DATUM
 LMF .                 KB:   LOG MEASURED FROM
 DAPD.F                 4:   FEET ABOVE PERMANENT DATUM
 DMF .                 KB:   DRILLING MEASURED FROM
 EKB .F              5138:   KELLING BUSHING
 EGL .F              5134:   GROUND LEVEL
 DATE.            1-30-78:   RUN DATE
 RUN .                  1:   RUN NUMBER
 DD  .F               600:   DEPTH DRILLER
 DL  .F               604:   DEPTH LOGGER
 BLI .F               598:   BOTTOM LOG INTERVAL
 TLI .F                40:   TOP LOG INTERVAL
 CS  .IN            8.625:   CASING SIZE
 CBD .F                40:   CASING BOTTOM DRILLER
 CBL .F                41:   CASING BOTTOM LOGGER
 BS  .IN            7.875:   BIT SIZE
 BSD .F               600:   BIT SIZE AT DEPTH
 DFT .                KCL:   DRILLING FLUID TYPE
 DFD .                8.6:   DRILLING FLUID DENSITY
 DFV .                 34:   DRILLING FLUID VISCOSITY
 DFPH.                 10:   DRILLING FLUID PH
 DFL .                  7:   DRILLING FLUID LOSS
 MSS .                PIT:   MUD SAMPLE SOURCE
 RMS .OHMM            .65:   RESISTIVITY MUD SAMPLE
 MST .F                70:   MUD SAMPLE TEMPERATURE
 RMF .OHMM            1.2:   RESISTIVITY MUD FILTRATE SAMPLE
 MFST.F                64:   MUD FILTRATE SAMPLE TEMPERATURE
 MFSS.               MEAS:   MUD FILTRATE SAMPLE SOURCE
 RMB .OHMM            .64:   RESISTIVITY MUD AT BHT
 BHT .F                71:   BOTTOM HOLE TEMPERATURE
 TCS .HRS               3:   TIME CURCULATED STOPPED
 MRT .F                71:   MAXIMUM RECORDED TEMPERATURE
 LUN .               2958:   LOGGING UNIT NUMBER
 LUL .                CAS:   LOGGING UNIT LOCATION
 ENGI.           REYNOLDS:   RECORDING ENGINEER
 WITN.         HARRINGTON:   WITNESSED BY
 CLNT.            A2DTECH:   CLIENT CODE
 ORIG.        2" 5" PRINT:   ORIGIN OF DATA
 UWI .       490251056200:   UNIQUE WELL ID
 DICO. A2D Technologies, Inc.:   DIGITIZING COMPANY
~OTHER INFORMATION
~A   DEPT     CALD        GRD        CORR      RHOB       DPHI        SPR         SN        ILD   
# ...
  160.0000     8.0831   118.3660     0.1344     2.4265     0.1450   -73.6580     8.6069     7.7657
  160.5000     8.0816   120.1286     0.1451     2.4198     0.1479   -73.6574     8.6882     7.8391
  161.0000     8.0802   121.9878     0.1414     2.4169     0.1445   -73.6590     8.7703     7.9132
  161.5000     8.0836   125.8106     0.1470     2.4192     0.1385   -73.7747     8.8327     7.9879
  162.0000     8.0954   129.7552     0.1485     2.4418     0.1325   -73.9028     8.8230     8.0578
  162.5000     8.1072   134.3292     0.1319     2.4531     0.1241   -74.0308     8.8151     8.0252
  163.0000     8.1190   150.4115     0.1311     2.4548     0.1215   -74.1585     8.8073     7.9944
  163.5000     8.1306   154.5245     0.1235     2.4594     0.1184   -74.2862     8.7995     7.9639
  164.0000     8.1387   158.8344     0.1108     2.4677     0.1161   -74.4136     8.7917     7.9336
  164.5000     8.1386   165.3806     0.0971     2.4763     0.1125   -74.5411     8.7839     7.9034
  165.0000     8.1403   170.8457     0.0796     2.4803     0.1089   -74.7031     8.7761     7.8733
  165.5000     8.1420   172.2944     0.0705     2.4841     0.1079   -75.0658     8.7683     7.8431
  166.0000     8.1437   176.7556     0.0643     2.4865     0.1066   -75.4315     8.7605     7.8249
  166.5000     8.1454   184.3398     0.0460     2.4855     0.1067   -75.7960     8.7531     7.8031
  167.0000     8.1471   190.3651     0.0351     2.4847     0.1069   -76.1637     8.7223     7.7815
  167.5000     8.1488   189.9348     0.0338     2.4790     0.1102   -76.5180     8.6800     7.7532
  168.0000     8.1505   182.7579     0.0325     2.4635     0.1169   -77.4257     8.6378     7.7112
  168.5000     8.1522   174.3478     0.0334     2.4599     0.1284   -78.5361     8.5959     7.6695
  169.0000     8.1539   168.8771     0.0386     2.4513     0.1311   -79.6618     8.5542     7.6280
  169.5000     8.1556   162.0313     0.0440     2.4446     0.1305   -80.7865     8.5142     7.5868
  170.0000     8.1575   158.7717     0.0485     2.4520     0.1225   -81.9104     8.3384     7.5561
  170.5000     8.1572   150.7992     0.0518     2.4623     0.1221   -83.0336     8.1720     7.5561
  171.0000     8.1791   137.7515     0.0596     2.4652     0.1250   -84.1600     8.0347     7.5561
  171.5000     8.1754   129.5996     0.0703     2.4531     0.1252   -85.3407     7.9596     7.5561
  172.0000     8.1734   127.2566     0.0883     2.4532     0.1260   -87.1448     7.8853     7.5561
  172.5000     8.1712   128.0692     0.1066     2.4542     0.1217   -89.1129     7.8388     7.5561
  173.0000     8.1690   122.9371     0.1248     2.4544     0.1280   -90.9137     7.9201     7.5560
  173.5000     8.1668   122.1666     0.1443     2.4477     0.1272   -93.4754     7.9799     7.5556
  174.0000     8.1646   120.6226     0.1940     2.4479     0.1323   -65.6038     8.0401     7.5555
  174.5000     8.1623   116.5382     0.2442     2.4434     0.1328   -65.9561     8.1009     7.6219
  175.0000     8.1601   114.6504     0.2525     2.4427     0.1264   -65.9929     8.2003     7.6856
  175.5000     8.1584   115.4268     0.2525     2.4562     0.1204   -66.1986     8.3417     7.7504
  176.0000     8.1584   114.0833     0.2672     2.4687     0.1173   -66.9657     8.4855     7.7928
  176.5000     8.1584   112.5544     0.2994     2.4537     0.1435   -67.2990     8.6318     7.8286
  177.0000     8.1585   112.3366     0.3082     2.4254     0.1447   -67.3202     8.7520     7.8643
  177.5000     8.1568   110.3513     0.3016     2.4226     0.1424   -67.3344     8.7644     7.9001
  178.0000     8.1455   110.3360     0.3221     2.4256     0.1388   -67.3483     8.7769     7.9362
  178.5000     8.1341   108.2251     0.3332     2.4296     0.1568   -67.3629     8.7894     7.9841
  179.0000     8.1228   110.3538     0.3430     2.3792     0.1698   -67.3775     8.8020     7.9804
  179.5000     8.1113   112.5568     0.3550     2.3929     0.1583   -67.3921     8.8145     7.9745
  180.0000     8.0996   109.1592     0.3586     2.3795     0.1730   -67.4067     8.8323     7.9689
  180.5000     8.0972   107.9217     0.3321     2.3761     0.1573   -67.4213     8.8275     7.9632
  181.0000     8.0939   108.4865     0.2993     2.3960     0.1463   -67.4359     8.8181     7.9576
  181.5000     8.0905   105.8874     0.2818     2.4153     0.1489   -67.4505     8.8087     7.9519
  182.0000     8.0871   107.5768     0.2689     2.4121     0.1511   -67.4652     8.7993     7.9462
  182.5000     8.0839   107.2007     0.2535     2.4091     0.1488   -67.4803     8.7899     7.9406
  183.0000     8.0790   105.7781     0.2159     2.4109     0.1432   -67.4931     8.7805     7.9349
  183.5000     8.1018   107.9840     0.1777     2.4263     0.1320   -67.4125     8.7711     7.9293
  184.0000     8.1148   107.9593     0.1458     2.4483     0.1173   -67.3244     8.7616     7.9236
  184.5000     8.1297   106.8540     0.1554     2.4521     0.1471   -67.2367     8.7520     7.9180
  185.0000     8.1444   105.7344     0.1554     2.4200     0.1401   -67.1491     8.6959     7.9116
  185.5000     8.1581   105.1926     0.1412     2.4157     0.1356   -67.0612     8.6377     7.9644
  186.0000     8.1591   105.0867     0.1394     2.4393     0.1326   -66.9736     8.5927     8.0328
  186.5000     8.1616   105.7701     0.1282     2.4429     0.1278   -66.8964     8.6547     8.1017
  187.0000     8.1642   105.3444     0.1125     2.4473     0.1178   -66.8984     8.8076     8.1713
  187.5000     8.1667   105.1138     0.0937     2.4627     0.1115   -66.8986     9.0171     8.3078
  188.0000     8.1693   105.1446     0.0759     2.4781     0.1072   -66.8986     9.2273     8.5129
  188.5000     8.1718   104.1668     0.0772     2.4875     0.1080   -66.8986     9.4329     8.7257
  189.0000     8.1744   105.6688     0.0674     2.4830     0.1103   -66.8985     9.6431     8.9448
  189.5000     8.1769   108.5452     0.0514     2.4813     0.1099   -66.8982     9.8580     9.0844
  190.0000     8.1782   110.3650     0.0517     2.4842     0.1093   -66.8997    10.0777     9.1164
  190.5000     8.1782   111.3534     0.0495     2.4699     0.1153   -66.9752    10.3022     9.1458
  191.0000     8.1775   110.0671     0.0489     2.4699     0.1153   -67.0572    10.5164     9.2136
  191.5000     8.1761   106.2992     0.0481     2.4782     0.1120   -67.1394    10.6224     9.3187
  192.0000     8.1748   104.5183     0.0449     2.4799     0.1093   -67.2224    10.7227     9.5508
  192.5000     8.1734   105.4226     0.0419     2.4900     0.1077   -67.2898    10.8240     9.7974
  193.0000     8.1720   105.1448     0.0423     2.4912     0.1050   -67.1603    10.9588    10.0521
  193.5000     8.1707    99.5610     0.0516     2.4880     0.1059   -66.9842    11.2695    10.3133
  194.0000     8.1693    98.4314     0.0534     2.4868     0.1066   -66.7639    11.5890    10.5812
  194.5000     8.1680    96.5861     0.0493     2.4913     0.1066   -66.5419    11.9175    10.8561
  195.0000     8.1666    94.0832     0.0557     2.4979     0.0934   -66.4527    12.2554    11.1381
  195.5000     8.1652    93.8469     0.0663     2.5024     0.0997   -66.3925    12.6032    11.4274
  196.0000     8.1639    93.7054     0.0676     2.4964     0.1044   -66.3334    12.9625    11.6342
  196.5000     8.1625    93.3638     0.0676     2.4947     0.1075   -66.3055    13.3523    11.6112
  197.0000     8.1612    93.8747     0.0676     2.4890     0.1166   -66.2926    13.2991    11.5791
  197.5000     8.1598    95.0617     0.0676     2.4643     0.1166   -65.6457    13.2424    11.5472
  198.0000     8.1585    95.9024     0.0676     2.4679     0.1145   -65.5343    13.0180    11.4454
  198.5000     8.1584    94.8475     0.0676     2.4687     0.1164   -66.3149    12.6658    11.2408
  199.0000     8.1593    93.8227     0.0682     2.4664     0.1193   -66.3001    12.3715    11.0388
  199.5000     8.1603    92.8811     0.0700     2.4623     0.1235   -66.2307    12.2299    10.8407
  200.0000     8.1614    92.1123     0.0790     2.4514     0.1264   -66.1605    12.0899    10.6461
