~VERSION INFORMATION
 VERS.                2.0:   CWLS LOG ASCII STANDARD - VERSION 2.0
 WRAP.                 NO:   ONE LINE PER DEPTH STEP
~WELL INFORMATION
#MNEM.UNIT      DATA TYPE    INFORMATION
#----------   ------------   ------------------------------
 STRT.F           80.0000:   START DEPTH
 STOP.F          715.0000:   STOP DEPTH
 STEP.F            0.5000:   STEP LENGTH
 NULL.          -999.2500:   NO VALUE
 COMP. U S NAVY-INTEX OIL:   COMPANY
 WELL.     NPR #3 #37-S-2:   WELL
 FLD .             TEAPOT:   FIELD
 LOC .       S2 T38N R78W:   LOCATION
 CNTY.            NATRONA:   COUNTY
 STAT.            WYOMING:   STATE
 CTRY. UNITED STATES OF AMERICA:   COUNTRY
 SRVC.       Schlumberger:   SERVICE COMPANY
 DATE.        21-JUN-1962:   LOGDATE
 API .       490250640600:   API NUMBER
~CURVE INFORMATION
#MNEM.UNIT       API CODE    CURVE DESCRIPTION
#----------   ------------   ------------------------------
 DEPT.F                  :   
 ASN .OHMM   05 041 16 00:   AMPLIFIED SHORT NORMAL 16"
 CILD.MMHO   05 110 46 00:   CONDUCTIVITY INDUCTION LOG DEEP
 ILD .OHMM   05 120 46 00:   INDUCTION LOG DEEP
 SPR .MV     05 010 01 00:   SPONTANEOUS POTENTIAL FROM RES.
 GR  .GAPI   30 310 01 00:   GAMMA RAY
~PARAMETER INFORMATION
#MNEM.UNIT          VALUE    DESCRIPTION
#----------   ------------   ------------------------------
 LMF .                 KB:   LOG MEASURED FROM
 DMF .                 KB:   DRILLING MEASURED FROM
 EKB .F              5159:   KELLING BUSHING
 EGL .F              5154:   GROUND LEVEL
 DATE.        21-JUN-1962:   RUN DATE
 RUN .                  1:   RUN NUMBER
 DD  .F               715:   DEPTH DRILLER
 DL  .F               716:   DEPTH LOGGER
 BLI .F               715:   BOTTOM LOG INTERVAL
 TLI .F                80:   TOP LOG INTERVAL
 BS  .IN             6.75:   BIT SIZE
 BSD .F               715:   BIT SIZE AT DEPTH
 DFT .       OIL-EMULSION:   DRILLING FLUID TYPE
 DFD .                9.3:   DRILLING FLUID DENSITY
 DFV .                 50:   DRILLING FLUID VISCOSITY
 DFL .                3.8:   DRILLING FLUID LOSS
 RMS .OHMM            3.9:   RESISTIVITY MUD SAMPLE
 MST .F                72:   MUD SAMPLE TEMPERATURE
 RMF .OHMM            2.6:   RESISTIVITY MUD FILTRATE SAMPLE
 MFST.F                72:   MUD FILTRATE SAMPLE TEMPERATURE
 RMC .OHMM            5.2:   RESISTIVITY MUD CAKE
 MCST.F                72:   MUD CAKE SAMPLE TEMPERATURE
 TCS .HRS               1:   TIME CURCULATED STOPPED
 LUN .               2503:   LOGGING UNIT NUMBER
 LUL .               CSPR:   LOGGING UNIT LOCATION
 ENGI.             DANNER:   RECORDING ENGINEER
 WITN.          JORGENSEN:   WITNESSED BY
 CLNT.            A2DTECH:   CLIENT CODE
 ORIG.           5" PRINT:   ORIGIN OF DATA
 UWI .       490250640600:   UNIQUE WELL ID
 DICO. A2D Technologies, Inc.:   DIGITIZING COMPANY
~OTHER INFORMATION
~A   DEPT        ASN      CILD         ILD      SPR         GR   
# ...
  446.0000     8.8870   126.9321     7.4932   -72.8470  -999.2500
  446.5000     8.5708   130.6679     7.3484   -72.9829  -999.2500
  447.0000     8.2851   135.1612     7.2790   -73.1189  -999.2500
  447.5000     8.1656   139.6545     7.3605   -72.7973  -999.2500
  448.0000     8.0612   141.1306     7.2831   -72.1707  -999.2500
  448.5000     8.0626   141.8360     7.2215   -72.0022  -999.2500
  449.0000     8.0639   141.0133     7.0781   -72.1381  -999.2500
  449.5000     8.0955   139.4461     7.0840   -72.1174  -999.2500
  450.0000     8.1572   137.8788     7.0900   -72.1009  -999.2500
  450.5000     8.2794   136.3106     7.2468   -72.2410  -999.2500
  451.0000     8.2807   133.2273     7.4790   -72.3769  -999.2500
  451.5000     8.2821   131.6488     7.6357   -72.3562  -999.2500
  452.0000     8.2834   131.5967     7.7171   -72.3397  -999.2500
  452.5000     8.3452   131.5446     7.7230   -72.3232  -999.2500
  453.0000     8.4069   130.7349     7.7290   -72.3067  -999.2500
  453.5000     8.4234   129.9252     7.7349   -72.1377  -999.2500
  454.0000     8.3492   129.4832     7.7409   -72.1212  -999.2500
  454.5000     8.4264   126.5548     7.7468   -72.1505  -999.2500
  455.0000     8.5335   124.3939     7.7528   -72.1812  -999.2500
  455.5000     8.6557   123.5641     7.7587   -72.1941  -999.2500
  456.0000     8.7627   122.7475     7.8411   -72.1699  -999.2500
  456.5000     8.9000   121.1734     7.9269   -72.1505  -999.2500
  457.0000     9.0071   120.3568     8.0784   -73.3567  -999.2500
  457.5000     9.0538   119.5403     8.1599   -73.6362  -999.2500
  458.0000     9.0702   119.4813     8.0901   -73.6121  -999.2500
  458.5000     9.0561   119.4223     8.0207   -72.9829  -999.2500
  459.0000     9.0272   120.1212     7.8773   -72.6587  -999.2500
  459.5000     8.9684   121.5771     7.7309   -72.3345  -999.2500
  460.0000     8.9245   123.7761     7.6812   -71.7054  -999.2500
  460.5000     8.8805   125.2323     7.7185   -72.1433  -999.2500
  461.0000     8.7912   125.9456     7.7558   -72.4337  -999.2500
  461.5000     8.6952   125.8719     7.7932   -72.4095  -999.2500
  462.0000     8.5451   126.5852     7.8305   -72.0853  -999.2500
  462.5000     8.5006   127.2838     7.9197   -71.3034  -999.2500
  463.0000     8.5774   127.2101     7.9255   -71.4368  -999.2500
  463.5000     8.6691   127.1511     7.9314   -72.1749  -999.2500
  464.0000     8.8224   126.3333     7.8604   -72.0031  -999.2500
  464.5000     8.9453   126.2608     7.8677   -71.5264  -999.2500
  465.0000     8.9138   126.2018     7.8735   -70.8973  -999.2500
  465.5000     8.8396   126.1428     7.8793   -70.2682  -999.2500
  466.0000     8.7950   125.3263     7.8854   -70.5537  -999.2500
  466.5000     8.7659   125.2673     7.8926   -71.6021  -999.2500
  467.0000     8.7973   125.2083     7.8230   -70.9723  -999.2500
  467.5000     8.7380   125.9091     7.8289   -70.1905  -999.2500
  468.0000     8.6785   126.6055     7.7579   -70.1707  -999.2500
  468.5000     8.5858   127.3560     7.6144   -70.1473  -999.2500
  469.0000     8.4543   129.5031     7.4680   -69.9755  -999.2500
  469.5000     8.3946   130.9740     7.4753   -69.8037  -999.2500
  470.0000     8.3805   133.1730     7.3303   -70.0892  -999.2500
  470.5000     8.3516   135.3867     7.1853   -71.2894  -999.2500
  471.0000     8.2620   136.1001     7.0418   -71.4273  -999.2500
  471.5000     8.1875   136.0263     7.0477   -71.4031  -999.2500
  472.0000     8.0828   135.9673     7.1290   -71.3838  -999.2500
  472.5000     7.9479   135.9084     7.0594   -71.5169  -999.2500
  473.0000     7.9643   136.6973     6.9884   -71.4970  -999.2500
  473.5000     7.9804   144.0072     6.6941   -71.4733  -999.2500
  474.0000     7.8304   154.6561     6.3983   -71.4540  -999.2500
  474.5000     7.1667   162.9304     6.0271   -71.4346  -999.2500
  475.0000     6.9110   167.4169     5.8067   -71.7250  -999.2500
  475.5000     6.9271   168.1302     5.7371   -72.0105  -999.2500
  476.0000     6.9597   168.0565     5.6676   -71.3766  -999.2500
  476.5000     6.8218   167.9975     5.7503   -71.0523  -999.2500
  477.0000     6.7338   166.4234     5.8316   -70.7281  -999.2500
  477.5000     6.7653   166.3258     6.0637   -70.7063  -999.2500
  478.0000     7.0684   163.0303     6.2204   -70.8419  -999.2500
  478.5000     7.3414   157.1407     6.3771   -70.9749  -999.2500
  479.0000     7.4635   151.0212     6.6169   -71.1032  -999.2500
  479.5000     7.5801   144.9016     6.9936   -71.3887  -999.2500
  480.0000     7.6768   139.5396     7.1503   -71.8267    92.9889
  480.5000     7.7382   139.4806     7.1562   -71.5025    88.8888
  481.0000     7.7862   138.6667     7.1620   -71.0258    90.7244
  481.5000     7.8161   138.6061     7.1679   -71.3113    93.1679
  482.0000     7.8322   138.5455     7.1737   -71.4451    94.0916
  482.5000     7.8179   138.4821     7.1041   -71.4251   100.5167
  483.0000     7.8038   138.4232     7.1101   -70.9411    97.7274
  483.5000     7.7746   138.3642     7.0405   -70.7759    96.2549
  484.0000     7.7456   140.2628     6.8970   -71.3622   102.3488
  484.5000     7.6863   148.8523     6.9029   -71.8001    90.2026
  485.0000     7.6229   144.9907     6.7579   -71.6284    92.1901
  485.5000     7.2656   144.1888     6.6883   -71.3041    97.5211
  486.0000     7.1458   147.1602     6.6173   -71.2848   107.5704
  486.5000     6.9807   152.3895     6.4736   -71.2654   113.0464
  487.0000     6.8457   159.9062     6.1026   -71.2461   103.1799
  487.5000     6.7108   174.9988     5.4173   -70.9219    99.9367
  488.0000     6.4853   190.1926     4.6075   -70.2886   101.6839
  488.5000     6.0633   206.4565     4.2363   -70.4258   100.6319
  489.0000     5.7308   214.2158     4.0899   -70.5589    97.6042
  489.5000     5.5798   213.3845     4.0972   -70.2299   101.5705
  490.0000     5.5077   212.5679     4.1031   -70.2105   101.8833
  490.5000     5.5088   210.2362     4.1089   -70.1912    83.6611
  491.0000     5.5853   207.9045     4.2656   -70.1718    80.3265
  491.5000     6.0093   204.0576     4.4223   -70.1525    86.7243
  492.0000     6.4635   197.1804     4.6647   -70.4380    88.8609
  492.5000     6.7969   185.6949     5.4913   -70.4186    89.1797
  493.0000     6.9489   169.4041     6.1005   -70.5518    94.9666
  493.5000     7.1345   156.8372     6.4080   -70.5320    98.2749
  494.0000     7.2987   151.4752     6.5647   -70.5122   104.5977
  494.5000     7.4357   146.8708     6.6460   -70.6461   117.6496
  495.0000     7.5726   146.0542     6.7272   -70.6219   111.1235
  495.5000     7.6794   144.4801     6.8085   -70.6026   112.8071
  496.0000     7.7711   142.9059     6.8949   -70.7405   104.0074
  496.5000     7.8929   141.3318     7.0480   -70.7163   102.9525
  497.0000     7.9846   138.9949     7.1292   -70.6970   108.1345
  497.5000     8.0783   136.6667     7.2105   -70.6776   103.8910
  498.0000     8.1984   135.0795     7.2164   -70.8110    96.0002
  498.5000     8.2598   134.2630     7.2222   -71.2487    94.6442
  499.0000     8.3923   133.4464     7.2281   -70.9024   100.4924
  499.5000     8.4689   131.8723     7.2340   -70.7478   104.7013
  500.0000     8.5608   131.8133     7.2238   -71.0382   111.7041
  500.5000     8.6223   130.9967     7.4754   -71.0276   115.3604
  501.0000     8.6383   130.1801     7.5475   -71.4990   110.5120
  501.5000     8.6544   130.1212     7.7019   -71.7719   107.0285
  502.0000     8.7462   129.9798     7.7803   -71.6082   106.4295
  502.5000     8.8380   127.7157     7.7832   -71.2943   107.0522
  503.0000     8.9449   126.8992     7.7862   -70.9805    88.3711
  503.5000     9.0064   126.8402     7.7891   -70.6666    84.7355
  504.0000     9.0376   126.0236     7.7921   -70.6577    95.3857
  504.5000     9.0535   125.9646     7.7951   -70.8034    88.8626
  505.0000     8.9637   125.9057     7.8734   -70.6397    96.3243
  505.5000     8.8737   126.0467     7.8764   -70.7832    96.1812
  506.0000     8.7534   126.1963     7.8793   -71.5364   105.9225
  506.5000     8.6634   126.3737     7.8824   -72.4421   113.2292
