~VERSION INFORMATION
 VERS.                2.0:   CWLS LOG ASCII STANDARD - VERSION 2.0
 WRAP.                 NO:   ONE LINE PER DEPTH STEP
~WELL INFORMATION
#MNEM.UNIT      DATA TYPE    INFORMATION
#----------   ------------   ------------------------------
 STRT.F           28.0000:   START DEPTH
 STOP.F          659.0000:   STOP DEPTH
 STEP.F            0.5000:   STEP LENGTH
 NULL.          -999.2500:   NO VALUE
 COMP. FENIX & SCISSON INC:   COMPANY
 WELL.    NPR 3 #46-SX-34:   WELL
 FLD .             TEAPOT:   FIELD
 LOC .      S34 T39N R78W:   LOCATION
 CNTY.            NATRONA:   COUNTY
 STAT.            WYOMING:   STATE
 CTRY. UNITED STATES OF AMERICA:   COUNTRY
 SRVC.              Welex:   SERVICE COMPANY
 DATE.        01-MAY-1977:   LOGDATE
 API .       490251035600:   API NUMBER
~CURVE INFORMATION
#MNEM.UNIT       API CODE    CURVE DESCRIPTION
#----------   ------------   ------------------------------
 DEPT.F                  :   
 CALD.IN     45 280 60 00:   CALIPER FROM DENSITY
 GRD .GAPI   45 310 01 00:   GAMMA RAY FROM DENSITY LOG
 CORR.G/C3   45 356 01 00:   DENSITY CORRECTION
 DPHI.DEC    45 890 12 00:   DENSITY POROSITY SANDSTONE
 RHOB.G/C3   45 350 01 00:   BULK DENSITY
 SPR .MV     07 010 01 00:   SPONTANEOUS POTENTIAL
 ILD .OHMM   07 120 46 00:   INDUCTION LOG DEEP
 ILM .OHMM   07 120 44 00:   INDUCTION LOG MEDIUM
 SGRD.OHMM   07 221 05 00:   SHALLOW SHORT GUARD RESISTIVITY
~PARAMETER INFORMATION
#MNEM.UNIT          VALUE    DESCRIPTION
#----------   ------------   ------------------------------
 PD  .                 GL:   PERMANENT DATUM
 EPD .F              5120:   ELEVATION PERMANENT DATUM
 LMF .                 GL:   LOG MEASURED FROM
 DMF .                 GL:   DRILLING MEASURED FROM
 EGL .F              5120:   GROUND LEVEL
 DATE.        01-MAY-1977:   RUN DATE
 RUN .                  1:   RUN NUMBER
 DD  .F               660:   DEPTH DRILLER
 DL  .F               663:   DEPTH LOGGER
 BLI .F               661:   BOTTOM LOG INTERVAL
 TLI .F                28:   TOP LOG INTERVAL
 CS  .IN            8.625:   CASING SIZE
 BS  .IN               12:   BIT SIZE
 BSD .F               660:   BIT SIZE AT DEPTH
 DFT .            KCL MUD:   DRILLING FLUID TYPE
 DFD .                8.7:   DRILLING FLUID DENSITY
 TCS .HRS            0100:   TIME CURCULATED STOPPED
 MRT .F                71:   MAXIMUM RECORDED TEMPERATURE
 ENGI.          T. JOYNER:   RECORDING ENGINEER
 WITN.            R. LYON:   WITNESSED BY
 CLNT.            A2DTECH:   CLIENT CODE
 ORIG.           5" PRINT:   ORIGIN OF DATA
 UWI .       490251035600:   UNIQUE WELL ID
 DICO. A2D Technologies, Inc.:   DIGITIZING COMPANY
~OTHER INFORMATION
~A   DEPT     CALD        GRD        CORR      DPHI       RHOB        SPR        ILD        ILM       SGRD   
# ...
  466.0000     7.7853    71.4715     0.0220     0.2334     2.2950   -22.2699    24.9367    28.0373    39.0345
  466.5000     7.7695    69.3694     0.0174     0.2350     2.2857   -21.9613    25.8112    28.4266    33.5414
  467.0000     7.7689    73.7237     0.0158     0.2304     2.2909   -21.5268    26.5329    28.4266    26.9013
  467.5000     7.7683    78.5285     0.0128     0.2199     2.3037   -21.3762    26.9013    28.4266    25.4345
  468.0000     7.7656    81.2312     0.0112     0.2175     2.3119   -20.9283    26.9013    28.2313    29.8320
  468.5000     7.7522    78.3784     0.0094     0.2199     2.3081   -20.7780    26.7164    28.2313    37.9728
  469.0000     7.7516    77.6026     0.0065     0.2208     2.3096   -20.9254    26.5134    28.2313    36.4079
  469.5000     7.7510    78.5661     0.0050     0.2184     2.3148   -20.9239    26.1696    28.2157    32.3345
  470.0000     7.7654    80.9309     0.0050     0.2031     2.3216   -20.9224    25.4578    27.8447    29.7506
  470.5000     7.7648    84.8348     0.0065     0.1973     2.3502   -20.9210    24.9367    27.6180    28.4266
  471.0000     7.7642    86.6366     0.0064     0.1865     2.3629   -21.0683    24.2584    27.2747    28.4266
  471.5000     7.7636    84.8348     0.0064     0.1865     2.3668   -21.0669    23.5986    26.9013    28.2313
  472.0000     7.7629    83.4835     0.0078     0.1853     2.3712   -21.0654    22.9567    25.9898    28.0373
  472.5000     7.7623    83.7838     0.0078     0.1820     2.3734   -21.2128    22.3323    25.1092    27.2747
  473.0000     7.7617    84.0841     0.0077     0.1838     2.3688   -21.3601    21.8752    24.4262    26.5329
  473.5000     7.7611    84.5345     0.0092     0.1878     2.3673   -21.8051    21.4274    23.5986    25.6339
  474.0000     7.7757    86.1862     0.0107     0.1854     2.3650   -22.2559    20.9888    22.9567    24.7653
  474.5000     7.7749    87.8378     0.0122     0.1812     2.3732   -22.6950    20.5592    22.3323    24.0917
  475.0000     7.7744    88.7888     0.0138     0.1730     2.3868   -22.9911    20.2777    22.1789    23.5986
  475.5000     7.7724    90.6282     0.0151     0.1667     2.4003   -23.1385    20.0000    21.8752    23.1156
  476.0000     7.7578    93.9940     0.0120     0.1655     2.4017   -23.1366    19.8626    21.7249    22.6424
  476.5000     7.7275    95.6456     0.0074     0.1707     2.3927   -22.9864    19.4560    21.5757    22.6424
  477.0000     7.7269    96.5465     0.0059     0.1773     2.3826   -22.9849    19.4560    21.7249    22.7990
  477.5000     7.7263    97.2973     0.0058     0.1814     2.3753   -22.9834    19.5906    21.7249    22.9567
  478.0000     7.7257    96.6967     0.0058     0.1761     2.3806   -22.9820    19.8626    21.7249    23.1156
  478.5000     7.7251    95.6456     0.0073     0.1761     2.3858   -22.8317    20.0000    21.8752    23.2755
  479.0000     7.7245    94.8949     0.0087     0.1767     2.3850   -22.8302    20.0000    22.0265    23.4365
  479.5000     7.7539    93.8438     0.0102     0.1767     2.3812   -22.8288    20.0000    22.3323    23.4603
  480.0000     7.7685    92.9429     0.0132     0.1770     2.3812   -22.8273    19.8626    22.6424    23.9262
  480.5000     7.7829    91.7417     0.0161     0.1737     2.3857   -22.6770    19.8626    22.9567    24.0917
  481.0000     7.7671    90.1400     0.0206     0.1710     2.3909   -22.6756    19.8626    23.1156    24.5952
  481.5000     7.7665    88.2257     0.0224     0.1686     2.3999   -22.6741    19.8626    22.9567    24.7653
  482.0000     7.7660    85.7357     0.0266     0.1671     2.4006   -22.6726    19.8626    22.9567    24.7653
  482.5000     7.7654    82.4324     0.0266     0.1656     2.4007   -22.6711    20.1384    22.6424    24.2584
  483.0000     7.7648    83.0330     0.0250     0.1639     2.4037   -22.6696    20.4179    22.3323    24.0917
  483.5000     7.7492    84.2342     0.0234     0.1613     2.4103   -22.8171    20.8446    22.3323    23.9262
  484.0000     7.7486    85.4354     0.0219     0.1542     2.4261   -22.9640    21.1340    22.3323    24.0917
  484.5000     7.7479    87.2372     0.0218     0.1539     2.4231   -23.1117    21.7249    22.9567    24.2584
  485.0000     7.7625    89.0390     0.0218     0.1539     2.4185   -23.2591    22.1789    23.5986    24.7653
  485.5000     7.7618    89.3393     0.0217     0.1543     2.4207   -23.5552    22.7990    24.4262    25.4578
  486.0000     7.7611    87.0871     0.0247     0.1525     2.4327   -23.8514    22.9567    25.2829    26.9013
  486.5000     7.7605    86.3363     0.0277     0.1419     2.4500   -23.8496    22.9567    25.8112    31.3070
  487.0000     7.7449    88.7638     0.0322     0.1290     2.4688   -23.8481    22.6424    25.6339    38.5000
  487.5000     7.7443    86.8367     0.0337     0.1136     2.4868   -23.8466    22.0265    24.7653    42.1098
  488.0000     7.7437    86.1862     0.0303     0.1124     2.4891   -23.8452    21.2802    23.7445    32.5817
  488.5000     7.7430    89.0390     0.0244     0.1299     2.4659   -23.8437    20.5592    22.4704    25.7180
  489.0000     7.7576    90.5405     0.0199     0.1450     2.4341   -23.8422    19.5906    21.6773    23.3345
  489.5000     7.7590    92.4925     0.0138     0.1619     2.4100   -23.8408    18.6625    20.5592    22.0265
  490.0000     7.7714    90.6907     0.0123     0.1707     2.3881   -23.8294    17.9030    19.8626    21.5757
  490.5000     7.7859    89.0390     0.0122     0.1764     2.3881   -23.8378    17.5310    19.4560    21.1340
  491.0000     7.7853    87.8378     0.0106     0.1806     2.3790   -23.8360    17.1855    18.9268    20.9888
  491.5000     7.7696    89.6396     0.0106     0.1818     2.3745   -23.8345    17.0674    18.5394    20.8446
  492.0000     7.7841    90.8408     0.0121     0.1818     2.3744   -23.8331    16.9502    18.2855    20.7014
  492.5000     7.7834    89.9399     0.0120     0.1803     2.3804   -23.8316    16.8337    17.9112    20.5592
  493.0000     7.7678    89.2892     0.0120     0.1755     2.3857   -23.8302    16.8337    17.6660    20.5592
  493.5000     7.7672    88.2758     0.0119     0.1770     2.3831   -23.8287    16.7181    17.3044    20.5592
  494.0000     7.7665    87.3874     0.0119     0.1809     2.3765   -23.8272    16.4891    17.1855    20.4179
  494.5000     7.7659    87.0746     0.0134     0.1848     2.3698   -23.8258    16.3758    17.0674    20.2777
  495.0000     7.7653    88.2883     0.0149     0.1873     2.3667   -23.8243    16.2633    16.8337    20.1384
  495.5000     7.7647    89.9399     0.0178     0.1843     2.3735   -23.8228    16.1516    16.7181    20.0000
  496.0000     7.7641    95.1952     0.0193     0.1790     2.3795   -23.8214    16.0406    16.6032    19.7261
  496.5000     7.7636   100.0000     0.0207     0.1710     2.3892   -23.6711    15.9304    16.6032    19.4560
  497.0000     7.7630    98.6487     0.0222     0.1677     2.3982   -23.6696    15.8210    16.6032    19.3206
  497.5000     7.7624    95.0450     0.0191     0.1689     2.3997   -23.6682    15.7123    16.6032    19.1808
  498.0000     7.7618    93.2432     0.0161     0.1750     2.3876   -23.6786    15.6043    16.7319    19.0578
  498.5000     7.7612    90.0901     0.0130     0.1834     2.3740   -23.8140    15.6043    16.9502    18.9268
  499.0000     7.7606    88.5886     0.0114     0.1864     2.3679   -23.8122    15.6043    17.0674    18.9268
  499.5000     7.7600    86.6366     0.0114     0.1855     2.3672   -23.8107    15.6043    17.1855    19.0578
  500.0000     7.7594    90.7084     0.0129     0.1825     2.3740   -23.8353    15.6043    17.0674    19.0617
  500.5000     7.7590    91.8933     0.0128     0.1780     2.3807   -24.1485    15.8348    17.0674    19.1098
  501.0000     7.7585    89.4924     0.0143     0.1732     2.3875   -24.4048    16.0430    17.0674    19.1579
  501.5000     7.7580    90.7642     0.0142     0.1693     2.3981   -24.5536    15.9336    17.1855    19.4560
  502.0000     7.7574    92.2402     0.0160     0.1645     2.4086   -24.8512    15.8255    17.4241    19.7261
