~VERSION INFORMATION
 VERS.                2.0:   CWLS LOG ASCII STANDARD - VERSION 2.0
 WRAP.                 NO:   ONE LINE PER DEPTH STEP
~WELL INFORMATION
#MNEM.UNIT      DATA TYPE    INFORMATION
#----------   ------------   ------------------------------
 STRT.F           32.0000:   START DEPTH
 STOP.F          707.0000:   STOP DEPTH
 STEP.F            0.5000:   STEP LENGTH
 NULL.          -999.2500:   NO VALUE
 COMP. FENIX & SCISSON INC:   COMPANY
 WELL.     NPR 3 #28SX-11:   WELL
 FLD .             TEAPOT:   FIELD
 LOC .      S11 T38N R78W:   LOCATION
 CNTY.            NATRONA:   COUNTY
 STAT.            WYOMING:   STATE
 CTRY. UNITED STATES OF AMERICA:   COUNTRY
 SRVC.              Welex:   SERVICE COMPANY
 DATE.        26-APR-1977:   LOGDATE
 API .       490251034400:   API NUMBER
~CURVE INFORMATION
#MNEM.UNIT       API CODE    CURVE DESCRIPTION
#----------   ------------   ------------------------------
 DEPT.F                  :   
 CALD.IN     45 280 60 00:   CALIPER FROM DENSITY LOG
 GRD .GAPI   45 310 01 00:   GAMMA RAY FROM DENSITY LOG
 CORR.G/C3   45 356 01 00:   DENSITY CORRECTION
 DPHI.DEC    45 890 12 00:   DENSITY POROSITY SANDSTONE
 RHOB.G/C3   45 350 01 00:   BULK DENSITY
~PARAMETER INFORMATION
#MNEM.UNIT          VALUE    DESCRIPTION
#----------   ------------   ------------------------------
 PD  .                 GL:   PERMANENT DATUM
 EPD .F              5203:   ELEVATION PERMANENT DATUM
 LMF .                 GL:   LOG MEASURED FROM
 DMF .                 GL:   DRILLING MEASURED FROM
 EGL .F              5203:   GROUND LEVEL
 DATE.        26-APR-1977:   RUN DATE
 RUN .                  1:   RUN NUMBER
 DD  .F               714:   DEPTH DRILLER
 DL  .F               709:   DEPTH LOGGER
 BLI .F               707:   BOTTOM LOG INTERVAL
 TLI .F                32:   TOP LOG INTERVAL
 CS  .IN            8.625:   CASING SIZE
 BS  .IN               12:   BIT SIZE
 BSD .F               714:   BIT SIZE AT DEPTH
 DFT .            KCL MUD:   DRILLING FLUID TYPE
 DFD .                8.7:   DRILLING FLUID DENSITY
 TCS .HRS            0100:   TIME CURCULATED STOPPED
 MRT .F                74:   MAXIMUM RECORDED TEMPERATURE
 ENGI.            C. DOAK:   RECORDING ENGINEER
 WITN.           ROB LYON:   WITNESSED BY
 CLNT.            A2DTECH:   CLIENT CODE
 ORIG.           5" PRINT:   ORIGIN OF DATA
 UWI .       490251034400:   UNIQUE WELL ID
 DICO. A2D Technologies, Inc.:   DIGITIZING COMPANY
~OTHER INFORMATION
~A   DEPT       CALD      GRD        CORR      DPHI       RHOB   
# ...
  337.0000     7.9205   109.2712     0.0318     0.1185     2.4815
  337.5000     7.9208   111.0596     0.0260     0.1239     2.4607
  338.0000     7.9210   112.4042     0.0186     0.1367     2.4473
  338.5000     7.9213   111.0861     0.0128     0.1406     2.4414
  339.0000     7.9215   112.1348     0.0114     0.1390     2.4474
  339.5000     7.9218   112.8877     0.0191     0.1321     2.4632
  340.0000     7.9220   110.3862     0.0253     0.1247     2.4782
  340.5000     7.9223   104.6302     0.0270     0.1234     2.4663
  341.0000     7.9225   100.3535     0.0317     0.1210     2.4775
  341.5000     7.9228    98.7395     0.0348     0.1168     2.4895
  342.0000     7.9231    98.1577     0.0365     0.1138     2.4933
  342.5000     7.9233   103.3517     0.0367     0.1150     2.4845
  343.0000     7.9236   106.4715     0.0323     0.1194     2.4808
  343.5000     7.9238   108.8516     0.0265     0.1179     2.4868
  344.0000     7.9241   107.0897     0.0342     0.1128     2.4973
  344.5000     7.9243   105.9162     0.0434     0.1080     2.5034
  345.0000     7.9246   109.1872     0.0435     0.1053     2.5012
  345.5000     7.9248   109.4930     0.0377     0.1047     2.4886
  346.0000     7.9251   104.3320     0.0333     0.1131     2.4849
  346.5000     7.9253   104.1243     0.0290     0.1163     2.4857
  347.0000     7.9256   108.3525     0.0276     0.1151     2.4865
  347.5000     7.9258   109.4013     0.0263     0.1159     2.4821
  348.0000     7.9261   110.1542     0.0264     0.1255     2.4673
  348.5000     7.9264   111.2029     0.0266     0.1287     2.4696
  349.0000     7.9266   112.3996     0.0268     0.1281     2.4713
  349.5000     7.9269   113.4483     0.0284     0.1263     2.4608
  350.0000     7.9271   114.4970     0.0286     0.1251     2.4713
  350.5000     7.9274   113.6206     0.0288     0.1255     2.4751
  351.0000     7.9276   115.5603     0.0291     0.1259     2.4684
  351.5000     7.9279   115.4256     0.0308     0.1274     2.4654
  352.0000     7.9281   114.2555     0.0325     0.1282     2.4626
  352.5000     7.9284   113.0854     0.0342     0.1264     2.4651
  353.0000     7.9286   113.2466     0.0359     0.1231     2.4710
  353.5000     7.9289   114.4433     0.0376     0.1246     2.4725
  354.0000     7.9291   110.1667     0.0393     0.1290     2.4588
  354.5000     7.9294   106.4818     0.0411     0.1350     2.4501
  355.0000     7.9296   109.6016     0.0428     0.1343     2.4544
  355.5000     7.9299   114.2007     0.0445     0.1301     2.4633
  356.0000     7.9301   117.3205     0.0417     0.1256     2.4693
  356.5000     7.9304   120.2924     0.0314     0.1250     2.4679
  357.0000     7.9306   122.5246     0.0254     0.1294     2.4567
  357.5000     7.9309   124.3131     0.0212     0.1363     2.4410
  358.0000     7.9311   123.8826     0.0261     0.1416     2.4388
  358.5000     7.9314   120.4935     0.0324     0.1395     2.4471
  359.0000     7.9316   117.2524     0.0371     0.1284     2.4583
  359.5000     7.9319   113.5675     0.0416     0.1194     2.4741
  360.0000     7.9321   110.3263     0.0464     0.1116     2.4853
  360.5000     7.9324   112.5586     0.0496     0.1021     2.4996
  361.0000     7.9326   113.1603     0.0529     0.0990     2.5078
  361.5000     7.9329   112.1381     0.0561     0.1020     2.4952
  362.0000     7.9331   114.9653     0.0578     0.1047     2.4998
  362.5000     7.9334   116.9017     0.0595     0.1001     2.5147
  363.0000     7.9336   118.0985     0.0582     0.0989     2.5103
  363.5000     7.9339   116.9283     0.0554     0.1010     2.5014
  364.0000     7.9341   115.0186     0.0481     0.1120     2.4963
  364.5000     7.9344   113.8484     0.0438     0.1156     2.4926
  365.0000     7.9346   112.9742     0.0409     0.1149     2.4882
  365.5000     7.9349   112.2478     0.0382     0.1149     2.4846
  366.0000     7.9351   111.5215     0.0354     0.1176     2.4794
  366.5000     7.9354   110.9431     0.0340     0.1250     2.4735
  367.0000     7.9356   110.2167     0.0312     0.1271     2.4669
  367.5000     7.9358   109.4904     0.0285     0.1261     2.4647
  368.0000     7.9361   108.7640     0.0271     0.1254     2.4692
  368.5000     7.9363   108.1856     0.0258     0.1278     2.4589
  369.0000     7.9366   107.7518     0.0245     0.1353     2.4507
  369.5000     7.9368   107.4692     0.0263     0.1403     2.4404
  370.0000     7.9371   108.6693     0.0295     0.1391     2.4516
  370.5000     7.9373   109.8660     0.0343     0.1319     2.4614
  371.0000     7.9376   108.8438     0.0390     0.1256     2.4711
  371.5000     7.9378   107.8216     0.0437     0.1217     2.4787
  372.0000     7.9381   107.8067     0.0441     0.1187     2.4832
  372.5000     7.9383   107.8482     0.0411     0.1175     2.4773
  373.0000     7.9386   108.1574     0.0368     0.1192     2.4714
  373.5000     7.9388   108.4666     0.0325     0.1240     2.4648
  374.0000     7.9391   108.6278     0.0327     0.1284     2.4603
  374.5000     7.9393   108.4932     0.0344     0.1230     2.4701
  375.0000     7.9396   106.8793     0.0346     0.1203     2.4761
  375.5000     7.9398   105.8570     0.0348     0.1206     2.4702
  376.0000     7.9401   106.7579     0.0381     0.1256     2.4606
  376.5000     7.9403   107.5109     0.0383     0.1292     2.4569
  377.0000     7.9406   107.5464     0.0385     0.1309     2.4622
  377.5000     7.9408   103.9872     0.0387     0.1264     2.4683
  378.0000     7.9411    99.5626     0.0389     0.1267     2.4594
  378.5000     7.9413    97.9487     0.0394     0.1288     2.4580
  379.0000     7.9416    97.8136     0.0409     0.1302     2.4580
  379.5000     7.9418    98.1232     0.0411     0.1308     2.4596
  380.0000     7.9418   100.3555     0.0413     0.1286     2.4604
  380.5000     7.9417   104.2149     0.0415     0.1228     2.4672
  381.0000     7.9416   106.8910     0.0417     0.1186     2.4777
  381.5000     7.9415   109.4190     0.0419     0.1175     2.4845
  382.0000     7.9414   112.2430     0.0301     0.1324     2.4763
  382.5000     7.9413   111.9604     0.0212     0.1384     2.4503
  383.0000     7.9412   111.8087     0.0275     0.1306     2.4478
  383.5000     7.9411   113.9101     0.0413     0.1231     2.4661
  384.0000     7.9410   115.1069     0.0445     0.1180     2.4863
  384.5000     7.9409   115.7119     0.0387     0.1176     2.4759
  385.0000     7.9408   116.0210     0.0343     0.1236     2.4678
  385.5000     7.9407   116.7740     0.0301     0.1283     2.4559
  386.0000     7.9406   117.9707     0.0272     0.1352     2.4493
  386.5000     7.9405   118.8716     0.0335     0.1333     2.4546
  387.0000     7.9404   119.6245     0.0367     0.1270     2.4606
  387.5000     7.9403   119.3420     0.0339     0.1225     2.4659
  388.0000     7.9402   117.7281     0.0341     0.1270     2.4697
  388.5000     7.9401   116.4100     0.0343     0.1231     2.4727
  389.0000     7.9400   115.2399     0.0345     0.1192     2.4750
  389.5000     7.9399   114.6615     0.0347     0.1203     2.4735
  390.0000     7.9398   114.0831     0.0350     0.1248     2.4668
  390.5000     7.9397   113.3567     0.0337     0.1316     2.4595
  391.0000     7.9396   112.9260     0.0339     0.1355     2.4536
  391.5000     7.9395   112.7914     0.0341     0.1381     2.4439
  392.0000     7.9394   114.1363     0.0343     0.1387     2.4434
  392.5000     7.9393   116.5164     0.0345     0.1338     2.4564
  393.0000     7.9392   118.8966     0.0332     0.1336     2.4551
  393.5000     7.9390   118.7620     0.0349     0.1365     2.4502
  394.0000     7.9389   116.4084     0.0411     0.1352     2.4544
  394.5000     7.9388   113.9069     0.0489     0.1318     2.4587
  395.0000     7.9387   114.0682     0.0460     0.1254     2.4647
  395.5000     7.9386   113.7856     0.0402     0.1206     2.4714
  396.0000     7.9385   112.9112     0.0375     0.1181     2.4827
  396.5000     7.9384   113.5163     0.0392     0.1145     2.4805
  397.0000     7.9383   115.4527     0.0397     0.1088     2.4836
  397.5000     7.9382   117.0932     0.0412     0.1034     2.5008
