~VERSION INFORMATION
 VERS.                2.0:   CWLS LOG ASCII STANDARD - VERSION 2.0
 WRAP.                 NO:   ONE LINE PER DEPTH STEP
~WELL INFORMATION
#MNEM.UNIT      DATA TYPE    INFORMATION
#----------   ------------   ------------------------------
 STRT.F           15.0000:   START DEPTH
 STOP.F          692.0000:   STOP DEPTH
 STEP.F            0.5000:   STEP LENGTH
 NULL.          -999.2500:   NO VALUE
 COMP.    FENIX & SCISSON:   COMPANY
 WELL. S 15 NPR #3 #73-15:   WELL
 FLD .             TEAPOT:   FIELD
 LOC .      S15 T38N R78W:   LOCATION
 CNTY.            NATRONA:   COUNTY
 STAT.            WYOMING:   STATE
 CTRY. UNITED STATES OF AMERICA:   COUNTRY
 SRVC.              Welex:   SERVICE COMPANY
 DATE.        23-FEB-1977:   LOGDATE
 API .       490251057900:   API NUMBER
~CURVE INFORMATION
#MNEM.UNIT       API CODE    CURVE DESCRIPTION
#----------   ------------   ------------------------------
 DEPT.F                  :   
 SPR .MV     07 010 01 00:   SPONTANEOUS POTENTIAL
 SGRD.OHMM   07 220 05 00:   SHALLOW GUARD RESISTIVITY
 ILD .OHMM   07 120 46 00:   INDUCTION LOG DEEP
 ILM .OHMM   07 120 44 00:   INDUCTION LOG MEDIUM
 CALD.IN     45 280 60 00:   CALIPER
 GRD .GAPI   45 310 01 00:   GAMMA RAY FROM DENSITY LOG
 CORR.G/C3   45 356 01 00:   DENSITY CORRECTION
 DPHI.DEC    45 890 10 00:   DENSITY POROSITY SANDSTONE
 RHOB.G/C3   45 350 01 00:   BULK DENSITY
~PARAMETER INFORMATION
#MNEM.UNIT          VALUE    DESCRIPTION
#----------   ------------   ------------------------------
 PD  .                 GL:   PERMANENT DATUM
 EPD .F              5251:   ELEVATION PERMANENT DATUM
 LMF .                 GL:   LOG MEASURED FROM
 DMF .                 GL:   DRILLING MEASURED FROM
 EGL .F              5251:   GROUND LEVEL
 DATE.            2-23-77:   RUN DATE
 RUN .                  1:   RUN NUMBER
 DD  .F               686:   DEPTH DRILLER
 DL  .F               695:   DEPTH LOGGER
 BLI .F               693:   BOTTOM LOG INTERVAL
 TLI .F                42:   TOP LOG INTERVAL
 CS  .IN            8.625:   CASING SIZE
 CBD .F                42:   CASING BOTTOM DRILLER
 CBL .F                42:   CASING BOTTOM LOGGER
 BS  .IN            7.875:   BIT SIZE
 BSD .F               686:   BIT SIZE AT DEPTH
 DFT .           CHEM GEL:   DRILLING FLUID TYPE
 DFD .                8.8:   DRILLING FLUID DENSITY
 DFV .                 33:   DRILLING FLUID VISCOSITY
 DFPH.                  7:   DRILLING FLUID PH
 DFL .               11.2:   DRILLING FLUID LOSS
 MSS .          FLOW LINE:   MUD SAMPLE SOURCE
 RMS .OHMM            .32:   RESISTIVITY MUD SAMPLE
 MST .F                68:   MUD SAMPLE TEMPERATURE
 RMF .OHMM            .28:   RESISTIVITY MUD FILTRATE SAMPLE
 MFST.F                68:   MUD FILTRATE SAMPLE TEMPERATURE
 RMC .OHMM            .61:   RESISTIVITY MUD CAKE
 MCST.F                68:   MUD CAKE SAMPLE TEMPERATURE
 MFSS.           MEASURED:   MUD FILTRATE SAMPLE SOURCE
 MCSS.           MEASURED:   MUD CAKE SAMPLE SOURCE
 RMB .OHMM           .410:   RESISTIVITY MUD AT BHT
 BHT .F                53:   BOTTOM HOLE TEMPERATURE
 TCS .HRS               2:   TIME CURCULATED STOPPED
 MRT .F                53:   MAXIMUM RECORDED TEMPERATURE
 LUN .               8611:   LOGGING UNIT NUMBER
 LUL .           GILLETTE:   LOGGING UNIT LOCATION
 ENGI.            C. DOAK:   RECORDING ENGINEER
 WITN.         STUEBINGER:   WITNESSED BY
 CLNT.            A2DTECH:   CLIENT CODE
 ORIG. 1", 2.5", 5" PRINT:   ORIGIN OF DATA
 UWI .       490251057900:   UNIQUE WELL ID
 DICO. A2D Technologies, Inc.:   DIGITIZING COMPANY
~OTHER INFORMATION
~A   DEPT      SPR       SGRD        ILD        ILM       CALD         GRD      CORR       DPHI       RHOB   
# ...
   51.5000   -18.4273     9.6632     7.5194     7.9475     8.2951   116.6085     0.0751     0.1088     2.4669
   52.0000   -18.3451     9.5300     7.4609     7.9475     8.2929   117.7601     0.0733     0.1106     2.4631
   52.5000   -18.2642     9.3987     7.2621     7.9475     8.2910   117.2937     0.0715     0.1134     2.4592
   53.0000   -18.1828     9.2692     7.0687     7.9475     8.2924   117.5527     0.0697     0.1163     2.4555
   53.5000   -18.0965     9.2121     6.9842     7.9474     8.2937   120.6273     0.0679     0.1191     2.4517
   54.0000   -18.0513     9.2754     7.3214     7.9082     8.2952   124.2415     0.0662     0.1207     2.4476
   54.5000   -18.0559     9.3579     7.8021     7.8749     8.2966   129.0597     0.0648     0.1188     2.4478
   55.0000   -18.0554     9.4412     7.4613     7.8418     8.2981   131.9198     0.0666     0.1167     2.4520
   55.5000   -18.0549     9.5252     6.7246     7.8040     8.2995   128.8460     0.0682     0.1133     2.4557
   56.0000   -18.0555     9.6100     6.3073     7.9474     8.3009   125.7666     0.0699     0.1098     2.4614
   56.5000   -18.0553     9.6955     6.1809     7.8819     8.3024   124.7918     0.0716     0.1056     2.4676
   57.0000   -18.0554     9.7365     6.0570     7.7867     8.3038   124.9753     0.0733     0.1070     2.4669
   57.5000   -18.0556     9.5624     6.0254     7.6930     8.3052   123.8557     0.0749     0.1095     2.4637
   58.0000   -18.0556     9.4126     6.0254     7.5767     8.3066   125.9870     0.0765     0.1095     2.4620
   58.5000   -18.0556     9.2136     6.0254     7.6538     8.3081   124.3758     0.0765     0.1097     2.4644
   59.0000   -18.0560     9.2345     6.0254     7.5208     8.3095   123.4811     0.0766     0.1102     2.4664
   59.5000   -18.0560     9.2745     6.0535     7.3919     8.3109   124.9924     0.0765     0.1089     2.4686
   60.0000   -18.0576     9.3148     6.0872     7.2498     8.3123   126.5002     0.0766     0.1069     2.4708
   60.5000   -18.0573     9.3550     6.1212     7.4822     8.3138   127.9227     0.0768     0.1049     2.4728
   61.0000   -18.0551     9.4432     6.1553     7.6825     8.3152   128.3877     0.0803     0.1029     2.4752
   61.5000   -18.0640     9.6379     6.1896     7.7362     8.3166   123.3649     0.0843     0.1009     2.4771
   62.0000   -18.0499     9.8351     6.2241     7.7897     8.3180   121.6458     0.0836     0.1031     2.4773
   62.5000   -18.0300    10.0363     6.2520     7.8437     8.3195   120.6725     0.0820     0.1085     2.4657
   63.0000   -17.4919    10.2416     6.4146     7.8987     8.3209   120.1282     0.0803     0.1139     2.4563
   63.5000   -16.9438    10.4826     6.5539     7.9546     8.3223   119.0971     0.0787     0.1191     2.4464
   64.0000   -16.3867    10.4125     6.6961     8.0113     8.3237   118.2212     0.0771     0.1160     2.4508
   64.5000   -15.8230    10.3308     6.8565     8.0684     8.3252   117.2686     0.0755     0.1111     2.4594
   65.0000   -15.6664    10.1817     6.8565     8.0955     8.3266   117.3269     0.0738     0.1108     2.4621
   65.5000   -15.6882     9.9701     6.8576     7.9805     8.3281   118.6981     0.0722     0.1155     2.4558
   66.0000   -15.4814     9.7629     6.8592     7.8250     8.3294   120.1410     0.0707     0.1207     2.4487
   66.5000   -14.9495     9.5585     6.8607     7.6724     8.3304   121.3194     0.0690     0.1207     2.4488
   67.0000   -14.4191     9.4683     6.8621     7.5228     8.3260   120.4868     0.0712     0.1177     2.4574
   67.5000   -13.7532     9.3837     6.6166     7.3818     8.3222   119.4976     0.0750     0.1137     2.4644
   68.0000   -12.7490     9.0212     6.0778     7.1150     8.3180   120.8462     0.0788     0.1095     2.4639
   68.5000   -12.4971     8.4895     5.5834     6.8672     8.3140   118.5027     0.0825     0.1147     2.4566
   69.0000   -12.3529     7.9475     5.1217     6.6080     8.3099   116.0825     0.0862     0.1199     2.4499
   69.5000   -11.7438     7.9475     4.7041     6.1364     8.3058   113.5336     0.0899     0.1252     2.4428
   70.0000   -11.3158     7.9475     4.3205     5.6589     8.3018   111.1637     0.0937     0.1304     2.4358
   70.5000   -11.5528     6.9986     3.6799     5.2951     8.2977   109.6588     0.0966     0.1357     2.4199
   71.0000   -11.8162     6.1377     2.9610     4.8239     8.2934   111.9692     0.0972     0.1406     2.4053
   71.5000   -12.0951     4.2943     2.6080     4.2864     8.2933   118.5760     0.0979     0.1601     2.3880
   72.0000   -12.3702     3.5280     2.4295     3.8088     8.3022   122.5518     0.0985     0.1761     2.3576
   72.5000   -12.6414     3.1481     2.2633     3.3844     8.3108   128.9193     0.0991     0.2012     2.3184
   73.0000   -12.8925     2.8258     2.1061     3.0073     8.3197   135.5996     0.0998     0.2263     2.2661
   73.5000   -12.9986     2.6258     2.0171     2.7753     8.3285   140.0517     0.1006     0.2476     2.2287
   74.0000   -13.0976     2.6258     1.9878     2.7753     8.3374   143.0425     0.1054     0.2675     2.2021
   74.5000   -13.1917     2.7873     2.0852     2.5605     8.3461   141.2866     0.1100     0.2875     2.1786
   75.0000   -13.2880     3.0157     2.3753     2.3290     8.3550   137.3859     0.1161     0.2968     2.1548
   75.5000   -13.3840     3.6453     2.7058     2.3505     8.3639   136.1862     0.1152     0.2972     2.1258
   76.0000   -13.4788     5.3452     3.1077     3.6324     8.3696   130.4420     0.1118     0.2972     2.0890
   76.5000   -13.5741     8.7788     3.6615     5.3938     8.3659   117.1536     0.0934     0.2972     2.0673
   77.0000   -13.6722    10.3074     4.3142     5.7009     8.3623   109.1206     0.0689     0.2867     2.1022
   77.5000   -13.7628     9.9068     5.0833     6.4068     8.3585   105.1738     0.0340     0.2495     2.1516
   78.0000   -13.8651     9.9362     5.9893     7.2958     8.3547   104.6574     0.0505     0.1767     2.3603
   78.5000   -13.9663    10.9831     6.8694     8.3082     8.3510   102.2125     0.0819     0.1167     2.4551
   79.0000   -14.0196    12.2094     7.7767     8.9156     8.3472    99.5623     0.0732     0.1223     2.4462
   79.5000   -14.4445    13.5694     8.6504     9.4023     8.3434    97.3633     0.0694     0.1274     2.4382
   80.0000   -15.0594    15.9464     9.7254     9.9156     8.3397   100.0133     0.0689     0.1286     2.4334
   80.5000   -15.6418    15.6245     9.1298    10.1027     8.3359    98.8083     0.0682     0.1228     2.4412
   81.0000   -15.6469    13.1805     8.2674     8.8259     8.3322    95.6805     0.0699     0.1168     2.4497
   81.5000   -15.4351    11.4436     7.4864     6.6471     8.3284    92.1801     0.0734     0.1119     2.4583
   82.0000   -15.2726    10.6103     6.7792     5.0062     8.3247    94.6057     0.0765     0.1080     2.4647
   82.5000   -15.3669     8.7827     6.2474     3.7288     8.3209   101.7898     0.0802     0.1186     2.4516
   83.0000   -15.5791     5.8975     5.7925     3.4634     8.3172   105.3577     0.0805     0.1289     2.4254
   83.5000   -15.7828     3.4001     5.3707     3.7431     8.3134   109.5957     0.0806     0.1392     2.4062
   84.0000   -15.9860     3.7041     4.9183     4.5487     8.3097   113.4308     0.0805     0.1496     2.3914
   84.5000   -16.1916     5.4057     4.9183     5.5276     8.3059   123.6830     0.0806     0.1600     2.3720
   85.0000   -16.3962     7.8890     4.9183     6.4861     8.3022   127.8869     0.0807     0.1703     2.3593
   85.5000   -16.6005    11.0794     4.9183     6.9352     8.2984   122.3845     0.0832     0.1732     2.3680
   86.0000   -16.8081    11.7102     5.4225     7.4153     8.2947   113.9219     0.0854     0.1588     2.3891
   86.5000   -17.0097    11.6112     5.9248     7.9287     8.2910   107.8013     0.0878     0.1429     2.4113
   87.0000   -17.2080    11.4298     6.4871     8.4776     8.2909   105.5529     0.0903     0.1331     2.4355
   87.5000   -17.3395    11.2858     7.0779     8.9459     8.2908   106.2871     0.0919     0.1230     2.4517
