~VERSION INFORMATION
 VERS.                2.0:   CWLS LOG ASCII STANDARD - VERSION 2.0
 WRAP.                 NO:   ONE LINE PER DEPTH STEP
~WELL INFORMATION
#MNEM.UNIT      DATA TYPE    INFORMATION
#----------   ------------   ------------------------------
 STRT.F            2.0000:   START DEPTH
 STOP.F          518.0000:   STOP DEPTH
 STEP.F            0.5000:   STEP LENGTH
 NULL.          -999.2500:   NO VALUE
 COMP. LAWRENCE/ALLISON INC:   COMPANY
 WELL.    54-51 SX #10-10:   WELL
 FLD .             TEAPOT:   FIELD
 LOC .      S10 T38N R78W:   LOCATION
 CNTY.            NATRONA:   COUNTY
 STAT.            WYOMING:   STATE
 CTRY. UNITED STATES OF AMERICA:   COUNTRY
 SRVC.            Unknown:   SERVICE COMPANY
 DATE.        14-AUG-1984:   LOGDATE
 API .       490251098800:   API NUMBER
~CURVE INFORMATION
#MNEM.UNIT       API CODE    CURVE DESCRIPTION
#----------   ------------   ------------------------------
 DEPT.F                  :   
 CALD.IN     45 280 60 00:   CALIPER
 DEN .G/C3   45 350 01 00:   COMPENSATED BULK DENSTIY
 CORR.G/C3   45 356 01 00:   DENSITY CORRECTION
 CNC .DEC    42 890 03 00:   NEUTRON POROSITY SANDSTONE
 PORD.DEC    45 890 12 00:   POROSITY DENSITY SANDSTONE
 GRR .GAPI   07 310 01 00:   GAMMA RAY FROM RES. LOG.
 RFOC.OHMM   07 220 04 00:   RESISTIVITY FOCUSED LOG
 RILD.OHMM   07 120 46 00:   INDUCTION LOG DEEP RESISTIVITY
 RILM.OHMM   07 120 44 00:   INDUCTION LOG MEDIUM RESISTIVITY
 AC  .US/F   60 520 00 00:   ACOUSTIC SONIC
 SPR .MV     07 010 01 00:   SPONTANEOUS POTENTIAL
~PARAMETER INFORMATION
#MNEM.UNIT          VALUE    DESCRIPTION
#----------   ------------   ------------------------------
 PD  .                 GL:   PERMANENT DATUM
 EPD .F              5197:   ELEVATION PERMANENT DATUM
 LMF .                 GL:   LOG MEASURED FROM
 DMF .                 GL:   DRILLING MEASURED FROM
 EGL .F              5197:   GROUND LEVEL
 DATE.        14-AUG-1984:   RUN DATE
 RUN .                  1:   RUN NUMBER
 DD  .F               530:   DEPTH DRILLER
 DL  .F               520:   DEPTH LOGGER
 BLI .F               518:   BOTTOM LOG INTERVAL
 CS  .IN            9.625:   CASING SIZE
 CBD .F                40:   CASING BOTTOM DRILLER
 CBL .F                42:   CASING BOTTOM LOGGER
 BS  .IN            7.875:   BIT SIZE
 BSD .F               530:   BIT SIZE AT DEPTH
 DFT .          KCL WATER:   DRILLING FLUID TYPE
 MSS .           FLOWLINE:   MUD SAMPLE SOURCE
 RMS .OHMM            .19:   RESISTIVITY MUD SAMPLE
 MST .F                80:   MUD SAMPLE TEMPERATURE
 RMB .OHMM            .17:   RESISTIVITY MUD AT BHT
 BHT .F                90:   BOTTOM HOLE TEMPERATURE
 TCS .HRS               4:   TIME CURCULATED STOPPED
 MRT .F                90:   MAXIMUM RECORDED TEMPERATURE
 LUN .               6274:   LOGGING UNIT NUMBER
 LUL .               GLTE:   LOGGING UNIT LOCATION
 ENGI.             RAUTIO:   RECORDING ENGINEER
 WITN.              FIVAS:   WITNESSED BY
 CLNT.            A2DTECH:   CLIENT CODE
 ORIG.       2", 5" PRINT:   ORIGIN OF DATA
 UWI .       490251098800:   UNIQUE WELL ID
 DICO. A2D Technologies, Inc.:   DIGITIZING COMPANY
~OTHER INFORMATION
~A    DEPT    CALD        DEN       CORR        CNC       PORD         GRR      RFOC       RILD       RILM         AC        SPR   
# ...
  368.0000     7.8985     2.4125     0.0529     0.2464     0.1610    66.0308    15.6980    16.3618    15.1180    92.2886    80.9993
  368.5000     7.8996     2.4123     0.0531     0.2564     0.1590    69.1127    15.5189    16.1607    14.9226    92.2886    80.8343
  369.0000     7.9006     2.4117     0.0422     0.2626     0.1588    67.2474    15.3418    15.9622    14.7297    91.7059    80.6692
  369.5000     7.9017     2.4143     0.0310     0.2653     0.1587    65.1780    15.1667    15.7661    14.5394    91.1077    80.5043
  370.0000     7.9027     2.4174     0.0195     0.2591     0.1575    65.7504    15.0157    15.5724    14.3701    90.5095    80.3390
  370.5000     7.9038     2.4218     0.0235     0.2547     0.1535    66.9498    14.9176    15.3811    14.3088    89.9005    80.1716
  371.0000     7.9048     2.4296     0.0352     0.2555     0.1511    66.7757    14.8200    15.2510    14.2410    89.9005    80.1386
  371.5000     7.9059     2.4375     0.0421     0.2530     0.1460    66.5851    14.7231    15.1059    14.1735    89.4588    80.1379
  372.0000     7.9069     2.4456     0.0350     0.2462     0.1417    67.0461    14.6269    14.9621    14.1064    89.1005    80.1389
  372.5000     7.9080     2.4439     0.0280     0.2344     0.1411    68.4172    14.5313    14.8196    14.0395    89.0084    80.1418
  373.0000     7.9090     2.4391     0.0269     0.2268     0.1427    69.0083    14.4363    14.6785    13.9797    88.9154    80.1267
  373.5000     7.9101     2.4343     0.0303     0.2248     0.1462    69.0887    14.3701    14.6365    13.9579    88.8220    79.6505
  374.0000     7.9111     2.4295     0.0312     0.2316     0.1497    69.1620    14.3210    14.6365    13.9337    88.7258    79.1531
  374.5000     7.9122     2.4258     0.0199     0.2402     0.1518    69.2304    14.2765    14.6365    13.9096    88.4418    78.6576
  375.0000     7.9132     2.4271     0.0107     0.2438     0.1506    69.3117    14.2321    14.6365    13.8855    88.1095    78.1567
  375.5000     7.9143     2.4283     0.0072     0.2476     0.1500    69.7820    14.1879    14.6365    13.8615    87.7771    77.7959
  376.0000     7.9138     2.4295     0.0033     0.2478     0.1497    71.9798    14.1438    14.6365    13.8375    87.6300    77.3805
  376.5000     7.9125     2.4307    -0.0005     0.2420     0.1483    74.0549    14.0998    14.6365    13.8135    87.6631    77.3348
  377.0000     7.9112     2.4339    -0.0044     0.2392     0.1472    73.7362    14.0560    14.6377    13.7896    87.7288    77.3038
  377.5000     7.9098     2.4371    -0.0020     0.2384     0.1461    71.7328    14.0123    14.5860    13.7660    87.7943    77.2707
  378.0000     7.9085     2.4394     0.0027     0.2410     0.1451    70.1319    13.9688    14.5138    13.7424    87.8593    77.2372
  378.5000     7.9071     2.4347     0.0075     0.2444     0.1457    70.9063    13.9254    14.4423    13.6981    87.9155    77.2036
  379.0000     7.9058     2.4301     0.0124     0.2468     0.1488    70.0622    13.8818    14.3712    13.6057    87.9393    77.1700
  379.5000     7.9044     2.4285     0.0106     0.2484     0.1511    69.2941    13.8515    14.3003    13.5139    87.9630    77.1365
  380.0000     7.9031     2.4334     0.0078     0.2506     0.1463    70.7372    13.8267    14.2297    13.4228    87.9867    77.1029
  380.5000     7.9017     2.4389     0.0051     0.2530     0.1429    71.5678    13.8043    14.1595    13.3325    88.0099    77.0694
  381.0000     7.9004     2.4396     0.0024     0.2555     0.1435    71.2268    13.7816    14.0897    13.2428    87.9105    77.0363
  381.5000     7.8990     2.4396     0.0008     0.2579     0.1440    71.4054    13.7591    14.0202    13.1537    87.8092    77.0053
  382.0000     7.8977     2.4398     0.0090     0.2603     0.1429    73.6884    13.7365    13.9510    13.1093    87.7169    76.9630
  382.5000     7.8963     2.4440     0.0178     0.2599     0.1408    75.1246    13.6781    13.8822    13.1093    87.6226    76.5701
  383.0000     7.8950     2.4481     0.0267     0.2549     0.1386    76.1197    13.5220    13.8135    13.1093    87.5271    76.1912
  383.5000     7.8936     2.4524     0.0318     0.2499     0.1364    77.1138    13.3523    13.7452    13.1093    87.5954    76.2584
  384.0000     7.8923     2.4540     0.0395     0.2452     0.1342    78.0945    13.2954    13.7049    12.9072    87.6951    76.3502
  384.5000     7.8909     2.4556     0.0390     0.2440     0.1339    79.0649    13.2324    13.6764    12.7261    87.7948    76.3150
  385.0000     7.8896     2.4572     0.0209     0.2442     0.1331    78.7813    13.1697    13.6479    12.3093    88.0431    76.1587
  385.5000     7.8882     2.4570     0.0026     0.2466     0.1323    77.2204    13.1073    13.6192    11.6801    88.3085    76.0026
  386.0000     7.8869     2.4558    -0.0150     0.2490     0.1323    77.2616    13.0451    13.6001    11.0830    88.3604    75.8461
  386.5000     7.8855     2.4547    -0.0130     0.2512     0.1331    77.3252    12.9894    13.6734    10.9099    88.4080    75.6898
  387.0000     7.8842     2.4593     0.0028     0.2489     0.1312    78.8128    13.0461    13.7310    11.0757    88.2090    75.5334
  387.5000     7.8828     2.4643     0.0188     0.2464     0.1285    80.3179    13.1092    13.7884    11.2087    87.9631    75.3765
  388.0000     7.8815     2.4651     0.0342     0.2413     0.1273    81.8040    13.1723    13.8461    11.3420    87.7285    75.2230
  388.5000     7.8801     2.4627     0.0268     0.2371     0.1293    81.1750    13.2294    13.9040    11.4764    87.4939    75.0483
  389.0000     7.8788     2.4616     0.0281     0.2424     0.1299    80.1870    13.1343    13.9797    11.6123    87.6191    74.8220
  389.5000     7.8773     2.4616     0.0322     0.2519     0.1299    78.8714    13.0708    13.9505    11.7498    87.9339    74.5950
  390.0000     7.8761     2.4566     0.0242     0.2621     0.1299    77.2981    13.0170    13.8924    11.8890    88.2488    74.3676
  390.5000     7.8830     2.4482     0.0091     0.2589     0.1365    76.2441    12.9723    13.7253    11.9853    88.5636    74.1404
  391.0000     7.9312     2.4397     0.0034     0.2547     0.1435    75.0615    12.9152    13.6481    12.0378    88.7062    73.9131
  391.5000     7.9788     2.4338     0.0051     0.2534     0.1471    73.1878    12.8583    13.5630    12.0906    88.8212    73.6859
  392.0000     8.0264     2.4334     0.0122     0.2519     0.1463    71.3533    12.8016    13.4783    12.1436    88.9362    73.4586
  392.5000     8.0739     2.4411     0.0068     0.2521     0.1411    72.7361    12.7452    13.3942    12.1808    89.0513    73.2313
  393.0000     8.1214     2.4504     0.0029     0.2534     0.1358    75.0712    12.6891    13.3013    12.0695    89.1663    73.0040
  393.5000     8.1690     2.4598     0.0245     0.2547     0.1306    77.3732    12.6332    13.1999    12.0249    89.3261    72.7777
  394.0000     8.2166     2.4692     0.0459     0.2483     0.1259    77.6559    12.5775    13.0993    11.9361    89.5068    72.5505
  394.5000     8.2645     2.4732     0.0407     0.2332     0.1227    78.6993    12.5221    12.9994    11.8481    89.6398    72.3964
  395.0000     8.2719     2.4714     0.0307     0.2300     0.1244    79.9766    12.4670    12.9003    11.7606    89.7205    72.2508
  395.5000     8.2715     2.4681     0.0206     0.2324     0.1260    78.8322    12.4066    12.7576    11.6739    89.8012    72.1092
  396.0000     8.2703     2.4657     0.0162     0.2352     0.1277    77.6850    12.2676    12.5343    11.5878    89.8816    71.9551
  396.5000     8.2693     2.4664     0.0190     0.2397     0.1269    76.8620    12.1149    12.3149    11.4750    89.9620    71.7537
  397.0000     8.2682     2.4689     0.0202     0.2441     0.1248    79.1139    12.0695    12.0993    11.3007    90.0415    71.4312
  397.5000     8.2672     2.4716     0.0175     0.2448     0.1226    80.4435    12.0695    11.8876    11.1291    90.1539    71.1149
  398.0000     8.2661     2.4788     0.0277     0.2460     0.1182    79.3062    12.0702    11.7415    10.9601    90.3460    70.7988
