~VERSION INFORMATION
 VERS.                2.0:   CWLS LOG ASCII STANDARD - VERSION 2.0
 WRAP.                 NO:   ONE LINE PER DEPTH STEP
~WELL INFORMATION
#MNEM.UNIT      DATA TYPE    INFORMATION
#----------   ------------   ------------------------------
 STRT.F            8.0000:   START DEPTH
 STOP.F         3200.0000:   STOP DEPTH
 STEP.F            0.5000:   STEP LENGTH
 NULL.          -999.2500:   NO VALUE
 COMP. BROWN JOHN E&C INC:   COMPANY
 WELL.  62 x 15-17 #62-15:   WELL
 FLD .        N.P.R NO. 3:   FIELD
 LOC .      S15 T38N R78W:   LOCATION
 CNTY.            NATRONA:   COUNTY
 STAT.            WYOMING:   STATE
 CTRY. UNITED STATES OF AMERICA:   COUNTRY
 SRVC.      Western Atlas:   SERVICE COMPANY
 DATE.        17-JUN-1986:   LOGDATE
 API .       490251104300:   API NUMBER
~CURVE INFORMATION
#MNEM.UNIT       API CODE    CURVE DESCRIPTION
#----------   ------------   ------------------------------
 DEPT.F                  :   
 GRR .GAPI   07 310 01 00:   GAMMA RAY
 CALR.IN     07 280 01 00:   CALIPER FROM RESISTIVITY
 SPR .MV     07 010 01 00:   SPONTANEOUS POTENTIAL
 RILD.OHMM   07 120 46 00:   INDUCTION LOG DEEP RESISTIVITY
 RILM.OHMM   07 120 44 00:   INDUCTION LOG MEDIUM RESISTIVITY
 RFOC.OHMM   07 220 04 00:   RESISTIVITY FOCUSED LOG
 PORD.DEC    45 890 12 00:   POROSITY DENSITY SANDSTONE
 CNC .DEC    42 890 03 00:   NEUTRON POROSITY SANDSTONE
 CORR.G/C3   45 356 01 00:   DENSITY CORRECTION
 DEN .G/C3   45 350 01 00:   COMPENSATED BULK DENSTIY
~PARAMETER INFORMATION
#MNEM.UNIT          VALUE    DESCRIPTION
#----------   ------------   ------------------------------
 PD  .                 GL:   PERMANENT DATUM
 EPD .F              5242:   ELEVATION PERMANENT DATUM
 LMF .                 KB:   LOG MEASURED FROM
 DAPD.F                11:   FEET ABOVE PERMANENT DATUM
 DMF .                 KB:   DRILLING MEASURED FROM
 EKB .F              5253:   KELLING BUSHING
 EGL .F              5242:   GROUND LEVEL
 DATE.            6-17-86:   RUN DATE
 RUN .                  1:   RUN NUMBER
 DD  .F              3200:   DEPTH DRILLER
 DL  .F              3202:   DEPTH LOGGER
 BLI .F              3200:   BOTTOM LOG INTERVAL
 CS  .IN            8.625:   CASING SIZE
 CBD .F               573:   CASING BOTTOM DRILLER
 CBL .F               573:   CASING BOTTOM LOGGER
 BS  .IN            7.875:   BIT SIZE
 BSD .F              3200:   BIT SIZE AT DEPTH
 DFT .            KCL/GEL:   DRILLING FLUID TYPE
 DFD .                8.9:   DRILLING FLUID DENSITY
 DFV .                 37:   DRILLING FLUID VISCOSITY
 DFPH.                8.5:   DRILLING FLUID PH
 DFL .               10.2:   DRILLING FLUID LOSS
 MSS .           MUD TANK:   MUD SAMPLE SOURCE
 RMS .OHMM            .39:   RESISTIVITY MUD SAMPLE
 MST .F                80:   MUD SAMPLE TEMPERATURE
 RMF .OHMM            .29:   RESISTIVITY MUD FILTRATE SAMPLE
 MFST.F                80:   MUD FILTRATE SAMPLE TEMPERATURE
 RMC .OHMM            .49:   RESISTIVITY MUD CAKE
 MCST.F                80:   MUD CAKE SAMPLE TEMPERATURE
 MFSS.               CALC:   MUD FILTRATE SAMPLE SOURCE
 MCSS.               CALC:   MUD CAKE SAMPLE SOURCE
 RMB .OHMM            .24:   RESISTIVITY MUD AT BHT
 BHT .F               130:   BOTTOM HOLE TEMPERATURE
 TCS .HRS               5:   TIME CURCULATED STOPPED
 MRT .F               130:   MAXIMUM RECORDED TEMPERATURE
 LUN .            HL 6264:   LOGGING UNIT NUMBER
 LUL .           GILLETTE:   LOGGING UNIT LOCATION
 ENGI.      P.H. FAHLSING:   RECORDING ENGINEER
 WITN.             STRONG:   WITNESSED BY
 CLNT.            A2DTECH:   CLIENT CODE
 UWI .       490251104300:   UNIQUE WELL ID
 DICO. A2D Technologies, Inc.:   DIGITIZING COMPANY
~OTHER INFORMATION
~A    DEPT     GRR       CALR        SPR       RILD       RILM       RFOC       PORD        CNC       CORR        DEN   
# ...
 2989.5000   114.4020     9.8700   -41.8748     5.2369     5.4184     5.7523     0.0560     0.2370     0.0742     2.5611
 2990.0000   115.9181     9.8709   -41.5663     4.6558     4.9856     5.7914     0.0631     0.2397     0.0557     2.5572
 2990.5000   119.2361     9.8868   -41.2274     3.9164     4.3614     5.7907     0.0787     0.2430     0.0372     2.5461
 2991.0000   123.4549     9.8879   -40.4955     3.3973     3.3740     5.8301     0.1019     0.2502     0.0264     2.5186
 2991.5000   140.2864     9.8887   -39.7352     2.8248     2.4933     5.2894     0.1772     0.2778     0.0714     2.4651
 2992.0000   164.9257     9.9347   -39.2760     2.1015     2.4758     3.4686     0.2962     0.3598     0.1830     2.3270
 2992.5000   169.2158    10.1608   -38.8168     2.0441     2.5274     2.5661     0.4199     0.3548     0.2078     2.0007
 2993.0000   173.0631    10.6872   -38.2071     2.4805     2.5981     2.0969     0.4522     0.3255     0.2032     2.0007
 2993.5000   173.9787    10.3727   -38.0510     2.6215     2.6522     1.9388     0.4000     0.2943     0.1227     2.0015
 2994.0000   157.0327     9.7129   -38.4936     2.6947     2.8817     2.4358     0.3358     0.2683     0.0515     2.0022
 2994.5000   124.7624     9.7288   -40.4441     2.8478     3.3554     3.9260     0.1886     0.2221     0.0005     2.2720
 2995.0000   110.3627     9.7447   -41.7922     3.1027     3.8802     6.2408     0.0954     0.2128     0.0176     2.4519
 2995.5000   102.5695     9.7458   -41.7696     3.5281     4.4980     6.9705     0.0912     0.2076     0.0307     2.4968
 2996.0000    97.7794     9.7467   -41.0226     4.3112     4.9549     6.8264     0.0915     0.2088     0.0131     2.5030
 2996.5000    92.9892     9.7626   -40.4129     5.3047     5.2966     6.6852     0.0876     0.2112     0.0007     2.5054
 2997.0000    93.9048     9.7634   -39.9537     5.5674     5.5589     6.4102     0.0861     0.2154    -0.0039     2.5054
 2997.5000    96.9225     9.7793   -39.7958     5.6446     5.6750     6.1396     0.0876     0.2194     0.0245     2.5054
 2998.0000   101.1413     9.7802   -39.9409     5.6053     5.7137     5.8997     0.0892     0.2230     0.0431     2.5038
 2998.5000   103.2583     9.7661   -39.9317     5.3771     5.5567     5.7379     0.0907     0.2245     0.0555     2.5023
 2999.0000   102.9308     9.7670   -40.0749     5.2269     5.3298     5.6192     0.0922     0.2251     0.0584     2.5000
 2999.5000   102.6868     9.7680   -40.0676     5.0519     5.1477     5.5797     0.0934     0.2272     0.0584     2.4984
 3000.0000   103.1429     9.7687   -40.2108     4.9139     5.0064     5.4857     0.0928     0.2296     0.0453     2.4891
 3000.5000   104.8737     9.7574   -40.2003     4.9482     4.8305     5.3824     0.0916     0.2300     0.0337     2.4944
 3001.0000   106.6492     9.7469   -40.1898     4.7148     4.6545     5.2792     0.0901     0.2300     0.0509     2.5000
 3001.5000   106.9700     9.7409   -40.1792     4.3698     4.4500     5.1712     0.0916     0.2381     0.0439     2.4945
 3002.0000   106.9910     9.7418   -40.1687     4.0500     4.2035     5.0653     0.0950     0.2480     0.0273     2.4899
 3002.5000   109.7186     9.7425   -40.1581     3.7537     3.8215     4.8597     0.0980     0.2582     0.0226     2.4876
 3003.0000   114.2436     9.7583   -39.9963     3.4312     3.3503     4.6935     0.0995     0.2642     0.0260     2.4852
 3003.5000   121.4712     9.7590   -39.9860     3.0826     2.9170     4.3660     0.1016     0.2681     0.0369     2.4821
 3004.0000   134.4046     9.7599   -39.8252     2.6570     2.6292     3.7889     0.1067     0.2846     0.0385     2.4742
 3004.5000   145.2358     9.7756   -39.6521     2.4121     2.4533     3.2316     0.1198     0.3057     0.0385     2.4543
 3005.0000   159.6707     9.7764   -39.1998     2.3142     2.3372     2.8732     0.1453     0.3369     0.0447     2.4246
 3005.5000   172.3037     9.7771   -38.8883     2.2668     2.2577     2.6262     0.1582     0.3498     0.0757     2.4011
 3006.0000   193.1630     9.7478   -38.2757     2.2513     2.3225     2.4678     0.1792     0.3330     0.1346     2.3627
 3006.5000   199.3717     9.7183   -37.8136     2.3632     2.5472     2.7569     0.1588     0.3150     0.1904     2.3666
 3007.0000   179.8777     9.6592   -37.8034     2.5151     2.9990     3.5370     0.1303     0.2953     0.1377     2.4208
 3007.5000   151.6699     9.6149   -38.2450     2.7518     3.4207     4.5805     0.0992     0.2609     0.0866     2.4712
 3008.0000   121.3600     9.5684   -38.8371     3.0607     3.8480     5.4816     0.0689     0.2471     0.0820     2.5247
 3008.5000   109.6687     9.5412   -39.2847     3.6041     4.1815     5.5472     0.0635     0.2456     0.0944     2.5433
 3009.0000   108.4829     9.5422   -39.5935     4.0540     4.5438     5.4712     0.0653     0.2522     0.0851     2.5448
 3009.5000   110.0099     9.5429   -39.8607     4.4973     4.8696     5.5096     0.0659     0.2564     0.0712     2.5440
 3010.0000   110.3307     9.5284   -40.0010     4.8531     5.1115     5.5100     0.0647     0.2624     0.0541     2.5409
 3010.5000   110.9936     9.5293   -40.2920     5.0941     5.2568     5.4723     0.0656     0.2663     0.0418     2.5355
 3011.0000   113.8204     9.5150   -40.4324     5.2012     5.3654     5.4350     0.0698     0.2633     0.0356     2.5301
 3011.5000   118.2049     9.5008   -40.5702     5.3106     5.3654     5.3979     0.0749     0.2576     0.0372     2.5239
 3012.0000   122.1293     9.4865   -40.5599     5.3478     5.4027     5.4358     0.0806     0.2522     0.0387     2.5184
 3012.5000   124.8524     9.4872   -40.7003     5.3482     5.4780     5.5566     0.0824     0.2501     0.0372     2.5161
 3013.0000   124.2722     9.4729   -40.8407     5.3486     5.5161     5.7460     0.0785     0.2558     0.0403     2.5207
 3013.5000   122.4909     9.4436   -40.8279     5.3861     5.5544     5.8669     0.0752     0.2535     0.0527     2.5300
 3014.0000   123.4122     9.4293   -40.8176     5.4238     5.6319     6.0320     0.0695     0.2534     0.0589     2.5323
 3014.5000   125.2345     9.4151   -40.9606     5.4619     5.6710     6.1590     0.0722     0.2550     0.0464     2.5308
 3015.0000   126.7568     9.4008   -41.0984     5.5001     5.6684     6.3322     0.0702     0.2574     0.0435     2.5348
 3015.5000   127.3826     9.3867   -41.2387     5.5387     5.4780     6.5556     0.0666     0.2607     0.0452     2.5432
 3016.0000   126.2018     9.3874   -41.3795     5.3508     5.3654     6.7401     0.0630     0.2616     0.0466     2.5350
 3016.5000   125.6165     9.3720   -41.5196     5.2052     5.2551     6.2771     0.0672     0.2604     0.0466     2.5284
 3017.0000   125.9424     9.3438   -41.6598     5.1340     5.2551     5.7096     0.0723     0.2589     0.0559     2.5261
 3017.5000   127.4643     9.3295   -41.9483     5.1701     5.2551     5.5541     0.0753     0.2659     0.0668     2.5269
 3018.0000   129.5869     9.3154   -42.0912     5.2063     5.2916     5.5930     0.0738     0.2771     0.0621     2.5276
 3018.5000   131.7094     9.3162   -42.2316     5.3158     5.3654     5.7107     0.0732     0.2875     0.0482     2.5292
 3019.0000   131.4296     9.2869   -42.3719     5.4276     5.4402     5.8309     0.0736     0.2904     0.0436     2.5354
 3019.5000   128.9443     9.2751   -42.5123     5.5802     5.5577     6.1207     0.0702     0.2887     0.0467     2.5447
 3020.0000   123.6677     9.2574   -42.3489     5.7769     5.7104     6.4695     0.0660     0.2673     0.0529     2.5462
 3020.5000   119.1837     9.2396   -42.3387     5.9805     5.8708     6.9817     0.0621     0.2496     0.0514     2.5415
 3021.0000   118.5984     9.2218   -42.0271     6.1486     6.0357     7.2280     0.0615     0.2398     0.0467     2.5384
 3021.5000   118.3237     9.2004   -41.8660     6.2806     6.2053     7.2286     0.0630     0.2362     0.0421     2.5369
 3022.0000   118.0387     9.2013   -41.7030     6.3658     6.3355     7.1297     0.0678     0.2389     0.0375     2.5400
 3022.5000   118.3646     9.1868   -41.6927     6.4998     6.5135     6.9836     0.0639     0.2422     0.0328     2.5477
