~VERSION INFORMATION
 VERS.                2.0:   CWLS LOG ASCII STANDARD - VERSION 2.0
 WRAP.                 NO:   ONE LINE PER DEPTH STEP
~WELL INFORMATION
#MNEM.UNIT      DATA TYPE    INFORMATION
#----------   ------------   ------------------------------
 STRT.F            4.0000:   START DEPTH
 STOP.F          564.0000:   STOP DEPTH
 STEP.F            0.1000:   STEP LENGTH
 NULL.          -999.2500:   NO VALUE
 COMP.       F D SERV INC:   COMPANY
 WELL. NAVAL PETROLEUM RESERVE 3 SX-3 #88-4-3:   WELL
 FLD .             TEAPOT:   FIELD
 LOC .       S3 T38N R78W:   LOCATION
 CNTY.            NATRONA:   COUNTY
 STAT.            WYOMING:   STATE
 CTRY. UNITED STATES OF AMERICA:   COUNTRY
 SRVC.      Western Atlas:   SERVICE COMPANY
 DATE.        15-OCT-1992:   LOGDATE
 API .       490252255000:   API NUMBER
~CURVE INFORMATION
#MNEM.UNIT       API CODE    CURVE DESCRIPTION
#----------   ------------   ------------------------------
 DEPT.F                  :   
 GRR .GAPI   07 310 01 00:   GAMMA RAY
 RILD.OHMM   07 120 46 00:   INDUCTION LOG DEEP RESISTIVITY
 RILM.OHMM   07 120 44 00:   INDUCTION LOG MEDIUM RESISTIVITY
~PARAMETER INFORMATION
#MNEM.UNIT          VALUE    DESCRIPTION
#----------   ------------   ------------------------------
 PD  .                 GL:   PERMANENT DATUM
 EPD .F              5129:   ELEVATION PERMANENT DATUM
 LMF .                 KB:   LOG MEASURED FROM
 DAPD.F                10:   FEET ABOVE PERMANENT DATUM
 DMF .                 KB:   DRILLING MEASURED FROM
 EKB .F              5139:   KELLING BUSHING
 EGL .F              5129:   GROUND LEVEL
 DATE.        15-OCT-1992:   RUN DATE
 RUN .                  1:   RUN NUMBER
 DD  .F               570:   DEPTH DRILLER
 DL  .F               570:   DEPTH LOGGER
 BLI .F               564:   BOTTOM LOG INTERVAL
 TLI .F               564:   TOP LOG INTERVAL
 CS  .IN            8.625:   CASING SIZE
 CBL .F                94:   CASING BOTTOM LOGGER
 BS  .IN            7.875:   BIT SIZE
 BSD .F               570:   BIT SIZE AT DEPTH
 DFT .           AIR FOAM:   DRILLING FLUID TYPE
 TCS .HRS               4:   TIME CURCULATED STOPPED
 MRT .F                72:   MAXIMUM RECORDED TEMPERATURE
 LUN .            HL-6345:   LOGGING UNIT NUMBER
 LUL .          FT.MORGAN:   LOGGING UNIT LOCATION
 ENGI.             BURLEY:   RECORDING ENGINEER
 WITN.        DARY STRONG:   WITNESSED BY
 CLNT.            A2DTECH:   CLIENT CODE
 ORIG.           5" PRINT:   ORIGIN OF DATA
 UWI .       490252255000:   UNIQUE WELL ID
 DICO. A2D Technologies, Inc.:   DIGITIZING COMPANY
~OTHER INFORMATION
~A    DEPT      GRR      RILD       RILM   
# ...
  331.6000    82.5905    38.6470    39.1669
  331.7000    82.4355    38.4619    39.0374
  331.8000    82.3879    38.2398    38.9886
  331.9000    82.1311    38.0189    38.7605
  332.0000    81.6400    37.7992    38.2273
  332.1000    81.1386    37.5812    38.0494
  332.2000    80.7799    37.5822    37.9618
  332.3000    80.4365    37.1883    37.7903
  332.4000    79.9760    36.6930    37.3540
  332.5000    79.7142    36.1976    36.9138
  332.6000    79.7125    35.7023    36.2901
  332.7000    79.7107    35.2069    35.6638
  332.8000    79.7089    34.7600    35.0480
  332.9000    79.7071    34.5506    34.5136
  333.0000    79.7053    34.3597    34.1451
  333.1000    79.7034    34.3106    33.9373
  333.2000    79.9367    34.2033    33.9382
  333.3000    80.1847    34.0057    33.9391
  333.4000    80.6989    33.8346    33.9401
  333.5000    81.2822    33.8357    33.9410
  333.6000    81.5927    34.0192    33.9656
  333.7000    82.3993    34.0761    34.1821
  333.8000    82.6277    34.1786    34.3651
  333.9000    83.0551    34.3183    34.5666
  334.0000    83.4246    34.3386    34.6683
  334.1000    83.5952    34.5623    34.7284
  334.2000    83.5934    34.5632    34.9145
  334.3000    83.5914    34.7021    34.9156
  334.4000    83.1390    34.8088    35.0955
  334.5000    82.6376    34.9198    35.1634
  334.6000    82.1362    35.3033    35.1644
  334.7000    81.4897    35.3045    35.1654
  334.8000    80.5102    35.4819    35.1664
  334.9000    79.6708    35.4213    35.1675
  335.0000    79.0076    35.3073    35.1683
  335.1000    78.4258    35.3083    35.1693
  335.2000    78.0431    35.3034    35.0824
  335.3000    77.8592    35.0632    34.9253
  335.4000    77.8574    34.8968    34.9227
  335.5000    77.8554    34.6952    34.6831
  335.6000    78.0696    34.4948    34.6839
  335.7000    78.3176    34.2955    34.4427
  335.8000    78.5656    34.0963    34.1234
  335.9000    79.0024    33.9003    33.9264
  336.0000    79.9880    33.7046    33.7273
  336.1000    80.8521    33.5099    33.3448
  336.2000    81.2724    33.3163    33.1091
  336.3000    81.9303    33.0917    32.8095
  336.4000    82.4598    32.6944    32.4308
  336.5000    82.8241    32.5130    32.0852
  336.6000    83.5573    32.1840    31.8908
  336.7000    83.8487    31.9135    31.5415
  336.8000    84.2594    31.6666    31.1777
  336.9000    84.6021    31.3006    30.8181
  337.0000    84.8501    30.9128    30.3474
  337.1000    85.0982    30.4180    29.6906
  337.2000    85.3462    30.1431    29.3193
  337.3000    85.6424    29.8800    29.0096
  337.4000    85.8422    29.5348    28.6751
  337.5000    85.9398    29.2103    28.3442
  337.6000    85.9380    29.0237    28.0648
  337.7000    85.9362    28.5760    27.8884
  337.8000    85.9344    28.1941    27.5288
  337.9000    85.9326    27.6391    27.2488
  338.0000    85.9308    26.8876    26.9345
  338.1000    85.9290    26.2882    26.6237
  338.2000    85.9272    25.9423    26.3561
  338.3000    85.9254    25.8134    26.1955
  338.4000    85.9236    25.6644    25.8477
  338.5000    85.6792    25.5161    25.7211
  338.6000    85.6192    25.4040    25.6682
  338.7000    85.6174    25.4047    25.6042
  338.8000    85.4360    25.4055    25.4228
  338.9000    84.9734    25.4061    25.1322
  339.0000    84.7097    25.3155    24.9604
  339.1000    84.7080    25.2297    24.9610
  339.2000    84.5193    25.1703    24.8737
  339.3000    83.9957    24.8791    24.7878
  339.4000    83.2445    24.7355    24.7327
  339.5000    82.5273    24.7063    24.4436
  339.6000    81.9921    24.6230    24.3042
  339.7000    81.2914    24.5347    24.2739
  339.8000    80.9042    24.4866    24.1938
  339.9000    80.7838    24.1938    24.1055
  340.0000    80.7820    24.1944    24.0837
  340.1000    80.8094    24.0886    23.9382
  340.2000    81.0789    24.0264    23.8065
  340.3000    81.5337    24.0271    23.7720
  340.4000    82.2088    24.0277    23.6982
  340.5000    83.3354    24.0284    23.6071
  340.6000    84.7571    24.0291    23.6077
  340.7000    85.9799    24.0298    23.6085
  340.8000    87.0831    23.9582    23.6091
  340.9000    87.7516    23.8629    23.6097
  341.0000    88.4993    23.8635    23.6104
  341.1000    89.2469    23.8643    23.6111
  341.2000    89.9240    23.8649    23.6117
  341.3000    90.4218    23.8655    23.6125
  341.4000    90.9820    23.8662    23.6130
  341.5000    91.6362    23.8669    23.6137
  341.6000    91.8809    23.8774    23.6144
  341.7000    91.8791    24.0366    23.6150
  341.8000    91.8773    24.0372    23.6157
  341.9000    91.8607    24.0379    23.6165
  342.0000    91.5727    24.0385    23.6170
  342.1000    91.3574    24.0392    23.7068
  342.2000    90.9430    24.0399    23.7847
  342.3000    90.5534    24.0407    23.7533
  342.4000    90.1799    24.0412    23.6197
  342.5000    89.4486    24.0419    23.7869
  342.6000    89.1558    24.0426    23.7874
  342.7000    88.7364    24.0433    23.7881
  342.8000    88.3930    24.0439    23.7887
  342.9000    88.0343    24.0446    23.7894
  343.0000    87.5329    24.1572    23.7901
  343.1000    87.0418    24.2155    23.7907
  343.2000    87.0397    24.2162    23.7914
  343.3000    86.8341    24.2169    23.8724
  343.4000    86.5825    24.2176    23.9604
  343.5000    86.4331    24.2182    23.9610
  343.6000    86.4313    24.2189    23.9617
  343.7000    86.4295    24.2196    23.9624
  343.8000    86.4277    24.2203    23.9631
  343.9000    86.2266    24.2209    24.0399
  344.0000    86.1233    24.2217    24.1332
  344.1000    86.1215    24.3547    24.1339
  344.2000    86.0732    24.3938    24.1346
  344.3000    85.8171    24.3944    24.1353
  344.4000    85.8153    24.3951    24.1359
  344.5000    85.8135    24.4113    24.1366
  344.6000    85.8117    24.5686    24.1373
  344.7000    85.8099    24.5692    24.1380
  344.8000    85.8081    24.4708    24.1387
  344.9000    85.8062    24.3986    24.1393
  345.0000    85.8045    24.3992    24.1400
  345.1000    85.8027    24.3999    24.1537
  345.2000    85.8009    24.4007    24.1818
  345.3000    85.7991    24.4013    24.2099
  345.4000    85.7973    24.4020    24.2379
  345.5000    85.7954    24.4675    24.2660
  345.6000    86.0295    24.5754    24.2940
  345.7000    86.4624    24.5761    24.3221
  345.8000    86.6923    24.5769    24.3502
  345.9000    86.7736    24.5775    24.3782
  346.0000    87.0055    24.5782    24.4063
  346.1000    87.1286    24.5789    24.4343
  346.2000    87.2517    24.6103    24.4624
  346.3000    87.3748    24.7535    24.4903
  346.4000    87.4979    24.7544    24.4911
  346.5000    87.6601    24.7549    24.4916
  346.6000    87.9081    24.7556    24.4923
  346.7000    88.1797    24.7563    24.4930
  346.8000    88.4043    24.7570    24.4937
  346.9000    88.4770    24.7577    24.4944
  347.0000    88.5995    24.7584    24.4951
  347.1000    88.7741    24.7591    24.4958
  347.2000    88.7723    24.7598    24.4965
  347.3000    88.7703    24.7605    24.4971
  347.4000    88.7687    24.7824    24.4978
  347.5000    88.7669    24.9365    24.4986
  347.6000    88.7651    24.9372    24.6336
  347.7000    88.7633    24.9379    24.6725
  347.8000    88.7792    24.9386    24.6732
  347.9000    89.0602    24.9393    24.7199
  348.0000    89.0586    24.9400    24.8484
  348.1000    89.0568    24.9407    24.8492
  348.2000    89.1697    24.9414    24.8498
  348.3000    89.3540    24.9421    24.8505
  348.4000    89.3522    24.9428    24.8512
  348.5000    89.3501    24.9435    24.8107
  348.6000    89.5603    24.9442    24.6675
  348.7000    89.6475    24.9450    24.5069
  348.8000    89.7556    24.9456    24.5075
  348.9000    90.0036    24.9463    24.4136
  349.0000    90.2437    24.9470    24.3374
  349.1000    90.2415    24.9477    24.3026
  349.2000    90.2400    24.9419    24.1559
  349.3000    90.2382    24.7745    23.8323
  349.4000    90.2364    24.7751    23.7170
  349.5000    90.2346    24.7758    23.6668
  349.6000    90.2328    24.7765    23.6092
  349.7000    90.2306    24.7772    23.5026
