~VERSION INFORMATION
 VERS.                2.0:   CWLS LOG ASCII STANDARD - VERSION 2.0
 WRAP.                 NO:   ONE LINE PER DEPTH STEP
~WELL INFORMATION
#MNEM.UNIT      DATA TYPE    INFORMATION
#----------   ------------   ------------------------------
 STRT.F           10.0000:   START DEPTH
 STOP.F          481.0000:   STOP DEPTH
 STEP.F            0.5000:   STEP LENGTH
 NULL.          -999.2500:   NO VALUE
 COMP. BROWN JOHN E&C INC:   COMPANY
 WELL.         SX 67 #1-3:   WELL
 FLD .        TEAPOT DOME:   FIELD
 LOC .       S3 T38N R78W:   LOCATION
 CNTY.            NATRONA:   COUNTY
 STAT.            WYOMING:   STATE
 CTRY. UNITED STATES OF AMERICA:   COUNTRY
 SRVC.       Schlumberger:   SERVICE COMPANY
 DATE.        12-OCT-1990:   LOGDATE
 API .       490251132900:   API NUMBER
~CURVE INFORMATION
#MNEM.UNIT       API CODE    CURVE DESCRIPTION
#----------   ------------   ------------------------------
 DEPT.F                  :   
 CALD.IN     45 280 60 00:   CALIPER FROM DENSITY LOG
 DRHO.G/C3   45 356 01 00:   DENSITY CORRECTION
 GRD .GAPI   45 310 01 00:   GAMMA RAY FROM DENSITY LOG
 RHOB.G/C3   45 350 01 00:   BULK DENSITY
 DPHI.DEC    45 890 12 00:   DENSITY POROSITY SANDSTONE
~PARAMETER INFORMATION
#MNEM.UNIT          VALUE    DESCRIPTION
#----------   ------------   ------------------------------
 PD  .                 GL:   PERMANENT DATUM
 EPD .F              5174:   ELEVATION PERMANENT DATUM
 LMF .                 KB:   LOG MEASURED FROM
 DAPD.F                10:   FEET ABOVE PERMANENT DATUM
 DMF .                 KB:   DRILLING MEASURED FROM
 EKB .F              5184:   KELLING BUSHING
 EGL .F              5174:   GROUND LEVEL
 DATE.           10-12-90:   RUN DATE
 RUN .                  1:   RUN NUMBER
 DD  .F               486:   DEPTH DRILLER
 DL  .F               486:   DEPTH LOGGER
 BLI .F               483:   BOTTOM LOG INTERVAL
 TLI .F                10:   TOP LOG INTERVAL
 CS  .IN            8.625:   CASING SIZE
 CBD .F                50:   CASING BOTTOM DRILLER
 CBL .F                50:   CASING BOTTOM LOGGER
 BS  .IN            7.875:   BIT SIZE
 BSD .F               486:   BIT SIZE AT DEPTH
 DFT .      DISPERSED GEL:   DRILLING FLUID TYPE
 DFD .                 15:   DRILLING FLUID DENSITY
 DFV .                 44:   DRILLING FLUID VISCOSITY
 DFPH.                  8:   DRILLING FLUID PH
 DFL .                7.2:   DRILLING FLUID LOSS
 MSS .           FLOWLINE:   MUD SAMPLE SOURCE
 RMS .OHMM              1:   RESISTIVITY MUD SAMPLE
 MST .F                60:   MUD SAMPLE TEMPERATURE
 RMF .OHMM             .7:   RESISTIVITY MUD FILTRATE SAMPLE
 MFST.F                60:   MUD FILTRATE SAMPLE TEMPERATURE
 RMC .OHMM            1.5:   RESISTIVITY MUD CAKE
 MCST.F                60:   MUD CAKE SAMPLE TEMPERATURE
 MFSS.               MEAS:   MUD FILTRATE SAMPLE SOURCE
 MCSS.               CALC:   MUD CAKE SAMPLE SOURCE
 RMB .OHMM           .753:   RESISTIVITY MUD AT BHT
 BHT .F                82:   BOTTOM HOLE TEMPERATURE
 TCS .HRS            1230:   TIME CURCULATED STOPPED
 MRT .F                82:   MAXIMUM RECORDED TEMPERATURE
 LUN .               8116:   LOGGING UNIT NUMBER
 LUL .             CASPER:   LOGGING UNIT LOCATION
 ENGI.            S. PEEL:   RECORDING ENGINEER
 WITN.        GARY STRONG:   WITNESSED BY
 CLNT.            A2DTECH:   CLIENT CODE
 ORIG.           5" PRINT:   ORIGIN OF DATA
 UWI .       490251132900:   UNIQUE WELL ID
 DICO. A2D Technologies, Inc.:   DIGITIZING COMPANY
~OTHER INFORMATION
~A   DEPT     CALD       DRHO         GRD      RHOB       DPHI   
# ...
  254.0000     7.7365     0.0050    92.8485     2.4375     0.1323
  254.5000     7.7664     0.0073    94.2233     2.4060     0.1483
  255.0000     7.7945     0.0122    91.9212     2.4023     0.1510
  255.5000     7.8149     0.0165    87.1394     2.4221     0.1332
  256.0000     7.8344     0.0208    84.2971     2.4547     0.1143
  256.5000     7.8539     0.0204    84.8228     2.4783     0.1036
  257.0000     7.8737     0.0168    85.4044     2.4855     0.0986
  257.5000     7.9005     0.0132    84.7692     2.4948     0.0935
  258.0000     7.9279     0.0121    83.6073     2.5051     0.0884
  258.5000     7.9536     0.0114    82.8780     2.5095     0.0854
  259.0000     7.9469     0.0107    84.0996     2.5116     0.0842
  259.5000     7.9380     0.0119    85.6368     2.5158     0.0816
  260.0000     7.9172     0.0145    86.3850     2.5219     0.0781
  260.5000     7.8831     0.0171    85.0358     2.5291     0.0740
  261.0000     7.8490     0.0196    83.6938     2.5297     0.0730
  261.5000     7.8206     0.0183    83.8505     2.5262     0.0745
  262.0000     7.7963     0.0167    84.9912     2.5181     0.0793
  262.5000     7.7723     0.0144    90.1627     2.5106     0.0849
  263.0000     7.7576     0.0117    95.3538     2.5087     0.0853
  263.5000     7.7827     0.0090    98.5182     2.5118     0.0838
  264.0000     7.8070     0.0064    99.8519     2.5157     0.0821
  264.5000     7.8319     0.0046    97.8622     2.5154     0.0817
  265.0000     7.8007     0.0050    96.0025     2.5136     0.0826
  265.5000     7.7629     0.0053    95.1149     2.5101     0.0838
  266.0000     7.7250     0.0056    95.1380     2.5064     0.0869
  266.5000     7.6920     0.0060    94.6756     2.5040     0.0881
  267.0000     7.6896     0.0063    93.8482     2.5070     0.0871
  267.5000     7.6865     0.0066    93.4594     2.5096     0.0857
  268.0000     7.6833     0.0069    94.5349     2.5053     0.0864
  268.5000     7.6801     0.0073    97.4860     2.4985     0.0911
  269.0000     7.6769     0.0076   100.4510     2.4918     0.0962
  269.5000     7.6736     0.0080    97.9350     2.4849     0.1009
  270.0000     7.6789     0.0084    92.4114     2.4849     0.1006
  270.5000     7.6853     0.0085    89.8894     2.4919     0.0962
  271.0000     7.6918     0.0083    93.2846     2.4983     0.0928
  271.5000     7.6982     0.0081    97.7397     2.4911     0.0983
  272.0000     7.7045     0.0078   101.4589     2.4483     0.1307
  272.5000     7.7109     0.0076   103.8639     2.3887     0.1670
  273.0000     7.7174     0.0080   103.6601     2.3211     0.1998
  273.5000     7.7240     0.0089    97.0304     2.3379     0.1885
  274.0000     7.7300     0.0098    90.1443     2.3921     0.1476
  274.5000     7.7141     0.0106    83.3033     2.4618     0.0992
  275.0000     7.6289     0.0102    82.4593     2.5041     0.0916
  275.5000     7.5481     0.0097    83.9371     2.5073     0.0866
  276.0000     7.5058     0.0110    84.1813     2.5037     0.0889
  276.5000     7.6083     0.0132    84.2721     2.5038     0.0888
  277.0000     7.6750     0.0155    86.1858     2.5081     0.0858
  277.5000     7.6389     0.0154    90.8903     2.5145     0.0829
  278.0000     7.5952     0.0131    93.5056     2.5140     0.0818
  278.5000     7.5538     0.0107    94.3020     2.5109     0.0846
  279.0000     7.5445     0.0106    94.7361     2.5078     0.0869
  279.5000     7.5357     0.0115    96.6440     2.5062     0.0873
  280.0000     7.4499     0.0173    97.5331     2.5045     0.0876
  280.5000     7.1524     0.0226    91.2619     2.4995     0.0913
  281.0000     6.4493     0.0225    81.2442     2.4829     0.1017
  281.5000     6.1921     0.0183    71.9634     2.4544     0.1146
  282.0000     6.2781     0.0141    65.7900     2.4255     0.1276
  282.5000     6.7206     0.0099    66.0883     2.3965     0.1512
  283.0000     6.9486     0.0057    68.4558     2.3676     0.1804
  283.5000     7.1775     0.0033    67.6112     2.3336     0.1977
  284.0000     7.2750     0.0015    62.2377     2.2956     0.2141
  284.5000     7.3494     0.0015    56.8233     2.2822     0.2235
  285.0000     7.4132     0.0015    52.6158     2.2695     0.2305
  285.5000     7.4789     0.0015    50.5795     2.2632     0.2341
  286.0000     7.4620     0.0040    51.6082     2.2817     0.2232
  286.5000     7.4199     0.0077    55.2076     2.3079     0.2086
  287.0000     7.3739     0.0077    58.1987     2.3171     0.2009
  287.5000     7.3184     0.0060    58.3638     2.3109     0.2068
  288.0000     7.2599     0.0042    54.5780     2.2959     0.2148
  288.5000     7.2015     0.0026    50.6824     2.2829     0.2218
  289.0000     7.1435     0.0029    49.8616     2.2814     0.2236
  289.5000     7.1295     0.0034    54.4988     2.3078     0.2080
  290.0000     7.1672     0.0057    56.8460     2.3271     0.1969
  290.5000     7.2095     0.0083    57.0952     2.3440     0.1857
  291.0000     7.1319     0.0107    56.7245     2.3304     0.1956
  291.5000     7.0196     0.0075    57.3041     2.3068     0.2100
  292.0000     7.0089     0.0043    56.8662     2.2803     0.2245
  292.5000     7.0712     0.0030    54.4055     2.2661     0.2320
  293.0000     7.1287     0.0016    51.9948     2.2702     0.2288
  293.5000     7.0721     0.0002    53.1302     2.2859     0.2217
  294.0000     7.0124    -0.0012    56.2443     2.2965     0.2158
  294.5000     6.9628    -0.0025    59.2733     2.2975     0.2139
  295.0000     6.9467    -0.0025    59.5396     2.2889     0.2189
  295.5000     6.9370    -0.0026    56.6790     2.2799     0.2240
  296.0000     6.9857     0.0012    54.4910     2.2761     0.2263
  296.5000     7.0343     0.0062    53.5572     2.2833     0.2225
  297.0000     7.0824     0.0097    55.8430     2.2914     0.2179
  297.5000     7.1215     0.0103    58.3121     2.2834     0.2237
  298.0000     7.1731     0.0086    59.5849     2.2688     0.2313
  298.5000     7.2249     0.0068    58.9873     2.2571     0.2385
  299.0000     7.2883     0.0051    56.7777     2.2522     0.2420
  299.5000     7.3681     0.0034    54.7527     2.2501     0.2436
  300.0000     7.4483     0.0016    53.4280     2.2763     0.2364
  300.5000     7.5291     0.0049    55.3757     2.3129     0.2112
  301.0000     7.5089     0.0088    57.0384     2.3509     0.1868
  301.5000     7.4810     0.0079    58.7195     2.3652     0.1731
  302.0000     7.4541     0.0049    59.1097     2.3603     0.1754
  302.5000     7.4526     0.0020    59.0060     2.3522     0.1793
  303.0000     7.5656    -0.0011    56.9669     2.3650     0.1761
  303.5000     7.6769    -0.0010    55.4310     2.3856     0.1634
  304.0000     7.7373    -0.0005    55.8785     2.4130     0.1460
  304.5000     7.7737     0.0002    57.9651     2.4403     0.1242
  305.0000     7.8093     0.0011    60.1636     2.4467     0.1279
  305.5000     7.8333     0.0021    60.4887     2.4242     0.1374
  306.0000     7.8275     0.0031    60.9032     2.4058     0.1490
  306.5000     7.8222     0.0061    62.7519     2.4118     0.1456
  307.0000     7.8168     0.0097    65.5073     2.4206     0.1405
  307.5000     7.8094     0.0096    66.3317     2.4153     0.1393
  308.0000     7.7878     0.0095    66.1378     2.4042     0.1489
  308.5000     7.7667     0.0080    65.0934     2.3932     0.1563
  309.0000     7.7456     0.0048    64.2389     2.3868     0.1601
  309.5000     7.7245     0.0029    65.4424     2.3863     0.1604
  310.0000     7.7035     0.0042    66.8781     2.3896     0.1569
  310.5000     7.6823     0.0055    67.4487     2.3967     0.1534
  311.0000     7.6735     0.0050    66.8318     2.3974     0.1539
  311.5000     7.6733     0.0045    66.6324     2.3859     0.1598
  312.0000     7.6733     0.0039    69.4044     2.3739     0.1668
  312.5000     7.6736     0.0039    73.3312     2.3659     0.1720
  313.0000     7.6540     0.0060    77.1945     2.3743     0.1681
  313.5000     7.6260     0.0079    78.7770     2.3843     0.1623
  314.0000     7.5923     0.0099    79.9853     2.3920     0.1569
  314.5000     7.3429     0.0117    80.8471     2.3943     0.1553
