~VERSION INFORMATION
 VERS.                2.0:   CWLS LOG ASCII STANDARD - VERSION 2.0
 WRAP.                 NO:   ONE LINE PER DEPTH STEP
~WELL INFORMATION
#MNEM.UNIT      DATA TYPE    INFORMATION
#----------   ------------   ------------------------------
 STRT.F           38.0000:   START DEPTH
 STOP.F          517.0000:   STOP DEPTH
 STEP.F            0.5000:   STEP LENGTH
 NULL.          -999.2500:   NO VALUE
 COMP. FENIX & SCISSON U.S. NAVY:   COMPANY
 WELL.     NPR 3 #88 S -3:   WELL
 FLD .             TEAPOT:   FIELD
 LOC .       S3 T38N R78W:   LOCATION
 CNTY.            NATRONA:   COUNTY
 STAT.            WYOMING:   STATE
 CTRY. UNITED STATES OF AMERICA:   COUNTRY
 SRVC.              Welex:   SERVICE COMPANY
 DATE.        10-APR-1977:   LOGDATE
 API .       490251033000:   API NUMBER
~CURVE INFORMATION
#MNEM.UNIT       API CODE    CURVE DESCRIPTION
#----------   ------------   ------------------------------
 DEPT.F                  :   
 GRD .GAPI   45 310 01 00:   GAMMA RAY FROM DENSITY LOG
 CALD.IN     45 280 60 00:   CALIPER FROM DENSITY LOG
 CORR.G/C3   45 356 01 00:   DENSITY CORRECTION
 RHOB.G/C3   45 350 01 00:   BULK DENSITY
 DPHI.DEC    45 890 12 00:   DENSITY POROSITY SANDSTONE
 SPR .MV     07 010 01 00:   SPONTANEOUS POTENTIAL
 ILD .OHMM   07 120 46 00:   INDUCTION LOG DEEP
 ILM .OHMM   07 120 44 00:   INDUCTION LOG MEDIUM
 SGRD.OHMM   07 221 05 00:   SHALLOW SHORT GUARD RESISTIVITY
~PARAMETER INFORMATION
#MNEM.UNIT          VALUE    DESCRIPTION
#----------   ------------   ------------------------------
 PD  .                 GL:   PERMANENT DATUM
 EPD .F              5120:   ELEVATION PERMANENT DATUM
 LMF .                 GL:   LOG MEASURED FROM
 DMF .                 GL:   DRILLING MEASURED FROM
 EGL .F              5120:   GROUND LEVEL
 DATE.        10-APR-1977:   RUN DATE
 RUN .                  1:   RUN NUMBER
 DD  .F               520:   DEPTH DRILLER
 DL  .F               519:   DEPTH LOGGER
 BLI .F               517:   BOTTOM LOG INTERVAL
 TLI .F                40:   TOP LOG INTERVAL
 CS  .IN            8.625:   CASING SIZE
 CBD .F                40:   CASING BOTTOM DRILLER
 CBL .F                42:   CASING BOTTOM LOGGER
 BS  .IN            7.875:   BIT SIZE
 BSD .F               520:   BIT SIZE AT DEPTH
 DFT .           KCL- GEL:   DRILLING FLUID TYPE
 DFD .                8.8:   DRILLING FLUID DENSITY
 DFV .                 38:   DRILLING FLUID VISCOSITY
 DFPH.                8.0:   DRILLING FLUID PH
 DFL .                6.4:   DRILLING FLUID LOSS
 MSS .            MUD PIT:   MUD SAMPLE SOURCE
 RMS .OHMM            .28:   RESISTIVITY MUD SAMPLE
 MST .F                55:   MUD SAMPLE TEMPERATURE
 RMF .OHMM            .23:   RESISTIVITY MUD FILTRATE SAMPLE
 MFST.F                55:   MUD FILTRATE SAMPLE TEMPERATURE
 RMC .OHMM            .32:   RESISTIVITY MUD CAKE
 MCST.F                55:   MUD CAKE SAMPLE TEMPERATURE
 MFSS.               MEAS:   MUD FILTRATE SAMPLE SOURCE
 MCSS.               MEAS:   MUD CAKE SAMPLE SOURCE
 RMB .OHMM            .24:   RESISTIVITY MUD AT BHT
 BHT .F                65:   BOTTOM HOLE TEMPERATURE
 TCS .HRS            0300:   TIME CURCULATED STOPPED
 MRT .F                65:   MAXIMUM RECORDED TEMPERATURE
 LUN .               0716:   LOGGING UNIT NUMBER
 LUL .             VERNAL:   LOGGING UNIT LOCATION
 ENGI.        E. CALLAHAN:   RECORDING ENGINEER
 WITN.            R. LYON:   WITNESSED BY
 CLNT.            A2DTECH:   CLIENT CODE
 ORIG.           5" PRINT:   ORIGIN OF DATA
 UWI .       490251033000:   UNIQUE WELL ID
 DICO. A2D Technologies, Inc.:   DIGITIZING COMPANY
~OTHER INFORMATION
~A   DEPT       GRD        CALD     CORR         RHOB     DPHI        SPR        ILD        ILM       SGRD   
# ...
   74.5000   122.1164     7.9840     0.0014     2.4342     0.1240   -20.8391     6.7212     6.8399    11.4555
   75.0000   123.1773     7.9698     0.0030     2.4433     0.1207   -20.8584     6.9056     6.8595    11.5303
   75.5000   124.3873     7.9721     0.0077     2.4561     0.1186   -20.8780     6.9982     6.9003    11.6881
   76.0000   125.5973     7.9735     0.0123     2.4667     0.1138   -20.8976     6.9910     6.9914    12.0229
   76.5000   126.6582     7.9750     0.0170     2.4593     0.1164   -20.9383     6.9852     7.0837    12.5125
   77.0000   127.2721     7.9616     0.0202     2.4616     0.1176   -21.0873     7.0297     7.1775    12.5923
   77.5000   128.0350     7.9631     0.0203     2.4647     0.1155   -21.5624     7.1210     7.3229    12.4951
   78.0000   128.6489     7.9645     0.0190     2.4558     0.1164   -22.0336     7.2151     7.4197    12.4873
   78.5000   128.9647     7.9504     0.0117     2.4461     0.1215   -22.2036     7.4648     7.5702    12.8325
   79.0000   129.2805     7.9369     0.0043     2.4341     0.1250   -22.2229     7.5650     7.7259    12.8246
   79.5000   129.2982     7.9391    -0.0030     2.4222     0.1316   -22.2423     7.6649     7.9357    12.8166
   80.0000   129.3159     7.9406    -0.0073     2.4057     0.1433   -22.2616     7.6569     7.9846    12.5435
   80.5000   128.7375     7.9421    -0.0087     2.4005     0.1472   -22.2810     7.5975     7.9677    11.8557
   81.0000   127.8611     7.9279    -0.0040     2.4089     0.1444   -22.3003     7.5912     7.9144    12.0988
   81.5000   126.5375     7.9301     0.0052     2.4232     0.1354   -22.3197     7.5322     7.9078    12.5222
   82.0000   125.2184     7.9316     0.0129     2.4346     0.1270   -22.4896     7.5260     7.9013    12.6901
   82.5000   124.9337     7.9331     0.0145     2.4422     0.1252   -22.6596     7.5180     7.8948    12.6803
   83.0000   124.9558     7.9346     0.0117     2.4377     0.1263   -22.8295     7.4094     7.8882    12.4969
   83.5000   124.6755     7.9361     0.0073     2.4273     0.1320   -23.1501     7.3007     7.8270    12.4892
   84.0000   123.2029     7.9375     0.0030     2.4191     0.1374   -23.6213     7.2945     7.8768    12.4815
   84.5000   120.5381     7.9237     0.0002     2.4139     0.1407   -23.9418     7.3398     7.9238    12.4737
   85.0000   116.9791     7.9256    -0.0042     2.4215     0.1359   -24.2624     7.4351     7.9172    12.3794
   85.5000   114.7614     7.9271    -0.0130     2.4231     0.1373   -24.5829     7.4825     8.0779    12.4583
   86.0000   112.2456     7.9285    -0.0188     2.4156     0.1409   -24.9036     7.5798     8.1862    12.5399
   86.5000   111.2157     7.9300    -0.0217     2.4142     0.1406   -25.0738     7.5740     8.3506    12.8011
   87.0000   112.1320     7.9315    -0.0215     2.4165     0.1361   -25.2620     7.6223     8.4626    13.3440
   87.5000   112.8949     7.9330    -0.0213     2.4301     0.1282   -25.4142     7.6677     8.4539    12.6459
   88.0000   113.6578     7.9345    -0.0182     2.4385     0.1231   -25.4375     7.6613     8.4469    12.3334
   88.5000   114.2717     7.9509    -0.0105     2.4453     0.1216   -25.4569     7.6550     8.3230    13.0308
   89.0000   115.0345     7.9524    -0.0028     2.4476     0.1200   -25.4762     7.5955     8.2010    13.1158
   89.5000   114.3071     7.9688     0.0063     2.4582     0.1155   -25.4956     7.5882     8.1372    12.6567
   90.0000   114.3249     8.0001     0.0140     2.4741     0.1089   -25.5150     7.5267     8.1304    12.5609
   90.5000   115.3858     8.0165     0.0186     2.4824     0.0987   -25.5343     7.4139     8.0672    12.1231
   91.0000   117.0429     8.0333     0.0188     2.4885     0.0974   -25.5537     7.3620     8.0044    12.0314
   91.5000   118.5509     8.0348     0.0220     2.4826     0.1016   -25.5730     7.5101     7.9964    12.2780
   92.0000   119.6119     8.0362     0.0221     2.4781     0.0989   -25.7430     7.5579     7.9343    12.9743
   92.5000   120.0767     8.0377     0.0208     2.4850     0.1010   -25.9129     7.4977     7.8727    12.8762
   93.0000   119.0512     8.0392     0.0165     2.4776     0.1051   -25.9323     7.4394     7.8115    12.5143
   93.5000   117.2806     8.0254     0.0121     2.4664     0.1078   -26.2528     7.4333     7.6970    12.4196
   94.0000   116.1061     8.0120     0.0078     2.4634     0.1096   -26.5734     7.4271     7.6372    12.4119
   94.5000   116.7200     7.9985     0.0079     2.4755     0.1114   -26.7433     7.3694     7.6309    12.2324
   95.0000   118.5261     7.9847     0.0081     2.4651     0.1138   -27.0639     7.3633     7.7316    11.9718
   95.5000   119.5870     7.9869     0.0128     2.4531     0.1164   -27.5351     7.3061     7.8337    11.8813
   96.0000   118.8596     7.9727     0.0174     2.4509     0.1173   -28.0062     7.2494     7.8272    12.1249
   96.5000   117.3870     7.9593     0.0206     2.4600     0.1164   -28.4774     7.2434     7.8208    12.2875
   97.0000   116.5150     7.9615     0.0238     2.4714     0.1112   -28.6556     7.2895     7.7623    12.2798
   97.5000   116.9798     7.9779     0.0255     2.4775     0.1043   -28.8178     7.3345     7.7001    12.2723
   98.0000   118.3389     7.9943     0.0271     2.4828     0.1004   -28.9879     7.4301     7.8178    12.5239
   98.5000   119.9959     7.9958     0.0288     2.4859     0.0983   -29.0114     7.5279     8.0704    12.8681
   99.0000   121.2059     8.0122     0.0304     2.4867     0.0994   -29.0308     7.5743     8.2917    13.3164
   99.5000   121.5217     8.0137     0.0321     2.4800     0.1048   -29.2007     7.6743     8.2849    13.7802
  100.0000   120.0447     8.0297     0.0277     2.4681     0.1111   -29.5203     7.7216     8.3487    14.1634
  100.5000   119.7602     8.0311     0.0144     2.4456     0.1210   -29.3798     7.8241     8.4478    13.1979
  101.0000   120.3749     8.0325     0.0085     2.4464     0.1216   -29.2427     7.8723     8.6790    13.1879
  101.5000   120.9859     8.0188     0.0042     2.4577     0.1176   -29.2595     7.8641     8.8545    13.1778
  102.0000   121.5969     8.0200     0.0073     2.4773     0.1086   -29.2730     7.9126     8.9068    13.2625
  102.5000   122.0588     8.0212     0.0179     2.4842     0.1029   -29.4370     7.9630     8.8366    13.6246
  103.0000   122.5207     8.0224     0.0255     2.4790     0.1017   -29.6011     7.9547     8.6459    14.3956
  103.5000   123.4298     8.0385     0.0107     2.4640     0.1067   -29.9158     7.8929     8.5185    13.4155
  104.0000   124.1898     8.0397     0.0063     2.4565     0.1139   -30.2304     7.7772     8.3930    12.8560
  104.5000   122.4162     8.0408     0.0125     2.4671     0.1154   -30.2439     7.6631     8.3272    12.7570
  105.0000   122.1293     8.0420     0.0201     2.4747     0.1088   -30.4080     7.6036     8.2045    12.7473
  105.5000   123.1911     8.0432     0.0262     2.4778     0.1039   -30.8732     7.5445     8.0835    12.6491
  106.0000   123.8020     8.0292     0.0294     2.4778     0.1039   -31.0373     7.3822     7.9032    12.4644
  106.5000   124.4130     8.0008     0.0265     2.4756     0.1054   -31.0508     7.2739     7.7383    12.3683
  107.0000   125.1730     7.9722     0.0207     2.4734     0.1087   -31.0642     7.2174     7.6776    12.2729
  107.5000   125.6349     7.9432     0.0178     2.4660     0.1119   -31.0777     7.0622     7.6160    12.1783
  108.0000   126.3949     7.9295     0.0164     2.4593     0.1143   -30.9372     7.0073     7.5038    11.9761
  108.5000   127.4530     7.9157     0.0166     2.4616     0.1143   -30.6528     7.0015     7.4970    11.6471
  109.0000   128.5110     7.9020     0.0212     2.4692     0.1122   -30.6663     6.9957     7.4903    11.4096
  109.5000   129.2710     7.9035     0.0258     2.4745     0.1092   -30.3780     6.9898     7.4836    11.4009
  110.0000   129.7330     7.9047     0.0275     2.4783     0.1070   -30.2409     6.9841     7.4769    11.5522
  110.5000   129.8969     7.9059     0.0246     2.4746     0.1067   -30.2549     7.0271     7.4702    11.5434
