~VERSION INFORMATION
 VERS.                2.0:   CWLS LOG ASCII STANDARD - VERSION 2.0
 WRAP.                 NO:   ONE LINE PER DEPTH STEP
~WELL INFORMATION
#MNEM.UNIT      DATA TYPE    INFORMATION
#----------   ------------   ------------------------------
 STRT.F            0.0000:   START DEPTH
 STOP.F          614.0000:   STOP DEPTH
 STEP.F            0.5000:   STEP LENGTH
 NULL.          -999.2500:   NO VALUE
 COMP. BROWN JOHN E&C INC:   COMPANY
 WELL. NAVAL PET  RESERVE 3 SHX-2 #12-15-2:   WELL
 FLD .                NPR:   FIELD
 LOC .       S2 T38N R78W:   LOCATION
 CNTY.            NATRONA:   COUNTY
 STAT.            WYOMING:   STATE
 CTRY. UNITED STATES OF AMERICA:   COUNTRY
 SRVC.           Gearhart:   SERVICE COMPANY
 DATE.        17-AUG-1988:   LOGDATE
 API .       490251124000:   API NUMBER
~CURVE INFORMATION
#MNEM.UNIT       API CODE    CURVE DESCRIPTION
#----------   ------------   ------------------------------
 DEPT.F                  :   
 GRR .GAPI   07 310 01 00:   GAMMA RAY
 RILD.OHMM   07 120 46 00:   INDUCTION LOG DEEP RESISTIVITY
 RILM.OHMM   07 120 44 00:   INDUCTION LOG MEDIUM RESISTIVITY
~PARAMETER INFORMATION
#MNEM.UNIT          VALUE    DESCRIPTION
#----------   ------------   ------------------------------
 PD  .                 GL:   PERMANENT DATUM
 EPD .F              5093:   ELEVATION PERMANENT DATUM
 LMF .                 KB:   LOG MEASURED FROM
 DAPD.F                10:   FEET ABOVE PERMANENT DATUM
 DMF .                 KB:   DRILLING MEASURED FROM
 EKB .F              5103:   KELLING BUSHING
 EDF .F              5101:   DRILLING FLOOR
 EGL .F              5093:   GROUND LEVEL
 DATE.        17-AUG-1988:   RUN DATE
 RUN .                  1:   RUN NUMBER
 DD  .F               620:   DEPTH DRILLER
 DL  .F               623:   DEPTH LOGGER
 BLI .F               614:   BOTTOM LOG INTERVAL
 TLI .F                50:   TOP LOG INTERVAL
 CS  .IN            9.625:   CASING SIZE
 CBD .F                50:   CASING BOTTOM DRILLER
 CBL .F                50:   CASING BOTTOM LOGGER
 BS  .IN             8.75:   BIT SIZE
 BSD .F               620:   BIT SIZE AT DEPTH
 DFT .                AIR:   DRILLING FLUID TYPE
 TCS .HRS            0500:   TIME CURCULATED STOPPED
 TLAB.HRS            0625:   TIME LOGGER AT BOTTOM
 MRT .F                70:   MAXIMUM RECORDED TEMPERATURE
 LUN .               7597:   LOGGING UNIT NUMBER
 LUL .           GILLETTE:   LOGGING UNIT LOCATION
 ENGI.           JOHNSTON:   RECORDING ENGINEER
 WITN.             STRONG:   WITNESSED BY
 CLNT.            A2DTECH:   CLIENT CODE
 ORIG.           5" PRINT:   ORIGIN OF DATA
 UWI .       490251124000:   UNIQUE WELL ID
 DICO. A2D Technologies, Inc.:   DIGITIZING COMPANY
~OTHER INFORMATION
~A    DEPT      GRR      RILD       RILM   
    0.0000    32.5733  -999.2500  -999.2500
    0.5000    36.8473  -999.2500  -999.2500
    1.0000    40.2080  -999.2500  -999.2500
    1.5000    40.5246  -999.2500  -999.2500
    2.0000    39.6235  -999.2500  -999.2500
    2.5000    36.5915  -999.2500  -999.2500
    3.0000    29.9066  -999.2500  -999.2500
    3.5000    21.6996  -999.2500  -999.2500
    4.0000    13.7970  -999.2500  -999.2500
    4.5000     9.8518  -999.2500  -999.2500
    5.0000     9.2521  -999.2500  -999.2500
    5.5000    10.1805  -999.2500  -999.2500
    6.0000    12.0192  -999.2500  -999.2500
    6.5000    15.0755  -999.2500  -999.2500
    7.0000    27.2642  -999.2500  -999.2500
    7.5000    36.4088  -999.2500  -999.2500
    8.0000    41.5960  -999.2500  -999.2500
    8.5000    45.2611  -999.2500  -999.2500
    9.0000    47.4042  -999.2500  -999.2500
    9.5000    49.8517  -999.2500  -999.2500
   10.0000    51.9947  -999.2500  -999.2500
   10.5000    53.8334  -999.2500  -999.2500
   11.0000    55.9764  -999.2500  -999.2500
   11.5000    58.1195  -999.2500  -999.2500
   12.0000    60.2626  -999.2500  -999.2500
   12.5000    61.1880  -999.2500  -999.2500
   13.0000    61.5015  -999.2500  -999.2500
   13.5000    60.6035  -999.2500  -999.2500
   14.0000    59.7024  -999.2500  -999.2500
   14.5000    58.1925  -999.2500  -999.2500
   15.0000    56.0738  -999.2500  -999.2500
   15.5000    53.9550  -999.2500  -999.2500
   16.0000    52.1407  -999.2500  -999.2500
   16.5000    51.5410  -999.2500  -999.2500
   17.0000    51.5562  -999.2500  -999.2500
   17.5000    51.8728  -999.2500  -999.2500
   18.0000    51.8850  -999.2500  -999.2500
   18.5000    47.9398  -999.2500  -999.2500
   19.0000    43.3857  -999.2500  -999.2500
   19.5000    40.6581  -999.2500  -999.2500
   20.0000    40.0584  -999.2500  -999.2500
   20.5000    39.4642  -999.2500  -999.2500
   21.0000    38.2587  -999.2500  -999.2500
   21.5000    39.1847  -999.2500  -999.2500
   22.0000    41.3278  -999.2500  -999.2500
   22.5000    42.2532  -999.2500  -999.2500
   23.0000    41.0477  -999.2500  -999.2500
   23.5000    39.8422  -999.2500  -999.2500
   24.0000    38.6368  -999.2500  -999.2500
   24.5000    38.0401  -999.2500  -999.2500
   25.0000    36.8346  -999.2500  -999.2500
   25.5000    35.3247  -999.2500  -999.2500
   26.0000    33.8148  -999.2500  -999.2500
   26.5000    32.6093  -999.2500  -999.2500
   27.0000    32.6215  -999.2500  -999.2500
   27.5000    32.6336  -999.2500  -999.2500
   28.0000    32.6458  -999.2500  -999.2500
   28.5000    32.6580  -999.2500  -999.2500
   29.0000    33.2790  -999.2500  -999.2500
   29.5000    34.2044  -999.2500  -999.2500
   30.0000    36.9563  -999.2500  -999.2500
   30.5000    40.3170  -999.2500  -999.2500
   31.0000    43.3733  -999.2500  -999.2500
   31.5000    45.8208  -999.2500  -999.2500
   32.0000    47.3550  -999.2500  -999.2500
   32.5000    49.8025  -999.2500  -999.2500
   33.0000    53.4676  -999.2500  -999.2500
   33.5000    56.8283  -999.2500  -999.2500
   34.0000    57.4493  -999.2500  -999.2500
   34.5000    57.4615  -999.2500  -999.2500
   35.0000    57.1690  -999.2500  -999.2500
   35.5000    57.1814  -999.2500  -999.2500
   36.0000    57.1936  -999.2500  -999.2500
   36.5000    57.2058  -999.2500  -999.2500
   37.0000    57.2179  -999.2500  -999.2500
   37.5000    58.1433  -999.2500  -999.2500
   38.0000    60.2864  -999.2500  -999.2500
   38.5000    61.8206  -999.2500  -999.2500
   39.0000    63.3549  -999.2500  -999.2500
   39.5000    64.8891  -999.2500  -999.2500
   40.0000    64.2924  -999.2500  -999.2500
   40.5000    61.8693  -999.2500  -999.2500
   41.0000    59.4462  -999.2500  -999.2500
   41.5000    58.2407  -999.2500  -999.2500
   42.0000    59.7749  -999.2500  -999.2500
   42.5000    61.6135  -999.2500  -999.2500
   43.0000    63.1478  -999.2500  -999.2500
   43.5000    64.0732  -999.2500  -999.2500
   44.0000    64.9986  -999.2500  -999.2500
   44.5000    65.9240  -999.2500  -999.2500
   45.0000    66.8494  -999.2500  -999.2500
   45.5000    67.4704  -999.2500  -999.2500
   46.0000    69.3091  -999.2500  -999.2500
   46.5000    78.4536  -999.2500  -999.2500
   47.0000    90.0335  -999.2500  -999.2500
   47.5000    97.6561  -999.2500  -999.2500
   48.0000   103.7565  -999.2500  -999.2500
   48.5000   106.2040  -999.2500  -999.2500
   49.0000   107.4338  -999.2500  -999.2500
   49.5000   108.6636  -999.2500  -999.2500
   50.0000   111.1111    11.7134     3.2122
   50.5000   113.2542    13.5683     3.8001
   51.0000   112.6556    13.4669     5.2066
   51.5000   110.2286     8.6749     6.7930
   52.0000   108.1073     6.2733     7.8144
   52.5000   106.6006     6.0742     7.9818
   53.0000   105.6987     7.0712     7.8177
   53.5000   105.1010     7.8793     7.6036
   54.0000   104.5113     8.1159     7.2419
   54.5000   104.2191     8.3257     6.7541
   55.0000   104.2314     8.2109     6.7555
   55.5000   103.9390     8.2123     6.9974
   56.0000   103.3180     7.9312     7.4016
   56.5000   101.8194     7.1424     7.6132
   57.0000   100.6129     6.7547     7.6682
   57.5000   100.0303     6.4780     7.5632
   58.0000   100.3471     6.0837     7.2540
   58.5000    99.6985     5.3275     6.6250
   59.0000    95.1233     4.3807     6.0930
   59.5000    91.8407     3.7828     5.1167
   60.0000    91.2631     3.3359     3.9510
   60.5000    95.7070     2.9831     3.2039
   61.0000   107.6235     2.5760     2.7476
   61.5000   117.6198     2.3037     2.3563
   62.0000   123.6774     2.1185     2.1220
   62.5000   127.2450     2.0893     1.9380
   63.0000   126.9002     2.1340     1.8850
   63.5000   125.3883     2.2414     1.9257
   64.0000   124.4849     2.4723     2.0389
   64.5000   121.9712     2.8838     2.3969
   65.0000   112.1155     3.4594     3.0455
   65.5000   103.7524     4.2675     3.8898
   66.0000    97.2708     5.3386     5.6849
   66.5000    90.6792     6.6319     6.8996
   67.0000    85.8505     8.0676     7.9667
   67.5000    82.8512     9.4107     9.6399
   68.0000    81.3759    10.0938    11.2734
   68.5000    84.9233    10.3092    11.8179
   69.0000    88.1340    10.3830    11.9735
   69.5000    88.7549    10.1689    11.8770
   70.0000    88.4222     9.5499    11.2483
   70.5000    87.2568     8.1321     9.9895
   71.0000    87.3974     7.3233     8.3304
   71.5000    91.1526     6.7343     6.9957
   72.0000   100.5252     6.3680     5.6333
   72.5000   112.4046     6.1943     5.1810
   73.0000   118.9066     6.1520     4.9691
   73.5000   121.4242     6.1960     5.0401
   74.0000   117.2358     6.3336     5.7175
   74.5000   108.6199     6.5153     6.4858
   75.0000   102.1820     7.0396     7.2552
   75.5000    93.6167     8.2448     8.3461
   76.0000    91.0436     9.4333     9.2065
   76.5000    91.0563     9.9775     9.8755
   77.0000    91.1233    10.3340    10.4460
   77.5000    92.2983    10.7783    11.0493
   78.0000    93.2805    11.1634    11.5253
   78.5000    94.5113    11.6435    11.9379
   79.0000    95.3790    12.0595    12.2791
   79.5000    93.0805    12.4033    12.6301
   80.0000    89.9263    12.6680    12.8107
   80.5000    89.0253    12.9384    12.9938
   81.0000    88.7300    13.0310    12.9966
   81.5000    89.0496    13.2164    12.9993
   82.0000    90.8882    13.4044    13.0932
   82.5000    93.3357    13.5004    13.2804
   83.0000    94.8699    13.6924    13.4703
   83.5000    95.4909    13.8872    13.4731
   84.0000    94.8943    13.8892    13.6657
   84.5000    93.6858    13.9886    13.8611
   85.0000    94.0054    13.9905    13.9613
   85.5000    94.6264    14.0907    14.1609
   86.0000    93.7253    14.2911    14.2633
   86.5000    91.3021    14.2931    14.3664
   87.0000    90.3980    14.3954    14.5718
   87.5000    91.9353    14.6002    14.6771
   88.0000    94.9916    14.8079    14.7832
   88.5000    97.1347    14.9139    14.9946
   89.0000    98.3645    15.1261    15.1030
   89.5000    98.3767    15.2344    15.1061
   90.0000    98.3888    15.3434    15.2153
   90.5000    97.1833    15.3455    15.2185
