~VERSION INFORMATION
 VERS.                2.0:   CWLS LOG ASCII STANDARD - VERSION 2.0
 WRAP.                 NO:   ONE LINE PER DEPTH STEP
~WELL INFORMATION
#MNEM.UNIT      DATA TYPE    INFORMATION
#----------   ------------   ------------------------------
 STRT.F           38.5000:   START DEPTH
 STOP.F          606.0000:   STOP DEPTH
 STEP.F            0.5000:   STEP LENGTH
 NULL.          -999.2500:   NO VALUE
 COMP. FENIX & SCISSON INC:   COMPANY
 WELL.      NPR-X3 #185-2:   WELL
 FLD .             TEAPOT:   FIELD
 LOC .       S2 T38N R78W:   LOCATION
 CNTY.            NATRONA:   COUNTY
 STAT.            WYOMING:   STATE
 CTRY. UNITED STATES OF AMERICA:   COUNTRY
 SRVC.            Unknown:   SERVICE COMPANY
 DATE.        30-JAN-1978:   LOGDATE
 API .       490251056200:   API NUMBER
~CURVE INFORMATION
#MNEM.UNIT       API CODE    CURVE DESCRIPTION
#----------   ------------   ------------------------------
 DEPT.F                  :   
 CALD.IN     45 280 60 00:   CALIPER
 GRD .GAPI   45 310 01 00:   GAMMA RAY FROM DENSITY LOG
 CORR.G/C3   45 356 01 00:   DENSITY CORRECTION
 RHOB.G/C3   45 350 01 00:   BULK DENSITY
 DPHI.DEC    45 890 12 00:   DENSITY POROSITY SANDSTONE
 SPR .MV     05 010 01 00:   SPONTANEOUS POTENTIAL FROM RES.
 SN  .OHMM   05 040 16 00:   SHORT NORMAL 16"
 ILD .OHMM   05 120 46 00:   INDUCTION LOG DEEP
~PARAMETER INFORMATION
#MNEM.UNIT          VALUE    DESCRIPTION
#----------   ------------   ------------------------------
 PD  .                 GL:   PERMANENT DATUM
 EPD .F              5134:   ELEVATION PERMANENT DATUM
 LMF .                 KB:   LOG MEASURED FROM
 DAPD.F                 4:   FEET ABOVE PERMANENT DATUM
 DMF .                 KB:   DRILLING MEASURED FROM
 EKB .F              5138:   KELLING BUSHING
 EGL .F              5134:   GROUND LEVEL
 DATE.            1-30-78:   RUN DATE
 RUN .                  1:   RUN NUMBER
 DD  .F               600:   DEPTH DRILLER
 DL  .F               604:   DEPTH LOGGER
 BLI .F               598:   BOTTOM LOG INTERVAL
 TLI .F                40:   TOP LOG INTERVAL
 CS  .IN            8.625:   CASING SIZE
 CBD .F                40:   CASING BOTTOM DRILLER
 CBL .F                41:   CASING BOTTOM LOGGER
 BS  .IN            7.875:   BIT SIZE
 BSD .F               600:   BIT SIZE AT DEPTH
 DFT .                KCL:   DRILLING FLUID TYPE
 DFD .                8.6:   DRILLING FLUID DENSITY
 DFV .                 34:   DRILLING FLUID VISCOSITY
 DFPH.                 10:   DRILLING FLUID PH
 DFL .                  7:   DRILLING FLUID LOSS
 MSS .                PIT:   MUD SAMPLE SOURCE
 RMS .OHMM            .65:   RESISTIVITY MUD SAMPLE
 MST .F                70:   MUD SAMPLE TEMPERATURE
 RMF .OHMM            1.2:   RESISTIVITY MUD FILTRATE SAMPLE
 MFST.F                64:   MUD FILTRATE SAMPLE TEMPERATURE
 MFSS.               MEAS:   MUD FILTRATE SAMPLE SOURCE
 RMB .OHMM            .64:   RESISTIVITY MUD AT BHT
 BHT .F                71:   BOTTOM HOLE TEMPERATURE
 TCS .HRS               3:   TIME CURCULATED STOPPED
 MRT .F                71:   MAXIMUM RECORDED TEMPERATURE
 LUN .               2958:   LOGGING UNIT NUMBER
 LUL .                CAS:   LOGGING UNIT LOCATION
 ENGI.           REYNOLDS:   RECORDING ENGINEER
 WITN.         HARRINGTON:   WITNESSED BY
 CLNT.            A2DTECH:   CLIENT CODE
 ORIG.        2" 5" PRINT:   ORIGIN OF DATA
 UWI .       490251056200:   UNIQUE WELL ID
 DICO. A2D Technologies, Inc.:   DIGITIZING COMPANY
~OTHER INFORMATION
~A   DEPT     CALD        GRD        CORR      RHOB       DPHI        SPR         SN        ILD   
# ...
  484.0000     8.0397    80.8425     0.1233     2.3412     0.1909   -57.9513    17.9540    16.1971
  484.5000     8.0314    80.9476     0.1651     2.3307     0.2070   -57.8960    17.6339    16.1123
  485.0000     8.0180    81.4314     0.2050     2.3096     0.2107   -57.7653    17.2670    16.0279
  485.5000     8.0041    84.1980     0.2218     2.3050     0.2028   -57.8119    16.9082    15.9466
  486.0000     7.9864    86.5580     0.2286     2.3273     0.1785   -57.8550    16.6434    15.7161
  486.5000     7.9573    86.7080     0.2173     2.3636     0.1640   -57.8988    16.6444    15.3225
  487.0000     7.9268    91.6959     0.2065     2.3860     0.1548   -57.9425    16.3093    14.9078
  487.5000     7.9582    92.4628     0.1999     2.3982     0.1511   -57.9861    15.8415    14.6125
  488.0000     8.0005    87.4188     0.1006     2.3943     0.1452   -58.0297    15.4655    14.3193
  488.5000     7.9775    84.1544     0.1115     2.4414     0.1336   -58.0725    15.5208    14.0320
  489.0000     7.9541    83.7610     0.1248     2.4505     0.1248   -58.1167    15.5774    13.9797
  489.5000     7.9405    86.3269     0.1274     2.3659     0.1754   -58.2237    15.6082    13.9797
  490.0000     7.9406    88.9248     0.1611     2.3693     0.1723   -58.5971    15.1272    13.9797
  490.5000     7.9406    88.7329     0.1463     2.3620     0.1758   -58.9646    14.8997    13.8314
  491.0000     7.9406    89.8717     0.1482     2.3709     0.1616   -59.1419    14.8358    13.6248
  491.5000     7.9406    92.9141     0.1531     2.4039     0.1563   -59.1461    14.7715    13.4213
  492.0000     7.9406    94.2086     0.1549     2.3878     0.1638   -59.1488    14.4296    13.2209
  492.5000     7.9406    93.1012     0.1247     2.3863     0.1509   -59.1297    14.2043    13.0434
  493.0000     7.9406    91.8114     0.1140     2.4133     0.1392   -58.6712    14.0556    12.8938
  493.5000     7.9406    90.4716     0.1010     2.4306     0.1475   -58.2041    13.8293    12.7460
  494.0000     7.9406    91.9443     0.0877     2.4071     0.1495   -58.1496    13.5365    12.5998
  494.5000     7.9405    92.7127     0.0873     2.4093     0.1495   -58.1509    13.3240    12.4553
  495.0000     7.9349    88.5220     0.1010     2.4077     0.1516   -58.1480    13.2455    12.3125
  495.5000     7.9226    82.7984     0.1204     2.4011     0.1594   -57.9723    13.1674    12.1713
  496.0000     7.9103    80.1853     0.1214     2.3945     0.1598   -57.5060    13.0191    12.0317
  496.5000     7.8980    82.4784     0.1214     2.3963     0.1535   -57.5012    12.6478    11.9245
  497.0000     7.8857    82.9662     0.1245     2.4011     0.1539   -57.7121    12.3923    11.8519
  497.5000     7.8733    82.8109     0.1427     2.4004     0.1635   -57.9303    12.3359    11.7798
  498.0000     7.8624    80.6222     0.1649     2.3848     0.1709   -58.1424    12.2925    11.7082
  498.5000     7.8848    81.0214     0.1766     2.3704     0.1730   -58.2048    12.2932    11.6369
  499.0000     7.9082    81.2391     0.1498     2.3725     0.1602   -58.2704    12.2932    11.5661
  499.5000     7.9211    79.6379     0.1437     2.3910     0.1409   -58.3372    12.2932    11.5278
  500.0000     7.9266    77.9657     0.1351     2.4162     0.1339   -58.4042    12.2932    11.5278
  500.5000     7.9322    80.0535     0.1301     2.3941     0.1590   -58.4712    12.2932    11.5278
  501.0000     7.9377    82.0125     0.1919     2.4162     0.1684   -58.5382    12.2933    11.5279
  501.5000     7.9431    80.7200     0.2233     2.3724     0.1507   -58.6052    12.2932    11.5292
  502.0000     7.9486    79.4497     0.2246     2.3716     0.1459   -58.6722    12.2854    11.5022
  502.5000     7.9541    78.7461     0.2329     2.3853     0.1642   -58.7383    12.2492    11.4413
  503.0000     7.9596    78.4019     0.2323     2.3847     0.1595   -58.7809    12.2134    11.3618
  503.5000     7.9603    78.0999     0.2229     2.3877     0.1510   -58.8189    12.1778    11.2716
  504.0000     7.9645    78.7989     0.2121     2.4174     0.1444   -58.8571    12.1423    11.1827
  504.5000     7.9692    79.9185     0.2005     2.4173     0.1506   -58.8948    12.1068    11.1121
  505.0000     7.9739    81.0370     0.2426     2.4040     0.1594   -58.9347    12.0715    11.1121
  505.5000     7.9787    81.6113     0.2700     2.3906     0.1623   -58.8576    12.0363    11.1121
  506.0000     7.9834    81.1991     0.2680     2.3849     0.1533   -58.7252    12.0012    11.1121
  506.5000     7.9880    82.0440     0.2636     2.4167     0.1408   -58.5905    11.9662    11.0926
  507.0000     7.9929    81.7555     0.2243     2.4408     0.1203   -58.4565    11.9312    10.9467
  507.5000     7.9983    82.0392     0.1407     2.4755     0.0841   -58.3552    11.8964    10.8029
  508.0000     8.0215    82.7357     0.1349     2.5420     0.0759   -58.4033    11.8615    10.6134
  508.5000     8.0120    81.3895     0.1358     2.5073     0.1102   -58.4482    11.8114    10.6548
  509.0000     8.0024    79.7755     0.1366     2.4727     0.1189   -58.4927    11.7520    10.7182
  509.5000     7.9932    79.2350     0.1372     2.4575     0.1221   -58.5343    11.6930    10.7820
  510.0000     7.9839    82.4359     0.1372     2.4573     0.1205   -58.7575    11.6345    10.8465
  510.5000     7.9816    83.8624     0.1287     2.4647     0.1166   -59.0336    11.7172    10.9097
  511.0000     7.9838    84.5334     0.1133     2.4690     0.1134   -59.3108    11.8036    10.8884
  511.5000     7.9860    87.1284     0.0974     2.4725     0.1125   -59.5877    11.8904    10.8666
  512.0000     7.9883    88.2410     0.0913     2.4727     0.1130   -59.8746    11.9781    10.8450
  512.5000     7.9905    88.4720     0.0894     2.4736     0.1135   -59.9660    12.0690    10.8232
  513.0000     7.9928    88.7823     0.0895     2.4803     0.1125   -60.0023    12.0151    10.8104
  513.5000     7.9950    90.1948     0.0895     2.4867     0.1077   -60.0371    11.9581    10.8688
  514.0000     7.9973    91.9778     0.0895     2.4793     0.1119   -60.0733    11.9015    10.9116
  514.5000     7.9996    92.1528     0.0895     2.4703     0.1173   -60.1089    11.8452    10.7552
  515.0000     8.0000    92.1990     0.0895     2.4628     0.1169   -60.0961    11.7892    10.5786
  515.5000     8.0000    91.7308     0.0896     2.4629     0.1172   -59.7076    11.7255    10.4036
  516.0000     8.0000    96.6179     0.0912     2.4670     0.1177   -59.7252    11.6190    10.2311
  516.5000     8.0000    98.9517     0.0927     2.4717     0.1153   -60.0316    11.5134    10.1810
  517.0000     8.0000    98.0202     0.0942     2.4731     0.1121   -60.3964    11.4088    10.1320
  517.5000     7.9999    94.2935     0.0941     2.4746     0.1114   -61.8553    11.3051    10.0829
  518.0000     7.9946    92.1636     0.0868     2.4796     0.1109   -61.2657    11.2023    10.0339
  518.5000     7.9789    89.3853     0.0787     2.4843     0.1091   -57.5816    11.1005     9.9852
  519.0000     7.9633    87.6913     0.0740     2.4873     0.1077   -57.7116    10.9996     9.9367
  519.5000     7.9475    88.2750     0.0759     2.4804     0.1120   -57.9416    10.8997     9.8884
  520.0000     7.9321    88.7857     0.0839     2.4736     0.1169   -58.1824    10.8006     9.7956
  520.5000     7.9263    89.3271     0.0869     2.4745     0.1151   -58.3451    10.7113     9.6488
  521.0000     7.9516    90.7819     0.0855     2.4812     0.1127   -58.3061    10.5735     9.5041
  521.5000     7.9758    90.3570     0.0841     2.4881     0.1105   -58.2718    10.4488     9.3616
  522.0000     8.0000    90.6728     0.0855     2.4888     0.1097   -58.2373    10.3255     9.1632
  522.5000     8.0202    92.0221     0.0900     2.4834     0.1142   -58.2030    10.2037     9.0264
  523.0000     8.0137    92.7595     0.0914     2.4675     0.1161   -58.1696    10.0833     8.8910
  523.5000     8.0072    92.3176     0.0914     2.4597     0.1169   -58.1919     9.9075     8.7577
  524.0000     8.0007    93.7350     0.0912     2.4601     0.1208   -58.2777     9.7079     8.5927
