~VERSION INFORMATION
 VERS.                2.0:   CWLS LOG ASCII STANDARD - VERSION 2.0
 WRAP.                 NO:   ONE LINE PER DEPTH STEP
~WELL INFORMATION
#MNEM.UNIT      DATA TYPE    INFORMATION
#----------   ------------   ------------------------------
 STRT.F           36.0000:   START DEPTH
 STOP.F          493.0000:   STOP DEPTH
 STEP.F            0.5000:   STEP LENGTH
 NULL.          -999.2500:   NO VALUE
 COMP.    FENIX & SCISSON:   COMPANY
 WELL.       NPR #68-S-10:   WELL
 FLD .             TEAPOT:   FIELD
 LOC .      S10 T38N R78W:   LOCATION
 CNTY.            NATRONA:   COUNTY
 STAT.            WYOMING:   STATE
 CTRY. UNITED STATES OF AMERICA:   COUNTRY
 SRVC.              Welex:   SERVICE COMPANY
 DATE.        18-APR-1977:   LOGDATE
 API .       490251033500:   API NUMBER
~CURVE INFORMATION
#MNEM.UNIT       API CODE    CURVE DESCRIPTION
#----------   ------------   ------------------------------
 DEPT.F                  :   
 SPR .MV     07 010 01 00:   SPONTANEOUS POTENTIAL
 ILD .OHMM   07 120 46 00:   INDUCTION LOG DEEP
 ILM .OHMM   07 120 44 00:   INDUCTION LOG MEDIUM
 SGRD.OHMM   07 221 05 00:   SHALLOW SHORT GUARD RESISTIVITY
 CALD.IN     45 280 60 00:   CALIPER FROM DENSITY LOG
 GRD .GAPI   45 310 01 00:   GAMMA RAY FROM DENSITY LOG
 CORR.G/C3   45 356 01 00:   DENSITY CORRECTION
 RHOB.G/C3   45 350 01 00:   BULK DENSITY
 DPHI.DEC    45 890 12 00:   DENSITY POROSITY SANDSTONE
~PARAMETER INFORMATION
#MNEM.UNIT          VALUE    DESCRIPTION
#----------   ------------   ------------------------------
 PD  .                 GL:   PERMANENT DATUM
 EPD .F              5198:   ELEVATION PERMANENT DATUM
 LMF .                 GL:   LOG MEASURED FROM
 DMF .                 GL:   DRILLING MEASURED FROM
 EGL .F              5198:   GROUND LEVEL
 DATE.        18-APR-1977:   RUN DATE
 RUN .                  1:   RUN NUMBER
 DD  .F               505:   DEPTH DRILLER
 DL  .F               492:   DEPTH LOGGER
 BLI .F               490:   BOTTOM LOG INTERVAL
 TLI .F                32:   TOP LOG INTERVAL
 CS  .IN            8.625:   CASING SIZE
 CBD .F                40:   CASING BOTTOM DRILLER
 CBL .F                42:   CASING BOTTOM LOGGER
 BS  .IN            7.875:   BIT SIZE
 BSD .F               505:   BIT SIZE AT DEPTH
 DFT .            KCL MUD:   DRILLING FLUID TYPE
 DFV .                 36:   DRILLING FLUID VISCOSITY
 MSS .           FLOWLINE:   MUD SAMPLE SOURCE
 RMS .OHMM           2.46:   RESISTIVITY MUD SAMPLE
 MST .F                52:   MUD SAMPLE TEMPERATURE
 RMF .OHMM           2.30:   RESISTIVITY MUD FILTRATE SAMPLE
 MFST.F                52:   MUD FILTRATE SAMPLE TEMPERATURE
 RMC .OHMM           2.66:   RESISTIVITY MUD CAKE
 MCST.F                52:   MUD CAKE SAMPLE TEMPERATURE
 MFSS.               MEAS:   MUD FILTRATE SAMPLE SOURCE
 MCSS.               MEAS:   MUD CAKE SAMPLE SOURCE
 RMB .OHMM           1.97:   RESISTIVITY MUD AT BHT
 BHT .F                65:   BOTTOM HOLE TEMPERATURE
 TCS .HRS            0400:   TIME CURCULATED STOPPED
 MRT .F                65:   MAXIMUM RECORDED TEMPERATURE
 LUN .               8611:   LOGGING UNIT NUMBER
 LUL .             CASPER:   LOGGING UNIT LOCATION
 ENGI.               DOAK:   RECORDING ENGINEER
 WITN.            R. LYON:   WITNESSED BY
 CLNT.            A2DTECH:   CLIENT CODE
 ORIG.           5" PRINT:   ORIGIN OF DATA
 UWI .       490251033500:   UNIQUE WELL ID
 DICO. A2D Technologies, Inc.:   DIGITIZING COMPANY
~OTHER INFORMATION
~A   DEPT      SPR        ILD        ILM       SGRD         CALD       GRD      CORR       RHOB       DPHI   
# ...
  218.5000   -54.7067     5.1018     7.0358    11.5887     7.9275   112.5109     0.0099     2.3568     0.1705
  219.0000   -54.6901     5.6238     7.4406    11.2016     7.9437   111.1881     0.0100     2.3680     0.1597
  219.5000   -54.6736     6.0639     7.8147    10.7529     7.9449   110.4605     0.0116     2.3913     0.1488
  220.0000   -54.5091     6.2902     8.0394    10.3222     7.9462   110.0306     0.0147     2.4197     0.1350
  220.5000   -54.4925     6.4129     8.2147    10.2568     7.9476   110.6423     0.0208     2.4318     0.1281
  221.0000   -54.3280     6.2431     8.3342    10.4149     7.9489   111.2541     0.0164     2.4266     0.1290
  221.5000   -54.3114     6.0779     8.3406    10.8664     7.9503   110.3777     0.0135     2.4248     0.1290
  222.0000   -54.2949     5.9159     8.1684    11.4055     7.9516   106.3763     0.0151     2.4364     0.1256
  222.5000   -54.4303     5.6424     7.6721    11.6396     7.9530   104.0119     0.0213     2.4492     0.1196
  223.0000   -54.7055     5.4553     7.0694     8.8368     7.9693   104.9212     0.0289     2.4583     0.1133
  223.5000   -54.9848     5.3109     6.5659     5.2680     7.9706   106.4238     0.0350     2.4613     0.1112
  224.0000   -55.1161     5.2051     6.7199     5.7659     7.9720   108.3004     0.0336     2.4576     0.1141
  224.5000   -55.3954     5.1733     6.9544     8.9744     7.9733   110.9210     0.0277     2.4487     0.1204
  225.0000   -55.2309     5.1783     6.7627     9.6199     7.9747   111.6815     0.0218     2.4308     0.1276
  225.5000   -55.0664     5.2181     6.6825     7.5599     7.9760   112.7397     0.0144     2.4167     0.1338
  226.0000   -54.9019     5.3683     7.1666     9.2409     7.9625   113.7979     0.0100     2.4085     0.1401
  226.5000   -54.7374     5.6382     7.5790    10.9123     7.9638   114.4096     0.0041     2.4071     0.1428
  227.0000   -54.5729     5.8811     7.9600    11.3002     7.9652   115.1681     0.0012     2.4094     0.1406
  227.5000   -54.2605     6.1343     8.0197     9.9864     7.9665   117.2679    -0.0002     2.4124     0.1391
  228.0000   -53.9480     6.4874     8.1951     9.7857     7.9679   119.0701    -0.0016     2.4080     0.1433
  228.5000   -53.6356     6.8137     8.8479    11.7991     7.9543   121.6164    -0.0030     2.3991     0.1489
  229.0000   -53.3232     7.0582     8.7316    12.3049     7.9557   123.7162    -0.0044     2.3917     0.1504
  229.5000   -53.0108     7.3116     9.0466    12.8324     7.9570   125.9648    -0.0028     2.3970     0.1435
  230.0000   -52.8463     7.7324     9.5014    13.1990     7.9584   126.5766    -0.0027     2.4052     0.1385
  230.5000   -52.8297     8.1213     9.7747    13.4826     7.9597   122.8728    -0.0011     2.4143     0.1342
  231.0000   -52.8131     8.3550     9.9866    13.6776     7.9609   119.7643    -0.0010     2.4188     0.1326
  231.5000   -52.7965     8.5363     9.9942    13.4974     7.9622   119.1856    -0.0006     2.4226     0.1308
  232.0000   -52.7800     8.6020    10.0017    13.3177     7.9636   119.6485     0.0040     2.4294     0.1269
  232.5000   -52.7634     8.5493     9.9405    13.3269     7.9724   121.7483     0.0101     2.4429     0.1236
  233.0000   -52.8989     8.4387     9.8117    13.0608     7.9812   123.8481     0.0161     2.4580     0.1191
  233.5000   -52.8782     8.3296     9.6845    12.6245     7.9826   126.2456     0.0222     2.4692     0.1123
  234.0000   -53.0137     8.1652     9.4915    12.0355     7.9839   126.4109     0.0283     2.4779     0.1047
  234.5000   -53.2896     8.0589     9.2402    11.7141     7.9851   124.9393     0.0344     2.4853     0.0980
  235.0000   -53.2722     7.7387     8.9954    11.7205     7.9716   123.4677     0.0359     2.4874     0.0938
  235.5000   -53.4042     7.4749     8.8195    11.7270     7.9729   121.2520     0.0360     2.4843     0.0985
  236.0000   -53.3870     7.1794     8.7638    11.6474     7.9743   119.1852     0.0361     2.4821     0.1000
  236.5000   -53.3704     6.9399     8.5924    11.2481     7.9756   120.0945     0.0362     2.4793     0.1003
  237.0000   -53.3539     6.6552     8.3649    10.9427     7.9621   121.3015     0.0363     2.4763     0.1035
  237.5000   -53.4855     6.3795     8.1997    10.5845     7.9634   122.8061     0.0334     2.4720     0.1092
  238.0000   -53.4687     6.0242     7.9277    10.4568     7.9648   123.8643     0.0290     2.4630     0.1155
  238.5000   -53.6000     5.7051     7.6646    10.2481     7.9661   119.7141     0.0261     2.4519     0.1202
  239.0000   -53.7315     5.4780     7.2586     9.4397     7.9675   117.7961     0.0232     2.4400     0.1256
  239.5000   -53.8628     5.3330     6.8740     7.5726     7.9688   118.4078     0.0203     2.4288     0.1280
  240.0000   -53.8462     5.4487     6.8306     5.5525     7.9702   120.5799     0.0174     2.4199     0.1327
  240.5000   -53.8377     5.4857     7.0770     7.7395     7.9715   125.5072     0.0160     2.4095     0.1384
  241.0000   -53.8305     5.6004     7.3817    10.2069     7.9729   128.3510     0.0131     2.4021     0.1444
  241.5000   -53.6753     5.7970     7.8605    11.1715     7.9743   125.9865     0.0072     2.3969     0.1482
  242.0000   -53.2242     6.1259     8.3704    12.0596     7.9756   124.5893     0.0028     2.3947     0.1503
  242.5000   -53.0691     6.4735     8.8520    12.4900     7.9770   124.5314    -0.0031     2.3940     0.1518
  243.0000   -53.0618     6.8409     9.1696    12.8468     7.9783   125.7384    -0.0060     2.3896     0.1533
  243.5000   -52.7587     7.2291     9.3685    13.1228     7.9797   126.8689    -0.0104     2.3852     0.1565
  244.0000   -52.7515     7.6393     9.3756    12.3390     7.9810   128.2247    -0.0133     2.3792     0.1604
  244.5000   -52.5961     7.9621     9.3827    11.6823     7.9824   129.8781    -0.0162     2.3681     0.1676
  245.0000   -52.5888     8.0728     9.4548    12.5242     7.9837   128.1089    -0.0176     2.3599     0.1741
  245.5000   -52.4321     8.1849     9.5274    13.4269     7.9851   130.6551    -0.0190     2.3540     0.1777
  246.0000   -52.4248     8.2416     9.6671    13.1588     7.9862   134.2431    -0.0188     2.3496     0.1768
  246.5000   -52.4176     8.2416     9.8088    12.8944     7.9876   133.5155    -0.0187     2.3706     0.1642
  247.0000   -52.4103     8.2987     9.9526    12.9926     7.9889   134.8713    -0.0202     2.3826     0.1575
  247.5000   -52.4031     8.4722     9.9601    13.1805     7.9903   135.9294    -0.0200     2.3834     0.1599
  248.0000   -52.3958     8.4722    10.0367    13.2790     7.9916   133.4162    -0.0169     2.3797     0.1512
  248.5000   -52.3886     8.5309    10.0443    13.4711     7.9930   125.8366    -0.0123     2.4007     0.1449
  249.0000   -52.3814     8.4722    10.0519    13.3857     7.9944   125.1102    -0.0077     2.4150     0.1371
  249.5000   -52.3741     8.2987    10.0595    13.2093     7.9956   124.3855    -0.0016     2.4240     0.1313
  250.0000   -52.3669     8.2416     9.9978    12.9451     7.9820   125.4464     0.0001     2.4304     0.1279
  250.5000   -51.9051     8.1366    10.0059    13.2258     7.9775   126.3586     0.0012     2.4346     0.1262
  251.0000   -52.3310     8.1440    10.0129    12.8790     7.9731   122.3600     0.0017     2.4362     0.1256
  251.5000   -52.3131     8.1513    10.0198    12.7984     7.9721   120.4448     0.0018     2.4377     0.1252
  252.0000   -52.2951     8.1587    10.0962    12.6335     7.9738   121.6546     0.0019     2.4355     0.1258
  252.5000   -52.2772     8.1661    10.1032    12.5571     7.9754   121.8227     0.0020     2.4281     0.1294
  253.0000   -52.2593     8.1734    10.1102    13.1927     7.9770   120.0563     0.0022     2.4147     0.1342
  253.5000   -52.2413     8.1808    10.1172    13.7593     7.9787   118.7363     0.0007     2.4050     0.1407
  254.0000   -52.2234     8.1319    10.2070    13.1238     7.9654   119.2020    -0.0007     2.3998     0.1464
  254.5000   -52.2055     8.1392    10.3416    12.8629     7.9670   120.1142     0.0010     2.3999     0.1467
