~VERSION INFORMATION
 VERS.                2.0:   CWLS LOG ASCII STANDARD - VERSION 2.0
 WRAP.                 NO:   ONE LINE PER DEPTH STEP
~WELL INFORMATION
#MNEM.UNIT      DATA TYPE    INFORMATION
#----------   ------------   ------------------------------
 STRT.F           32.0000:   START DEPTH
 STOP.F          501.0000:   STOP DEPTH
 STEP.F            0.5000:   STEP LENGTH
 NULL.          -999.2500:   NO VALUE
 COMP.    FENIX & SCISSON:   COMPANY
 WELL.    NPR "SX" #75-10:   WELL
 FLD .             TEAPOT:   FIELD
 LOC .      S10 T38N R78W:   LOCATION
 CNTY.            NATRONA:   COUNTY
 STAT.            WYOMING:   STATE
 CTRY. UNITED STATES OF AMERICA:   COUNTRY
 SRVC.              Welex:   SERVICE COMPANY
 DATE.        08-MAR-1977:   LOGDATE
 API .       490251029200:   API NUMBER
~CURVE INFORMATION
#MNEM.UNIT       API CODE    CURVE DESCRIPTION
#----------   ------------   ------------------------------
 DEPT.F                  :   
 SPR .MV     07 010 01 00:   SPONTANEOUS POTENTIAL
 ILD .OHMM   07 120 46 00:   INDUCTION LOG DEEP
 ILM .OHMM   07 120 44 00:   INDUCTION LOG MEDIUM
 SGRD.OHMM   07 221 05 00:   SHALLOW SHORT GUARD RESISTIVITY
 GRD .GAPI   45 310 01 00:   GAMMA RAY FROM DENSITY LOG
 CALD.IN     45 280 60 00:   CALIPER FROM DENSITY LOG
 CORR.G/C3   45 356 01 00:   DENSITY CORRECTION
 RHOB.G/C3   45 350 01 00:   BULK DENSITY
 DPHI.DEC    45 890 12 00:   DENSITY POROSITY SANDSTONE
~PARAMETER INFORMATION
#MNEM.UNIT          VALUE    DESCRIPTION
#----------   ------------   ------------------------------
 PD  .                 GL:   PERMANENT DATUM
 EPD .F              5184:   ELEVATION PERMANENT DATUM
 LMF .                 GL:   LOG MEASURED FROM
 DAPD.F                GL:   FEET ABOVE PERMANENT DATUM
 EGL .F              5184:   GROUND LEVEL
 DATE.          03-8-1977:   RUN DATE
 RUN .                  1:   RUN NUMBER
 DD  .F               510:   DEPTH DRILLER
 DL  .F               505:   DEPTH LOGGER
 BLI .F               503:   BOTTOM LOG INTERVAL
 TLI .F                35:   TOP LOG INTERVAL
 CS  .IN            8.625:   CASING SIZE
 CBD .F                42:   CASING BOTTOM DRILLER
 CBL .F                43:   CASING BOTTOM LOGGER
 BS  .IN            7.875:   BIT SIZE
 BSD .F               510:   BIT SIZE AT DEPTH
 DFT .            KCL MUD:   DRILLING FLUID TYPE
 DFD .                8.6:   DRILLING FLUID DENSITY
 DFV .                 36:   DRILLING FLUID VISCOSITY
 DFPH.                9.5:   DRILLING FLUID PH
 DFL .                  2:   DRILLING FLUID LOSS
 MSS .           FLOWLINE:   MUD SAMPLE SOURCE
 RMS .OHMM            .49:   RESISTIVITY MUD SAMPLE
 MST .F                56:   MUD SAMPLE TEMPERATURE
 RMF .OHMM            .42:   RESISTIVITY MUD FILTRATE SAMPLE
 MFST.F                56:   MUD FILTRATE SAMPLE TEMPERATURE
 RMC .OHMM            .62:   RESISTIVITY MUD CAKE
 MCST.F                56:   MUD CAKE SAMPLE TEMPERATURE
 MFSS.               MEAS:   MUD FILTRATE SAMPLE SOURCE
 MCSS.               MEAS:   MUD CAKE SAMPLE SOURCE
 RMB .OHMM            .44:   RESISTIVITY MUD AT BHT
 BHT .F                62:   BOTTOM HOLE TEMPERATURE
 TCS .HRS               2:   TIME CURCULATED STOPPED
 MRT .F                62:   MAXIMUM RECORDED TEMPERATURE
 LUN .               8611:   LOGGING UNIT NUMBER
 LUL .           GILLETTE:   LOGGING UNIT LOCATION
 ENGI.            C. DOAK:   RECORDING ENGINEER
 WITN.           S. BURNE:   WITNESSED BY
 CLNT.            A2DTECH:   CLIENT CODE
 ORIG.        2" 5" PRINT:   ORIGIN OF DATA
 UWI .       490251029200:   UNIQUE WELL ID
 DICO. A2D Technologies, Inc.:   DIGITIZING COMPANY
~OTHER INFORMATION
~A   DEPT      SPR        ILD        ILM       SGRD         GRD        CALD      CORR        RHOB     DPHI   
# ...
  287.5000   -38.3974    10.3790    12.7279    12.4846    97.9888     8.1278     0.0915     2.4912     0.0937
  288.0000   -37.8104    11.0415    14.5029    13.1910    88.6176     8.1744     0.0871     2.4665     0.1144
  288.5000   -37.2235    11.7462    19.9091    14.6274    78.3523     8.1764     0.0827     2.4358     0.1266
  289.0000   -36.7857    12.9348    21.7657    22.0482    77.3798     8.1187     0.0784     2.4104     0.1404
  289.5000   -36.3480    14.5595    22.5147    33.0214    80.6233     8.0163     0.0740     2.3812     0.1509
  290.0000   -35.9005    16.2350    25.4781    31.2408    81.0979     7.8748     0.0680     2.3610     0.1707
  290.5000   -35.3258    18.3785    26.5444    26.2829    78.8706     7.7637     0.0682     2.3361     0.1931
  291.0000   -35.0373    20.0990    24.5881    25.2113    76.4958     7.7534     0.0638     2.3009     0.2024
  291.5000   -34.7497    21.2348    22.0067    26.8222    80.2474     7.7580     0.0609     2.2997     0.2063
  292.0000   -34.6097    22.4347    21.2492    40.2662    83.3950     7.7896     0.0596     2.3149     0.1997
  292.5000   -34.4701    23.2165    26.2990    47.8846    83.4179     7.9218     0.0673     2.3308     0.1864
  293.0000   -34.4806    23.8603    30.1741    35.3308    84.5056     8.0892     0.0704     2.3473     0.1810
  293.5000   -34.4930    23.8524    31.4326    36.5645    86.6000     8.1060     0.0705     2.3533     0.1771
  294.0000   -34.3513    23.8460    31.8524    39.1704    86.8938     8.1079     0.0707     2.3540     0.1761
  294.5000   -34.3638    23.6757    31.3993    40.2595    85.0730     8.0949     0.0693     2.3360     0.1833
  295.0000   -34.3739    23.3448    31.1666    34.1448    82.5484     8.0968     0.0679     2.3275     0.1878
  295.5000   -34.3839    23.1780    30.9362    32.9410    80.7460     8.0839     0.0666     2.3110     0.1958
  296.0000   -34.5473    23.1590    33.3532    33.3924    79.2153     8.0548     0.0652     2.2965     0.2096
  296.5000   -34.8543    22.8465    36.9701    36.2678    83.0173     8.0271     0.0623     2.3086     0.2057
  297.0000   -34.8643    22.6832    36.6964    43.3906    82.6831     7.9696     0.0564     2.3117     0.2006
  297.5000   -35.0236    22.5212    34.9478    44.1082    80.9125     7.9270     0.0535     2.3020     0.2041
  298.0000   -35.0336    22.5152    33.9785    34.7688    82.8677     7.8992     0.0597     2.3261     0.1945
  298.5000   -35.0437    21.8961    38.7119    41.6029    84.2268     7.9023     0.0659     2.3531     0.1819
  299.0000   -35.0548    21.4415    37.8988    43.9589    85.8839     7.9487     0.0735     2.3772     0.1665
  299.5000   -35.2155    21.2869    33.2251    37.2370    86.0463     7.9951     0.0797     2.3840     0.1584
  300.0000   -35.2230    21.4529    32.0857    32.8804    84.7202     8.0417     0.0798     2.3774     0.1608
  300.5000   -35.1336    21.7374    32.7887    36.5391    83.3962     8.0740     0.0811     2.3474     0.1771
  301.0000   -35.0925    22.0219    35.0615    36.9550    83.1114     8.1058     0.0823     2.3212     0.1896
  301.5000   -34.9522    22.4748    34.3295    35.9387    84.6408     8.1081     0.0832     2.3160     0.1963
  302.0000   -34.9610    23.1379    34.7924    37.1885    85.5257     8.0783     0.0818     2.3057     0.2015
  302.5000   -34.6468    24.2307    35.5093    40.1121    84.6447     8.0204     0.0803     2.3123     0.2021
  303.0000   -34.3815    24.9026    34.0522    43.8671    84.3566     7.9363     0.0744     2.3161     0.1963
  303.5000   -34.2432    25.5930    31.1185    42.7759    86.0124     7.8342     0.0730     2.3259     0.1924
  304.0000   -34.1027    26.1216    28.2421    35.3935    85.5786     7.7763     0.0822     2.3283     0.1906
  304.5000   -33.9600    26.6612    27.6299    50.3188    85.2904     7.7636     0.0839     2.3207     0.1948
  305.0000   -33.8194    27.2119    29.8619    47.6020    87.6914     7.7813     0.0794     2.3094     0.2004
  305.5000   -33.5319    27.3930    31.6136    40.0448    87.5556     7.8431     0.0688     2.3197     0.1950
  306.0000   -33.3910    27.3856    33.2707    43.4922    88.6121     7.9049     0.0615     2.3569     0.1695
  306.5000   -33.2507    27.1881    32.1296    40.5798    90.5627     7.9817     0.0651     2.3998     0.1448
  307.0000   -33.2597    26.8081    30.3921    39.9089    91.1721     8.0435     0.0738     2.4111     0.1376
  307.5000   -33.2687    26.2515    28.7485    45.2952    90.4401     8.0755     0.0769     2.4149     0.1358
  308.0000   -33.2792    25.7064    27.1938    42.3672    88.8140     8.0628     0.0755     2.4187     0.1337
  308.5000   -33.2879    24.9995    26.2612    35.0627    87.4860     8.0352     0.0711     2.4113     0.1333
  309.0000   -33.2967    24.1447    25.0130    36.5358    87.6573     8.0374     0.0652     2.4016     0.1444
  309.5000   -33.3054    23.3192    24.1506    39.9588    88.1085     8.0242     0.0592     2.3986     0.1504
  310.0000   -33.3142    22.5219    23.3050    34.3162    87.8237     8.0419     0.0609     2.3994     0.1513
  310.5000   -33.3229    21.8848    22.6803    33.6037    90.5228     8.0590     0.0624     2.3912     0.1526
  311.0000   -33.4809    21.1522    22.2067    33.1339    93.8147     8.1059     0.0595     2.3748     0.1593
  311.5000   -33.6389    20.4290    22.0452    32.6708    93.5266     8.1230     0.0566     2.3621     0.1692
  312.0000   -33.8070    19.7305    22.9676    30.4830    94.4373     8.1103     0.0522     2.3531     0.1755
  312.5000   -33.9552    19.0559    24.7685    30.2651    94.8943     8.1126     0.0493     2.3637     0.1728
  313.0000   -34.1150    18.4043    25.8049    30.4666    94.0133     8.0999     0.0479     2.3832     0.1583
  313.5000   -34.1238    17.7750    25.4410    28.0347    95.0731     8.0723     0.0480     2.3953     0.1517
  314.0000   -34.1325    17.4060    24.9098    27.2638    95.9805     8.0596     0.0481     2.3961     0.1514
  314.5000   -34.1412    17.1567    24.7283    27.0689    96.5899     8.0618     0.0500     2.3969     0.1505
  315.0000   -34.2992    16.9226    24.8872    24.5683    94.9637     8.0805     0.0544     2.4014     0.1465
  315.5000   -34.3080    16.9171    25.5733    22.7654    92.8905     8.1111     0.0575     2.4075     0.1411
  316.0000   -34.3167    16.9125    26.6433    21.6854    93.9470     8.1159     0.0606     2.4174     0.1351
  316.5000   -34.1761    16.9080    27.1896    22.2867    92.4699     8.1010     0.0622     2.4221     0.1303
  317.0000   -34.0357    16.9035    27.5590    24.9472    92.3012     8.0729     0.0608     2.4286     0.1289
  317.5000   -34.0448    16.8989    27.5451    29.5611    94.8808     8.0608     0.0579     2.4099     0.1356
  318.0000   -33.7568    17.0116    26.9700    30.5933    95.9373     8.0630     0.0565     2.3905     0.1497
  318.5000   -33.6141    17.1247    26.4069    27.1961    93.0760     8.0801     0.0581     2.3815     0.1593
  319.0000   -33.4736    17.1200    25.5011    25.5524    94.0378     8.0823     0.0627     2.3899     0.1533
  319.5000   -33.3331    17.2341    25.5188    27.9426    97.9177     8.0845     0.0674     2.4094     0.1416
  320.0000   -33.1926    17.2283    26.1936    28.5216    98.9708     8.0867     0.0675     2.4057     0.1373
  320.5000   -33.0521    17.3442    26.7306    26.0644    97.1990     8.0735     0.0661     2.3953     0.1412
  321.0000   -32.9134    17.3384    26.7171    27.1595    95.5728     8.0316     0.0617     2.3908     0.1529
  321.5000   -33.0717    17.3337    26.3404    29.1057    95.4337     8.0183     0.0586     2.3834     0.1585
  322.0000   -33.0806    17.4491    25.9690    27.2036    97.2386     7.9764     0.0573     2.3781     0.1543
  322.5000   -33.1020    17.4444    25.4293    24.6356    96.0596     7.9637     0.0686     2.3985     0.1450
  323.0000   -33.2479    17.3197    25.7699    26.7565    95.9205     7.9504     0.0741     2.4083     0.1414
  323.5000   -33.2581    17.3150    25.5821    29.4640    95.4899     7.9234     0.0758     2.4098     0.1416
