~VERSION INFORMATION
 VERS.                2.0:   CWLS LOG ASCII STANDARD - VERSION 2.0
 WRAP.                 NO:   ONE LINE PER DEPTH STEP
~WELL INFORMATION
#MNEM.UNIT      DATA TYPE    INFORMATION
#----------   ------------   ------------------------------
 STRT.F           46.0000:   START DEPTH
 STOP.F          670.0000:   STOP DEPTH
 STEP.F            0.5000:   STEP LENGTH
 NULL.          -999.2500:   NO VALUE
 COMP. FENIX & SCISSON INC:   COMPANY
 WELL. TEAPOT #27 62SX 11WI-11:   WELL
 FLD .             TEAPOT:   FIELD
 LOC .      S11 T38N R78W:   LOCATION
 CNTY.            NATRONA:   COUNTY
 STAT.            WYOMING:   STATE
 CTRY. UNITED STATES OF AMERICA:   COUNTRY
 SRVC.      Dresser Atlas:   SERVICE COMPANY
 DATE.        27-JUL-1980:   LOGDATE
 API .       490251084000:   API NUMBER
~CURVE INFORMATION
#MNEM.UNIT       API CODE    CURVE DESCRIPTION
#----------   ------------   ------------------------------
 DEPT.F                  :   
 GRD .GAPI   45 310 01 00:   GAMMA RAY FROM DENSITY LOG
 RHOB.G/C3   45 350 01 00:   BULK DENSITY
 CORR.G/C3   45 356 01 00:   DENSITY CORRECTION
 CALD.IN     45 280 60 00:   CALIPER
 DPOR.DEC    45 890 12 00:   DENSITY POROSITY SANDSTONE
 SPR .MV     07 010 01 00:   SPONTANEOUS POTENTIAL
 SFL .OHMM   07 220 01 00:   SHALLOW FOCUSED LOG RESISTIVITY
 ILD .OHMM   07 120 46 00:   INDUCTION LOG DEEP
 ILM .OHMM   07 120 44 00:   INDUCTION LOG MEDIUM
~PARAMETER INFORMATION
#MNEM.UNIT          VALUE    DESCRIPTION
#----------   ------------   ------------------------------
 PD  .                 GL:   PERMANENT DATUM
 EPD .F              5186:   ELEVATION PERMANENT DATUM
 LMF .                 KB:   LOG MEASURED FROM
 DAPD.F                 5:   FEET ABOVE PERMANENT DATUM
 DMF .                 KB:   DRILLING MEASURED FROM
 EKB .F              5191:   KELLING BUSHING
 EGL .F              5186:   GROUND LEVEL
 DATE.            7-27-80:   RUN DATE
 RUN .                  1:   RUN NUMBER
 DD  .F               660:   DEPTH DRILLER
 DL  .F               663:   DEPTH LOGGER
 BLI .F               661:   BOTTOM LOG INTERVAL
 TLI .F                46:   TOP LOG INTERVAL
 BS  .IN            7.875:   BIT SIZE
 BSD .F               660:   BIT SIZE AT DEPTH
 DFT .           CHEM GEL:   DRILLING FLUID TYPE
 DFD .                9.5:   DRILLING FLUID DENSITY
 DFV .                 50:   DRILLING FLUID VISCOSITY
 DFPH.                 11:   DRILLING FLUID PH
 DFL .                  6:   DRILLING FLUID LOSS
 MSS .           FLOWLINE:   MUD SAMPLE SOURCE
 RMS .OHMM            .08:   RESISTIVITY MUD SAMPLE
 MST .F                70:   MUD SAMPLE TEMPERATURE
 RMC .OHMM            .08:   RESISTIVITY MUD CAKE
 MCST.F                70:   MUD CAKE SAMPLE TEMPERATURE
 MFSS.               MEAS:   MUD FILTRATE SAMPLE SOURCE
 MCSS.               MEAS:   MUD CAKE SAMPLE SOURCE
 RMB .OHMM            .06:   RESISTIVITY MUD AT BHT
 BHT .F                90:   BOTTOM HOLE TEMPERATURE
 TCS .HRS               5:   TIME CURCULATED STOPPED
 MRT .F                90:   MAXIMUM RECORDED TEMPERATURE
 LUN .               6145:   LOGGING UNIT NUMBER
 LUL .              GLTTE:   LOGGING UNIT LOCATION
 ENGI.              HENRY:   RECORDING ENGINEER
 WITN.              AMEND:   WITNESSED BY
 CLNT.            A2DTECH:   CLIENT CODE
 ORIG.       2", 5" PRINT:   ORIGIN OF DATA
 UWI .       490251084000:   UNIQUE WELL ID
 DICO. A2D Technologies, Inc.:   DIGITIZING COMPANY
~OTHER INFORMATION
~A   DEPT      GRD       RHOB       CORR       CALD       DPOR        SPR          SFL        ILD      ILM   
# ...
  411.0000   103.0897     2.2083     0.0089     8.5250     0.2722   -40.7613     3.7150     1.9863     2.3226
  411.5000   101.2713     2.1714     0.0056     8.5250     0.3046   -41.2679     3.4182     2.0398     2.3548
  412.0000    98.8456     2.1689     0.0020     8.5250     0.2993   -41.7701     3.8539     2.0990     2.5115
  412.5000    96.9286     2.2001     0.0107     8.5250     0.2874   -42.2741     4.6057     2.4012     2.7517
  413.0000    96.6796     2.2683     0.0218     8.5250     0.2512   -42.7790     5.5041     2.7188     3.0328
  413.5000    99.2850     2.3965     0.0308     8.5250     0.1746   -43.2994     6.2164     3.0785     3.3221
  414.0000   102.6432     2.4237     0.0323     8.5250     0.1560   -43.8544     6.1594     3.4857     3.7109
  414.5000   106.0485     2.4460     0.0332     8.5250     0.1414   -44.4281     7.6508     3.9468     4.2364
  415.0000   107.4066     2.4897     0.0411     8.5250     0.1096   -44.9437     9.2335     4.4689     4.8489
  415.5000   106.5367     2.5081     0.0466     8.5250     0.1012   -45.1186     8.7752     5.0600     5.3162
  416.0000   105.4393     2.5102     0.0488     8.5250     0.1019   -45.2929     8.3890     5.5300     5.6180
  416.5000   108.4904     2.5074     0.0481     8.5250     0.1022   -45.2986     8.2336     5.7110     5.7533
  417.0000   111.6198     2.5102     0.0454     8.5250     0.1004   -45.2978     8.1175     5.7752     5.8891
  417.5000   113.7054     2.5092     0.0432     8.5250     0.1037   -45.2998     8.0431     5.6882     5.9974
  418.0000   114.0431     2.5012     0.0420     8.5250     0.1071   -45.2255     8.2807     5.4963     6.1036
  418.5000   114.1255     2.5052     0.0408     8.5250     0.1052   -45.1418     8.4482     5.2453     6.0798
  419.0000   114.9396     2.5099     0.0396     8.5250     0.0991   -44.8509     8.6575     5.0058     6.0137
  419.5000   116.3498     2.5126     0.0386     8.5250     0.0988   -44.2722     8.5538     4.8045     5.7029
  420.0000   117.2151     2.4984     0.0371     8.5250     0.1111   -43.5313     7.8566     4.6233     5.4087
  420.5000   118.2484     2.4611     0.0258     8.5250     0.1301   -42.7949     6.8742     4.4422     5.1504
  421.0000   119.5601     2.4309     0.0233     8.5249     0.1491   -42.1366     6.1516     4.3060     5.0146
  421.5000   121.4283     2.4211     0.0235     8.5250     0.1546   -41.6399     6.4714     4.2238     4.9778
  422.0000   122.8995     2.4483     0.0268     8.5270     0.1332   -41.3730     7.0053     4.2238     4.9599
  422.5000   122.5230     2.4902     0.0210     8.5291     0.1124   -41.4876     7.1364     4.3309     4.9390
  423.0000   119.0695     2.4785     0.0149     8.5311     0.1197   -41.7425     6.4494     4.4449     5.0750
  423.5000   113.6177     2.4652     0.0107     8.5332     0.1277   -42.0765     6.8785     4.6623     5.3001
  424.0000   109.0483     2.4652     0.0054     8.5353     0.1279   -42.4143     8.0471     4.9108     5.5345
  424.5000   108.8929     2.4655     0.0104     8.5373     0.1281   -42.6060     7.8290     5.1726     5.6827
  425.0000   110.4211     2.4802     0.0262     8.5394     0.1209   -42.7581     7.5385     5.4483     5.8408
  425.5000   111.7881     2.5058     0.0393     8.5415     0.1026   -43.1270     8.1186     5.7387     6.0788
  426.0000   110.1526     2.5321     0.0448     8.5429     0.0881   -43.4992     8.6936     5.9967     6.3240
  426.5000   108.1084     2.5339     0.0424     8.5276     0.0867   -43.8673     9.0566     6.2210     6.5013
  427.0000   107.1863     2.5281     0.0336     8.5250     0.0913   -44.1526     9.2094     6.4538     6.6454
  427.5000   110.0693     2.5188     0.0338     8.5258     0.0949   -44.2686     9.2905     6.6178     6.7849
  428.0000   113.6235     2.5157     0.0407     8.5263     0.0958   -44.3883     9.3723     6.7621     6.9273
  428.5000   117.0836     2.5288     0.0451     8.5267     0.0893   -44.5014     9.4050     6.8785     7.0710
  429.0000   118.4854     2.5405     0.0451     8.5271     0.0847   -44.5052     9.3366     6.8133     7.0710
  429.5000   119.0257     2.5331     0.0443     8.5276     0.0881   -44.5045     9.2882     6.7198     7.0710
  430.0000   118.3151     2.5236     0.0438     8.5280     0.0912   -44.5045     9.2401     6.5830     7.0710
  430.5000   116.1609     2.5292     0.0454     8.5285     0.0894   -44.5059     9.0584     6.4491     7.0247
  431.0000   112.8055     2.5268     0.0470     8.5289     0.0904   -44.5158     8.8016     6.3179     6.9269
  431.5000   111.0361     2.5177     0.0462     8.5294     0.0949   -44.1455     8.5600     6.1886     6.8304
  432.0000   112.0548     2.5113     0.0422     8.5298     0.0988   -43.7262     8.3902     6.0352     6.7353
  432.5000   113.7969     2.5095     0.0383     8.5302     0.1020   -43.2202     8.3229     5.8273     6.6431
  433.0000   113.8496     2.5032     0.0365     8.5307     0.1052   -42.6904     8.2820     5.6265     6.5013
  433.5000   113.7465     2.5062     0.0351     8.5311     0.1051   -42.1604     8.2414     5.4161     6.3626
  434.0000   114.1250     2.5091     0.0338     8.5316     0.1036   -41.6857     8.2009     5.1360     6.1700
  434.5000   114.9299     2.5029     0.0353     8.5320     0.1064   -41.5047     8.0127     4.8703     5.9674
  435.0000   115.9713     2.5003     0.0389     8.5324     0.1072   -41.3183     7.7911     4.6183     5.7746
  435.5000   114.5484     2.4992     0.0402     8.5329     0.1090   -41.1232     7.5756     4.3794     5.4826
  436.0000   113.6997     2.4867     0.0396     8.5333     0.1112   -40.7185     7.2043     4.2080     5.2121
  436.5000   114.6048     2.4619     0.0349     8.5338     0.1295   -40.3123     7.0710     4.1851     4.8708
  437.0000   116.0005     2.4107     0.0248     8.5342     0.1556   -39.9454     7.4792     4.2620     4.5885
  437.5000   116.8724     2.3773     0.0192     8.5347     0.1775   -39.9440     7.8188     4.3155     4.6630
  438.0000   117.1549     2.3949     0.0176     8.5351     0.1784   -40.4607     8.1738     4.4056     4.8749
  438.5000   115.7725     2.4428     0.0237     8.5356     0.1524   -41.0482     8.5167     4.6164     5.1081
  439.0000   113.4461     2.4885     0.0290     8.5360     0.1222   -41.6596     8.8137     4.8373     5.2760
  439.5000   113.9340     2.4910     0.0251     8.5364     0.1128   -42.1644     9.1210     5.2167     5.4162
  440.0000   115.0458     2.4815     0.0219     8.5369     0.1197   -42.5709     9.3188     5.6794     5.7421
  440.5000   115.9650     2.4813     0.0187     8.5373     0.1164   -42.8050     9.2621     6.0253     6.0876
  441.0000   116.3312     2.4951     0.0171     8.5378     0.1112   -43.0443     9.1903     6.2746     6.3076
  441.5000   116.3578     2.4984     0.0164     8.5382     0.1090   -43.2841     9.1189     6.4896     6.4981
  442.0000   115.5169     2.4948     0.0158     8.5386     0.1102   -43.5143     9.0651     6.5704     6.6532
  442.5000   115.6800     2.4928     0.0186     8.5391     0.1114   -43.6544     9.2963     6.5400     6.7531
  443.0000   115.6074     2.4915     0.0249     8.5395     0.1124   -43.7912     9.5769     6.5189     6.8654
  443.5000   113.1152     2.5008     0.0313     8.5400     0.1068   -43.8922     9.6781     6.5095     6.9421
  444.0000   111.2784     2.5199     0.0332     8.5404     0.0943   -43.5473     9.6927     6.6143     6.9815
  444.5000   111.2054     2.5373     0.0360     8.5409     0.0857   -43.2078     9.7074     6.6912     7.0179
  445.0000   110.9668     2.5421     0.0391     8.5413     0.0814   -42.8691     9.7220     6.6760     7.0710
  445.5000   110.5887     2.5470     0.0366     8.5417     0.0781   -42.5361     9.7367     6.6596     7.0617
  446.0000   111.9889     2.5472     0.0327     8.5422     0.0801   -42.5877     9.7567     6.6432     7.0449
  446.5000   113.4539     2.5358     0.0295     8.5426     0.0868   -42.6624     9.7136     6.6195     7.0280
  447.0000   114.1857     2.5311     0.0296     8.5431     0.0900   -42.7651     9.6631     6.5635     7.0111
