~VERSION INFORMATION
 VERS.                2.0:   CWLS LOG ASCII STANDARD - VERSION 2.0
 WRAP.                 NO:   ONE LINE PER DEPTH STEP
~WELL INFORMATION
#MNEM.UNIT      DATA TYPE    INFORMATION
#----------   ------------   ------------------------------
 STRT.F           75.0000:   START DEPTH
 STOP.F          859.0000:   STOP DEPTH
 STEP.F            0.5000:   STEP LENGTH
 NULL.          -999.2500:   NO VALUE
 COMP. U S NAVY/INTEX OIL CO:   COMPANY
 WELL.     NPR ##3 14S-35:   WELL
 FLD .             TEAPOT:   FIELD
 LOC .      S35 T39N R78W:   LOCATION
 CNTY.            NATRONA:   COUNTY
 STAT.            WYOMING:   STATE
 CTRY. UNITED STATES OF AMERICA:   COUNTRY
 SRVC. Schlumberger Well Surveying Corp:   SERVICE COMPANY
 DATE.        27-FEB-1961:   LOGDATE
 API .       490251023000:   API NUMBER
~CURVE INFORMATION
#MNEM.UNIT       API CODE    CURVE DESCRIPTION
#----------   ------------   ------------------------------
 DEPT.F                  :   
 GRN .CPS    35 310 30 00:   GAMMA RAY
 SPR .MV     05 010 01 00:   SPONTANEOUS POTENTIAL FROM RES.
 ILD .OHMM   05 120 46 00:   INDUCTION LOG DEEP
 ASN .OHMM   05 041 16 00:   AMPLIFIED SHORT NORMAL 16"
 CILD.MMHO   05 110 46 00:   CONDUCTIVITY INDUCTION LOG DEEP
~PARAMETER INFORMATION
#MNEM.UNIT          VALUE    DESCRIPTION
#----------   ------------   ------------------------------
 PD  .                 GL:   PERMANENT DATUM
 EPD .F              5110:   ELEVATION PERMANENT DATUM
 LMF .                 KB:   LOG MEASURED FROM
 DAPD.F                 4:   FEET ABOVE PERMANENT DATUM
 DMF .                 KB:   DRILLING MEASURED FROM
 EKB .F              5114:   KELLING BUSHING
 EGL .F              5110:   GROUND LEVEL
 DATE.            2-27-61:   RUN DATE
 RUN .                  1:   RUN NUMBER
 DD  .F               862:   DEPTH DRILLER
 DL  .F               860:   DEPTH LOGGER
 BLI .F               859:   BOTTOM LOG INTERVAL
 TLI .F                84:   TOP LOG INTERVAL
 CBD .F                12:   CASING BOTTOM DRILLER
 BS  .IN            7.875:   BIT SIZE
 BSD .F               862:   BIT SIZE AT DEPTH
 DFT .       GEL-OIL EMUL:   DRILLING FLUID TYPE
 DFD .                9.4:   DRILLING FLUID DENSITY
 DFV .                 33:   DRILLING FLUID VISCOSITY
 DFPH.                  8:   DRILLING FLUID PH
 DFL .               19.4:   DRILLING FLUID LOSS
 MSS .          FLOW LINE:   MUD SAMPLE SOURCE
 RMS .OHMM            .76:   RESISTIVITY MUD SAMPLE
 MST .F                73:   MUD SAMPLE TEMPERATURE
 RMF .OHMM            .52:   RESISTIVITY MUD FILTRATE SAMPLE
 MFST.F                73:   MUD FILTRATE SAMPLE TEMPERATURE
 RMC .OHMM            1.7:   RESISTIVITY MUD CAKE
 MCST.F                73:   MUD CAKE SAMPLE TEMPERATURE
 MFSS.                  M:   MUD FILTRATE SAMPLE SOURCE
 MCSS.                  M:   MUD CAKE SAMPLE SOURCE
 RMB .OHMM            .73:   RESISTIVITY MUD AT BHT
 BHT .F                77:   BOTTOM HOLE TEMPERATURE
 TCS .HRS               1:   TIME CURCULATED STOPPED
 MRT .F                77:   MAXIMUM RECORDED TEMPERATURE
 LUN .               2523:   LOGGING UNIT NUMBER
 LUL .               CSPR:   LOGGING UNIT LOCATION
 ENGI.             KNOBEL:   RECORDING ENGINEER
 WITN.          JORGENSEN:   WITNESSED BY
 CLNT.            A2DTECH:   CLIENT CODE
 ORIG.       2", 5" PRINT:   ORIGIN OF DATA
 UWI .       490251023000:   UNIQUE WELL ID
 DICO. A2D Technologies, Inc.:   DIGITIZING COMPANY
~OTHER INFORMATION
~A   DEPT      GRN        SPR        ILD        ASN       CILD   
# ...
  624.0000    67.1842   -26.5741     6.5721     8.6951   155.8793
  624.5000    67.9220   -26.5128     6.1270     8.2942   166.5674
  625.0000    65.3906   -26.4512     5.9648     7.8819   175.3018
  625.5000    63.7030   -26.3898     6.0089     7.4533   178.5714
  626.0000    65.5992   -26.3283     6.0487     7.0934   178.5714
  626.5000    69.4677   -26.2669     6.1006     7.1105   178.0315
  627.0000    72.8775   -26.2054     6.1373     7.2256   177.0154
  627.5000    69.8577   -26.1441     6.2299     7.5231   175.8439
  628.0000    63.6105   -26.0823     6.6748     8.0232   172.5352
  628.5000    65.0112   -26.0214     7.1062     8.5206   162.1127
  629.0000    67.5242   -25.9590     7.5426     8.9692   150.4900
  629.5000    70.0244   -25.8994     7.9598     9.0623   145.3988
  630.0000    71.8388   -25.8337     8.0295     9.1477   139.6504
  630.5000    65.7592   -25.7951     8.0587     9.2091   136.2664
  631.0000    62.3574   -25.7874     8.0916     9.3380   134.8152
  631.5000    59.8167   -25.7742     8.1297     9.5033   133.7872
  632.0000    61.2151   -25.7638     8.1549     9.6595   132.7763
  632.5000    65.3020   -25.7518     8.2045     9.8128   131.7743
  633.0000    62.2334   -25.7406     8.1826     9.9795   130.7805
  633.5000    62.9422   -25.7291     8.3009    10.1030   129.7631
  634.0000    64.5977   -25.7177     8.3135    10.1667   128.7458
  634.5000    67.2160   -25.7062     8.4102    10.2236   127.7285
  635.0000    69.1367   -25.6947     8.5730    10.2838   126.7111
  635.5000    65.2648   -25.6832     8.6719    10.3413   125.6938
  636.0000    60.1605   -25.6717     8.7970    10.4047   124.6765
  636.5000    61.2440   -25.6602     8.9083    10.3713   123.0077
  637.0000    59.7617   -25.6487     9.0287    10.3012   120.8600
  637.5000    57.4584   -25.6372     9.1400    10.2504   118.7123
  638.0000    60.8154   -25.6257     9.2647    10.1393   116.5646
  638.5000    65.6836   -25.6140     9.3058     9.9723   114.4169
  639.0000    64.3087   -25.6044     9.1994     9.8472   114.3973
  639.5000    60.9228   -25.6193     8.9217     9.5602   117.2727
  640.0000    63.5882   -25.6380     8.4804     9.1309   120.7355
  640.5000    69.8718   -25.6561     8.0771     8.7196   125.4214
  641.0000    66.8508   -25.6742     7.6291     8.3924   132.0624
  641.5000    69.9132   -25.6921     7.2619     8.0535   139.9698
  642.0000    73.6711   -25.7103     6.6902     7.5864   150.6388
  642.5000    75.0001   -25.7290     5.9779     7.2449   160.4628
  643.0000    72.0155   -25.7466     5.3577     6.6624   189.6378
  643.5000    74.7220   -25.7662     4.6923     6.0740   229.7116
  644.0000    77.9827   -25.7792     4.0578     5.5414   273.6418
  644.5000    76.1914   -25.8222     3.3503     5.0964   317.6711
  645.0000    77.7624   -26.0366     3.1981     4.5462   360.7099
  645.5000    76.3206   -26.3327     3.0918     4.1567   401.0439
  646.0000    72.8076   -26.2782     2.9982     3.9536   413.2538
  646.5000    69.7977   -26.0303     2.8582     3.8087   423.5043
  647.0000    67.0854   -26.3003     2.9585     3.8944   414.6475
  647.5000    69.8951   -26.5963     3.1604     4.0294   396.5342
  648.0000    68.5898   -26.4720     3.5957     4.1968   361.6324
  648.5000    72.5378   -26.1887     4.2101     4.8139   315.6497
  649.0000    76.2327   -26.0118     4.7404     5.3858   270.4247
  649.5000    73.4886   -26.0182     5.3569     6.1858   218.8129
  650.0000    71.3333   -26.2093     6.0179     6.8993   194.8997
  650.5000    77.4079   -26.4084     6.7784     7.3755   167.0542
  651.0000    81.7116   -26.6080     7.4202     7.7014   148.7525
  651.5000    78.7147   -26.8035     7.6157     7.9100   140.7686
  652.0000    75.1136   -26.9918     7.5983     7.9604   136.8665
  652.5000    76.7090   -27.1672     7.6021     8.0015   138.8711
  653.0000    75.2820   -27.3615     7.5839     8.0688   143.9204
  653.5000    77.2080   -27.3516     7.0982     8.0840   151.2296
  654.0000    79.1753   -27.2199     6.4041     8.0072   162.3170
  654.5000    75.7675   -27.1181     6.1140     7.6069   175.0628
  655.0000    73.6867   -27.0033     5.8112     7.1824   187.6035
  655.5000    70.2724   -26.8946     5.5250     6.6652   197.9972
  656.0000    67.5606   -26.7842     5.2273     6.4521   207.8428
  656.5000    65.3500   -26.6720     4.9370     6.2651   217.0141
  657.0000    66.1311   -26.5652     4.6496     6.0391   224.2817
  657.5000    65.7225   -26.4481     4.5739     6.0819   228.8732
  658.0000    67.7104   -26.4135     4.8634     6.2625   226.8612
  658.5000    70.1122   -26.4489     5.2471     6.4264   214.9577
  659.0000    67.2758   -26.4716     5.6227     6.6685   203.1911
  659.5000    64.1252   -26.5005     5.9984     6.8523   192.6559
  660.0000    69.2027   -26.5260     6.3798     7.2494   179.6615
  660.5000    72.6730   -26.5533     6.7087     7.7013   167.9971
  661.0000    70.2959   -26.5802     7.0131     7.9837   156.3756
  661.5000    69.3075   -26.6028     7.2818     8.2971   149.2278
  662.0000    74.9831   -26.5813     7.5654     8.4761   143.2482
  662.5000    84.0204   -26.5546     7.7563     8.6561   138.6451
  663.0000    82.1698   -26.5284     7.7992     8.8097   135.2936
  663.5000    77.0850   -26.5022     7.8046     8.9772   135.2886
  664.0000    76.8748   -26.4759     7.7712     8.9798   136.1086
  664.5000    78.1402   -26.4497     7.5778     8.9655   138.1851
  665.0000    74.6947   -26.4235     7.4401     8.8362   141.1541
  665.5000    72.4811   -26.3972     7.2902     8.6229   145.2328
  666.0000    73.7171   -26.3708     7.1484     8.4371   149.3116
  666.5000    71.4647   -26.3448     7.0020     8.2401   153.3903
  667.0000    73.0915   -26.3180     6.8566     8.0986   157.4691
  667.5000    76.0442   -26.2927     6.7083     8.0093   161.4688
  668.0000    74.7583   -26.2646     6.6769     7.9172   161.4688
  668.5000    73.5313   -26.2417     6.7722     7.9991   159.6512
  669.0000    75.8497   -26.2091     6.9750     8.1852   157.9209
  669.5000    74.1520   -26.2434     7.1638     8.4175   154.4266
  670.0000    77.1070   -26.3233     7.3589     8.7261   150.5924
  670.5000    80.8094   -26.3904     7.5530     9.0881   146.5549
  671.0000    83.6897   -26.4627     7.7434     9.3837   142.5173
  671.5000    85.1660   -26.5323     7.9398     9.5436   139.1449
  672.0000    81.1655   -26.6042     7.9952     9.5741   136.5493
  672.5000    81.8209   -26.6721     7.9619     9.5768   135.3119
  673.0000    82.4242   -26.7528     7.9432     9.5809   136.3338
  673.5000    78.8694   -26.7667     7.9179     9.5898   137.6999
  674.0000    77.4524   -26.5295     7.8956     9.5582   139.0660
  674.5000    78.4464   -26.6536     7.8730     9.4939   140.3421
  675.0000    73.6328   -26.7303     7.8478     9.4406   139.7207
  675.5000    70.7338   -26.7916     7.8286     9.3811   138.8046
  676.0000    67.9014   -26.6586     7.7963     9.3792   137.8885
  676.5000    72.1282   -26.4956     7.8074     9.4067   137.8219
  677.0000    74.8949   -26.4056     7.6968     9.3913   139.6217
  677.5000    76.5915   -26.6635     7.4251     9.3035   143.6620
  678.0000    74.7835   -26.7872     7.1809     9.1433   148.8531
  678.5000    77.3756   -26.2142     7.0131     8.8735   154.0443
  679.0000    75.4234   -26.0101     6.8980     8.5678   157.0171
  679.5000    72.8981   -26.2704     6.7794     8.2303   159.1507
  680.0000    77.4665   -26.4566     6.6686     8.0587   161.3449
  680.5000    82.8810   -26.6907     6.5448     7.8255   163.5401
  681.0000    81.1766   -26.8249     6.4703     7.8703   165.5465
  681.5000    82.5218   -26.7336     6.2765     8.0865   170.1483
  682.0000    81.3636   -26.5438     6.0138     8.2524   174.6060
  682.5000    86.0575   -26.3517     5.7779     8.1843   182.4923
  683.0000    89.9963   -26.1625     5.5058     7.9456   190.7404
  683.5000    89.6825   -25.9626     5.3686     7.5522   198.6922
  684.0000    91.3551   -25.8270     5.4212     6.9781   200.4648
  684.5000    86.6155   -25.9573     5.4545     6.6659   199.9457
