~VERSION INFORMATION
 VERS.                2.0:   CWLS LOG ASCII STANDARD - VERSION 2.0
 WRAP.                 NO:   ONE LINE PER DEPTH STEP
~WELL INFORMATION
#MNEM.UNIT      DATA TYPE    INFORMATION
#----------   ------------   ------------------------------
 STRT.F           33.0000:   START DEPTH
 STOP.F         1310.0000:   STOP DEPTH
 STEP.F            0.5000:   STEP LENGTH
 NULL.          -999.2500:   NO VALUE
 COMP. FENIX & SCISSON INC:   COMPANY
 WELL.    NPR-3 #76-14 SX:   WELL
 FLD .        TEAPOT DOME:   FIELD
 LOC .      S14 T38N R78W:   LOCATION
 CNTY.            NATRONA:   COUNTY
 STAT.            WYOMING:   STATE
 CTRY. UNITED STATES OF AMERICA:   COUNTRY
 SRVC.            Unknown:   SERVICE COMPANY
 DATE.        12-APR-1978:   LOGDATE
 API .       490251061200:   API NUMBER
~CURVE INFORMATION
#MNEM.UNIT       API CODE    CURVE DESCRIPTION
#----------   ------------   ------------------------------
 DEPT.F                  :   
 SPR .MV     05 010 01 00:   SPONTANEOUS POTENTIAL FROM RES.
 SN  .OHMM   05 040 16 00:   SHORT NORMAL 16"
 ILD .OHMM   05 120 46 00:   INDUCTION LOG DEEP
 CALD.IN     45 280 60 00:   CALIPER FROM DENSITY LOG
 GRD .GAPI   45 310 01 00:   GAMMA RAY FROM DENSITY LOG
 DPOR.DEC    45 890 12 00:   DENSITY POROSITY SANDSTONE
 CORR.G/C3   45 356 01 00:   DENSITY CORRECTION
 RHOB.G/C3   45 350 01 00:   BULK DENSITY
~PARAMETER INFORMATION
#MNEM.UNIT          VALUE    DESCRIPTION
#----------   ------------   ------------------------------
 PD  .                 GL:   PERMANENT DATUM
 EPD .F              5332:   ELEVATION PERMANENT DATUM
 LMF .                 KB:   LOG MEASURED FROM
 DMF .                 KB:   DRILLING MEASURED FROM
 EKB .F              5336:   KELLING BUSHING
 EGL .F              5332:   GROUND LEVEL
 DATE.          4-12-1978:   RUN DATE
 RUN .                  1:   RUN NUMBER
 DD  .F              1300:   DEPTH DRILLER
 DL  .F              1302:   DEPTH LOGGER
 BLI .F              1298:   BOTTOM LOG INTERVAL
 TLI .F                50:   TOP LOG INTERVAL
 CS  .IN            8.625:   CASING SIZE
 CBD .F                40:   CASING BOTTOM DRILLER
 CBL .F                46:   CASING BOTTOM LOGGER
 BS  .IN            7.875:   BIT SIZE
 BSD .F              1300:   BIT SIZE AT DEPTH
 DFT .                KCL:   DRILLING FLUID TYPE
 DFD .                8.5:   DRILLING FLUID DENSITY
 DFV .                 28:   DRILLING FLUID VISCOSITY
 MSS .            MUD PIT:   MUD SAMPLE SOURCE
 RMS .OHMM           1.45:   RESISTIVITY MUD SAMPLE
 MST .F                50:   MUD SAMPLE TEMPERATURE
 RMF .OHMM           1.25:   RESISTIVITY MUD FILTRATE SAMPLE
 MFST.F                62:   MUD FILTRATE SAMPLE TEMPERATURE
 RMC .OHMM           1.65:   RESISTIVITY MUD CAKE
 MCST.F                61:   MUD CAKE SAMPLE TEMPERATURE
 MFSS.           MEASURED:   MUD FILTRATE SAMPLE SOURCE
 MCSS.           MEASURED:   MUD CAKE SAMPLE SOURCE
 RMB .OHMM            .93:   RESISTIVITY MUD AT BHT
 BHT .F                78:   BOTTOM HOLE TEMPERATURE
 TCS .HRS               6:   TIME CURCULATED STOPPED
 MRT .F                78:   MAXIMUM RECORDED TEMPERATURE
 LUN .               2958:   LOGGING UNIT NUMBER
 LUL .                CAS:   LOGGING UNIT LOCATION
 ENGI.             MILLER:   RECORDING ENGINEER
 WITN.           MCGINLEY:   WITNESSED BY
 CLNT.            A2DTECH:   CLIENT CODE
 ORIG.      2" , 5" PRINT:   ORIGIN OF DATA
 UWI .       490251061200:   UNIQUE WELL ID
 DICO. A2D Technologies, Inc.:   DIGITIZING COMPANY
~OTHER INFORMATION
~A   DEPT      SPR         SN        ILD       CALD         GRD      DPOR       CORR       RHOB   
# ...
  964.5000   -25.8992     7.9669     6.8662     7.8921    54.6975     0.1176     0.0704     2.4741
  965.0000   -25.8999     7.9359     6.8498     7.8957    54.6956     0.1260     0.0762     2.4548
  965.5000   -25.9000     7.9109     6.8335     7.8993    54.9237     0.1343     0.0897     2.4382
  966.0000   -25.9000     7.9108     6.8172     7.9029    56.5798     0.1401     0.1238     2.4236
  966.5000   -25.9000     7.9109     6.8010     7.9065    57.4924     0.1341     0.2008     2.4093
  967.0000   -25.9000     7.9109     6.7848     7.9101    58.3523     0.1179     0.2779     2.4111
  967.5000   -25.9000     7.9109     6.7687     7.9138    61.6016     0.0741     0.3394     2.4557
  968.0000   -25.9000     7.9109     6.7525     7.9174    65.0647     0.0734     0.2989     2.5102
  968.5000   -25.9000     7.9109     6.7365     7.9210    65.5865     0.0820     0.2448     2.5328
  969.0000   -25.9000     7.9109     6.7204     7.9246    61.8001     0.0880     0.1903     2.5136
  969.5000   -25.9000     7.9109     6.7044     7.9282    58.4636     0.0940     0.1611     2.5002
  970.0000   -25.9000     7.9109     6.6885     7.9318    57.5469     0.0999     0.1374     2.4869
  970.5000   -25.9000     7.9109     6.6725     7.9354    57.6841     0.1058     0.1137     2.4736
  971.0000   -25.9002     7.9110     6.6567     7.9391    57.9293     0.1096     0.0898     2.4648
  971.5000   -25.9001     7.9114     6.6408     7.9427    58.1663     0.1091     0.0775     2.4628
  972.0000   -25.8876     7.9125     6.6250     7.9463    58.1702     0.1079     0.0674     2.4606
  972.5000   -25.8174     7.8354     6.6092     7.9499    57.8736     0.1073     0.0593     2.4630
  973.0000   -25.7484     7.7604     6.5935     7.9535    57.5804     0.1077     0.0534     2.4675
  973.5000   -25.6795     7.6862     6.5778     7.9571    57.2859     0.1080     0.0476     2.4657
  974.0000   -25.6106     7.6129     6.5621     7.9607    56.9868     0.1039     0.0418     2.4716
  974.5000   -25.5418     7.5402     6.5465     7.9644    56.8978     0.1027     0.0360     2.4809
  975.0000   -25.4729     7.4683     6.5309     7.9680    56.9869     0.1033     0.0318     2.4813
  975.5000   -25.4040     7.3970     6.5171     7.9716    57.8220     0.1034     0.0320     2.4737
  976.0000   -25.3351     7.3264     6.4631     7.9752    58.7231     0.1013     0.0325     2.4746
  976.5000   -25.2660     7.2751     6.4047     7.9788    57.6609     0.0992     0.0330     2.4783
  977.0000   -25.1971     7.2393     6.3469     7.9824    55.8683     0.0984     0.0335     2.4821
  977.5000   -25.1293     7.2037     6.2895     7.9860    55.7753     0.0984     0.0352     2.4840
  978.0000   -25.1867     7.1682     6.2327     7.9896    59.1988     0.0979     0.0394     2.4867
  978.5000   -25.4138     7.1329     6.1758     7.9933    61.7561     0.0944     0.0436     2.4908
  979.0000   -25.6394     7.0978     6.1128     7.9969    60.6431     0.0909     0.0477     2.4959
  979.5000   -25.8653     7.0629     6.0259     8.0005    59.2539     0.0882     0.0479     2.5010
  980.0000   -26.0913     7.0281     5.9409     8.0041    57.3293     0.0867     0.0479     2.5050
  980.5000   -26.3173     6.9002     5.8571     8.0077    52.7526     0.0869     0.0479     2.5090
  981.0000   -26.5402     6.7291     5.7745     8.0113    52.4655     0.0903     0.0479     2.5129
  981.5000   -26.7213     6.5622     5.6930     8.0149    53.9316     0.0936     0.0479     2.5083
  982.0000   -26.7823     6.3994     5.6225     8.0186    55.3009     0.0970     0.0479     2.4959
  982.5000   -26.8464     6.2407     5.6225     8.0221    56.2208     0.0996     0.0490     2.4841
  983.0000   -26.9097     6.1094     5.6224     8.0259    57.1671     0.0984     0.0502     2.4819
  983.5000   -26.9734     6.1661     5.6224     8.0297    56.3876     0.0916     0.0514     2.4892
  984.0000   -27.0376     6.2588     5.6225     8.0561    54.9784     0.0891     0.0525     2.5012
  984.5000   -27.0964     6.4222     5.6226     8.0770    53.8172     0.0890     0.0537     2.5052
  985.0000   -27.0371     6.5903     5.6700     8.0873    53.4792     0.0888     0.0549     2.5044
  985.5000   -26.9729     6.8247     5.7293     8.1653    54.1309     0.0887     0.0558     2.5032
  986.0000   -26.9093     6.8112     5.7893     8.4713    56.0330     0.0913     0.0543     2.5022
  986.5000   -26.8458     6.7875     5.8880     8.7153    57.5880     0.0953     0.0527     2.5007
  987.0000   -26.7822     6.7648     5.8880     8.7665    55.2721     0.0992     0.0523     2.4923
  987.5000   -26.7188     6.7422     5.8880     8.7636    53.1717     0.1004     0.0540     2.4841
  988.0000   -26.6553     6.7196     5.8880     8.7475    53.3746     0.0992     0.0556     2.4799
  988.5000   -26.5917     6.6972     5.8880     8.7323    53.0946     0.0972     0.0573     2.4830
  989.0000   -26.5282     6.6747     5.8880     8.7181    52.2824     0.0973     0.0589     2.4859
  989.5000   -26.4646     6.6525     5.8800     8.6491    52.7545     0.0976     0.0605     2.4860
  990.0000   -26.4010     6.6385     5.8286     8.5068    54.0151     0.0946     0.0625     2.4870
  990.5000   -26.3387     6.6999     5.7778     8.0428    54.6245     0.0898     0.0667     2.4908
  991.0000   -26.3418     6.7449     5.7275     8.0528    55.0724     0.0870     0.0709     2.5024
  991.5000   -26.4489     6.7902     5.6777     8.0671    55.4996     0.0883     0.0739     2.5080
  992.0000   -26.5545     6.8249     5.6283     8.0801    56.8550     0.0857     0.0740     2.5010
  992.5000   -26.6604     6.6718     5.5793     8.0928    58.0023     0.0863     0.0740     2.5106
  993.0000   -26.7663     6.5508     5.5307     8.1056    58.5768     0.0896     0.0740     2.5116
  993.5000   -26.8721     6.4321     5.4826     8.1184    59.7272     0.0907     0.0739     2.5044
  994.0000   -26.9779     6.3155     5.4349     8.1312    61.8264     0.0952     0.0738     2.4970
  994.5000   -27.0839     6.2010     5.3876     8.1440    62.9865     0.0997     0.0774     2.4895
  995.0000   -27.1905     6.0886     5.3407     8.1567    60.1176     0.1041     0.0800     2.4821
  995.5000   -27.2960     5.9782     5.1668     8.1695    56.6091     0.1076     0.0826     2.4747
  996.0000   -27.3003     5.8267     4.8987     8.1823    57.1673     0.1063     0.0886     2.4685
  996.5000   -27.2622     5.4775     4.6445     8.1951    57.3948     0.0993     0.1115     2.4686
  997.0000   -27.1595     5.1493     4.4036     8.2079    57.1546     0.0922     0.1272     2.4838
  997.5000   -27.0581     4.8407     4.2224     8.2206    56.9224     0.0907     0.1074     2.4988
  998.0000   -26.9564     4.5506     4.2227     8.2302    56.6712     0.1091     0.0829     2.5000
  998.5000   -26.8548     4.4754     4.3695     8.2300    55.8758     0.1218     0.0680     2.4635
  999.0000   -26.7531     4.4290     4.4921     8.2295    53.1409     0.1309     0.0681     2.4378
  999.5000   -26.6518     4.3831     4.6162     8.2267    50.4671     0.1174     0.0720     2.4299
 1000.0000   -26.5500     4.3467     4.7547     8.3446    49.6633     0.0979     0.0708     2.4621
 1000.5000   -26.5008     4.9513     4.8958     8.4834    51.9010     0.0835     0.0692     2.4845
 1001.0000   -26.5343     5.6687     5.0418     8.2060    55.0239     0.0819     0.0676     2.5077
 1001.5000   -26.5997     6.4901     5.3613     8.1104    58.1824     0.0832     0.0659     2.5170
 1002.0000   -26.6654     6.7972     5.7639     8.1057    61.4011     0.0851     0.0643     2.5152
 1002.5000   -26.7311     6.9264     6.1094     8.1045    61.5309     0.0861     0.0627     2.5115
 1003.0000   -26.7966     7.0581     6.1960     8.1028    58.6581     0.0863     0.0619     2.5078
 1003.5000   -26.8615     7.1922     6.2694     8.1009    55.8144     0.0866     0.0619     2.5081
 1004.0000   -26.8824     7.3289     6.3436     8.0989    55.6775     0.0864     0.0619     2.5104
 1004.5000   -26.8385     7.4682     6.4186     8.0970    55.6830     0.0849     0.0619     2.5050
