~VERSION INFORMATION
 VERS.                2.0:   CWLS LOG ASCII STANDARD - VERSION 2.0
 WRAP.                 NO:   ONE LINE PER DEPTH STEP
~WELL INFORMATION
#MNEM.UNIT      DATA TYPE    INFORMATION
#----------   ------------   ------------------------------
 STRT.F          190.0000:   START DEPTH
 STOP.F         3246.0000:   STOP DEPTH
 STEP.F            0.5000:   STEP LENGTH
 NULL.          -999.2500:   NO VALUE
 COMP. BROWN JOHN E&C INC:   COMPANY
 WELL.      STX-15 #84-15:   WELL
 FLD .             TEAPOT:   FIELD
 LOC .      S15 T38N R78W:   LOCATION
 CNTY.            NATRONA:   COUNTY
 STAT.            WYOMING:   STATE
 CTRY. UNITED STATES OF AMERICA:   COUNTRY
 SRVC.           BIRDWELL:   SERVICE COMPANY
 DATE.        17-MAR-1978:   LOGDATE
 API .       490251111600:   API NUMBER
~CURVE INFORMATION
#MNEM.UNIT       API CODE    CURVE DESCRIPTION
#----------   ------------   ------------------------------
 DEPT.F                  :   
 ILD .OHMM   05 120 46 00:   INDUCTION LOG DEEP
 SN  .OHMM   05 040 16 00:   SHORT NORMAL 16"
 SPR .MV     05 010 01 00:   SPONTANEOUS POTENTIAL FROM RES.
 GRD .GAPI   45 310 01 00:   GAMMA RAY FROM DENSITY LOG
 CALD.IN     45 280 60 00:   CALIPER
 RHOB.G/C3   45 350 01 00:   BULK DENSITY
 CORR.G/C3   45 356 01 00:   DENSITY CORRECTION
 DPHI.DEC    45 890 12 00:   DENSITY POROSITY SANDSTONE
~PARAMETER INFORMATION
#MNEM.UNIT          VALUE    DESCRIPTION
#----------   ------------   ------------------------------
 PD  .                 GL:   PERMANENT DATUM
 EPD .F              5241:   ELEVATION PERMANENT DATUM
 LMF .                 KB:   LOG MEASURED FROM
 DAPD.F                10:   FEET ABOVE PERMANENT DATUM
 DMF .                 KB:   DRILLING MEASURED FROM
 EKB .F              5251:   KELLING BUSHING
 EGL .F              5241:   GROUND LEVEL
 DATE.            3-17-78:   RUN DATE
 RUN .                  1:   RUN NUMBER
 DD  .F              3250:   DEPTH DRILLER
 DL  .F              3250:   DEPTH LOGGER
 BLI .F              3244:   BOTTOM LOG INTERVAL
 TLI .F               224:   TOP LOG INTERVAL
 CS  .IN            8.625:   CASING SIZE
 CBL .F               224:   CASING BOTTOM LOGGER
 BS  .IN            7.875:   BIT SIZE
 BSD .F              3250:   BIT SIZE AT DEPTH
 DFD .                8.9:   DRILLING FLUID DENSITY
 DFV .                 31:   DRILLING FLUID VISCOSITY
 DFPH.               10.5:   DRILLING FLUID PH
 DFL .                  8:   DRILLING FLUID LOSS
 MSS .           FLOWLINE:   MUD SAMPLE SOURCE
 RMS .OHMM            1.3:   RESISTIVITY MUD SAMPLE
 MST .F                70:   MUD SAMPLE TEMPERATURE
 RMF .OHMM            1.1:   RESISTIVITY MUD FILTRATE SAMPLE
 MFST.F                70:   MUD FILTRATE SAMPLE TEMPERATURE
 RMC .OHMM            1.4:   RESISTIVITY MUD CAKE
 MCST.F                70:   MUD CAKE SAMPLE TEMPERATURE
 MFSS.               MEAS:   MUD FILTRATE SAMPLE SOURCE
 MCSS.               MEAS:   MUD CAKE SAMPLE SOURCE
 RMB .OHMM            .77:   RESISTIVITY MUD AT BHT
 BHT .F               118:   BOTTOM HOLE TEMPERATURE
 TCS .HRS               6:   TIME CURCULATED STOPPED
 MRT .F               118:   MAXIMUM RECORDED TEMPERATURE
 LUN .               2958:   LOGGING UNIT NUMBER
 LUL .               CASP:   LOGGING UNIT LOCATION
 ENGI.             MILLER:   RECORDING ENGINEER
 WITN.           MCGINLEY:   WITNESSED BY
 CLNT.            A2DTECH:   CLIENT CODE
 ORIG.     1", 2.5" PRINT:   ORIGIN OF DATA
 UWI .       490251111600:   UNIQUE WELL ID
 DICO. A2D Technologies, Inc.:   DIGITIZING COMPANY
~OTHER INFORMATION
~A   DEPT      ILD         SN        SPR         GRD      CALD       RHOB       CORR       DPHI   
# ...
  433.0000     7.5999     6.2729   -28.9577    79.0606    12.7204     2.4732     0.0184     0.1124
  433.5000     7.6865     6.2728   -29.0047    79.3766    12.7192     2.4715     0.0149     0.1153
  434.0000     7.6865     6.2728   -29.0516    78.7150    12.7150     2.4734     0.0131     0.1149
  434.5000     7.6865     6.2728   -29.0974    78.5198    12.7109     2.4781     0.0221     0.1124
  435.0000     7.6865     6.2728   -29.1464    79.9067    12.7067     2.4826     0.0311     0.1100
  435.5000     7.6865     6.2730   -29.1907    79.3118    12.7025     2.4869     0.0274     0.1076
  436.0000     7.6865     6.2732   -29.2271    77.6674    12.6984     2.4909     0.0218     0.0980
  436.5000     7.6087     6.2691   -29.1448    76.0508    12.6942     2.4957     0.0154     0.0880
  437.0000     7.5464     6.2558   -29.0682    76.0953    12.6900     2.4919     0.0101     0.1004
  437.5000     7.5348     6.2429   -28.9855    78.0623    12.6861     2.4817     0.0047     0.1024
  438.0000     7.5170     6.2298   -28.9058    77.4835    12.6818     2.4854     0.0111     0.1041
  438.5000     7.4989     6.2164   -28.8256    76.6434    12.6876     2.4894     0.0181     0.1014
  439.0000     7.4810     6.2040   -28.7449    75.8916    12.6984     2.4939     0.0250     0.0991
  439.5000     7.4634     6.1911   -28.6646    75.2590    12.7088     2.4978     0.0315     0.0968
  440.0000     7.4460     6.1783   -28.5842    78.4361    12.7192     2.5026     0.0278     0.0953
  440.5000     7.4300     6.1653   -28.5039    82.2747    12.7304     2.4998     0.0239     0.0975
  441.0000     7.4129     6.0988   -28.4236    81.8823    12.7390     2.4958     0.0195     0.1018
  441.5000     7.2923     5.9858   -28.3433    81.2090    12.7521     2.4915     0.0154     0.1060
  442.0000     7.1362     5.8749   -28.2629    80.3620    12.7648     2.4877     0.0123     0.1103
  442.5000     6.9834     5.7662   -28.1826    79.6531    12.8417     2.4808     0.0152     0.1146
  443.0000     6.8340     5.7194   -28.1023    79.0362    12.9156     2.4702     0.0175     0.1200
  443.5000     6.6879     5.5452   -28.0219    79.2211    12.9627     2.4599     0.0201     0.1262
  444.0000     6.5449     5.3972   -27.9416    79.3791    12.9572     2.4484     0.0229     0.1324
  444.5000     6.3458     5.2531   -27.8613    79.5818    12.9581     2.4394     0.0225     0.1387
  445.0000     6.1354     5.1129   -27.7809    79.7635    12.9587     2.4192     0.0176     0.1543
  445.5000     5.9319     4.8742   -27.7005    80.0185    12.9579     2.4072     0.0130     0.1699
  446.0000     5.7352     4.4801   -27.6198    80.8014    12.9579     2.3679     0.0086     0.1855
  446.5000     5.3984     4.1179   -27.5399    81.9883    12.9580     2.3404     0.0043     0.2011
  447.0000     4.8555     3.7849   -27.4589    83.2319    12.9565     2.3052     0.0040     0.2167
  447.5000     4.3672     3.4788   -27.3778    82.3714    12.9577     2.2758     0.0037     0.2324
  448.0000     3.9280     3.1976   -27.3011    79.4971    12.9596     2.2243     0.0086     0.2480
  448.5000     3.5277     2.9390   -27.2141    76.6962    12.9518     2.1632     0.0387     0.2829
  449.0000     3.1719     2.7014   -27.2948    75.9314    12.9716     2.1027     0.0705     0.3594
  449.5000     2.8561     2.4829   -27.4472    74.8885    13.0338     2.0429     0.1033     0.3721
  450.0000     2.6647     2.3345   -27.5925    73.9020    13.5597     1.9840     0.0752     0.3881
  450.5000     2.4874     2.2707   -27.7353    70.0387    14.1104     1.9259     0.0401     0.4040
  451.0000     2.4433     2.2926   -27.8814    66.5577    14.4261     1.8265     0.0852     0.4048
  451.5000     2.4897     2.4014   -28.0261    64.1612    14.4727     1.8488     0.1759     0.4016
  452.0000     2.7355     2.5154   -28.1708    64.4607    14.2587     1.8971     0.0511     0.2654
  452.5000     3.0390     2.5842   -28.3158    65.5343    12.7424     2.3036     0.0741     0.1328
  453.0000     3.4353     2.9316   -28.4615    78.2660    12.8508     2.4553     0.0611     0.1184
  453.5000     3.8832     3.3175   -28.6041    81.8235    12.8046     2.4505     0.0313     0.1267
  454.0000     4.3895     3.7542   -28.7541    82.3973    12.8475     2.4391     0.0057     0.1370
  454.5000     4.9618     4.0898   -28.8529    82.6404    12.8562     2.4287     0.0132     0.1473
  455.0000     5.7194     4.2400   -28.6858    84.1861    12.8677     2.4179     0.0203     0.1579
  455.5000     5.7194     4.3957   -28.4149    86.5394    12.8738     2.4011     0.0273     0.1688
  456.0000     5.5507     4.5821   -28.1627    87.2654    12.8555     2.3779     0.0356     0.1798
  456.5000     5.2992     4.4928   -27.9125    85.9986    12.8403     2.3593     0.0358     0.1901
  457.0000     5.0591     4.3898   -27.6552    85.1254    12.8375     2.3304     0.0365     0.2240
  457.5000     4.8432     4.2892   -27.4030    85.5672    12.8687     2.2998     0.0375     0.2560
  458.0000     4.7940     4.1909   -27.1551    86.0323    12.9599     2.2337     0.0739     0.3059
  458.5000     4.7204     4.0949   -26.8851    86.3368    13.0518     2.1848     0.1426     0.3031
  459.0000     4.6480     3.9525   -26.9016    83.5924    13.1364     2.1435     0.2112     0.2996
  459.5000     4.5821     4.0323   -27.0791    79.9814    13.2261     2.1518     0.2454     0.2965
  460.0000     4.5821     4.2059   -27.2371    77.6241    13.1347     2.2634     0.1571     0.1756
  460.5000     4.7246     4.3870   -27.3920    76.5966    13.0284     2.3647     0.0763     0.1338
  461.0000     5.0255     4.5759   -27.5531    77.5697    12.9188     2.4420     0.0375     0.1195
  461.5000     5.1192     4.7730   -27.7106    80.5692    12.8042     2.4531     0.0293     0.1149
  462.0000     5.3851     4.9785   -27.8689    83.3141    12.7214     2.4636     0.0248     0.1102
  462.5000     5.6407     5.1931   -28.0281    84.0155    12.6311     2.4721     0.0224     0.1058
  463.0000     5.9084     5.4171   -28.1861    83.5736    12.5429     2.4758     0.0206     0.1056
  463.5000     6.1581     5.6506   -28.3430    83.1107    12.4810     2.4798     0.0221     0.1055
  464.0000     6.4274     5.7558   -28.5060    83.6139    12.4793     2.4818     0.0276     0.1053
  464.5000     6.6806     5.8062   -28.6565    85.0506    12.4755     2.4828     0.0245     0.1072
  465.0000     6.7991     5.8571   -28.8167    86.4425    12.4731     2.4777     0.0208     0.1112
  465.5000     6.8800     5.9085   -28.7259    87.4433    12.4705     2.4743     0.0168     0.1152
  466.0000     6.8516     5.9603   -28.6186    87.9102    12.4677     2.4689     0.0130     0.1192
  466.5000     6.7655     6.0453   -28.5014    87.0903    12.4651     2.4633     0.0091     0.1232
  467.0000     6.6805     6.0038   -28.3907    85.8127    12.4623     2.4578     0.0088     0.1272
  467.5000     6.5965     5.8813   -28.2780    85.4494    12.4596     2.4523     0.0100     0.1312
  468.0000     6.5090     5.7613   -28.1650    87.1901    12.4569     2.4462     0.0110     0.1352
  468.5000     6.4762     5.6438   -28.0526    88.8931    12.4541     2.4411     0.0120     0.1392
  469.0000     6.4164     5.5287   -27.9397    90.2258    12.4514     2.4296     0.0074     0.1520
  469.5000     6.3571     5.4159   -27.8267    89.8795    12.4484     2.4200     0.0010     0.1678
  470.0000     6.2984     5.3054   -27.7153    88.6749    12.4461     2.3932    -0.0055     0.1835
  470.5000     6.1581     5.2147   -27.6003    87.4813    12.4425     2.3723    -0.0107     0.2021
  471.0000     6.1059     4.9743   -27.4893    86.2684    12.4571     2.3456    -0.0163     0.2227
  471.5000     5.8177     4.7765   -27.3807    85.2170    12.4705     2.3263    -0.0133     0.2398
  472.0000     5.4249     4.5865   -27.2486    84.2781    12.4911     2.2523    -0.0066     0.2703
  472.5000     5.0583     4.4042   -27.3450    84.6646    12.5094     2.1871    -0.0033     0.2916
  473.0000     4.7167     4.2290   -27.6189    85.0716    12.5064     2.1204     0.0061     0.3753
