~VERSION INFORMATION
 VERS.                2.0:   CWLS LOG ASCII STANDARD - VERSION 2.0
 WRAP.                 NO:   ONE LINE PER DEPTH STEP
~WELL INFORMATION
#MNEM.UNIT      DATA TYPE    INFORMATION
#----------   ------------   ------------------------------
 STRT.F           23.0000:   START DEPTH
 STOP.F         1106.0000:   STOP DEPTH
 STEP.F            0.5000:   STEP LENGTH
 NULL.          -999.2500:   NO VALUE
 COMP. FENIX & SCISSON INC:   COMPANY
 WELL.       NPR-3 #67-11:   WELL
 FLD . TEAPOT DOME NPR #3:   FIELD
 LOC .      S11 T38N R78W:   LOCATION
 CNTY.            NATRONA:   COUNTY
 STAT.            WYOMING:   STATE
 CTRY. UNITED STATES OF AMERICA:   COUNTRY
 SRVC.            Unknown:   SERVICE COMPANY
 DATE.        06-MAR-1978:   LOGDATE
 API .       490251059100:   API NUMBER
~CURVE INFORMATION
#MNEM.UNIT       API CODE    CURVE DESCRIPTION
#----------   ------------   ------------------------------
 DEPT.F                  :   
 ILD .OHMM   05 120 46 00:   INDUCTION LOG DEEP
 SN  .OHMM   05 040 16 00:   SHORT NORMAL 16"
 SPR .MV     05 010 01 00:   SPONTANEOUS POTENTIAL FROM RES.
 CALD.IN     45 280 60 00:   CALIPER
 GRD .GAPI   45 310 01 00:   GAMMA RAY FROM DENSITY LOG
 CORR.G/C3   45 356 01 00:   DENSITY CORRECTION
 DPHI.DEC    45 890 12 00:   DENSITY POROSITY SANDSTONE
 RHOB.G/C3   45 350 01 00:   BULK DENSITY
~PARAMETER INFORMATION
#MNEM.UNIT          VALUE    DESCRIPTION
#----------   ------------   ------------------------------
 PD  .                 GL:   PERMANENT DATUM
 EPD .F              5243:   ELEVATION PERMANENT DATUM
 LMF .                 KB:   LOG MEASURED FROM
 DAPD.F                 4:   FEET ABOVE PERMANENT DATUM
 DMF .                 KB:   DRILLING MEASURED FROM
 EKB .F              5247:   KELLING BUSHING
 EGL .F              5243:   GROUND LEVEL
 DATE.           3-6-1978:   RUN DATE
 RUN .                  1:   RUN NUMBER
 DD  .F              1104:   DEPTH DRILLER
 DL  .F              1108:   DEPTH LOGGER
 BLI .F              1102:   BOTTOM LOG INTERVAL
 TLI .F                40:   TOP LOG INTERVAL
 CS  .IN            8.625:   CASING SIZE
 CBD .F                40:   CASING BOTTOM DRILLER
 CBL .F                40:   CASING BOTTOM LOGGER
 BS  .IN            7.875:   BIT SIZE
 BSD .F              1104:   BIT SIZE AT DEPTH
 DFT .         LIGNO/SULF:   DRILLING FLUID TYPE
 DFD .                8.6:   DRILLING FLUID DENSITY
 DFV .                 31:   DRILLING FLUID VISCOSITY
 DFL .                  8:   DRILLING FLUID LOSS
 MSS .            MUD PIT:   MUD SAMPLE SOURCE
 RMS .OHMM              2:   RESISTIVITY MUD SAMPLE
 MST .F                58:   MUD SAMPLE TEMPERATURE
 RMF .OHMM            1.2:   RESISTIVITY MUD FILTRATE SAMPLE
 MFST.F                64:   MUD FILTRATE SAMPLE TEMPERATURE
 RMC .OHMM              3:   RESISTIVITY MUD CAKE
 MCST.F                64:   MUD CAKE SAMPLE TEMPERATURE
 MFSS.               MEAS:   MUD FILTRATE SAMPLE SOURCE
 RMB .OHMM            1.5:   RESISTIVITY MUD AT BHT
 BHT .F                78:   BOTTOM HOLE TEMPERATURE
 TCS .HRS               4:   TIME CURCULATED STOPPED
 MRT .F                78:   MAXIMUM RECORDED TEMPERATURE
 LUN .               2959:   LOGGING UNIT NUMBER
 LUL .               CASP:   LOGGING UNIT LOCATION
 ENGI.             MILLER:   RECORDING ENGINEER
 WITN.           MCGINLEY:   WITNESSED BY
 CLNT.            A2DTECH:   CLIENT CODE
 ORIG.       2", 5" PRINT:   ORIGIN OF DATA
 UWI .       490251059100:   UNIQUE WELL ID
 DICO. A2D Technologies, Inc.:   DIGITIZING COMPANY
~OTHER INFORMATION
~A   DEPT      ILD         SN        SPR       CALD         GRD      CORR       DPHI       RHOB   
# ...
  995.0000     9.1159    10.5423   -29.1012     7.5801    75.2592     0.0201     0.1470     2.4163
  995.5000     9.1324    10.6010   -29.2269     7.5711    74.5848     0.0224     0.1525     2.4137
  996.0000     9.2058    10.6601   -29.3536     7.5532    73.8188     0.0247     0.1559     2.4034
  996.5000     9.2796    10.7194   -29.3815     7.5355    73.0459     0.0269     0.1554     2.4007
  997.0000     9.3538    10.8701   -29.3839     7.5176    73.5945     0.0293     0.1560     2.4011
  997.5000     9.4287    11.1202   -29.3851     7.4997    74.4910     0.0348     0.1597     2.4012
  998.0000     9.6068    11.3903   -29.6513     7.4819    73.5001     0.0401     0.1686     2.3947
  998.5000     9.8796    11.6670   -30.1611     7.4843    72.3124     0.0455     0.1796     2.3669
  999.0000    10.1586    12.0328   -30.2659     7.4890    71.1910     0.0532     0.1806     2.3628
  999.5000    10.4745    12.0299   -30.3326     7.4938    67.4075     0.0617     0.1952     2.3610
 1000.0000    10.6223    12.2456   -31.2392     7.4986    66.9980     0.0708     0.1934     2.3472
 1000.5000    10.7702    12.4734   -32.4534     7.5034    70.7883     0.0725     0.1917     2.3363
 1001.0000    11.4422    13.1567   -34.5863     7.5081    74.6488     0.0716     0.1941     2.3365
 1001.5000    12.0328    13.7017   -35.4160     7.5129    75.2322     0.0706     0.1958     2.3365
 1002.0000    12.3154    13.9885   -34.8234     7.5176    70.6043     0.0697     0.1958     2.3327
 1002.5000    12.6746    14.4662   -34.7258     7.5224    67.1988     0.0683     0.2009     2.3264
 1003.0000    12.8517    14.8847   -36.3162     7.5272    65.5934     0.0662     0.2054     2.3274
 1003.5000    12.9558    14.8814   -37.0811     7.5319    64.4691     0.0640     0.2070     2.3210
 1004.0000    12.9558    14.8814   -37.7776     7.5366    63.7891     0.0619     0.2052     2.3125
 1004.5000    12.9558    14.9577   -38.6818     7.5404    65.0206     0.0598     0.1986     2.3202
 1005.0000    12.9558    15.0196   -39.5307     7.5420    67.2765     0.0577     0.1950     2.3306
 1005.5000    12.8686    14.6866   -39.0128     7.5436    69.4349     0.0555     0.1933     2.3334
 1006.0000    12.5347    14.4631   -38.2054     7.5451    71.3534     0.0534     0.1927     2.3363
 1006.5000    12.2094    14.2732   -38.1036     7.5467    71.2758     0.0513     0.1906     2.3392
 1007.0000    12.0249    14.1225   -38.7202     7.5483    69.8175     0.0491     0.1898     2.3414
 1007.5000    11.9924    13.9734   -38.3145     7.5499    68.8107     0.0471     0.1957     2.3375
 1008.0000    11.9600    13.9496   -37.9686     7.5515    70.5877     0.0466     0.1982     2.3333
 1008.5000    11.9276    13.9496   -37.6027     7.5531    72.3668     0.0462     0.1907     2.3328
 1009.0000    11.8953    13.9496   -37.2515     7.5547    73.3529     0.0458     0.1888     2.3400
 1009.5000    11.8329    13.9496   -36.9046     7.5562    74.3530     0.0454     0.1899     2.3455
 1010.0000    11.7709    13.7021   -36.5597     7.5578    74.2066     0.0451     0.1946     2.3427
 1010.5000    11.7091    13.3199   -36.2113     7.5594    70.7572     0.0464     0.1918     2.3405
 1011.0000    11.6477    13.3199   -35.8582     7.5617    67.7541     0.0498     0.1873     2.3472
 1011.5000    11.5866    13.3199   -35.5036     7.5642    68.2630     0.0531     0.1827     2.3568
 1012.0000    11.5263    13.3199   -35.1772     7.5667    72.0519     0.0555     0.1790     2.3523
 1012.5000    11.4891    13.3199   -35.5790     7.5692    72.4444     0.0565     0.1764     2.3647
 1013.0000    11.4898    13.3199   -35.6030     7.5717    68.3502     0.0576     0.1738     2.3677
 1013.5000    11.4897    13.3199   -34.5626     7.5742    68.1154     0.0587     0.1713     2.3709
 1014.0000    11.4896    13.3199   -33.3404     7.5767    71.4203     0.0559     0.1787     2.3755
 1014.5000    11.4897    13.3199   -32.5140     7.5792    75.4293     0.0512     0.1866     2.3669
 1015.0000    11.4897    13.3199   -32.3864     7.5817    76.9821     0.0470     0.1813     2.3559
 1015.5000    11.4897    13.3199   -32.8797     7.5842    76.6098     0.0490     0.1767     2.3585
 1016.0000    11.4897    13.3204   -33.8726     7.5867    76.2450     0.0514     0.1722     2.3669
 1016.5000    11.4897    13.3223   -35.1545     7.5892    75.4964     0.0538     0.1677     2.3754
 1017.0000    11.3840    13.2529   -35.7291     7.5917    73.5053     0.0561     0.1643     2.3841
 1017.5000    11.1933    12.9798   -35.2748     7.5942    71.5163     0.0584     0.1620     2.3878
 1018.0000    10.9989    12.3710   -34.5170     7.5968    71.1663     0.0609     0.1606     2.3914
 1018.5000    10.8078    12.3710   -33.7478     7.5994    73.5365     0.0666     0.1555     2.3951
 1019.0000    10.6200    12.1502   -33.2533     7.5933    75.1406     0.0727     0.1489     2.4016
 1019.5000    10.5692    11.8491   -33.0831     7.5859    75.1345     0.0731     0.1423     2.4145
 1020.0000    10.5582    11.5963   -32.8430     7.5786    74.9266     0.0729     0.1411     2.4285
 1020.5000    10.5471    11.5526   -32.2478     7.5711    74.0478     0.0656     0.1608     2.4182
 1021.0000    10.5361    11.4937   -31.8930     7.5630    73.9417     0.0428     0.1624     2.4016
 1021.5000    10.5251    11.4351   -31.7736     7.5262    74.1238     0.0290     0.1637     2.3851
 1022.0000    10.5141    11.3840   -31.7713     7.4602    72.2097     0.0283     0.1650     2.3870
 1022.5000    10.5032    11.3840   -31.7727     7.4465    70.3744     0.0368     0.1662     2.3904
 1023.0000    10.4919    11.3840   -31.7729     7.4382    71.1404     0.0454     0.1669     2.3866
 1023.5000    10.4812    11.3840   -31.7729     7.4341    71.8884     0.0488     0.1655     2.3836
 1024.0000    10.4123    11.3840   -31.7729     7.4299    72.3386     0.0484     0.1638     2.3898
 1024.5000    10.2888    11.3297   -31.7732     7.4257    72.7824     0.0478     0.1658     2.3896
 1025.0000    10.1668    11.1481   -31.7720     7.4216    73.1162     0.0473     0.1646     2.3827
 1025.5000    10.0463    10.9693   -31.7033     7.4174    72.1878     0.0467     0.1619     2.3830
 1026.0000     9.9272    10.7936   -31.6303     7.4132    71.2749     0.0462     0.1598     2.3876
 1026.5000     9.8198    10.6712   -31.6627     7.4090    70.3715     0.0457     0.1616     2.3978
 1027.0000     9.7115    10.6127   -32.0221     7.4044    69.5716     0.0452     0.1633     2.4011
 1027.5000     9.6912    10.5281   -32.3689     7.4015    70.5870     0.0388     0.1646     2.3918
 1028.0000     9.6709    10.4442   -32.7152     7.4836    70.9610     0.0330     0.1635     2.3849
 1028.5000     9.6507    10.3610   -32.9944     7.5757    69.5636     0.0335     0.1590     2.3991
 1029.0000     9.6184    10.2840   -32.1233     7.5973    68.1552     0.0339     0.1545     2.4135
 1029.5000     9.5383    10.2676   -31.9610     7.5688    67.8201     0.0342     0.1542     2.4124
 1030.0000     9.4588    10.2487   -31.9631     7.5411    67.5104     0.0346     0.1550     2.4078
 1030.5000     9.3800    10.2299   -31.0951     7.5387    67.2045     0.0350     0.1558     2.4032
 1031.0000     9.3019    10.2111   -31.0306     7.5378    67.2759     0.0364     0.1563     2.4013
 1031.5000     9.2049    10.1923   -31.0993     7.5367    69.0828     0.0380     0.1467     2.4098
 1032.0000     9.2006    10.1736   -31.1868     7.5357    70.5548     0.0396     0.1425     2.4218
 1032.5000     9.1830    10.1548   -30.8847     7.5346    70.3970     0.0410     0.1436     2.4304
 1033.0000     9.1654    10.1358   -30.7468     7.5336    71.1961     0.0410     0.1446     2.4251
 1033.5000     9.1479    10.1060   -30.6007     7.5325    72.5439     0.0410     0.1432     2.4223
 1034.0000     9.1306    10.0900   -30.5936     7.5315    72.3284     0.0410     0.1394     2.4254
 1034.5000     9.1205    10.2004   -30.6188     7.5304    72.1969     0.0410     0.1400     2.4275
 1035.0000     9.1227    10.2001   -30.6445     7.5294    73.4656     0.0410     0.1410     2.4269
