~VERSION INFORMATION
 VERS.                2.0:   CWLS LOG ASCII STANDARD - VERSION 2.0
 WRAP.                 NO:   ONE LINE PER DEPTH STEP
~WELL INFORMATION
#MNEM.UNIT      DATA TYPE    INFORMATION
#----------   ------------   ------------------------------
 STRT.F           16.0000:   START DEPTH
 STOP.F         1334.0000:   STOP DEPTH
 STEP.F            0.5000:   STEP LENGTH
 NULL.          -999.2500:   NO VALUE
 COMP. U S NAVY/INTEX OIL CO:   COMPANY
 WELL.  S-11 NPR 3 #87-11:   WELL
 FLD .             TEAPOT:   FIELD
 LOC .      S11 T38N R78W:   LOCATION
 CNTY.            NATRONA:   COUNTY
 STAT.            WYOMING:   STATE
 CTRY. UNITED STATES OF AMERICA:   COUNTRY
 SRVC.       Schlumberger:   SERVICE COMPANY
 DATE.        17-JUN-1966:   LOGDATE
 API .       490250958900:   API NUMBER
~CURVE INFORMATION
#MNEM.UNIT       API CODE    CURVE DESCRIPTION
#----------   ------------   ------------------------------
 DEPT.F                  :   
 GRD .GAPI   45 310 01 00:   GAMMA RAY FROM DENSITY LOG
 CALD.IN     45 280 60 00:   CALIPER
 RHOB.G/C3   45 350 01 00:   BULK DENSITY
 DPOR.DEC    45 890 12 00:   DENSITY POROSITY SANDSTONE
 DRHO.G/C3   45 356 01 00:   DENSITY CORRECTION
 ASN .OHMM   05 041 16 00:   AMPLIFIED SHORT NORMAL 16"
 ILD .OHMM   05 120 46 00:   INDUCTION LOG DEEP
 CILD.MMHO   05 110 46 00:   CONDUCTIVITY INDUCTION LOG DEEP
 SPR .MV     05 010 01 00:   SPONTANEOUS POTENTIAL FROM RES.
~PARAMETER INFORMATION
#MNEM.UNIT          VALUE    DESCRIPTION
#----------   ------------   ------------------------------
 PD  .                 GL:   PERMANENT DATUM
 EPD .F              5284:   ELEVATION PERMANENT DATUM
 LMF .                 KB:   LOG MEASURED FROM
 DAPD.F                 5:   FEET ABOVE PERMANENT DATUM
 DMF .                 KB:   DRILLING MEASURED FROM
 EKB .F              5289:   KELLING BUSHING
 EGL .F              5284:   GROUND LEVEL
 DATE.          8-17-1966:   RUN DATE
 RUN .                  1:   RUN NUMBER
 DD  .F              1335:   DEPTH DRILLER
 DL  .F              1335:   DEPTH LOGGER
 BLI .F              1334:   BOTTOM LOG INTERVAL
 TLI .F                50:   TOP LOG INTERVAL
 CS  .IN            8.625:   CASING SIZE
 CBD .F                10:   CASING BOTTOM DRILLER
 BS  .IN            7.875:   BIT SIZE
 BSD .F              1335:   BIT SIZE AT DEPTH
 DFT .           GEL-CHEM:   DRILLING FLUID TYPE
 DFD .                9.3:   DRILLING FLUID DENSITY
 DFV .                 50:   DRILLING FLUID VISCOSITY
 MSS .          FLOW LINE:   MUD SAMPLE SOURCE
 RMS .OHMM           1.38:   RESISTIVITY MUD SAMPLE
 MST .F                80:   MUD SAMPLE TEMPERATURE
 RMF .OHMM           1.09:   RESISTIVITY MUD FILTRATE SAMPLE
 MFST.F                77:   MUD FILTRATE SAMPLE TEMPERATURE
 MFSS.                  M:   MUD FILTRATE SAMPLE SOURCE
 RMB .OHMM           1.70:   RESISTIVITY MUD AT BHT
 BHT .F               108:   BOTTOM HOLE TEMPERATURE
 TCS .HRS               1:   TIME CURCULATED STOPPED
 MRT .F               108:   MAXIMUM RECORDED TEMPERATURE
 LUN .               4507:   LOGGING UNIT NUMBER
 LUL .               CSPR:   LOGGING UNIT LOCATION
 ENGI.            MANGOLD:   RECORDING ENGINEER
 WITN.                MAY:   WITNESSED BY
 CLNT.            A2DTECH:   CLIENT CODE
 ORIG.       2", 5" PRINT:   ORIGIN OF DATA
 UWI .       490250958900:   UNIQUE WELL ID
 DICO. A2D Technologies, Inc.:   DIGITIZING COMPANY
~OTHER INFORMATION
~A   DEPT       GRD      CALD       RHOB       DPOR       DRHO        ASN        ILD       CILD        SPR   
# ...
 1293.5000    98.9267     8.3619     2.5186     0.0797     0.0301     8.4016     6.7218   147.2771   -33.1997
 1294.0000    97.8988     8.3611     2.4977     0.0897     0.0158     8.1439     6.2924   161.5071   -32.8862
 1294.5000   107.1849     8.3603     2.4869     0.0968     0.0132     7.8208     5.8625   178.1220   -32.5720
 1295.0000   106.3218     8.3595     2.5178     0.0864     0.0203     7.5006     5.4180   194.8659   -32.2574
 1295.5000   105.4891     8.3587     2.5297     0.0769     0.0273     7.1363     5.1598   209.2894   -31.9430
 1296.0000   104.5163     8.3578     2.5006     0.0902     0.0344     6.6835     4.9054   220.0716   -31.6286
 1296.5000   111.2811     8.3570     2.5105     0.0952     0.0438     6.2328     4.9138   223.3150   -31.3142
 1297.0000   121.5576     8.3562     2.5020     0.0911     0.0632     5.8139     4.9139   217.9092   -30.9993
 1297.5000   129.3383     8.3554     2.4934     0.0957     0.0762     5.4114     4.9671   212.0159   -30.6678
 1298.0000   127.4184     8.3546     2.4855     0.1000     0.0666     5.4257     5.1784   205.0028   -30.7936
 1298.5000   119.9462     8.3538     2.5080     0.0788     0.0492     5.6593     5.7349   196.2472   -31.0978
 1299.0000   102.1409     8.3530     2.5350     0.0645     0.0323     6.1067     6.2858   178.6783   -31.4583
 1299.5000    99.9253     8.3522     2.5604     0.0501     0.0236     7.6205     6.8370   159.3843   -31.8187
 1300.0000   100.5030     8.3514     2.5740     0.0463     0.0306     8.1928     7.3889   149.5531   -32.1792
 1300.5000   101.0335     8.3506     2.5786     0.0481     0.0427     8.3991     7.9313   138.6514   -32.5355
 1301.0000   100.8578     8.3498     2.5836     0.0455     0.0545     8.5763     8.1453   127.7497   -32.5754
 1301.5000   100.6032     8.3490     2.5673     0.0427     0.0625     8.7379     8.2160   125.9796   -32.5749
 1302.0000    98.0838     8.3482     2.5429     0.0595     0.0427     8.8995     8.2491   125.2717   -32.5743
 1302.5000    97.1782     8.3474     2.5381     0.0673     0.0239     9.0496     8.2809   124.6137   -32.5743
 1303.0000    96.6927     8.3466     2.5539     0.0572     0.0304     9.1325     8.3623   122.9236   -32.5743
 1303.5000    96.0506     8.3458     2.5646     0.0565     0.0404     9.2106     8.4615   121.3442   -32.5742
 1304.0000    95.4157     8.3450     2.5505     0.0587     0.0506     9.3296     8.5620   119.7721   -32.5743
 1304.5000    96.0009     8.3442     2.5557     0.0577     0.0431     9.4483     8.6625   118.2011   -32.5741
 1305.0000    97.9798     8.3434     2.5633     0.0518     0.0353     9.6591     8.7630   116.6299   -32.5846
 1305.5000    99.9706     8.3426     2.5667     0.0572     0.0493     9.8688     8.8634   115.0587   -32.5999
 1306.0000    98.0242     8.3418     2.5393     0.0652     0.0562    10.2361     8.9639   113.4875   -32.6153
 1306.5000    95.0957     8.3410     2.5551     0.0693     0.0392    10.5876     9.0643   111.9163   -32.6307
 1307.0000    98.7944     8.3401     2.5799     0.0476     0.0486    10.6039     9.1648   110.3451   -32.6461
 1307.5000   104.8005     8.3393     2.6049     0.0328     0.0633    10.7542     9.2652   108.7739   -32.6615
 1308.0000    99.1522     8.3385     2.6212     0.0160     0.0781    10.8524     9.3657   107.2028   -32.6769
 1308.5000    93.1058     8.3377     2.6094     0.0265     0.0930    10.9467     9.4661   105.6316   -32.6923
 1309.0000    95.1297     8.3369     2.5964     0.0386     0.0963    11.0327     9.5666   104.0604   -32.7077
 1309.5000    97.5418     8.3361     2.5463     0.0508     0.0888    11.2066     9.6672   102.4892   -32.7231
 1310.0000    99.8898     8.3353     2.5537     0.0646     0.0628    11.3442     9.7666   100.9180   -32.7385
 1310.5000   101.1008     8.3345     2.5609     0.0573     0.0349    11.4703     9.8300    99.3468   -32.7539
 1311.0000    98.3547     8.3337     2.5446     0.0526     0.0404    11.6923     9.8863    98.7432   -32.7690
 1311.5000    95.7072     8.3329     2.5310     0.0767     0.0481    11.7620     9.9426    98.6441   -32.7981
 1312.0000    93.9125     8.3321     2.5176     0.0857     0.0520    11.8378     9.9989    98.5450   -32.8298
 1312.5000    96.5360     8.3313     2.5112     0.0729     0.0176    11.9128    10.0552    98.4459   -32.8617
 1313.0000    99.5199     8.3305     2.5475     0.0610     0.0245    11.9880    10.1115    98.3468   -32.8936
 1313.5000    97.3731     8.3297     2.5373     0.0698     0.0306    12.0628    10.1679    98.2477   -32.9252
 1314.0000    93.1182     8.3289     2.5196     0.0801     0.0312    12.1399    10.2247    98.1486   -32.9582
 1314.5000  -999.2500     8.3281     2.5255     0.0737     0.0222    12.0910    10.2754    98.0495   -32.8900
 1315.0000  -999.2500     8.3273     2.5344     0.0686     0.0186    11.9799    10.2377    97.9479   -32.7557
 1315.5000  -999.2500     8.3265     2.5434     0.0634     0.0336    11.8671    10.1978    97.8545   -32.6203
 1316.0000  -999.2500     8.3257     2.5526     0.0607     0.0459    11.7546    10.1584    98.3349   -32.4849
 1316.5000  -999.2500     8.3249     2.5541     0.0586     0.0430    11.6663    10.1191    99.1675   -32.3495
 1317.0000  -999.2500     8.3241     2.5419     0.0627     0.0389    11.6681    10.0798    99.9934   -32.2142
 1317.5000  -999.2500     8.3233     2.5427     0.0678     0.0352    11.6683    10.0404   100.8193   -32.0788
 1318.0000  -999.2500     8.3224     2.5578     0.0595     0.0414    11.6683    10.0011   101.6451   -31.9433
 1318.5000  -999.2500     8.3216     2.5458     0.0667     0.0372    11.6683     9.9618   102.4710   -31.8077
 1319.0000  -999.2500     8.3208     2.5301     0.0782     0.0310    11.6684     9.9225   103.2969   -31.6748
 1319.5000  -999.2500     8.3200     2.5168     0.0848     0.0248    11.6684     9.8832   104.1228   -31.6409
 1320.0000  -999.2500     8.3192     2.5262     0.0724     0.0192    11.6676     9.8439   104.9487   -31.8187
 1320.5000  -999.2500     8.3184     2.5376     0.0695     0.0321    11.6263     9.8036   105.7746   -31.9938
 1321.0000  -999.2500     8.3176     2.5489     0.0566     0.0464    11.5240     9.7134   106.6005   -32.1715
 1321.5000  -999.2500     8.3168     2.5604     0.0331     0.0606    11.4225     9.5473   107.4264   -32.1138
 1322.0000  -999.2500     8.3160     2.5747     0.0690     0.0746    11.3208     9.3824   109.0828   -32.0235
 1322.5000  -999.2500     8.3152     2.5619     0.0611     0.0810    11.2192     9.2171   111.2632   -31.9334
 1323.0000  -999.2500     8.3144     2.5588     0.0533     0.0486    11.1175     9.0520   113.4435   -31.8446
 1323.5000  -999.2500     8.3136     2.5849     0.0419     0.0380    11.0158     8.8866   115.6238   -31.7635
 1324.0000  -999.2500     8.3128     2.6081     0.0253     0.0691    10.9146     8.7202   117.8042   -31.7055
 1324.5000  -999.2500     8.3120     2.5769     0.0424     0.0791    10.7814     8.6202   119.3486   -31.6468
 1325.0000  -999.2500     8.3112     2.5430     0.0666     0.0508    10.6287     8.5343   120.4749   -31.5884
 1325.5000  -999.2500     8.3104     2.5602     0.0471     0.0342    10.4805     8.4487   121.6011   -31.5299
 1326.0000  -999.2500     8.3096     2.5729     0.0594     0.0475    10.4511     8.3630   122.7273   -31.4713
 1326.5000  -999.2500     8.3088     2.5659     0.0536     0.0538    10.4277     8.2772   124.0474   -31.4128
 1327.0000  -999.2500     8.3080     2.5762     0.0438     0.0512    10.4087     8.1914   126.1711   -31.3543
 1327.5000  -999.2500     8.3072     2.5894     0.0380     0.0489    10.3494     8.1057   128.2948   -31.2959
 1328.0000  -999.2500     8.3065     2.5745     0.0435     0.0566     9.9585     8.0198  -999.2500   -31.2374
 1328.5000  -999.2500     8.3068     2.5834     0.0404     0.0656     9.7440     7.9340  -999.2500   -31.1789
 1329.0000  -999.2500     8.2556     2.5847     0.0395     0.0754     9.5703     7.8491  -999.2500   -31.1204
 1329.5000  -999.2500     8.1924     2.5697     0.0483     0.0852     9.4907     7.8010  -999.2500   -31.0619
