~VERSION INFORMATION
 VERS.                2.0:   CWLS LOG ASCII STANDARD - VERSION 2.0
 WRAP.                 NO:   ONE LINE PER DEPTH STEP
~WELL INFORMATION
#MNEM.UNIT      DATA TYPE    INFORMATION
#----------   ------------   ------------------------------
 STRT.F          420.0000:   START DEPTH
 STOP.F         1937.0000:   STOP DEPTH
 STEP.F            0.5000:   STEP LENGTH
 NULL.          -999.2500:   NO VALUE
 COMP. LAWRENCE/ALLISON INC:   COMPANY
 WELL.      85 "X" #85-29:   WELL
 FLD .             TEAPOT:   FIELD
 LOC .      S29 T39N R78W:   LOCATION
 CNTY.            NATRONA:   COUNTY
 STAT.            WYOMING:   STATE
 CTRY. UNITED STATES OF AMERICA:   COUNTRY
 SRVC.            Unknown:   SERVICE COMPANY
 DATE.        28-SEP-1987:   LOGDATE
 API .       490251119100:   API NUMBER
~CURVE INFORMATION
#MNEM.UNIT       API CODE    CURVE DESCRIPTION
#----------   ------------   ------------------------------
 DEPT.F                  :   
 ROP .FT/HR  91 810 01 00:   RAT OF DRILLING PENETRATION
 TGAS.TC/CC  91 830 01 00:   TOTAL GAS UNIT
~PARAMETER INFORMATION
#MNEM.UNIT          VALUE    DESCRIPTION
#----------   ------------   ------------------------------
 DATE.        28-SEP-1987:   RUN DATE
 BLI .F              1937:   BOTTOM LOG INTERVAL
 TLI .F               420:   TOP LOG INTERVAL
 LUN .              T-146:   LOGGING UNIT NUMBER
 CLNT.            A2DTECH:   CLIENT CODE
 ORIG.           5" PRINT:   ORIGIN OF DATA
 UWI .       490251119100:   UNIQUE WELL ID
 DICO. A2D Technologies, Inc.:   DIGITIZING COMPANY
~OTHER INFORMATION
~A   DEPT        ROP       TGAS 
# ...
  541.5000     0.3184     4.1203
  542.0000     0.3188     4.1013
  542.5000     0.3192     4.0823
  543.0000     0.3195     4.0633
  543.5000     0.3199     4.4251
  544.0000     0.3203     4.4104
  544.5000     0.3206     4.4082
  545.0000     0.3210     4.4060
  545.5000     0.3214     4.4039
  546.0000     0.3218     4.4017
  546.5000     0.3221     4.3995
  547.0000     0.3225     4.3974
  547.5000     0.3229     4.3952
  548.0000     0.3232     4.3930
  548.5000     0.3236     4.3909
  549.0000     0.3240     4.3887
  549.5000     0.3243     4.3865
  550.0000     0.3247     4.3843
  550.5000     0.3251     4.3822
  551.0000     0.3254     4.3800
  551.5000     0.3258     4.3778
  552.0000     0.3262     4.3757
  552.5000     0.3265     4.3735
  553.0000     0.3269     4.3713
  553.5000     0.3273     4.3692
  554.0000     0.3277     4.3670
  554.5000     0.3280     4.3648
  555.0000     0.3284     4.3627
  555.5000     0.3288     4.3241
  556.0000     0.3291     4.2725
  556.5000     0.3296     4.2210
  557.0000     0.3291     4.1694
  557.5000     0.3286     4.1178
  558.0000     0.3280     4.0663
  558.5000     0.3275     4.0147
  559.0000     0.3269     3.9631
  559.5000     0.3263     3.9116
  560.0000     0.3258     3.8600
  560.5000     0.3252     3.8084
  561.0000     0.3247     3.7569
  561.5000     0.3241     3.7053
  562.0000     0.3236     3.6537
  562.5000     0.3230     3.6022
  563.0000     0.3225     3.5506
  563.5000     0.3219     3.4990
  564.0000     0.3214     3.5073
  564.5000     0.3208     3.5333
  565.0000     0.3203     3.5592
  565.5000     0.3197     3.5852
  566.0000     0.3191     3.6112
  566.5000     0.3186     3.6371
  567.0000     0.3180     3.6631
  567.5000     0.3175     3.6890
  568.0000     0.3169     3.7150
  568.5000     0.3164     3.7410
  569.0000     0.3158     3.7669
  569.5000     0.3153     3.7929
  570.0000     0.3147     3.8188
  570.5000     0.3142     3.8448
  571.0000     0.3136     3.8708
  571.5000     0.3134     3.8967
  572.0000     0.3136     3.9227
  572.5000     0.3138     3.9487
  573.0000     0.3140     3.9746
  573.5000     0.3141     4.0006
  574.0000     0.3143     4.0265
  574.5000     0.3145     4.0525
  575.0000     0.3147     4.0785
  575.5000     0.3149     4.1044
  576.0000     0.3151     4.1304
  576.5000     0.3152     4.1563
  577.0000     0.3154     4.1823
  577.5000     0.3156     4.2083
  578.0000     0.3158     4.2342
  578.5000     0.3160     4.2602
  579.0000     0.3162     4.2330
  579.5000     0.3163     3.5028
  580.0000     0.3165     3.4916
  580.5000     0.3167     3.4804
  581.0000     0.3169     3.4693
  581.5000     0.3171     3.4581
  582.0000     0.3172     3.4469
  582.5000     0.3174     3.8155
  583.0000     0.3176     3.8051
  583.5000     0.3178     3.7937
  584.0000     0.3180     3.7823
  584.5000     0.3182     3.7709
  585.0000     0.3183     3.7595
  585.5000     0.3185     3.7481
  586.0000     0.3187     3.7367
  586.5000     0.3189     3.7253
  587.0000     0.3191     3.7139
  587.5000     0.3193     3.7025
  588.0000     0.3194     3.6911
  588.5000     0.3196     3.6797
  589.0000     0.3198     3.6684
  589.5000     0.3200     3.6570
  590.0000     0.3202     3.6456
  590.5000     0.3204     3.6342
  591.0000     0.3205     3.6228
  591.5000     0.3207     3.6114
  592.0000     0.3209     3.6000
  592.5000     0.3211     3.5886
  593.0000     0.3213     3.5772
  593.5000     0.3214     3.5658
  594.0000     0.3216     3.5544
  594.5000     0.3218     3.5430
  595.0000     0.3220     3.5316
  595.5000     0.3222     3.5203
  596.0000     0.3224     3.5089
  596.5000     0.3225     3.4975
  597.0000     0.3229     3.4861
  597.5000     0.3235     3.4747
  598.0000     0.3240     3.4633
  598.5000     0.3245     3.4503
  599.0000     0.3251     3.4115
  599.5000     0.3256     3.3665
  600.0000     0.3261     3.3214
  600.5000     0.3267     3.2764
  601.0000     0.3272     3.2313
  601.5000     0.3277     3.1863
  602.0000     0.3283     3.1412
  602.5000     0.3288     3.0962
  603.0000     0.3293     3.0511
  603.5000     0.3301     3.0061
  604.0000     0.3311     2.9610
  604.5000     0.3320     2.9537
  605.0000     0.3330     2.9739
  605.5000     0.3339     2.9941
  606.0000     0.3349     3.0143
  606.5000     0.3358     3.0346
  607.0000     0.3368     3.0548
  607.5000     0.3377     3.0750
  608.0000     0.3387     3.0952
  608.5000     0.3396     3.1154
  609.0000     0.3406     3.1356
  609.5000     0.3415     3.1558
  610.0000     0.3425     3.1760
  610.5000     0.3434     3.1963
  611.0000     0.3444     3.2165
  611.5000     0.3453     3.2367
  612.0000     0.3462     3.2569
  612.5000     0.3472     3.2771
  613.0000     0.3480     3.2973
  613.5000     0.3487     3.3175
  614.0000     0.3493     3.3377
  614.5000     0.3500     3.3580
  615.0000     0.3507     3.3782
  615.5000     0.3513     3.3984
  616.0000     0.3520     3.4177
  616.5000     0.3526     3.4269
  617.0000     0.3533     3.4438
  617.5000     0.3540     3.4606
  618.0000     0.3546     3.4775
  618.5000     0.3553     3.4943
  619.0000     0.3560     3.5112
  619.5000     0.3566     3.5280
  620.0000     0.3573     3.5449
  620.5000     0.3579     3.5617
  621.0000     0.3586     3.5786
  621.5000     0.3593     3.5954
  622.0000     0.3599     3.6122
  622.5000     0.3606     3.6291
  623.0000     0.3612     3.6459
  623.5000     0.3619     3.6628
  624.0000     0.3626     3.6796
  624.5000     0.3632     3.6965
  625.0000     0.3639     3.7133
  625.5000     0.3646     3.7302
  626.0000     0.3652     3.7470
  626.5000     0.3659     3.7638
  627.0000     0.3665     3.7807
  627.5000     0.3672     3.7975
  628.0000     0.3679     3.7807
  628.5000     0.3685     3.7640
  629.0000     0.3692     3.7472
  629.5000     0.3698     3.7305
  630.0000     0.3705     3.7138
  630.5000     0.3712     3.6971
  631.0000     0.3718     3.6803
  631.5000     0.3725     3.6636
  632.0000     0.3732     3.6469
  632.5000     0.3738     3.6302
  633.0000     0.3745     3.6135
  633.5000     0.3751     3.5967
  634.0000     0.3758     3.5800
  634.5000     0.3765     3.5633
  635.0000     0.3771     3.5466
  635.5000     0.3778     3.5298
  636.0000     0.3785     3.5131
  636.5000     0.3886     3.4964
  637.0000     0.3987     3.4797
  637.5000     0.3994     3.4629
  638.0000     0.4000     3.4462
  638.5000     0.4101     3.4295
  639.0000     0.4108     3.7975
  639.5000     0.4114     3.0380
  640.0000     0.2980     0.7595
  640.5000     0.3088     1.1392
  641.0000     0.3095     1.1392
  641.5000     0.3102     1.1392
  642.0000     0.3109     1.1392
  642.5000     0.3116     1.1392
  643.0000     0.3121     1.5190
  643.5000     0.3128     1.5190
  644.0000     0.3134     1.5190
  644.5000     0.3141     1.8987
  645.0000     0.3147     1.9181
  645.5000     0.3154     1.9396
  646.0000     0.3161     1.9611
  646.5000     0.3167     1.9825
  647.0000     0.3174     2.0040
  647.5000     0.3276     2.0255
  648.0000     0.3283     2.0470
  648.5000     0.3193     2.0685
  649.0000     0.2918     2.0900
  649.5000     0.2828     2.1115
  650.0000     0.2740     2.1330
  650.5000     0.2652     2.1545
  651.0000     0.2660     2.1760
  651.5000     0.2667     2.1974
  652.0000     0.2673     2.2189
  652.5000     0.2680     2.2404
  653.0000     0.2686     2.2619
  653.5000     0.2693     2.2547
  654.0000     0.2698     2.1507
  654.5000     0.2700     2.0466
  655.0000     0.2702     1.9426
  655.5000     0.2704     1.8386
  656.0000     0.2706     1.7345
  656.5000     0.2708     1.6305
  657.0000     0.2710     1.5265
  657.5000     0.2711     1.4225
  658.0000     0.2713     1.3184
  658.5000     0.2715     1.2684
  659.0000     0.2717     1.2759
  659.5000     0.2719     1.3304
  660.0000     0.2721     1.6724
  660.5000     0.2723     1.6798
  661.0000     0.2725     1.6873
  661.5000     0.2727     1.6947
  662.0000     0.2729     1.3206
  662.5000     0.2730     0.9483
