~VERSION INFORMATION
 VERS.                2.0:   CWLS LOG ASCII STANDARD - VERSION 2.0
 WRAP.                 NO:   ONE LINE PER DEPTH STEP
~WELL INFORMATION
#MNEM.UNIT      DATA TYPE    INFORMATION
#----------   ------------   ------------------------------
 STRT.F           38.0000:   START DEPTH
 STOP.F          637.0000:   STOP DEPTH
 STEP.F            0.5000:   STEP LENGTH
 NULL.          -999.2500:   NO VALUE
 COMP. FENIX & SCISSON INC:   COMPANY
 WELL.    NPR ##3 57-S-34:   WELL
 FLD .             TEAPOT:   FIELD
 LOC .      S34 T39N R78W:   LOCATION
 CNTY.            NATRONA:   COUNTY
 STAT.            WYOMING:   STATE
 CTRY. UNITED STATES OF AMERICA:   COUNTRY
 SRVC.              Welex:   SERVICE COMPANY
 DATE.        12-MAR-1977:   LOGDATE
 API .       490251030600:   API NUMBER
~CURVE INFORMATION
#MNEM.UNIT       API CODE    CURVE DESCRIPTION
#----------   ------------   ------------------------------
 DEPT.F                  :   
 SPR .MV     07 010 01 00:   SPONTANEOUS POTENTIAL
 ILM .OHMM   07 120 44 00:   INDUCTION LOG MEDIUM
 ILD .OHMM   07 120 46 00:   INDUCTION LOG DEEP
 SGRD.OHMM   07 221 05 00:   SHALLOW SHORT GUARD RESISTIVITY
 CALD.IN     45 280 60 00:   CALIPER FROM DENSITY LOG
 GRD .GAPI   45 310 01 00:   GAMMA RAY FROM DENSITY LOG
 CORR.G/C3   45 356 01 00:   DENSITY CORRECTION
 DPHI.DEC    45 890 12 00:   DENSITY POROSITY SANDSTONE
 RHOB.G/C3   45 350 01 00:   BULK DENSITY
~PARAMETER INFORMATION
#MNEM.UNIT          VALUE    DESCRIPTION
#----------   ------------   ------------------------------
 PD  .                 GL:   PERMANENT DATUM
 EPD .F              5107:   ELEVATION PERMANENT DATUM
 LMF .                 GL:   LOG MEASURED FROM
 DMF .                 GL:   DRILLING MEASURED FROM
 EGL .F              5107:   GROUND LEVEL
 DATE.          3-12-1977:   RUN DATE
 RUN .                  1:   RUN NUMBER
 DD  .F               650:   DEPTH DRILLER
 DL  .F               637:   DEPTH LOGGER
 BLI .F               636:   BOTTOM LOG INTERVAL
 TLI .F                46:   TOP LOG INTERVAL
 CS  .IN            8.625:   CASING SIZE
 CBD .F                45:   CASING BOTTOM DRILLER
 CBL .F                46:   CASING BOTTOM LOGGER
 BS  .IN            7.875:   BIT SIZE
 BSD .F               650:   BIT SIZE AT DEPTH
 DFT .            KCL MUD:   DRILLING FLUID TYPE
 DFD .                8.9:   DRILLING FLUID DENSITY
 DFV .                 35:   DRILLING FLUID VISCOSITY
 MSS .            MUD PIT:   MUD SAMPLE SOURCE
 RMS .OHMM            .53:   RESISTIVITY MUD SAMPLE
 MST .F                68:   MUD SAMPLE TEMPERATURE
 RMF .OHMM            .41:   RESISTIVITY MUD FILTRATE SAMPLE
 MFST.F                69:   MUD FILTRATE SAMPLE TEMPERATURE
 RMC .OHMM            .62:   RESISTIVITY MUD CAKE
 MCST.F                65:   MUD CAKE SAMPLE TEMPERATURE
 MFSS.           MEASURED:   MUD FILTRATE SAMPLE SOURCE
 MCSS.           MEASURED:   MUD CAKE SAMPLE SOURCE
 RMB .OHMM            .60:   RESISTIVITY MUD AT BHT
 BHT .F                60:   BOTTOM HOLE TEMPERATURE
 TCS .HRS               1:   TIME CURCULATED STOPPED
 MRT .F                60:   MAXIMUM RECORDED TEMPERATURE
 LUN .               0716:   LOGGING UNIT NUMBER
 LUL .             VERNAL:   LOGGING UNIT LOCATION
 ENGI.        E. CALLAHAN:   RECORDING ENGINEER
 WITN.         STUEBUNGER:   WITNESSED BY
 CLNT.            A2DTECH:   CLIENT CODE
 ORIG.           5" PRINT:   ORIGIN OF DATA
 UWI .       490251030600:   UNIQUE WELL ID
 DICO. A2D Technologies, Inc.:   DIGITIZING COMPANY
~OTHER INFORMATION
~A   DEPT      SPR        ILM        ILD       SGRD       CALD        GRD       CORR       DPHI       RHOB   
# ...
  257.0000   -36.0852     9.1664     7.8872    11.0574     7.9904   112.3183     0.0560     0.1090     2.4699
  257.5000   -36.0997     9.1641     7.9925    11.2076     8.0673   113.7069     0.0590     0.1043     2.4723
  258.0000   -36.1143     9.2898     8.1607    11.2826     8.1134   113.0831     0.0620     0.0901     2.4746
  258.5000   -36.1288     9.5482     8.3235    11.3562     8.1284   113.6988     0.0805     0.0864     2.5025
  259.0000   -36.1435     9.8138     8.4931    11.5109     8.1124   114.3134     0.0804     0.0864     2.5032
  259.5000   -36.1584    10.0168     8.6074    11.7587     8.1119   114.4635     0.0803     0.0861     2.5025
  260.0000   -36.3255    10.2245     8.7838    12.2402     8.0960   112.2906     0.0802     0.0861     2.5079
  260.5000   -36.3401    10.5090     8.9021    12.9321     8.0955   109.8092     0.0739     0.0911     2.5048
  261.0000   -36.3546    10.6536     9.0220    12.3169     8.0950   109.3401     0.0599     0.0985     2.4971
  261.5000   -36.3691    10.6509     9.2068    11.9779     8.0946   109.4903     0.0567     0.1010     2.4847
  262.0000   -36.3837    10.6488     9.2740    12.3097     8.0786   110.5693     0.0550     0.0998     2.4770
  262.5000   -36.3982    10.6528     9.5209    12.7374     8.0627   113.0426     0.0565     0.0942     2.4855
  263.0000   -36.4128    10.9423     9.5836    13.0902     8.0618   110.0956     0.0611     0.0936     2.4963
  263.5000   -36.2778    11.2472     9.7126    13.1767     8.0463   108.8526     0.0548     0.0945     2.4932
  264.0000   -36.2930    11.0137     9.7755    12.6359     8.0458   108.5384     0.0531     0.0942     2.4909
  264.5000   -36.1574    11.1647     9.7024    12.9859     8.0454   108.9981     0.0515     0.0895     2.4956
  265.0000   -36.1756    11.2405     9.4986    13.0727     8.0449   109.4579     0.0638     0.0849     2.5026
  265.5000   -36.1901    11.3156     9.4921    12.7108     8.0599   109.9188     0.0670     0.0837     2.5072
  266.0000   -36.2046    11.1519     9.3591    12.4457     8.0778   110.2238     0.0729     0.0854     2.5080
  266.5000   -36.0697    10.6285     9.2893    12.3558     8.1054   110.5288     0.0666     0.0926     2.5064
  267.0000   -36.0842    10.5532     9.2849    12.4373     8.1205   114.2393     0.0587     0.1016     2.4910
  267.5000   -35.9493    10.4785     9.2805    12.3464     8.1510   111.9115     0.0556     0.1068     2.4809
  268.0000   -35.9641    10.4764     9.2762    12.1728     8.1659   110.8233     0.0570     0.1089     2.4732
  268.5000   -35.8289    10.4743     9.2718    11.9189     8.1654   108.6515     0.0616     0.1064     2.4693
  269.0000   -35.8471    10.6179     9.2675    11.6703     8.1649   107.5633     0.0723     0.1027     2.4678
  269.5000   -35.7085    10.6894     9.2586    11.5062     8.1645   107.2491     0.0815     0.1014     2.4895
  270.0000   -35.7267    10.6773     9.1939    11.2662     8.1640   107.8636     0.0845     0.1033     2.4949
  270.5000   -35.7412    10.4654     9.1262    11.6586     8.1636   108.7878     0.0844     0.1077     2.4809
  271.0000   -35.7557    10.2486     9.1219    11.8170     8.1477   109.5572     0.0735     0.1151     2.4661
  271.5000   -35.7703    10.1760     9.0548    11.3320     8.1472   110.4813     0.0626     0.1198     2.4538
  272.0000   -35.9343    10.2450     8.9881    11.0956     8.1467   111.7151     0.0625     0.1185     2.4508
  272.5000   -35.9488    10.3140     8.9219    11.2464     8.1462   110.7817     0.0701     0.1151     2.4611
  273.0000   -35.9670    10.3829     8.9177    11.8820     8.1458   109.8482     0.0747     0.1111     2.4664
  273.5000   -35.9815    10.2383     8.8520    12.2122     8.1298   109.2244     0.0746     0.1049     2.4696
  274.0000   -35.9961    10.0953     8.7859    11.3130     8.1294   107.3622     0.0714     0.1003     2.4855
  274.5000   -35.8575    10.0238     8.6611    10.9249     8.1134   107.5124     0.0713     0.0988     2.4965
  275.0000   -35.8757     9.9528     8.6570    11.2276     8.1130   107.1981     0.0758     0.1000     2.4917
  275.5000   -35.8902     9.8142     8.6530    11.0687     8.0970   105.6414     0.0881     0.0985     2.4818
  276.0000   -35.9047     9.7447     8.4712    10.6890     8.0965   105.1765     0.0880     0.0951     2.4834
  276.5000   -35.9193     9.6756     8.3508    10.6118     8.0961   107.6610     0.0957     0.0904     2.4919
  277.0000   -35.9342     9.6737     8.1754    10.6082     8.0956   108.5728     0.0894     0.0901     2.5027
  277.5000   -35.9520     9.6713     8.1067    10.7524     8.0952   108.7332     0.0831     0.0954     2.4981
  278.0000   -35.9665     9.6027     7.9439    10.7488     8.0947   109.2075     0.0815     0.1078     2.4873
  278.5000   -35.9810     9.5347     7.9401    10.5975     8.0943   110.2761     0.0767     0.1100     2.4749
  279.0000   -35.9956     9.4672     7.9364    10.3757     8.0938   110.7379     0.0689     0.1118     2.4641
  279.5000   -35.8570     9.3354     7.9327    10.3007     8.0933   110.6796     0.0595     0.1208     2.4478
  280.0000   -35.8752     9.1420     7.9290    10.2263     8.0929   109.7213     0.0563     0.1236     2.4409
  280.5000   -35.8897     9.0147     7.9252    10.0825     8.0924   107.8529     0.0578     0.1212     2.4540
  281.0000   -35.9043     8.9508     7.9765    10.0097     8.0919   106.6532     0.0670     0.1116     2.4649
  281.5000   -35.9193     9.0111     7.9719    10.0063     8.0759   106.3638     0.0700     0.1082     2.4719
  282.0000   -35.7838     9.0718     7.9681    10.0030     8.0755   106.3302     0.0746     0.1094     2.4726
  282.5000   -35.8020     9.1329     7.9644    10.0690     8.0750   100.4712     0.0745     0.1150     2.4688
  283.0000   -35.8165     9.1939     7.9606    10.2049     8.0745    97.9898     0.0742     0.1187     2.4541
  283.5000   -35.6816     9.1920     7.9569    10.3436     8.0896    94.2700     0.0696     0.1228     2.4479
  284.0000   -35.6961     9.1902     7.9532    10.5569     8.0891    88.5378     0.0647     0.1250     2.4371
  284.5000   -35.7107     9.1884     7.9495    10.7745     8.0887    86.5220     0.0583     0.1225     2.4487
  285.0000   -35.7252     9.1861     7.9456    10.9218     8.0882    99.8289     0.0430     0.1216     2.4510
  285.5000   -35.7399     9.1842     7.9971    10.6931     8.0877   102.9214     0.0383     0.1216     2.4340
  286.0000   -35.6048     9.1824     7.9925    10.2532     8.0873   101.5224     0.0444     0.1200     2.4386
  286.5000   -35.6230     9.1805     7.9336     9.8925     8.0868    98.5766     0.0505     0.1151     2.4541
  287.0000   -35.3386     9.1155     7.9299     9.6967     8.0863   100.2748     0.0504     0.1126     2.4626
  287.5000   -35.2036     9.1137     7.8715     9.8967     8.0858   104.1401     0.0534     0.1185     2.4565
  288.0000   -35.2181     9.0457     7.8678     9.8925     8.0854   104.7558     0.0564     0.1191     2.4541
  288.5000   -35.0796     8.9227     7.7555     9.8211     8.0850   103.3568     0.0625     0.1162     2.4611
  289.0000   -35.0977     8.7379     7.6383     9.6830     8.0845   102.5782     0.0701     0.1171     2.4573
  289.5000   -35.1123     8.6760     7.4328     9.6130     8.0840   102.8832     0.0732     0.1160     2.4642
  290.0000   -35.1271     8.4963     7.2766     9.4124     8.0836   104.1170     0.0731     0.1139     2.4735
  290.5000   -35.1450     8.2630     7.1733     9.1519     8.0831   109.5303     0.0683     0.1183     2.4550
  291.0000   -35.3064     8.0362     7.0226     9.0232     8.0826   112.1572     0.0667     0.1192     2.4542
  291.5000   -35.3235     7.8150     6.9228     8.8350     8.0821   111.3786     0.0666     0.1195     2.4519
  292.0000   -35.1850     7.5933     6.7774     8.5911     8.0817   112.1480     0.0789     0.1167     2.4550
  292.5000   -35.2031     7.3919     6.6788     8.4119     8.0812   111.0598     0.0850     0.1109     2.4728
  293.0000   -35.2177     7.3395     6.5854     8.4091     8.0808   109.6619     0.0833     0.1034     2.4790
