~VERSION INFORMATION
 VERS.                2.0:   CWLS LOG ASCII STANDARD - VERSION 2.0
 WRAP.                 NO:   ONE LINE PER DEPTH STEP
~WELL INFORMATION
#MNEM.UNIT      DATA TYPE    INFORMATION
#----------   ------------   ------------------------------
 STRT.F           44.0000:   START DEPTH
 STOP.F          485.0000:   STOP DEPTH
 STEP.F            0.5000:   STEP LENGTH
 NULL.          -999.2500:   NO VALUE
 COMP. LAWRENCE/ALLISON INC:   COMPANY
 WELL.      NPR 3 #55-51S:   WELL
 FLD .             TEAPOT:   FIELD
 LOC .       S3 T38N R78W:   LOCATION
 CNTY.            NATRONA:   COUNTY
 STAT.            WYOMING:   STATE
 CTRY. UNITED STATES OF AMERICA:   COUNTRY
 SRVC.      Dresser Atlas:   SERVICE COMPANY
 DATE.        12-DEC-1983:   LOGDATE
 API .       490251095400:   API NUMBER
~CURVE INFORMATION
#MNEM.UNIT       API CODE    CURVE DESCRIPTION
#----------   ------------   ------------------------------
 DEPT.F                  :   
 CALR.IN     10 280 01 00:   CALIPER FROM RESISTIVITY
 RATI.CMP    99 420 01 00:   RATIO
 RES .OHMM   10 220 00 00:   RESISTIVITY
 DEC .       99 000 00 00:   DEC
 P6  .G/C3   99 000 00 00:   P6
 PHAS.       99 000 00 00:   PHASE
 PORE.DEC    99 890 00 00:   PORE
~PARAMETER INFORMATION
#MNEM.UNIT          VALUE    DESCRIPTION
#----------   ------------   ------------------------------
 PD  .                 GL:   PERMANENT DATUM
 EPD .F              5161:   ELEVATION PERMANENT DATUM
 LMF .                 KB:   LOG MEASURED FROM
 DAPD.F                10:   FEET ABOVE PERMANENT DATUM
 DMF .                 KB:   DRILLING MEASURED FROM
 EKB .F              5171:   KELLING BUSHING
 EGL .F              5161:   GROUND LEVEL
 DATE.        12-DEC-1983:   RUN DATE
 RUN .                  1:   RUN NUMBER
 DD  .F               490:   DEPTH DRILLER
 DL  .F               489:   DEPTH LOGGER
 BLI .F               487:   BOTTOM LOG INTERVAL
 TLI .F                 0:   TOP LOG INTERVAL
 CS  .IN            10.75:   CASING SIZE
 CBD .F                52:   CASING BOTTOM DRILLER
 CBL .F                46:   CASING BOTTOM LOGGER
 BS  .IN             8.75:   BIT SIZE
 BSD .F               490:   BIT SIZE AT DEPTH
 DFT .           AIR FOAM:   DRILLING FLUID TYPE
 TCS .HRS               3:   TIME CURCULATED STOPPED
 MRT .F                72:   MAXIMUM RECORDED TEMPERATURE
 LUN .               6274:   LOGGING UNIT NUMBER
 LUL .               GLTE:   LOGGING UNIT LOCATION
 ENGI.             RAUTIO:   RECORDING ENGINEER
 WITN.             GROOMS:   WITNESSED BY
 CLNT.            A2DTECH:   CLIENT CODE
 ORIG.           5" PRINT:   ORIGIN OF DATA
 UWI .       490251095400:   UNIQUE WELL ID
 DICO. A2D Technologies, Inc.:   DIGITIZING COMPANY
~OTHER INFORMATION
~A   DEPT      CALR        RATI        RES       DEC          P6      PHAS        PORE 
# ...
  453.5000     8.7564     0.3335     7.5964    46.9987     2.4772    84.3086  -999.2500
  454.0000     8.7556     0.3336     7.4921    46.7739     2.4780    84.3188  -999.2500
  454.5000     8.7702     0.3306     7.3383    47.9806     2.4836    85.4431  -999.2500
  455.0000     8.7711     0.3289     7.1381    48.7351     2.4851    86.3108  -999.2500
  455.5000     8.7839     0.3232     7.0379    48.8868     2.4867    86.3161  -999.2500
  456.0000     8.7862     0.3187     6.9916    47.2320     2.4890    85.5996  -999.2500
  456.5000     8.7974     0.3112     6.9916    45.3509     2.4944    84.7027  -999.2500
  457.0000     8.7861     0.3052     6.9916    44.9006     2.4999    83.8057  -999.2500
  457.5000     8.7655     0.3037     7.2877    44.5959     2.5045    83.0892  -999.2500
  458.0000     8.7648     0.3053     7.5441    44.0392     2.5084    82.5532  -999.2500
  458.5000     8.7878     0.3113     7.6491    42.9476     2.5047    82.0158  -999.2500
  459.0000     8.7876     0.3234     7.7022    41.9701     2.5016    81.3006  -999.2500
  459.5000     8.7873     0.3309     7.7022    42.2728     2.5002    80.7645  -999.2500
  460.0000     8.7870     0.3324     7.7022    42.6508     2.5088    81.3233  -999.2500
  460.5000     8.7868     0.3295     7.8095    42.9535     2.5150    81.4969  -999.2500
  461.0000     8.7865     0.3280     7.9182    42.5784     2.5172    80.2404  -999.2500
  461.5000     8.7863     0.3313     8.1403    41.2245     2.5089    79.5239  -999.2500
  462.0000     8.7860     0.3326     8.0842    40.4729     2.5028    78.9878  -999.2500
  462.5000     8.7706     0.3296     7.9732    40.5497     2.4936    78.8114  -999.2500
  463.0000     8.7704     0.3291     7.8637    40.4689     2.4868    79.1789  -999.2500
  463.5000     8.7701     0.3219     7.7557    40.2518     2.4961    79.5451  -999.2500
  464.0000     8.7698     0.3129     7.7022    39.7262     2.5023    78.6481  -999.2500
  464.5000     8.7696     0.3115     7.6491    37.0168     2.5024    77.3903     0.5883
  465.0000     8.7693     0.3236     8.0285    36.1147     2.4962    76.4933     0.5495
  465.5000     8.7691     0.3357     8.3776    35.7393     2.4809    75.9537     0.5531
  466.0000     8.7688     0.3432     8.5440    36.4941     2.4787    76.1817     0.5621
  466.5000     8.7581     0.3402     8.3109    38.2275     2.4819    77.7737     0.5765
  467.0000     8.7531     0.3314     8.0285    40.0362     2.4850    79.2226     0.6000
  467.5000     8.7529     0.3270     7.8637    41.3931     2.4858    79.9497     0.6000
  468.0000     8.7526     0.3255     7.8095    41.6958     2.4798    80.3159     0.6000
  468.5000     8.7676     0.3241     7.8095    40.2861     2.4767    79.7799     0.6000
  469.0000     8.7673     0.3227     7.9182    39.2319     2.4760    78.3415     0.5925
  469.5000     8.7671     0.3243     8.1403    39.0813     2.4768    77.6237     0.5892
  470.0000     8.7668     0.3273     8.2536    39.1566     2.4746    77.4486     0.6000
  470.5000     8.7666     0.3319     8.1968    39.0813     2.4708    77.4552     0.5964
  471.0000     8.7663     0.3365     8.1403    38.9307     2.4671    77.4605     0.5901
  471.5000     8.7660     0.3456     8.1415    38.7801     2.4672    77.4659     0.6000
  472.0000     8.7678     0.3366     8.2536    38.8554     2.4720    77.6782     0.6000
  472.5000     8.7808     0.3307     7.9732    39.4629     2.4757    78.3800     0.6000
  473.0000     8.7805     0.3293     7.7557    41.2153     2.4765    79.4680     0.6000
  473.5000     8.7721     0.3339     7.6491    41.9428     2.4774    81.0973     0.6000
  474.0000     8.7648     0.3369     7.0889    44.5030     2.4820    83.6289     0.6000
  474.5000     8.7645     0.3145     6.8955    47.2139     2.4897    84.8974     0.6000
  475.0000     8.7642     0.3116     6.9434    46.6867     2.5059    85.0226     0.6000
  475.5000     8.7640     0.3086     7.0401    45.4819     2.5152    84.4511     0.6000
  476.0000     8.7638     0.3087     7.0889    44.2771     2.5237    83.1735     0.6000
  476.5000     8.7635     0.3073     7.0401    41.7922     2.5299    80.5727     0.6000
  477.0000     8.7633     0.3059     7.0401    38.6295     2.5369    77.2331     0.5747
  477.5000     8.7630     0.3044     7.0401    34.7892     2.5431    74.1654     0.5197
  478.0000     8.7628     0.3028     6.8438    29.5120     2.5462    72.0000     0.4737
  478.5000     8.7625     0.2971     6.3027    31.0336     2.5470    75.0677     0.4980
  479.0000     8.7622     0.2821     5.8816    34.9398     2.5463    79.3985     0.5495
  479.5000     8.7772     0.2522     5.7212    35.9187     2.5440    80.8421     0.5567
  480.0000     8.7769     0.2432     5.7212    34.0361     2.5426    81.3835     0.4944
  480.5000     8.7767     0.2388     5.6818    26.2801     2.5472    75.6090     0.3828
  481.0000     8.7764     0.2374     5.6426    22.7410     2.6800    75.0677     0.3555
  481.5000     8.7610     0.2390     5.6426    22.2892     2.6800    74.7068     0.3717
  482.0000     8.6697     0.2436     5.6426    22.6657     2.6800    75.7895     0.3961
  482.5000     8.5784     0.2481     5.7212    25.3012     2.6800    76.8722     0.4051
  483.0000     8.5022     0.2512     5.8411    24.6706     2.6800    74.1654     0.3907
  483.5000     8.4261     0.2513     6.0466    22.0086     2.3983    71.6391     0.3023
  484.0000     8.4107     0.2498     6.1308    19.4277     2.1700    70.3759     0.3411
  484.5000     8.4105     0.2445     5.9886    19.2018     2.4143    70.1955     0.3501
  485.0000     8.4102     0.2427     1.9889    20.0352     2.4903  -999.2500     0.3424
