~VERSION INFORMATION
 VERS.                2.0:   CWLS LOG ASCII STANDARD - VERSION 2.0
 WRAP.                 NO:   ONE LINE PER DEPTH STEP
~WELL INFORMATION
#MNEM.UNIT      DATA TYPE    INFORMATION
#----------   ------------   ------------------------------
 STRT.F           86.0000:   START DEPTH
 STOP.F         1134.0000:   STOP DEPTH
 STEP.F            0.5000:   STEP LENGTH
 NULL.          -999.2500:   NO VALUE
 COMP.          U.S. NAVY:   COMPANY
 WELL. RES 3 TEAPOT DOM #64-S-2:   WELL
 FLD .             TEAPOT:   FIELD
 LOC .       S2 T38N R78W:   LOCATION
 CNTY.            NATRONA:   COUNTY
 STAT.            WYOMING:   STATE
 CTRY. UNITED STATES OF AMERICA:   COUNTRY
 SRVC. Schlumberger Well Surveying Corp:   SERVICE COMPANY
 DATE.        28-JUL-1964:   LOGDATE
 API .       490250644400:   API NUMBER
~CURVE INFORMATION
#MNEM.UNIT       API CODE    CURVE DESCRIPTION
#----------   ------------   ------------------------------
 DEPT.F                  :   
 ASN .OHMM   05 041 16 00:   AMPLIFIED SHORT NORMAL 16"
 CILD.MMHO   05 110 46 00:   CONDUCTIVITY INDUCTION LOG DEEP
 ILD .OHMM   05 120 46 00:   INDUCTION LOG DEEP
 SPR .MV     05 010 01 00:   SPONTANEOUS POTENTIAL FROM RES.
 DT  .US/F   60 520 33 00:   INTERVAL TRANSIT TIME
 GR  .GAPI   30 310 01 00:   GAMMA RAY
~PARAMETER INFORMATION
#MNEM.UNIT          VALUE    DESCRIPTION
#----------   ------------   ------------------------------
 PD  .                 GL:   PERMANENT DATUM
 EPD .F              5204:   ELEVATION PERMANENT DATUM
 LMF .                 KB:   LOG MEASURED FROM
 DAPD.F                 5:   FEET ABOVE PERMANENT DATUM
 DMF .                 KB:   DRILLING MEASURED FROM
 EKB .F              5209:   KELLING BUSHING
 EGL .F              5204:   GROUND LEVEL
 DATE.        28-JUL-1964:   RUN DATE
 RUN .                  1:   RUN NUMBER
 DD  .F              1135:   DEPTH DRILLER
 DL  .F              1135:   DEPTH LOGGER
 BLI .F              1134:   BOTTOM LOG INTERVAL
 TLI .F                86:   TOP LOG INTERVAL
 CS  .IN            10.75:   CASING SIZE
 CBD .F                11:   CASING BOTTOM DRILLER
 BS  .IN            7.875:   BIT SIZE
 BSD .F              1135:   BIT SIZE AT DEPTH
 DFT .            GEL-OIL:   DRILLING FLUID TYPE
 DFD .                9.5:   DRILLING FLUID DENSITY
 DFV .                 49:   DRILLING FLUID VISCOSITY
 DFL .                 10:   DRILLING FLUID LOSS
 MSS .           FLOWLINE:   MUD SAMPLE SOURCE
 RMS .OHMM           2.35:   RESISTIVITY MUD SAMPLE
 MST .F                89:   MUD SAMPLE TEMPERATURE
 RMF .OHMM           1.71:   RESISTIVITY MUD FILTRATE SAMPLE
 MFST.F                89:   MUD FILTRATE SAMPLE TEMPERATURE
 RMC .OHMM           3.01:   RESISTIVITY MUD CAKE
 MCST.F                89:   MUD CAKE SAMPLE TEMPERATURE
 MFSS.                 FP:   MUD FILTRATE SAMPLE SOURCE
 MCSS.                 FP:   MUD CAKE SAMPLE SOURCE
 TCS .HRS               1:   TIME CURCULATED STOPPED
 LUN .               3527:   LOGGING UNIT NUMBER
 LUL .               CSPR:   LOGGING UNIT LOCATION
 ENGI.             KNOBEL:   RECORDING ENGINEER
 WITN.          JORGENSEN:   WITNESSED BY
 CLNT.            A2DTECH:   CLIENT CODE
 ORIG.        2" 5" PRINT:   ORIGIN OF DATA
 UWI .       490250644400:   UNIQUE WELL ID
 DICO. A2D Technologies, Inc.:   DIGITIZING COMPANY
~OTHER INFORMATION
~A   DEPT        ASN      CILD        ILD       SPR         DT         GR   
# ...
  814.0000     7.6499   161.1446     6.6066   -23.7960   101.7052    83.8915
  814.5000     7.5893   160.1155     6.7274   -23.7946   101.7783    83.4447
  815.0000     7.5421   158.1325     6.8506   -23.7931   101.7003    84.7977
  815.5000     7.5442   156.6515     6.9820   -23.7915   101.6228    82.8516
  816.0000     7.6642   155.0201     7.0571   -23.7901   101.3196    77.7571
  816.5000     7.8345   153.6145     7.1453   -23.7886   100.9412    81.4491
  817.0000     7.9648   152.5351     7.2072   -23.7869   100.4876    83.4603
  817.5000     8.0754   151.2299     7.3167   -23.7856   100.0289    78.3664
  818.0000     8.1600   149.0964     7.3574   -23.7841    99.7176    77.1692
  818.5000     8.1992   147.7661     7.3574   -23.7823    99.5780    75.9735
  819.0000     8.2349   145.2810     7.3861   -23.8291    99.7263    69.0799
  819.5000     8.2498   142.3193     7.4324   -23.9295   100.0246    66.6833
  820.0000     8.2576   140.3112     7.4324   -23.9280   100.2486    69.6854
  820.5000     8.3049   138.5542     7.4093   -23.9265   100.0954    70.4380
  821.0000     8.4147   137.8012     7.3574   -23.9249    99.7170    73.2895
  821.5000     8.5354   138.7676     7.3574   -23.9235    99.1881    76.8907
  822.0000     8.7191   139.3072     7.2823   -23.9220    98.5027    76.1439
  822.5000     8.7492   141.2525     7.2823   -23.7704    97.8192    77.3464
  823.0000     8.6930   142.4950     7.2435   -23.7691    98.2027    80.2402
  823.5000     8.5943   143.8253     7.2072   -23.7556    98.6520    83.9270
  824.0000     8.4860   144.9799     7.1321   -23.6159    98.9513    88.1498
  824.5000     8.3476   146.2224     7.0990   -23.4648    98.8733    81.1070
  825.0000     8.3208   147.5904     7.0571   -23.3133    98.7207    78.5612
  825.5000     8.3866   148.7074     6.9820   -23.3118    99.0194    79.6129
  826.0000     8.4283   149.9498     6.9820   -23.3103    99.9202    75.7185
  826.5000     8.3830   150.6024     6.9814   -23.3088    99.8427    71.2230
  827.0000     8.2238   151.3554     6.9069   -23.3073    99.0128    72.5753
  827.5000     8.0519   151.2926     6.9069   -23.3058   100.1388    70.0295
  828.0000     8.2923   149.8494     6.9820   -23.3042   100.3628    69.5834
  828.5000     8.4206   148.8077     7.0252   -23.4528    99.7581    66.2880
  829.0000     8.5033   146.7870     7.0733   -23.6192    99.0787    69.2894
  829.5000     8.5623   143.8253     7.2072   -23.7496    98.6251    68.6927
  830.0000     8.6361   141.5663     7.2447   -23.9580    98.5476    62.0487
  830.5000     8.7126   138.5542     7.3680   -24.2024    98.4702    62.2067
  831.0000     8.8310   134.3875     7.5826   -24.3448    98.3927    64.6543
  831.5000     9.0079   131.0241     7.7215   -24.5412    97.6813    64.8064
  832.0000     9.4640   127.0783     7.8929   -24.6417    95.2461    67.9585
  832.5000     9.6956   122.9104     8.1081   -24.7901    93.7204    69.4607
  833.0000     9.9413   118.4775     8.3108   -24.9387    92.8905    70.5131
  833.5000    10.0521   116.4760     8.4084   -24.7870    92.2864    73.0648
  834.0000    10.0549   113.9456     8.6536   -24.7077    91.9832    72.1682
  834.5000    10.0577   111.5161     8.9208   -24.4603    91.7553    69.6224
  835.0000    10.0605   108.2833     9.2342   -24.3326    91.6026    68.1261
  835.5000    10.0633   105.6396     9.4682   -24.1814    91.6004    70.5278
  836.0000    10.1395   103.3234     9.8048   -24.0300    91.5962    69.4813
  836.5000    10.3798   100.7117    10.1351   -24.0282    91.0512    66.7856
  837.0000    10.6260    97.3335    10.3216   -24.0270    90.7656    69.5151
  837.5000    10.9662    95.4757    10.5293   -24.0255    90.9138    68.0161
  838.0000    11.1936    94.2319    10.8108   -24.1199    90.9874    62.1468
  838.5000    11.4398    92.7925    10.9165   -24.4063    90.6085    64.9990
  839.0000    11.7176    92.7861    11.1111   -24.9205    90.2301    63.3528
  839.5000    11.9000    92.7973    11.1862   -25.0030    90.0021    62.9052
  840.0000    12.0231    94.0262    11.1612   -25.0676    89.3227    61.2597
  840.5000    12.1682    94.5017    11.0360   -24.9159    88.7938    59.1630
  841.0000    12.1423    95.7678    10.9147   -24.7646    88.8728    55.8683
  841.5000    12.0176    96.9591    10.7163   -24.6132    89.5413    56.7708
  842.0000    11.8490    98.1877    10.5105   -24.4615    90.0658    53.9252
  842.5000    11.5273    99.5100    10.3948   -24.2504    90.2899    52.4288
  843.0000    11.1149   100.6451    10.2715   -24.0090    89.9862    53.3314
  843.5000    10.9241   102.6267    10.0601   -23.8573    88.7801    54.0839
  844.0000    10.8139   104.0051     9.9500   -24.0540    88.5527    53.4872
  844.5000    10.9640   105.8371     9.8267   -24.3043    89.0767    54.5396
  845.0000    11.1143   107.0658     9.6847   -24.3928    89.6764    50.0455
  845.5000    10.9372   108.5002     9.5802   -24.6014    90.2069    50.1984
  846.0000    10.5125   109.5231     9.4595   -24.7495    91.0924    54.5484
  846.5000    10.3345   110.7517     9.4595   -24.7481    92.7543    44.9569
  847.0000    10.2866   111.4910     9.3844   -24.7466    92.3006    49.6075
  847.5000    10.2865   111.4834     9.3844   -24.7449    91.8475    49.9103
  848.0000    10.4036   111.4756     9.3844   -24.5277    92.4467    53.5115
  848.5000    10.5869   110.2823     9.3844   -24.2924    92.8207    54.8630
  849.0000    10.7038   109.9548     9.3844   -24.1407    93.0443    53.0676
  849.5000    10.7517   109.1936     9.3450   -23.9355    93.2678    54.4198
  850.0000    10.7368   108.8102     9.2968   -23.6882    93.1904    52.7736
  850.5000    10.5906   109.2859     9.1592   -23.6867    92.3283    51.4163
  851.0000    10.3523   110.6767     9.0503   -23.6852    91.1538    53.3613
  851.5000    10.2101   111.7433     8.9270   -23.6836    91.2269    58.1935
  852.0000    10.0654   113.0222     8.7838   -23.8321    91.7514    55.4665
  852.5000    10.0898   115.1719     8.7087   -23.8606    92.3511    58.0132
  853.0000    10.1143   116.4459     8.6324   -23.9790    92.8762    58.2155
  853.5000    10.0753   118.1701     8.5091   -24.0495    93.7815    58.0729
  854.0000     9.6980   119.8695     8.4610   -24.1439    94.7582    63.3295
  854.5000     9.6053   121.3743     8.4084   -24.2744    95.3587    66.3353
  855.0000     9.5742   123.4183     8.2895   -24.3328    95.4328    64.6935
  855.5000     9.5472   124.5846     8.1663   -24.4273    95.5066    62.9017
  856.0000     9.5172   125.8133     8.0330   -24.5697    95.6556    63.5087
  856.5000     9.4658   127.1604     7.9580   -24.5682    95.8046    60.5175
  857.0000     9.3964   128.6344     7.8716   -24.5667    95.8028    57.5264
  857.5000     9.3327   130.2523     7.7327   -24.4153    95.7260    56.1844
  858.0000     9.2436   132.4086     7.6251   -24.4138    95.6493    58.4406
  858.5000     9.1553   133.4626     7.5769   -24.2623    95.6478    56.2009
  859.0000     9.1105   134.6539     7.4324   -24.2609    95.7251    54.2592
  859.5000     9.0498   134.6447     7.4593   -24.2594    95.9551    55.9157
  860.0000     9.0105   133.6345     7.5075   -24.1078    96.0949    58.0201
  860.5000     9.0266   131.6189     7.6308   -24.1064    95.7921    54.1312
  861.0000     9.0794   129.1766     7.7753   -23.9550    95.8658    56.5374
  861.5000     9.1859   126.3078     7.9580   -23.9533    96.3158    58.3438
  862.0000     9.3843   121.8068     8.1081   -23.7481    96.1638    55.9523
  862.5000     9.7857   119.4779     8.1988   -23.5007    94.8832    55.2100
  863.0000     9.6884   118.7801     8.2583   -23.3493    92.7749    55.0675
  863.5000     9.3944   118.7718     8.2583   -23.1979    90.2904    55.3893
  864.0000     9.5146   120.2208     8.2583   -23.0464    89.4612    55.0839
  864.5000     9.7468   122.8491     8.0330   -22.9610    89.2340    49.6940
  865.0000     9.8752   130.7971     7.6827   -23.2234    89.2325    51.9502
  865.5000     9.5117   142.2177     7.3442   -23.6415    89.9180    53.4568
