~VERSION INFORMATION
 VERS.                2.0:   CWLS LOG ASCII STANDARD - VERSION 2.0
 WRAP.                 NO:   ONE LINE PER DEPTH STEP
~WELL INFORMATION
#MNEM.UNIT      DATA TYPE    INFORMATION
#----------   ------------   ------------------------------
 STRT.F           30.0000:   START DEPTH
 STOP.F          500.0000:   STOP DEPTH
 STEP.F            0.5000:   STEP LENGTH
 NULL.          -999.2500:   NO VALUE
 COMP. FENIX & SCISSON INC:   COMPANY
 WELL.     3-FI #55-45 SX:   WELL
 FLD .             TEAPOT:   FIELD
 LOC .       S3 T38N R78W:   LOCATION
 CNTY.            NATRONA:   COUNTY
 STAT.            WYOMING:   STATE
 CTRY. UNITED STATES OF AMERICA:   COUNTRY
 SRVC.              Welex:   SERVICE COMPANY
 DATE.        16-MAY-1980:   LOGDATE
 API .       490251082700:   API NUMBER
~CURVE INFORMATION
#MNEM.UNIT       API CODE    CURVE DESCRIPTION
#----------   ------------   ------------------------------
 DEPT.F                  :   
 SPR .MV     07 010 01 00:   SPONTANEOUS POTENTIAL
 GURD.OHMM   07 220 05 00:   GUARD RESISTIVITY
 CALD.IN     45 280 60 00:   CALIPER
 GRD .GAPI   45 310 01 00:   GAMMA RAY FROM DENSITY LOG
 RHOB.G/C3   45 350 01 00:   BULK DENSITY
 CORR.G/C3   45 356 01 00:   DENSITY CORRECTION
 NPHI.DEC    42 890 03 00:   NEUTRON POROSITY SANDSTONE
 DPHI.DEC    45 890 12 00:   DENSITY POROSITY SANDSTONE
 ILD .OHMM   07 120 46 00:   INDUCTION LOG DEEP
 ILM .OHMM   07 120 44 00:   INDUCTION LOG MEDIUM
~PARAMETER INFORMATION
#MNEM.UNIT          VALUE    DESCRIPTION
#----------   ------------   ------------------------------
 PD  .                 GL:   PERMANENT DATUM
 EPD .F              5167:   ELEVATION PERMANENT DATUM
 LMF .                 KB:   LOG MEASURED FROM
 DAPD.F                 5:   FEET ABOVE PERMANENT DATUM
 DMF .                 KB:   DRILLING MEASURED FROM
 EKB .F              5172:   KELLING BUSHING
 EGL .F              5167:   GROUND LEVEL
 DATE.            5-16-80:   RUN DATE
 RUN .                  1:   RUN NUMBER
 DD  .F               483:   DEPTH DRILLER
 DL  .F               496:   DEPTH LOGGER
 BLI .F               494:   BOTTOM LOG INTERVAL
 TLI .F                35:   TOP LOG INTERVAL
 BS  .IN             9.75:   BIT SIZE
 BSD .F               483:   BIT SIZE AT DEPTH
 DFT .            KCL MUD:   DRILLING FLUID TYPE
 DFD .                9.5:   DRILLING FLUID DENSITY
 DFV .                 45:   DRILLING FLUID VISCOSITY
 DFL .                7.5:   DRILLING FLUID LOSS
 MSS .            MUD PIT:   MUD SAMPLE SOURCE
 RMS .OHMM            .29:   RESISTIVITY MUD SAMPLE
 MST .F                75:   MUD SAMPLE TEMPERATURE
 RMF .OHMM            .23:   RESISTIVITY MUD FILTRATE SAMPLE
 MFST.F                75:   MUD FILTRATE SAMPLE TEMPERATURE
 RMC .OHMM            .35:   RESISTIVITY MUD CAKE
 MCST.F                75:   MUD CAKE SAMPLE TEMPERATURE
 MFSS.           MEASURED:   MUD FILTRATE SAMPLE SOURCE
 MCSS.           MEASURED:   MUD CAKE SAMPLE SOURCE
 TCS .HRS               2:   TIME CURCULATED STOPPED
 LUN .               9685:   LOGGING UNIT NUMBER
 LUL .             CASPER:   LOGGING UNIT LOCATION
 ENGI.            TOTHILL:   RECORDING ENGINEER
 WITN.              AMEND:   WITNESSED BY
 CLNT.            A2DTECH:   CLIENT CODE
 ORIG.           5" PRINT:   ORIGIN OF DATA
 UWI .       490251082700:   UNIQUE WELL ID
 DICO. A2D Technologies, Inc.:   DIGITIZING COMPANY
~OTHER INFORMATION
~A   DEPT      SPR         GURD     CALD        GRD       RHOB       CORR         NPHI       DPHI        ILD        ILM 
# ...
   97.0000   -54.9210     8.4547    10.3662    95.6419     2.4478     0.0637     0.2894     0.1323     6.0144     7.5367
   97.5000   -54.7039     8.5984    10.3365    94.8619     2.4305     0.0569     0.2944     0.1558     6.1393     7.6244
   98.0000   -54.5129     8.7447    10.3076    94.0811     2.4116     0.0419     0.2990     0.1546     6.3541     7.7130
   98.5000   -54.2332     8.8879    10.2723    93.3014     2.4218     0.0578     0.3010     0.1490     6.3793     7.8027
   99.0000   -54.5365     8.8173    10.2592    92.5393     2.4258     0.0678     0.3043     0.1526     6.4737     7.8934
   99.5000   -54.7030     8.7011    10.2584    91.8395     2.4204     0.0756     0.3050     0.1495     6.4431     7.9473
  100.0000   -54.7923     8.5630    10.2585    91.3968     2.4128     0.0573     0.3006     0.1690     6.3693     7.9473
  100.5000   -54.8566     8.5616    10.2584    90.9954     2.3840     0.0340     0.3063     0.1750     6.2963     7.9473
  101.0000   -54.9571     8.3677    10.2580    90.5770     2.3848     0.0364     0.3106     0.1744     6.2242     7.9473
  101.5000   -55.0047     8.1763    10.2749    90.1589     2.3939     0.0477     0.3081     0.1633     6.1529     7.8349
  102.0000   -55.0138     8.0937    10.2934    90.1443     2.4177     0.0755     0.3034     0.1500     6.0825     7.6919
  102.5000   -55.0318     7.9346    10.3120    90.6342     2.4355     0.1012     0.3026     0.1432     6.0128     7.5515
  103.0000   -55.0477     7.7998    10.3306    91.1089     2.4362     0.1024     0.3046     0.1414     5.9439     7.4137
  103.5000   -55.0629     7.6547    10.3491    91.5827     2.4412     0.1011     0.3030     0.1316     5.8758     7.2784
  104.0000   -55.0793     7.6571    10.3676    92.0564     2.4583     0.1216     0.2979     0.1187     5.8085     7.1455
  104.5000   -55.0951     7.6582    10.3862    92.5301     2.4910     0.1476     0.2894     0.1056     5.7885     7.1062
  105.0000   -55.1110     7.6586    10.4046    93.0045     2.4963     0.1359     0.2850     0.1127     5.7696     7.1062
  105.5000   -55.1269     7.6534    10.4131    93.4810     2.4833     0.1003     0.2826     0.1251     5.7484     7.1535
  106.0000   -55.1428     7.6563    10.3825    93.9318     2.4565     0.0654     0.2803     0.1372     5.7272     7.1976
  106.5000   -55.1588     7.9194    10.3529    93.9158     2.4385     0.0488     0.2891     0.1395     5.7062     7.2419
  107.0000   -55.1747     8.1766    10.3233    93.2246     2.4735     0.0781     0.2944     0.1177     5.6852     7.2865
  107.5000   -55.1907     8.4433    10.2938    92.5170     2.4847     0.0914     0.2968     0.1148     5.6643     7.3314
  108.0000   -55.2066     8.7184    10.2637    91.8131     2.4659     0.0611     0.2992     0.1324     5.6434     7.3762
  108.5000   -55.2225     7.9446    10.2618    91.1099     2.4467     0.0405     0.3030     0.1363     5.6227     7.3762
  109.0000   -55.2384     8.1252    10.2672    90.4049     2.4172     0.0200     0.3022     0.1562     5.6020     7.3762
  109.5000   -55.2544     8.5558    10.2727    89.6971     2.4166     0.0170     0.3006     0.1545     5.5814     7.3762
  110.0000   -55.2703     8.3955    10.2782    89.0993     2.4119     0.0245     0.2952     0.1593     5.5767     7.3762
  110.5000   -55.2862     7.9274    10.2836    89.8296     2.3966     0.0114     0.2938     0.1676     5.5767     7.2642
  111.0000   -55.3022     7.4841    10.2891    90.9667     2.3926     0.0123     0.2950     0.1759     5.5767     7.1493
  111.5000   -55.3180     7.1163    10.2945    92.1437     2.3776     0.0033     0.2977     0.1760     5.5759     7.0363
  112.0000   -55.3340     7.2500    10.3000    92.5869     2.3834     0.0076     0.2996     0.1733     5.5757     6.9250
  112.5000   -55.3502     7.2297    10.3055    92.1990     2.3894     0.0168     0.3014     0.1699     5.5781     6.8155
  113.0000   -55.3653     7.2306    10.3109    91.8041     2.3951     0.0253     0.2998     0.1696     5.4640     6.7077
  113.5000   -55.3826     7.0999    10.3164    91.4074     2.3893     0.0255     0.3020     0.1719     5.3648     6.6016
  114.0000   -55.4021     7.1108    10.3218    91.0117     2.3844     0.0254     0.3046     0.1690     5.2674     6.4972
  114.5000   -55.4936     7.0579    10.3273    90.6173     2.3941     0.0291     0.3038     0.1685     5.1766     6.3945
  115.0000   -55.6052     6.9963    10.3328    90.2198     2.4039     0.0402     0.3020     0.1586     5.1590     6.2376
  115.5000   -55.7150     6.9379    10.3384    90.0349     2.4104     0.0476     0.3002     0.1625     5.1315     6.2399
  116.0000   -55.7967     6.8801    10.3345    90.1495     2.3992     0.0337     0.3044     0.1695     5.1041     6.2512
  116.5000   -55.7153     6.8461    10.3261    90.5564     2.3862     0.0141     0.3100     0.1738     5.0768     6.2627
  117.0000   -55.6126     6.8461    10.3178    90.9591     2.3855     0.0136     0.3158     0.1730     5.0497     6.2741
  117.5000   -55.5068     6.8064    10.3095    91.3580     2.3882     0.0187     0.3135     0.1662     5.0228     6.2856
  118.0000   -55.4031     6.7564    10.3012    91.7542     2.3959     0.0334     0.3159     0.1552     4.9961     6.2969
  118.5000   -55.3006     6.7068    10.2929    92.2878     2.4212     0.0487     0.3197     0.1506     4.9695     6.3081
  119.0000   -55.1929     6.6576    10.2846    93.1392     2.4122     0.0392     0.3132     0.1562     4.9429     6.3199
  119.5000   -55.0921     6.6087    10.2759    94.0528     2.4219     0.0447     0.3075     0.1471     4.9166     6.3308
  120.0000   -55.0115     6.5602    10.2645    94.9369     2.4315     0.0547     0.3072     0.1512     4.8936     6.3411
  120.5000   -55.1264     6.5120    10.2535    95.8256     2.4177     0.0464     0.3011     0.1550     4.8134     6.3530
  121.0000   -55.2303     6.4642    10.2424    96.7149     2.4168     0.0556     0.3026     0.1463     4.7432     6.3008
  121.5000   -55.3436     6.4168    10.2312    97.6042     2.4303     0.0749     0.3012     0.1483     4.6740     6.2439
  122.0000   -55.4520     6.3697    10.2198    98.4955     2.4295     0.0755     0.3071     0.1511     4.6057     6.1868
  122.5000   -55.5640     6.3541    10.2234    99.3916     2.4227     0.0692     0.3115     0.1624     4.5385     6.1298
  123.0000   -55.6684     6.3573    10.2376   100.2078     2.4051     0.0569     0.3138     0.1714     4.4721     6.0734
  123.5000   -55.7957     5.8736    10.2468    99.6365     2.3873     0.0404     0.3133     0.1774     4.4067     6.0177
  124.0000   -55.7409     5.4518    10.2566    99.0202     2.3754     0.0291     0.3130     0.1774     4.3423     5.9625
  124.5000   -55.5929     4.9818    10.2666    98.4095     2.3879     0.0406     0.3143     0.1678     4.2787     5.9078
  125.0000   -55.4466     5.1243    10.2768    97.8019     2.3954     0.0511     0.3162     0.1690     4.2162     5.8536
  125.5000   -55.3027     5.4734    10.2752    97.1826     2.3919     0.0515     0.3121     0.1687     4.2162     5.7999
  126.0000   -55.1564     5.8454    10.2711    96.9312     2.3962     0.0514     0.3077     0.1697     4.2531     5.7467
  126.5000   -55.0114     6.0120    10.2669    97.4497     2.3911     0.0520     0.3032     0.1643     4.3007     5.6939
  127.0000   -54.8660     6.0085    10.2627    98.0327     2.3983     0.0586     0.3003     0.1551     4.3487     5.6814
  127.5000   -54.7206     6.0085    10.2587    98.6068     2.4072     0.0676     0.3012     0.1465     4.3973     5.6815
  128.0000   -54.5751     6.0085    10.2495    99.1777     2.4237     0.0749     0.3029     0.1514     4.4465     5.6817
  128.5000   -54.4300     6.0085    10.2339    99.7492     2.4306     0.0833     0.3061     0.1489     4.4962     5.6820
  129.0000   -54.2845     6.0085    10.2181   100.3198     2.4255     0.0798     0.3093     0.1470     4.5465     5.6824
  129.5000   -54.1387     6.0085    10.2018   100.8977     2.4308     0.0877     0.3118     0.1634     4.5973     5.6830
  130.0000   -53.9954     6.0085    10.1985   101.1352     2.4129     0.0761     0.3103     0.1628     4.6487     5.6796
