~VERSION INFORMATION
 VERS.                2.0:   CWLS LOG ASCII STANDARD - VERSION 2.0
 WRAP.                 NO:   ONE LINE PER DEPTH STEP
~WELL INFORMATION
#MNEM.UNIT      DATA TYPE    INFORMATION
#----------   ------------   ------------------------------
 STRT.F            0.0000:   START DEPTH
 STOP.F          701.0000:   STOP DEPTH
 STEP.F            0.5000:   STEP LENGTH
 NULL.          -999.2500:   NO VALUE
 COMP. U S NAVY-INTEX OIL:   COMPANY
 WELL. RES 3 TEAPOT DOM #22-S-2:   WELL
 FLD .             TEAPOT:   FIELD
 LOC .       S2 T38N R78W:   LOCATION
 CNTY.            NATRONA:   COUNTY
 STAT.            WYOMING:   STATE
 CTRY. UNITED STATES OF AMERICA:   COUNTRY
 SRVC.      NL McCullough:   SERVICE COMPANY
 DATE.        23-AUG-1961:   LOGDATE
 API .       490250647200:   API NUMBER
~CURVE INFORMATION
#MNEM.UNIT       API CODE    CURVE DESCRIPTION
#----------   ------------   ------------------------------
 DEPT.F                  :   
 GRN .GAPI   35 310 01 00:   GAMMA RAY
 NEUT.NAPI   35 330 01 00:   NEUTRON
~PARAMETER INFORMATION
#MNEM.UNIT          VALUE    DESCRIPTION
#----------   ------------   ------------------------------
 PD  .                 GL:   PERMANENT DATUM
 EPD .F              5115:   ELEVATION PERMANENT DATUM
 LMF .                 KB:   LOG MEASURED FROM
 DAPD.F                 6:   FEET ABOVE PERMANENT DATUM
 DMF .                 KB:   DRILLING MEASURED FROM
 EKB .F              5121:   KELLING BUSHING
 EGL .F              5115:   GROUND LEVEL
 DATE.          8-23-1961:   RUN DATE
 RUN .                  1:   RUN NUMBER
 DL  .F               676:   DEPTH LOGGER
 BLI .F               674:   BOTTOM LOG INTERVAL
 TLI .F               450:   TOP LOG INTERVAL
 DFT .                OIL:   DRILLING FLUID TYPE
 TCS .HRS              30:   TIME CURCULATED STOPPED
 ENGI.            JACKSON:   RECORDING ENGINEER
 WITN.             HUDSON:   WITNESSED BY
 CLNT.            A2DTECH:   CLIENT CODE
 ORIG.           5" PRINT:   ORIGIN OF DATA
 UWI .       490250647200:   UNIQUE WELL ID
 DICO. A2D Technologies, Inc.:   DIGITIZING COMPANY
~OTHER INFORMATION
~A    DEPT       GRN     NEUT   
# ...
  364.5000     6.6401   421.6485
  365.0000     6.5458   414.7119
  365.5000     6.4511   407.5189
  366.0000     6.3560   415.8792
  366.5000     6.2597   429.6953
  367.0000     6.1810   442.6487
  367.5000     6.1345   456.8375
  368.0000     6.0931   457.8538
  368.5000     6.0612   457.9245
  369.0000     6.0848   457.3137
  369.5000     6.1654   447.2614
  370.0000     6.2467   435.5482
  370.5000     6.3359   424.7306
  371.0000     6.3797   415.8972
  371.5000     6.3446   440.0870
  372.0000     6.3170   460.5363
  372.5000     6.2896   461.2650
  373.0000     6.2593   460.8315
  373.5000     6.2385   460.3162
  374.0000     6.2904   461.2368
  374.5000     6.4125   477.8832
  375.0000     6.4720   486.3879
  375.5000     6.4347   481.8124
  376.0000     6.3711   476.9095
  376.5000     6.3109   472.0288
  377.0000     6.2481   467.3163
  377.5000     6.1872   456.1863
  378.0000     6.1273   442.9761
  378.5000     6.0586   439.3817
  379.0000     6.0907   434.2583
  379.5000     6.1850   429.4503
  380.0000     6.2718   424.9764
  380.5000     6.3545   419.0146
  381.0000     6.4421   426.1352
  381.5000     6.4300   445.1766
  382.0000     6.3792   462.7083
  382.5000     6.3277   479.8318
  383.0000     6.2828   502.4222
  383.5000     6.2287   496.0975
  384.0000     6.2870   480.0442
  384.5000     6.3605   474.6502
  385.0000     6.4372   473.7258
  385.5000     6.5131   472.1287
  386.0000     6.5863   466.2011
  386.5000     6.6614   458.8240
  387.0000     6.6793   451.2025
  387.5000     6.6919   444.1991
  388.0000     6.6996   436.4631
  388.5000     6.6054   442.4636
  389.0000     6.5101   448.2451
  389.5000     6.4118   454.4426
  390.0000     6.3270   428.3313
  390.5000     6.3347   402.3883
  391.0000     6.3359   380.3279
  391.5000     6.3360   387.7641
  392.0000     6.2228   397.9533
  392.5000     6.1248   409.5502
  393.0000     6.0198   420.5429
  393.5000     5.9304   431.5698
  394.0000     5.8783   442.7682
  394.5000     5.8245   453.8624
  395.0000     5.7722   464.9923
  395.5000     5.7197   476.0718
  396.0000     5.6670   487.3986
  396.5000     5.6136   499.4013
  397.0000     5.5437   511.2101
  397.5000     5.4458   523.1185
  398.0000     5.3484   535.6066
  398.5000     5.2500   544.5927
  399.0000     5.1480   548.9958
  399.5000     5.0784   554.0153
  400.0000     5.0445   559.0861
  400.5000     5.0058   563.9041
  401.0000     4.9684   568.9728
  401.5000     4.9321   574.0125
  402.0000     4.8891   576.2054
  402.5000     4.9131   576.8573
  403.0000     4.9872   568.4657
  403.5000     5.0553   552.4500
  404.0000     5.1227   537.3585
  404.5000     5.1918   522.0384
  405.0000     5.2599   513.7029
  405.5000     5.3284   510.7361
  406.0000     5.3964   507.4184
  406.5000     5.4647   504.0874
  407.0000     5.5103   500.7718
  407.5000     5.5474   497.5484
  408.0000     5.5847   494.3789
  408.5000     5.6234   490.4702
  409.0000     5.6589   494.6989
  409.5000     5.6986   503.4083
  410.0000     5.6798   511.6281
  410.5000     5.6564   513.0479
  411.0000     5.6307   511.8094
  411.5000     5.6064   510.3347
  412.0000     5.5816   518.6635
  412.5000     5.5568   531.0141
  413.0000     5.5327   543.3529
  413.5000     5.5063   555.1215
  414.0000     5.4841   567.2469
  414.5000     5.4659   564.0323
  415.0000     5.5397   555.8027
  415.5000     5.6084   547.3344
  416.0000     5.6811   539.8018
  416.5000     5.7543   530.7553
  417.0000     5.8244   534.1584
  417.5000     5.8778   538.8803
  418.0000     5.8231   543.9968
  418.5000     5.7778   548.8022
  419.0000     5.7520   553.9913
  419.5000     5.7873   558.4913
  420.0000     5.8227   563.3611
  420.5000     5.8639   551.8201
  421.0000     5.8503   538.4365
  421.5000     5.7379   524.5937
  422.0000     5.6319   511.2200
  422.5000     5.5247   497.2088
  423.0000     5.4160   484.0998
  423.5000     5.3089   473.5119
  424.0000     5.2020   479.6611
  424.5000     5.0910   488.5560
  425.0000     5.0132   478.7866
  425.5000     5.0133   467.9088
  426.0000     5.0501   456.5865
  426.5000     5.0879   446.2552
  427.0000     5.0733   444.1788
  427.5000     5.0184   442.2166
  428.0000     4.9682   440.6183
  428.5000     4.9137   438.8108
  429.0000     4.9207   437.1470
  429.5000     4.9663   435.2807
  430.0000     5.0067   433.5278
  430.5000     5.0480   428.7174
  431.0000     5.0898   424.1329
  431.5000     5.1957   419.8907
  432.0000     5.3304   416.0149
  432.5000     5.3612   423.1281
  433.0000     5.3615   429.7129
  433.5000     5.3647   456.7049
  434.0000     5.4608   472.3570
  434.5000     5.5920   467.2171
  435.0000     5.6050   460.8262
  435.5000     5.6120   453.3533
  436.0000     5.6162   446.3129
  436.5000     5.6243   439.1655
  437.0000     5.6857   434.5145
  437.5000     5.7527   437.0278
  438.0000     5.8179   439.4406
  438.5000     5.8762   442.1447
  439.0000     5.8255   442.5392
  439.5000     5.7769   437.6732
  440.0000     5.7168   433.0012
  440.5000     5.6709   428.1963
  441.0000     5.6337   423.3864
  441.5000     5.7592   418.6063
  442.0000     5.7006   413.8466
  442.5000     5.6607   409.0088
  443.0000     5.6110   404.2777
  443.5000     5.5617   399.5688
  444.0000     5.5133   394.2030
  444.5000     5.5170   392.5882
  445.0000     5.6555   396.5611
  445.5000     5.7993   391.5345
  446.0000     5.8994   374.1326
  446.5000     5.9190   349.5720
  447.0000     5.9487   354.1505
  447.5000     5.9797   375.1000
  448.0000     6.0050   381.7801
  448.5000     6.0570   373.6215
  449.0000     6.1460   366.5196
  449.5000     6.1713   367.1278
  450.0000     5.9425   500.0475
  450.5000     5.9425   500.0475
  451.0000     5.9586   475.3146
  451.5000     5.9827   462.0067
  452.0000     5.7016   480.0855
  452.5000     5.8020   467.7890
  453.0000     5.7635   480.0855
  453.5000     5.7518   457.9089
  454.0000     5.8350   416.0309
  454.5000     5.7742   457.8526
  455.0000     5.5903   510.0702
  455.5000     5.7106   486.9542
  456.0000     5.8063   500.7283
  456.5000     5.9157   494.2371
  457.0000     5.9312   488.4611
  457.5000     5.8814   507.6900
  458.0000     5.8959   529.4167
  458.5000     5.9924   504.7425
  459.0000     6.0922   504.8874
  459.5000     6.1527   504.9827
  460.0000     6.1524   508.9437
  460.5000     6.0218   501.4346
  461.0000     5.9489   469.4670
  461.5000     5.9650   438.2486
  462.0000     6.0153   403.4231
  462.5000     5.9518   390.2387
  463.0000     5.8813   412.6975
  463.5000     5.6888   408.6198
  464.0000     5.8141   433.6483
  464.5000     6.0110   418.9577
  465.0000     6.3049   394.3598
  465.5000     6.2495   363.5171
  466.0000     5.9403   378.0813
  466.5000     5.9175   372.6992
  467.0000     5.9150   334.0241
  467.5000     5.9333   311.3372
  468.0000     5.8751   302.3666
  468.5000     5.8081   265.3336
  469.0000     5.7475   232.7163
  469.5000     5.4910   197.6217
  470.0000     5.5605   179.1551
  470.5000     5.5894   196.8104
  471.0000     5.8561   210.5965
  471.5000     6.2717   246.8512
  472.0000     6.5253   291.6549
  472.5000     6.5485   321.1410
  473.0000     6.6113   332.6711
  473.5000     6.8858   347.3343
  474.0000     6.7678   394.6323
  474.5000     6.4665   427.1572
  475.0000     6.1410   427.6208
  475.5000     6.2695   407.4410
  476.0000     6.5219   370.7432
  476.5000     6.6051   376.2044
  477.0000     6.7002   424.9940
  477.5000     6.5545   388.6004
  478.0000     6.6029   346.4706
  478.5000     6.6295   378.3163
  479.0000     6.4812   377.2886
  479.5000     6.3257   324.4245
  480.0000     6.4025   299.5794
  480.5000     6.5551   273.5706
  481.0000     6.7483   255.5635
  481.5000     6.9959   276.2913
  482.0000     6.9862   303.5822
  482.5000     6.3561   326.8762
  483.0000     6.4127   337.9380
  483.5000     6.7463   300.7517
  484.0000     6.7072   324.1455
  484.5000     6.6303   362.9016
  485.0000     6.5995   370.3324
  485.5000     6.7135   378.3463
