~VERSION INFORMATION
 VERS.                2.0:   CWLS LOG ASCII STANDARD - VERSION 2.0
 WRAP.                 NO:   ONE LINE PER DEPTH STEP
~WELL INFORMATION
#MNEM.UNIT      DATA TYPE    INFORMATION
#----------   ------------   ------------------------------
 STRT.F           80.5000:   START DEPTH
 STOP.F          768.0000:   STOP DEPTH
 STEP.F            0.5000:   STEP LENGTH
 NULL.          -999.2500:   NO VALUE
 COMP. U S NAVY/INTEX OIL CO:   COMPANY
 WELL. N.P.R. #3 #84-S-34:   WELL
 FLD .             TEAPOT:   FIELD
 LOC .      S34 T39N R78W:   LOCATION
 CNTY.            NATRONA:   COUNTY
 STAT.            WYOMING:   STATE
 CTRY. UNITED STATES OF AMERICA:   COUNTRY
 SRVC. Schlumberger Well Surveying Corp:   SERVICE COMPANY
 DATE.        17-FEB-1961:   LOGDATE
 API .       490250654000:   API NUMBER
~CURVE INFORMATION
#MNEM.UNIT       API CODE    CURVE DESCRIPTION
#----------   ------------   ------------------------------
 DEPT.F                  :   
 SPR .MV     05 010 01 00:   SPONTANEOUS POTENTIAL
 ASN .OHMM   05 041 16 00:   AMPLIFIED SHORT NORMAL 16"
 ILD .OHMM   05 120 46 00:   INDUCTION LOG DEEP
 CILD.MMHO   05 110 46 00:   CONDUCTIVITY INDUCTION LOG DEEP
 GR  .GAPI   30 310 01 00:   GAMMA RAY
~PARAMETER INFORMATION
#MNEM.UNIT          VALUE    DESCRIPTION
#----------   ------------   ------------------------------
 PD  .                 GL:   PERMANENT DATUM
 EPD .F              5083:   ELEVATION PERMANENT DATUM
 LMF .                 KB:   LOG MEASURED FROM
 DAPD.F                 4:   FEET ABOVE PERMANENT DATUM
 DMF .                 KB:   DRILLING MEASURED FROM
 EKB .F              5087:   KELLING BUSHING
 EGL .F              5083:   GROUND LEVEL
 DATE.            2-17-61:   RUN DATE
 RUN .                  1:   RUN NUMBER
 DD  .F               770:   DEPTH DRILLER
 DL  .F               769:   DEPTH LOGGER
 BLI .F               768:   BOTTOM LOG INTERVAL
 TLI .F                80:   TOP LOG INTERVAL
 CBD .F                12:   CASING BOTTOM DRILLER
 BS  .IN            7.875:   BIT SIZE
 BSD .F               770:   BIT SIZE AT DEPTH
 DFT .       GEL/OIL EMUL:   DRILLING FLUID TYPE
 DFD .                9.5:   DRILLING FLUID DENSITY
 DFV .                 50:   DRILLING FLUID VISCOSITY
 DFPH.                  8:   DRILLING FLUID PH
 DFL .                1.8:   DRILLING FLUID LOSS
 MSS .           FLOWLINE:   MUD SAMPLE SOURCE
 RMS .OHMM             .9:   RESISTIVITY MUD SAMPLE
 MST .F                69:   MUD SAMPLE TEMPERATURE
 RMF .OHMM            .54:   RESISTIVITY MUD FILTRATE SAMPLE
 MFST.F                69:   MUD FILTRATE SAMPLE TEMPERATURE
 RMC .OHMM           1.64:   RESISTIVITY MUD CAKE
 MCST.F                69:   MUD CAKE SAMPLE TEMPERATURE
 MFSS.                  M:   MUD FILTRATE SAMPLE SOURCE
 MCSS.                  M:   MUD CAKE SAMPLE SOURCE
 RMB .OHMM             .8:   RESISTIVITY MUD AT BHT
 BHT .F                78:   BOTTOM HOLE TEMPERATURE
 TCS .HRS               1:   TIME CURCULATED STOPPED
 MRT .F                78:   MAXIMUM RECORDED TEMPERATURE
 LUN .               2523:   LOGGING UNIT NUMBER
 LUL .               CSPR:   LOGGING UNIT LOCATION
 ENGI.             KNOBEL:   RECORDING ENGINEER
 WITN.          JORGENSEN:   WITNESSED BY
 CLNT.            A2DTECH:   CLIENT CODE
 ORIG.       2", 5" PRINT:   ORIGIN OF DATA
 UWI .       490250654000:   UNIQUE WELL ID
 DICO. A2D Technologies, Inc.:   DIGITIZING COMPANY
~OTHER INFORMATION
~A   DEPT      SPR        ASN        ILD       CILD         GR   
# ...
  263.5000   -23.1179     4.4612     3.8303   250.1376  -999.2500
  264.0000   -23.0809     4.3864     3.7784   260.5401  -999.2500
  264.5000   -22.9382     4.3115     3.7262   267.3579  -999.2500
  265.0000   -22.7998     4.2357     3.6745   273.5908  -999.2500
  265.5000   -22.6613     4.2085     3.6223   279.2276  -999.2500
  266.0000   -22.5224     4.2295     3.6263   275.4349  -999.2500
  266.5000   -22.3853     4.2712     3.6657   271.9729  -999.2500
  267.0000   -22.2960     4.4189     3.7139   268.7892  -999.2500
  267.5000   -22.3838     4.6391     3.9387   257.5678  -999.2500
  268.0000   -22.4670     5.0802     4.1582   247.9123  -999.2500
  268.5000   -22.5499     5.5108     4.3760   233.2380  -999.2500
  269.0000   -22.6331     5.9385     4.5936   219.5282  -999.2500
  269.5000   -22.7161     6.3658     4.8112   205.8184  -999.2500
  270.0000   -22.7992     6.7936     5.0288   192.1086  -999.2500
  270.5000   -22.8822     7.2218     5.2465   179.0019  -999.2500
  271.0000   -22.9653     7.6262     5.4642   171.6998  -999.2500
  271.5000   -23.0484     7.7370     5.6815   168.7135  -999.2500
  272.0000   -23.1313     7.8369     5.8993   165.8399  -999.2500
  272.5000   -23.2143     7.9378     6.0363   162.9677  -999.2500
  273.0000   -23.3021     8.0680     6.1022   160.0915  -999.2500
  273.5000   -23.2540     8.2245     6.1680   157.2153  -999.2500
  274.0000   -23.1462     8.3813     6.2335   154.3392  -999.2500
  274.5000   -23.0367     8.5389     6.2991   152.1118  -999.2500
  275.0000   -22.9272     8.6929     6.3647   150.5139  -999.2500
  275.5000   -22.8179     8.7623     6.4303   148.9160  -999.2500
  276.0000   -22.7087     8.8283     6.4959   147.3181  -999.2500
  276.5000   -22.5993     8.8947     6.5616   145.7202  -999.2500
  277.0000   -22.4898     8.9618     6.6276   144.1224  -999.2500
  277.5000   -22.3802     9.0269     6.6795   142.4843  -999.2500
  278.0000   -22.2824     9.0101     6.7314   142.4843  -999.2500
  278.5000   -22.3067     8.9862     6.7843   143.1777  -999.2500
  279.0000   -22.3326     8.8810     6.8335   144.6615  -999.2500
  279.5000   -22.3578     8.7699     6.7294   146.1452  -999.2500
  280.0000   -22.3830     8.6591     6.6153   147.6290  -999.2500
  280.5000   -22.4082     8.5482     6.5017   149.1127  -999.2500
  281.0000   -22.4334     8.4368     6.3888   150.5965  -999.2500
  281.5000   -22.4585     8.3225     6.2765   152.0802  -999.2500
  282.0000   -22.4837     8.2498     6.2113   153.2745  -999.2500
  282.5000   -22.5089     8.1766     6.2112   154.1094  -999.2500
  283.0000   -22.5340     8.2157     6.2107   154.9432  -999.2500
  283.5000   -22.5592     8.2631     6.2108   155.7721  -999.2500
  284.0000   -22.5844     8.3106     6.2108   156.6054  -999.2500
  284.5000   -22.6096     8.3588     6.2108   156.8867  -999.2500
  285.0000   -22.6349     8.3241     6.2109   156.3674  -999.2500
  285.5000   -22.6597     8.2822     6.2202   155.8481  -999.2500
  286.0000   -22.6844     8.2401     6.2306   155.3288  -999.2500
  286.5000   -22.6446     8.1993     6.2410   154.8095  -999.2500
  287.0000   -22.5258     8.2511     6.2514   154.2902  -999.2500
  287.5000   -22.4075     8.3158     6.2617   153.7709  -999.2500
  288.0000   -22.2887     8.3806     6.2721   153.2516  -999.2500
  288.5000   -22.1698     8.4448     6.2825   153.1768  -999.2500
  289.0000   -22.0517     8.4743     6.2929   153.8692  -999.2500
  289.5000   -21.9348     8.4368     6.3033   154.5616  -999.2500
  290.0000   -21.9037     8.4003     6.3131   155.2671  -999.2500
  290.5000   -22.0081     8.3644     6.3300   155.9682  -999.2500
  291.0000   -22.1112     8.3530     6.3472   154.3173  -999.2500
  291.5000   -22.2151     8.4137     6.3646   152.2234  -999.2500
  292.0000   -22.3190     8.5212     6.3818   150.1461  -999.2500
  292.5000   -22.4229     8.6252     6.3993   149.3557  -999.2500
  293.0000   -22.5267     8.7278     6.4195   151.2180  -999.2500
  293.5000   -22.6307     8.7895     6.3398   153.0804  -999.2500
  294.0000   -22.7348     8.7495     6.2436   154.9418  -999.2500
  294.5000   -22.8372     8.5893     6.1463   156.8051  -999.2500
  295.0000   -22.8852     8.4088     6.0492   158.6675  -999.2500
  295.5000   -22.7976     8.2263     5.9522   160.5298  -999.2500
  296.0000   -22.7146     8.0430     5.8552   162.3922  -999.2500
  296.5000   -22.6317     7.9738     5.7582   164.2545  -999.2500
  297.0000   -22.5485     7.9315     5.6612   166.1169  -999.2500
  297.5000   -22.4655     7.8865     5.5642   167.9793  -999.2500
  298.0000   -22.3823     7.9782     5.4672   169.8416  -999.2500
  298.5000   -22.2968     8.1024     5.3702   171.7040  -999.2500
  299.0000   -22.3166     8.2256     5.2731   173.5663  -999.2500
  299.5000   -22.3624     8.2860     5.1763   175.4287  -999.2500
  300.0000   -22.4092     8.1253     5.0791   176.2374  -999.2500
  300.5000   -22.4558     7.9703     4.9778   176.7019  -999.2500
  301.0000   -22.5024     7.8157     5.0377   177.1664  -999.2500
  301.5000   -22.5490     7.6620     5.1411   177.6309  -999.2500
  302.0000   -22.5954     7.5477     5.2462   177.3044  -999.2500
  302.5000   -22.6421     7.5679     5.3510   174.7191  -999.2500
  303.0000   -22.6907     7.5822     5.4556   172.1337  -999.2500
  303.5000   -22.6556     7.6852     5.5603   169.5484  -999.2500
  304.0000   -22.6014     7.8101     5.6649   166.9630  -999.2500
  304.5000   -22.5463     7.9359     5.7696   164.3777  -999.2500
  305.0000   -22.4914     8.0618     5.8743   161.7923  -999.2500
  305.5000   -22.4365     8.1889     5.9788   159.2070  -999.2500
  306.0000   -22.3817     8.2209     6.0837   156.6216  -999.2500
  306.5000   -22.3268     8.2310     6.1911   155.8501  -999.2500
  307.0000   -22.2720     8.2713     6.1695   155.5885  -999.2500
  307.5000   -22.2170     8.4101     6.1180   155.3268  -999.2500
  308.0000   -22.1620     8.5062     6.0654   155.0652  -999.2500
  308.5000   -22.1080     8.4910     6.0129   156.6649  -999.2500
  309.0000   -22.0876     8.4302     5.9606   158.7578  -999.2500
  309.5000   -22.1480     8.3601     5.9083   160.8507  -999.2500
  310.0000   -22.2053     8.2892     5.8559   162.9436  -999.2500
  310.5000   -22.2625     8.2185     5.8036   165.0365  -999.2500
  311.0000   -22.3199     8.1478     5.7512   167.1294  -999.2500
  311.5000   -22.3772     8.0773     5.6991   169.2327  -999.2500
  312.0000   -22.4346     8.0064     5.6463   171.3396  -999.2500
  312.5000   -22.4919     7.9342     5.5890   171.7454  -999.2500
  313.0000   -22.5493     7.9497     5.7213   169.2002  -999.2500
  313.5000   -22.6066     7.9840     5.8873   166.1107  -999.2500
  314.0000   -22.6633     8.0515     6.0553   163.0212  -999.2500
  314.5000   -22.6997     8.2146     6.2230   159.9317  -999.2500
  315.0000   -22.7822     8.3723     6.3904   156.8421  -999.2500
  315.5000   -22.8761     8.5299     6.5578   153.7526  -999.2500
  316.0000   -22.9690     8.6878     6.7253   150.6629  -999.2500
  316.5000   -23.0606     8.8458     6.8927   147.5732  -999.2500
  317.0000   -23.0061     9.0025     7.0606   144.4840  -999.2500
  317.5000   -22.7372     9.0761     7.2285   141.3945  -999.2500
  318.0000   -22.4704     9.1319     7.2545   138.8796  -999.2500
  318.5000   -22.2024     9.1879     7.2554   137.4843  -999.2500
  319.0000   -21.9325     9.2436     7.2610   138.1472  -999.2500
  319.5000   -21.6625     9.2726     7.0898   139.1936  -999.2500
  320.0000   -21.6755     9.2005     6.8970   142.1712  -999.2500
  320.5000   -21.7335     9.0044     6.7019   145.4952  -999.2500
  321.0000   -21.7899     8.8161     6.5073   148.8170  -999.2500
  321.5000   -21.8460     8.6280     6.3130   152.1435  -999.2500
  322.0000   -21.9021     8.4400     6.1181   155.4676  -999.2500
  322.5000   -21.9583     8.2817     5.9243   158.7931  -999.2500
  323.0000   -22.0150     8.1810     5.8774   162.1153  -999.2500
  323.5000   -22.0683     8.0788     5.8539   165.4393  -999.2500
  324.0000   -22.0154     7.9776     5.8309   167.1503  -999.2500
