~VERSION INFORMATION
 VERS.                2.0:   CWLS LOG ASCII STANDARD - VERSION 2.0
 WRAP.                 NO:   ONE LINE PER DEPTH STEP
~WELL INFORMATION
#MNEM.UNIT      DATA TYPE    INFORMATION
#----------   ------------   ------------------------------
 STRT.F            0.0000:   START DEPTH
 STOP.F          547.0000:   STOP DEPTH
 STEP.F            0.1000:   STEP LENGTH
 NULL.          -999.2500:   NO VALUE
 COMP.       F D SERV INC:   COMPANY
 WELL.    87-5 SX 3 #87-3:   WELL
 FLD .             TEAPOT:   FIELD
 LOC .       S3 T38N R78W:   LOCATION
 CNTY.            NATRONA:   COUNTY
 STAT.            WYOMING:   STATE
 CTRY. UNITED STATES OF AMERICA:   COUNTRY
 SRVC.     Atlas Wireline:   SERVICE COMPANY
 DATE.        31-OCT-1992:   LOGDATE
 API .       490252254800:   API NUMBER
~CURVE INFORMATION
#MNEM.UNIT       API CODE    CURVE DESCRIPTION
#----------   ------------   ------------------------------
 DEPT.F                  :   
 GRR .GAPI   07 310 01 00:   GAMMA RAY
 RILD.OHMM   07 120 46 00:   INDUCTION LOG DEEP RESISTIVITY
 RILM.OHMM   07 120 44 00:   INDUCTION LOG MEDIUM RESISTIVITY
~PARAMETER INFORMATION
#MNEM.UNIT          VALUE    DESCRIPTION
#----------   ------------   ------------------------------
 PD  .                 GL:   PERMANENT DATUM
 EPD .F              5119:   ELEVATION PERMANENT DATUM
 LMF .                 KB:   LOG MEASURED FROM
 DAPD.F                10:   FEET ABOVE PERMANENT DATUM
 DMF .                 KB:   DRILLING MEASURED FROM
 EKB .F              5129:   KELLING BUSHING
 EDF .F              5128:   DRILLING FLOOR
 EGL .F              5119:   GROUND LEVEL
 DATE.        31-OCT-1992:   RUN DATE
 RUN .                  1:   RUN NUMBER
 DD  .F               568:   DEPTH DRILLER
 DL  .F               555:   DEPTH LOGGER
 BLI .F               547:   BOTTOM LOG INTERVAL
 TLI .F                71:   TOP LOG INTERVAL
 CS  .IN            8.625:   CASING SIZE
 CBD .F                70:   CASING BOTTOM DRILLER
 CBL .F                71:   CASING BOTTOM LOGGER
 BS  .IN            7.875:   BIT SIZE
 BSD .F               568:   BIT SIZE AT DEPTH
 DFT .           AIR FOAM:   DRILLING FLUID TYPE
 TCS .HRS               2:   TIME CURCULATED STOPPED
 MRT .F                64:   MAXIMUM RECORDED TEMPERATURE
 LUN .            HL-6274:   LOGGING UNIT NUMBER
 LUL .             CASPER:   LOGGING UNIT LOCATION
 ENGI.        P.RASHUSSEN:   RECORDING ENGINEER
 WITN.     BRUCE ANDERSON:   WITNESSED BY
 CLNT.            A2DTECH:   CLIENT CODE
 ORIG.           5" PRINT:   ORIGIN OF DATA
 UWI .       490252254800:   UNIQUE WELL ID
 DICO. A2D Technologies, Inc.:   DIGITIZING COMPANY
~OTHER INFORMATION
~A    DEPT      GRR      RILD       RILM   
# ...
  163.8000   118.6926    11.6783    11.6929
  163.9000   118.9681    11.6777    11.7609
  164.0000   119.1988    11.6770    11.8413
  164.1000   119.6322    11.7131    11.8982
  164.2000   120.1384    11.7809    11.9674
  164.3000   120.7241    11.8490    12.0069
  164.4000   121.4252    11.9214    12.0066
  164.5000   121.6995    11.9207    12.0063
  164.6000   122.3952    11.9723    12.0059
  164.7000   122.7915    12.0029    12.0056
  164.8000   123.1757    12.0022    12.0052
  164.9000   123.6820    12.0015    12.0356
  165.0000   124.1578    12.0008    12.0887
  165.1000   124.4310    12.0676    12.0913
  165.2000   124.8971    12.0835    12.1727
  165.3000   125.2206    12.1228    12.1724
  165.4000   125.6061    12.1668    12.2180
  165.5000   126.0304    12.1783    12.2570
  165.6000   126.2835    12.2506    12.2567
  165.7000   126.5554    12.2499    12.2600
  165.8000   126.5554    12.2492    12.3418
  165.9000   126.7393    12.2485    12.3415
  166.0000   126.8589    12.2479    12.3412
  166.1000   126.7757    12.2472    12.3408
  166.2000   126.5554    12.2465    12.3405
  166.3000   126.5554    12.2458    12.3401
  166.4000   126.3199    12.3018    12.3397
  166.5000   126.0668    12.3302    12.4017
  166.6000   125.9484    12.3295    12.4256
  166.7000   125.7797    12.3288    12.4591
  166.8000   125.3414    12.3281    12.5119
  166.9000   125.3414    12.3273    12.5167
  167.0000   124.8680    12.3267    12.5989
  167.1000   124.3618    12.3260    12.5347
  167.2000   123.8556    12.3254    12.5105
  167.3000   123.2637    12.3247    12.5102
  167.4000   122.5044    12.3240    12.5098
  167.5000   121.6995    12.3232    12.5095
  167.6000   121.4616    12.3226    12.5091
  167.7000   120.8334    12.3219    12.5088
  167.8000   120.3484    12.3212    12.5084
  167.9000   120.2689    12.3205    12.5081
  168.0000   120.5220    12.3176    12.5077
  168.1000   120.7891    12.2334    12.5074
  168.2000   121.2674    12.1735    12.5070
  168.3000   121.5848    12.1021    12.5067
  168.4000   121.9763    12.0311    12.5063
  168.5000   122.3945    11.9774    12.5060
  168.6000   122.6477    11.9735    12.4841
  168.7000   122.9135    11.8927    12.4111
  168.8000   122.9135    11.8921    12.3315
  168.9000   122.9135    11.8465    12.2666
  169.0000   123.0531    11.7769    12.1454
  169.1000   123.2170    11.7254    12.0395
  169.2000   123.2170    11.7206    11.9691
  169.3000   123.2170    11.6425    11.8992
  169.4000   122.9754    11.6419    11.8235
  169.5000   122.9135    11.6413    11.7607
  169.6000   122.7727    11.6406    11.7406
  169.7000   122.6100    11.6400    11.7403
  169.8000   122.5700    11.6393    11.7400
  169.9000   122.3065    11.6386    11.7316
  170.0000   122.3065    11.5787    11.6576
  170.1000   122.4989    11.5564    11.6573
  170.2000   122.7520    11.5558    11.6570
  170.3000   123.0051    11.5359    11.6566
  170.4000   123.2995    11.4742    11.6563
  170.5000   123.8240    11.4735    11.6560
  170.6000   124.3120    11.4134    11.6556
  170.7000   125.5927    11.3925    11.6553
  170.8000   126.3951    11.3918    11.6550
  170.9000   126.7411    11.3713    11.6186
  171.0000   127.1624    11.3114    11.5733
  171.1000   127.1624    11.3107    11.5729
  171.2000   127.4076    11.3101    11.5726
  171.3000   127.4659    11.3095    11.5723
  171.4000   127.3214    11.3088    11.5720
  171.5000   127.0683    11.3291    11.5352
  171.6000   126.7715    11.3868    11.4908
  171.7000   126.2519    11.3069    11.4905
  171.8000   125.5126    11.3063    11.4902
  171.9000   124.3611    11.3057    11.4898
  172.0000   122.5128    11.3050    11.4895
  172.1000   120.5207    11.3044    11.4523
  172.2000   119.1368    11.3038    11.4326
  172.3000   118.3612    11.3031    11.4886
  172.4000   118.3612    11.3025    11.4882
  172.5000   118.5584    11.3019    11.4879
  172.6000   118.8115    11.3013    11.4876
  172.7000   119.0647    11.3006    11.4873
  172.8000   119.2716    11.3000    11.4870
  172.9000   119.2716    11.2993    11.4866
  173.0000   120.0183    11.2987    11.4863
  173.1000   120.3806    11.2981    11.4860
  173.2000   120.7818    11.2975    11.4857
  173.3000   121.2880    11.2968    11.4854
  173.4000   121.7942    11.2962    11.4850
  173.5000   122.3065    11.2956    11.4847
  173.6000   122.5566    11.2950    11.4844
  173.7000   122.8097    11.2943    11.4841
  173.8000   123.3614    11.2937    11.4838
  173.9000   124.0218    11.3177    11.4834
  174.0000   124.5766    11.3716    11.4831
  174.1000   125.3414    11.3709    11.4828
  174.2000   126.0953    11.3702    11.4825
  174.3000   126.0510    11.3696    11.5484
  174.4000   125.6474    11.3690    11.5623
  174.5000   125.3414    11.3941    11.5620
  174.6000   125.1423    11.4474    11.5616
  174.7000   124.1275    11.4466    11.5745
  174.8000   123.3700    11.4460    11.6420
  174.9000   123.0149    11.4454    11.6417
  175.0000   122.4583    11.4848    11.6414
  175.1000   121.8003    11.5242    11.6410
  175.2000   121.2941    11.5236    11.6407
  175.3000   120.7879    11.5229    11.6543
  175.4000   120.1821    11.6029    11.7216
  175.5000   119.7754    11.6023    11.7212
  175.6000   119.4221    11.6017    11.7210
  175.7000   119.2716    11.6010    11.7206
  175.8000   119.2716    11.6004    11.6923
  175.9000   119.2771    11.5997    11.6384
  176.0000   120.1821    11.5990    11.6381
  176.1000   120.3867    11.5984    11.6377
  176.2000   120.7940    11.5555    11.6375
  176.3000   121.1964    11.5165    11.6371
  176.4000   121.4495    11.5159    11.6368
  176.5000   121.7057    11.5128    11.6214
  176.6000   122.3065    11.4344    11.5552
  176.7000   122.5123    11.4339    11.5548
  176.8000   122.6100    11.3906    11.4990
  176.9000   122.6100    11.3238    11.4319
  177.0000   122.4462    11.2735    11.3937
  177.1000   121.6995    11.2729    11.3779
  177.2000   121.6995    11.2722    11.3137
  177.3000   121.2856    11.2158    11.3134
  177.4000   120.7794    11.1500    11.3131
  177.5000   120.3794    11.0846    11.3128
  177.6000   120.1263    11.0195    11.2835
  177.7000   119.8786    10.9590    11.2176
  177.8000   119.8786    10.9583    11.1492
  177.9000   119.8786    10.9025    10.9999
  178.0000   119.8786    10.8386    10.9456
  178.1000   119.9860    10.7455    10.8408
  178.2000   120.2391    10.6544    10.7428
  178.3000   120.4923    10.6440    10.6645
  178.4000   120.7891    10.5055    10.5438
  178.5000   122.0455    10.4511    10.4734
  178.6000   123.2461    10.3898    10.4211
  178.7000   124.2586    10.3289    10.4000
  178.8000   125.2128    10.2683    10.3997
  178.9000   125.9642    10.2080    10.3994
  179.0000   126.5554    10.1419    10.3953
  179.1000   126.9766    10.1414    10.3264
  179.2000   127.4829    10.1823    10.3262
  179.3000   127.8792    10.2412    10.3259
  179.4000   128.2513    10.3005    10.3256
  179.5000   129.0015    10.3536    10.3253
  179.6000   129.5903    10.3530    10.3206
  179.7000   130.0140    10.3524    10.2529
  179.8000   130.1973    10.3950    10.2526
  179.9000   130.1973    10.3925    10.2523
  180.0000   130.1973    10.3124    10.2520
  180.1000   130.1766    10.1922    10.2686
  180.2000   129.5903    10.0646    10.3233
  180.3000   129.1642    10.0641    10.3230
  180.4000   128.8206    10.0635    10.3227
  180.5000   128.4553    10.0630    10.3224
  180.6000   127.9490    10.0624    10.3221
  180.7000   127.4313    10.0619    10.3219
  180.8000   126.5554    10.0613    10.3272
  180.9000   126.1269    10.0607    10.3936
  181.0000   125.6207    10.1039    10.3933
  181.1000   125.1144    10.1301    10.3930
  181.2000   124.6082    10.1295    10.3627
  181.3000   124.1147    10.1379    10.2843
  181.4000   123.8240    10.1993    10.1707
  181.5000   123.6085    10.1987    10.1056
  181.6000   123.5205    10.1533    10.0523
  181.7000   123.4058    10.1267     9.9936
  181.8000   123.2170    10.1048     9.9352
  181.9000   123.2170    10.0264     9.8772
