~VERSION INFORMATION
 VERS.                2.0:   CWLS LOG ASCII STANDARD - VERSION 2.0
 WRAP.                 NO:   ONE LINE PER DEPTH STEP
~WELL INFORMATION
#MNEM.UNIT      DATA TYPE    INFORMATION
#----------   ------------   ------------------------------
 STRT.F            0.0000:   START DEPTH
 STOP.F          553.0000:   STOP DEPTH
 STEP.F            0.5000:   STEP LENGTH
 NULL.          -999.2500:   NO VALUE
 COMP.   FLUOR DANIEL INC:   COMPANY
 WELL. NAVAL PETROLEUM RESERVE 3 SX-3 #1-3:   WELL
 FLD .             TEAPOT:   FIELD
 LOC .       S3 T38N R78W:   LOCATION
 CNTY.            NATRONA:   COUNTY
 STAT.            WYOMING:   STATE
 CTRY. UNITED STATES OF AMERICA:   COUNTRY
 SRVC.      Western Atlas:   SERVICE COMPANY
 DATE.        28-DEC-1994:   LOGDATE
 API .       490252267700:   API NUMBER
~CURVE INFORMATION
#MNEM.UNIT       API CODE    CURVE DESCRIPTION
#----------   ------------   ------------------------------
 DEPT.F                  :   
 GRR .GAPI   07 310 01 00:   GAMMA RAY FROM RES. LOG.
 RILD.OHMM   07 120 46 00:   INDUCTION LOG DEEP RESISTIVITY
 RILM.OHMM   07 120 44 00:   INDUCTION LOG MEDIUM RESISTIVITY
~PARAMETER INFORMATION
#MNEM.UNIT          VALUE    DESCRIPTION
#----------   ------------   ------------------------------
 PD  .                 GL:   PERMANENT DATUM
 EPD .F              5174:   ELEVATION PERMANENT DATUM
 LMF .                 KB:   LOG MEASURED FROM
 DAPD.F                10:   FEET ABOVE PERMANENT DATUM
 DMF .                 KB:   DRILLING MEASURED FROM
 EKB .F              5184:   KELLING BUSHING
 EDF .F              5183:   DRILLING FLOOR
 EGL .F              5174:   GROUND LEVEL
 DATE.        28-DEC-1994:   RUN DATE
 RUN .                  1:   RUN NUMBER
 DD  .F               561:   DEPTH DRILLER
 DL  .F               562:   DEPTH LOGGER
 BLI .F               553:   BOTTOM LOG INTERVAL
 CS  .IN            9.625:   CASING SIZE
 CBD .F                54:   CASING BOTTOM DRILLER
 CBL .F                54:   CASING BOTTOM LOGGER
 BS  .IN             8.75:   BIT SIZE
 BSD .F               561:   BIT SIZE AT DEPTH
 DFT .                AIR:   DRILLING FLUID TYPE
 MRT .F                89:   MAXIMUM RECORDED TEMPERATURE
 LUN .            HL 6530:   LOGGING UNIT NUMBER
 LUL .             CASPER:   LOGGING UNIT LOCATION
 ENGI.      PAT RASMUSSEN:   RECORDING ENGINEER
 WITN.        STEVE HARDY:   WITNESSED BY
 CLNT.            A2DTECH:   CLIENT CODE
 ORIG.           5" PRINT:   ORIGIN OF DATA
 UWI .       490252267700:   UNIQUE WELL ID
 DICO. A2D Technologies, Inc.:   DIGITIZING COMPANY
~OTHER INFORMATION
~A    DEPT      GRR      RILD       RILM   
# ...
  364.0000   149.2956     5.7152     5.6888
  364.5000   153.1009     5.4212     5.3530
  365.0000   153.6821     5.3453     5.1268
  365.5000   152.8280     5.2968     5.0797
  366.0000   152.9551     5.2707     5.2786
  366.5000   153.2267     5.2707     5.4429
  367.0000   152.3275     5.2707     5.6124
  367.5000   150.7998     5.2707     5.7803
  368.0000   149.2230     5.2182     5.4997
  368.5000   149.8566     5.0294     5.0880
  369.0000   151.9561     4.8475     4.7100
  369.5000   154.0549     4.6748     4.3611
  370.0000   155.2561     4.6748     4.2236
  370.5000   152.1212     4.6748     4.4156
  371.0000   147.3577     4.7182     4.7165
  371.5000   142.6037     4.7927     5.0378
  372.0000   140.4269     4.9223     5.3689
  372.5000   143.4668     5.2521     5.7272
  373.0000   147.0358     5.6040     5.9633
  373.5000   148.6090     5.9794     6.2418
  374.0000   148.6672     6.3800     6.5332
  374.5000   147.9337     6.7001     6.7622
  375.0000   146.8118     6.5775     6.6167
  375.5000   145.6651     6.2927     6.4498
  376.0000   145.4027     5.9659     6.2678
  376.5000   146.6124     5.6560     5.8861
  377.0000   149.1400     5.3622     5.5276
  377.5000   149.9837     5.0837     5.1910
  378.0000   149.1466     4.8197     4.8748
  378.5000   148.3140     4.7182     4.7619
  379.0000   147.1015     4.7573     4.8608
  379.5000   145.5729     4.7901     4.9446
  380.0000   145.3238     4.8232     5.1251
  380.5000   145.7976     4.8956     5.4030
  381.0000   145.6185     5.1771     5.6962
  381.5000   145.1644     5.4796     6.0053
  382.0000   145.7711     5.7997     6.3311
  382.5000   146.6400     6.1385     6.6746
  383.0000   145.9555     6.4971     6.9756
  383.5000   142.7609     6.7952     7.0383
  384.0000   137.0777     6.8726     7.0992
  384.5000   133.0634     6.9510     7.1614
  385.0000   135.0463     7.0816     7.2244
  385.5000   137.4972     7.0961     7.2879
  386.0000   136.6064     7.1110     7.3478
  386.5000   135.1229     7.1259     7.2804
  387.0000   133.6266     7.1408     7.2804
  387.5000   132.3489     7.1558     7.2804
  388.0000   134.0278     7.1708     7.2804
  388.5000   136.2879     7.1858     7.2804
  389.0000   138.5896     7.2010     7.2806
  389.5000   140.8914     7.2136     7.2811
  390.0000   143.1916     7.1773     7.2437
  390.5000   145.5127     7.1402     7.2064
  391.0000   147.8821     7.1035     7.1693
  391.5000   147.7354     7.0669     7.1324
  392.0000   145.4623     7.0305     7.0957
  392.5000   142.6623     7.0165     7.0816
  393.0000   139.8952     7.2255     7.3945
  393.5000   137.6567     7.3762     7.6230
  394.0000   138.8701     7.4847     7.8585
  394.5000   140.6474     7.4088     7.9109
  395.0000   142.2847     7.3478     7.7662
  395.5000   141.0513     6.8060     6.8666
  396.0000   137.3731     6.0338     5.4689
  396.5000   135.1018     5.5708     5.0825
  397.0000   141.0983     5.5196     4.9410
  397.5000   148.8364     5.5196     4.9410
  398.0000   154.8594     5.5196     5.5708
  398.5000   150.8922     5.6443     5.9712
  399.0000   141.9168     5.7819     6.4353
  399.5000   132.9330     5.9976     6.9355
  400.0000   127.6783     6.2862     7.4746
  400.5000   130.6126     7.3350     8.0552
  401.0000   134.0347     8.4651     8.6844
  401.5000   133.5561     9.0787     9.1630
  402.0000   131.4938     9.4271     9.5128
  402.5000   129.6016     9.3232     9.4081
  403.0000   130.7588     9.1977     9.2832
  403.5000   131.9915     9.0854     9.1685
  404.0000   133.2547     9.1726     9.2576
  404.5000   133.5538     9.4263     9.5145
  405.0000   133.6079    10.1883    10.6284
  405.5000   131.5296    11.0553    11.9373
  406.0000   121.8377    11.9957    13.4073
  406.5000   104.4752    13.0154    15.0584
  407.0000    88.8788    14.0191    16.9128
  407.5000    73.3312    16.5526    18.7397
  408.0000    65.8879    19.2790    20.1497
  408.5000    63.6711    22.4456    21.6659
  409.0000    66.9033    23.5084    23.2896
  409.5000    74.2464    24.6486    23.7235
  410.0000    81.0839    25.2944    23.6608
  410.5000    81.9267    25.0772    23.5783
  411.0000    79.8006    24.6156    23.4341
  411.5000    79.7938    23.8280    22.7928
  412.0000    80.5502    23.0200    22.1707
  412.5000    80.2210    22.2393    20.8185
  413.0000    81.0209    21.3633    19.3534
  413.5000    83.8808    20.6166    18.3153
  414.0000    86.7962    20.0925    18.3171
  414.5000    89.4830    19.9871    18.5914
  415.0000    89.7421    19.8689    18.9006
  415.5000    89.0037    19.7250    19.2151
  416.0000    86.7174    19.9079    19.5389
  416.5000    84.4145    20.9190    20.0213
  417.0000    82.0831    22.3554    21.5123
  417.5000    81.3947    23.8904    23.0962
  418.0000    81.6879    25.5309    24.8003
  418.5000    80.2336    27.2840    26.6292
  419.0000    78.1791    29.1531    28.5931
  419.5000    77.5857    31.1812    30.7187
  420.0000    78.4040    32.7644    31.2910
  420.5000    77.9918    34.3162    30.8184
  421.0000    77.3830    34.4088    30.2579
  421.5000    78.0608    34.5178    29.6907
  422.0000    81.6569    34.6343    29.0852
  422.5000    85.5036    32.8870    28.1445
  423.0000    89.2600    30.6629    26.9469
  423.5000    87.2592    28.5891    25.4272
  424.0000    83.7020    26.6557    23.8216
  424.5000    82.6440    25.5562    22.8131
  425.0000    84.8983    24.3053    22.1029
  425.5000    87.2445    23.2236    21.5116
  426.0000    87.4073    22.1839    20.9470
  426.5000    86.9663    21.1908    20.3971
  427.0000    87.4055    20.2422    19.8615
  427.5000    89.6993    19.4952    19.3399
  428.0000    91.9198    19.2882    18.8321
  428.5000    91.3762    19.0835    18.3375
  429.0000    90.5123    18.8809    17.8209
  429.5000    92.5750    18.6804    17.6572
  430.0000    97.1109    18.4821    17.6572
  430.5000   102.4489    18.2859    17.6572
  431.0000   104.6841    18.0918    17.6572
  431.5000   103.8005    17.9861    17.6572
  432.0000   102.6797    18.0666    17.6572
  432.5000   103.9137    18.2360    17.8727
  433.0000   104.7269    18.4070    18.1166
  433.5000   102.3542    18.5796    18.3638
  434.0000    98.3344    18.7537    18.6148
  434.5000    94.6293    18.9296    18.8689
  435.0000    94.3515    19.1070    19.0102
  435.5000    94.2228    19.2862    18.8058
  436.0000    92.6033    19.4670    18.6610
  436.5000    91.3294    19.6495    18.7961
  437.0000    92.7198    19.8337    19.0517
  437.5000    94.3231    20.0197    19.3162
  438.0000    94.9359    20.2875    19.6469
  438.5000    95.5902    20.6109    20.1185
  439.0000    94.4036    20.9394    20.6014
  439.5000    91.1663    21.2731    21.0958
  440.0000    87.3903    21.4333    21.2365
  440.5000    85.9576    20.7256    20.4807
  441.0000    85.4979    20.2092    19.9016
  441.5000    85.3568    19.7057    19.3389
  442.0000    86.9018    19.2147    18.7921
  442.5000    92.3120    18.7359    18.2607
  443.0000    94.9954    18.2691    17.7444
  443.5000    94.2421    17.8139    17.2427
  444.0000    93.4839    17.3701    16.7566
  444.5000    94.5865    17.0135    16.4716
  445.0000    96.5162    16.8012    16.3386
  445.5000    96.0041    16.5843    16.2045
  446.0000    95.3984    16.3711    16.0714
  446.5000    94.5992    16.1607    15.9527
  447.0000    93.0678    15.9527    15.9365
  447.5000    91.5757    16.0644    15.8061
  448.0000    91.0290    16.1495    15.8061
  448.5000    92.9963    16.2349    15.9723
  449.0000    95.0635    16.3208    16.1842
  449.5000    96.4052    16.4072    16.3988
  450.0000    95.4169    16.4940    16.5526
  450.5000    95.3369    16.5526    16.4613
  451.0000    97.8734    16.4832    16.3785
  451.5000    98.8408    16.4223    16.2545
  452.0000    97.6842    16.4005    16.4066
  452.5000    96.9394    16.5126    16.3976
  453.0000    96.1014    16.8951    16.7834
  453.5000    94.1440    17.2864    17.2143
  454.0000    91.5260    17.6867    17.6555
  454.5000    86.8213    17.9861    17.9861
