~VERSION INFORMATION
 VERS.                2.0:   CWLS LOG ASCII STANDARD - VERSION 2.0
 WRAP.                 NO:   ONE LINE PER DEPTH STEP
~WELL INFORMATION
#MNEM.UNIT      DATA TYPE    INFORMATION
#----------   ------------   ------------------------------
 STRT.F           30.0000:   START DEPTH
 STOP.F          744.0000:   STOP DEPTH
 STEP.F            0.5000:   STEP LENGTH
 NULL.          -999.2500:   NO VALUE
 COMP. FENIX & SCISSON INC:   COMPANY
 WELL.   NPR 3 #53 S - 34:   WELL
 FLD .             TEAPOT:   FIELD
 LOC .      S34 T39N R78W:   LOCATION
 CNTY.            NATRONA:   COUNTY
 STAT.            WYOMING:   STATE
 CTRY. UNITED STATES OF AMERICA:   COUNTRY
 SRVC.       Schlumberger:   SERVICE COMPANY
 DATE.        28-MAR-1977:   LOGDATE
 API .       490251031700:   API NUMBER
~CURVE INFORMATION
#MNEM.UNIT       API CODE    CURVE DESCRIPTION
#----------   ------------   ------------------------------
 DEPT.F                  :   
 CALD.IN     45 280 60 00:   CALIPER FROM DENSITY LOG
 GRD .GAPI   45 310 01 00:   GAMMA RAY FROM DENSITY LOG
 CORR.G/C3   45 356 01 00:   DENSITY CORRECTION
 DPHI.DEC    45 890 12 00:   DENSITY POROSITY SANDSTONE
 RHOB.G/C3   45 350 01 00:   BULK DENSITY
~PARAMETER INFORMATION
#MNEM.UNIT          VALUE    DESCRIPTION
#----------   ------------   ------------------------------
 PD  .                 GL:   PERMANENT DATUM
 EPD .F              5081:   ELEVATION PERMANENT DATUM
 LMF .                 GL:   LOG MEASURED FROM
 DAPD.F                 5:   FEET ABOVE PERMANENT DATUM
 DMF .                 KB:   DRILLING MEASURED FROM
 EKB .F              5086:   KELLING BUSHING
 EGL .F              5081:   GROUND LEVEL
 DATE.        20-MAR-1977:   RUN DATE
 RUN .                  1:   RUN NUMBER
 DD  .F               751:   DEPTH DRILLER
 DL  .F               745:   DEPTH LOGGER
 BLI .F               744:   BOTTOM LOG INTERVAL
 TLI .F                30:   TOP LOG INTERVAL
 CBL .F                38:   CASING BOTTOM LOGGER
 BS  .IN            7.875:   BIT SIZE
 BSD .F               751:   BIT SIZE AT DEPTH
 DFT .             5% KCL:   DRILLING FLUID TYPE
 MSS .           MUD TANK:   MUD SAMPLE SOURCE
 RMS .OHMM            .23:   RESISTIVITY MUD SAMPLE
 MST .F                68:   MUD SAMPLE TEMPERATURE
 RMF .OHMM            .18:   RESISTIVITY MUD FILTRATE SAMPLE
 MFST.F                68:   MUD FILTRATE SAMPLE TEMPERATURE
 RMC .OHMM            .35:   RESISTIVITY MUD CAKE
 MCST.F                68:   MUD CAKE SAMPLE TEMPERATURE
 MFSS.               MEAS:   MUD FILTRATE SAMPLE SOURCE
 MCSS.               CALC:   MUD CAKE SAMPLE SOURCE
 RMB .OHMM            .24:   RESISTIVITY MUD AT BHT
 BHT .F                60:   BOTTOM HOLE TEMPERATURE
 TCS .HRS            0300:   TIME CURCULATED STOPPED
 MRT .F                60:   MAXIMUM RECORDED TEMPERATURE
 LUN .               7680:   LOGGING UNIT NUMBER
 LUL .               CSPR:   LOGGING UNIT LOCATION
 ENGI.                FIX:   RECORDING ENGINEER
 WITN.              BURKE:   WITNESSED BY
 CLNT.            A2DTECH:   CLIENT CODE
 ORIG.           5" PRINT:   ORIGIN OF DATA
 UWI .       490251031700:   UNIQUE WELL ID
 DICO. A2D Technologies, Inc.:   DIGITIZING COMPANY
~OTHER INFORMATION
~A   DEPT     CALD        GRD       CORR       DPHI       RHOB   
# ...
  518.0000     8.3649    91.2698     0.0250     0.0885     2.5072
  518.5000     8.3663    92.6749     0.0188     0.0950     2.4987
  519.0000     8.3676    93.1509     0.0135     0.1065     2.4887
  519.5000     8.3690    92.0953     0.0097     0.1124     2.4763
  520.0000     8.3705    91.3433     0.0035     0.1083     2.4701
  520.5000     8.3718    90.7453     0.0129     0.1018     2.4803
  521.0000     8.3731    89.9887     0.0169     0.0927     2.4997
  521.5000     8.3745    90.4739     0.0161     0.0946     2.5044
  522.0000     8.3759    90.3382     0.0232     0.1008     2.4928
  522.5000     8.3773    88.8157     0.0147     0.1014     2.4920
  523.0000     8.3787    86.2147     0.0210     0.0976     2.4882
  523.5000     8.3804    79.9156     0.0242     0.0920     2.5022
  524.0000     8.3817    80.7044     0.0273     0.0957     2.4976
  524.5000     8.3673    82.5718     0.0174     0.0975     2.4945
  525.0000     8.3691    83.9769     0.0205     0.0910     2.5023
  525.5000     8.3704    87.5392     0.0291     0.0876     2.5055
  526.0000     8.3718    91.4096     0.0129     0.1049     2.4861
  526.5000     8.3732    89.4249     0.0138     0.1089     2.4776
  527.0000     8.3746    88.0565     0.0200     0.0996     2.4870
  527.5000     8.3759    87.1504     0.0155     0.1017     2.4901
  528.0000     8.3773    86.7065     0.0140     0.0955     2.5088
  528.5000     8.3942    86.7249     0.0179     0.0998     2.5042
  529.0000     8.3955    86.8973     0.0079     0.1085     2.4801
  529.5000     8.3969    87.0837     0.0064     0.1097     2.4716
  530.0000     8.3982    85.8555     0.0019     0.1072     2.4794
  530.5000     8.3996    86.3361     0.0112     0.1109     2.4811
  531.0000     8.4010    89.1279     0.0128     0.1199     2.4663
  531.5000     8.4024    92.7046     0.0113     0.1282     2.4221
  532.0000     8.4037   101.9538     0.0586     0.1403     2.4175
  532.5000     8.4051   101.0091     0.0928     0.1540     2.3999
  533.0000     8.4065    98.5679     0.0712     0.1748     2.3722
  533.5000     8.3924    90.9584     0.0209     0.1356     2.3761
  534.0000     8.3938    87.2766     0.0071     0.0912     2.5232
  534.5000     8.3952    84.5012     0.0226     0.0803     2.5080
  535.0000     8.3966    80.1886     0.0281     0.0927     2.4992
  535.5000     8.3825    77.2794     0.0173     0.0981     2.5101
  536.0000     8.3842    78.5304     0.0267     0.0833     2.5234
  536.5000     8.3856    84.8662     0.0531     0.0776     2.5180
  537.0000     8.3712    89.0448     0.0307     0.0901     2.5002
  537.5000     8.3729    89.0601     0.0377     0.0826     2.5204
  538.0000     8.3585    86.7590     0.0487     0.0767     2.5258
  538.5000     8.3602    85.9989     0.0418     0.0854     2.5135
  539.0000     8.3616    85.1090     0.0287     0.0957     2.4988
  539.5000     8.3630    85.6066     0.0248     0.0965     2.5058
  540.0000     8.3798    80.5036     0.0336     0.0843     2.5120
  540.5000     8.3812    67.6480     0.0467     0.0995     2.4973
  541.0000     8.3517    56.6597     0.0290     0.1210     2.4733
  541.5000     8.3373    50.0745     0.0189     0.1348     2.4152
  542.0000     8.3232    46.0867     0.0377     0.1578     2.3772
  542.5000     8.3404    47.6459     0.0355     0.1906     2.3214
  543.0000     8.3417    48.5888     0.0284     0.2022     2.3261
  543.5000     8.3431    49.5316     0.0359     0.1738     2.3610
  544.0000     8.3599    50.1663     0.0504     0.1403     2.3789
  544.5000     8.3613    51.2633     0.0342     0.1307     2.4201
  545.0000     8.3627    53.1306     0.0191     0.1217     2.4449
  545.5000     8.3641    54.2276     0.0110     0.1182     2.4527
  546.0000     8.3654    54.8623     0.0308     0.1303     2.4419
  546.5000     8.3668    54.1102     0.0382     0.1511     2.4008
  547.0000     8.3527    51.8174     0.0234     0.1598     2.3908
  547.5000     8.3387    48.4459     0.0175     0.1641     2.3893
  548.0000     8.3066    46.6153     0.0279     0.1759     2.3761
  548.5000     8.2797    46.9418     0.0237     0.1864     2.3505
  549.0000     8.2197    48.8092     0.0231     0.2013     2.3335
  549.5000     8.0976    51.4470     0.0340     0.2230     2.2955
  550.0000     7.9910    53.1602     0.0464     0.2301     2.2754
  550.5000     8.1470    51.9459     0.0117     0.2214     2.2840
  551.0000     8.2260    52.1183     0.0025     0.2033     2.2973
  551.5000     8.3050    52.9070     0.0150     0.1977     2.3230
  552.0000     8.3377    53.5416     0.0251     0.1998     2.3262
  552.5000     8.3550    53.4058     0.0368     0.1945     2.3278
  553.0000     8.3105    51.8833     0.0423     0.1901     2.3294
  553.5000     8.2352    50.2067     0.0509     0.2087     2.3187
  554.0000     8.1599    46.8352     0.0572     0.2199     2.3025
  554.5000     8.0691    42.8393     0.0557     0.2277     2.2808
  555.0000     7.9933    44.1499     0.0443     0.2301     2.2693
  555.5000     7.9483    48.2382     0.0271     0.2218     2.2802
  556.0000     7.9358    53.2078     0.0405     0.2066     2.3121
  556.5000     7.9067    54.6309     0.0499     0.2113     2.3151
  557.0000     8.1513    53.1129     0.0244     0.2147     2.2999
  557.5000     8.2967    51.7445     0.0191     0.2066     2.3108
  558.0000     8.3135    48.0648     0.0230     0.2006     2.3203
  558.5000     8.2386    49.0076     0.0301     0.1823     2.3349
  559.0000     8.1941    57.8087     0.0356     0.1760     2.3604
  559.5000     8.1342    59.9841     0.0411     0.1847     2.3541
  560.0000     8.1048    57.9994     0.0381     0.1887     2.3431
  560.5000     8.2151    57.5508     0.0281     0.1902     2.3400
  561.0000     8.3249    58.6523     0.0204     0.1852     2.3526
  561.5000     8.3113    60.0574     0.0276     0.1796     2.3635
  562.0000     8.3132    62.0788     0.0342     0.1603     2.3814
  562.5000     8.3304    65.6410     0.0408     0.1500     2.3986
  563.0000     8.3323    67.2001     0.0340     0.1487     2.4080
  563.5000     8.3341    67.9888     0.0248     0.1558     2.3987
  564.0000     8.3359    68.3107     0.0202     0.1604     2.3911
  564.5000     8.3378    65.4060     0.0156     0.1582     2.3896
  565.0000     8.3396    62.9590     0.0126     0.1557     2.3928
  565.5000     8.3414    60.6661     0.0173     0.1663     2.3781
  566.0000     8.3433    59.4433     0.0097     0.1671     2.3937
  566.5000     8.3296    62.2435     0.0307     0.1569     2.4054
  567.0000     8.3160    61.7874     0.0316     0.1597     2.3916
  567.5000     8.3025    59.1475     0.0270     0.1584     2.3901
  568.0000     8.3043    55.2828     0.0366     0.1511     2.4042
  568.5000     8.3062    50.8024     0.0442     0.1592     2.3942
  569.0000     8.3235    47.6693     0.0334     0.1685     2.3842
  569.5000     8.3268    50.6476     0.0304     0.1780     2.3796
  570.0000     8.3426    57.5997     0.0328     0.1802     2.3585
  570.5000     8.3444    57.7675     0.0368     0.1851     2.3510
  571.0000     8.3308    57.6317     0.0415     0.1869     2.3473
  571.5000     8.3017    58.2709     0.0346     0.1763     2.3520
  572.0000     8.2423    59.5219     0.0331     0.1695     2.3723
  572.5000     8.1974    61.0810     0.0425     0.1732     2.3661
  573.0000     8.1688    63.4106     0.0504     0.1682     2.3678
  573.5000     8.1398    64.6616     0.0651     0.1638     2.3764
  574.0000     8.1108    63.2931     0.0855     0.1541     2.3912
  574.5000     8.0663    61.1543     0.1025     0.1938     2.3300
  575.0000     8.0522    60.4021     0.0430     0.2139     2.3107
  575.5000     8.0232    60.2618     0.0428     0.1987     2.3201
  576.0000     8.0096    61.2092     0.0563     0.1717     2.3598
  576.5000     8.0582    62.3061     0.0610     0.1875     2.3443
  577.0000     8.1063    63.7111     0.0377     0.1933     2.3304
  577.5000     8.1545    64.9621     0.0480     0.1807     2.3554
  578.0000     8.2180    65.7648     0.0706     0.1697     2.3873
  578.5000     8.2503    63.7660     0.0505     0.1760     2.3602
