~VERSION INFORMATION
 VERS.                2.0:   CWLS LOG ASCII STANDARD - VERSION 2.0
 WRAP.                 NO:   ONE LINE PER DEPTH STEP
~WELL INFORMATION
#MNEM.UNIT      DATA TYPE    INFORMATION
#----------   ------------   ------------------------------
 STRT.F           32.5000:   START DEPTH
 STOP.F          433.0000:   STOP DEPTH
 STEP.F            0.5000:   STEP LENGTH
 NULL.          -999.2500:   NO VALUE
 COMP.    FENIX & SCISSON:   COMPANY
 WELL. NPR-3 65-S-10 #65-10:   WELL
 FLD .             TEAPOT:   FIELD
 LOC .      S10 T38N R78W:   LOCATION
 CNTY.            NATRONA:   COUNTY
 STAT.            WYOMING:   STATE
 CTRY. UNITED STATES OF AMERICA:   COUNTRY
 SRVC.           BIRDWELL:   SERVICE COMPANY
 DATE.        13-JUN-1978:   LOGDATE
 API .       490251063000:   API NUMBER
~CURVE INFORMATION
#MNEM.UNIT       API CODE    CURVE DESCRIPTION
#----------   ------------   ------------------------------
 DEPT.F                  :   
 CALD.IN     45 280 60 00:   CALIPER FROM DENSITY LOG
 CORR.G/C3   45 356 01 00:   DENSITY CORRECTION
 DEN .G/C3   45 350 01 00:   COMPENSATED BULK DENSITY
 GRD .GAPI   45 310 01 00:   GAMMA RAY FROM DENSITY LOG
 DPHI.DEC    45 890 12 00:   DENSITY POROSITY SANDSTONE
 IL  .OHMM   05 120 00 00:   INDUCTION LOG 40"
 SN  .OHMM   05 040 16 00:   SHORT NORMAL 16"
 SPR .MV     05 010 01 00:   SPONTANEOUS POTENTIAL FROM RES.
~PARAMETER INFORMATION
#MNEM.UNIT          VALUE    DESCRIPTION
#----------   ------------   ------------------------------
 PD  .                 GL:   PERMANENT DATUM
 EPD .F              5193:   ELEVATION PERMANENT DATUM
 LMF .                 KB:   LOG MEASURED FROM
 DMF .                 KB:   DRILLING MEASURED FROM
 EKB .F              5197:   KELLING BUSHING
 EGL .F              5193:   GROUND LEVEL
 DATE.          6-13-1978:   RUN DATE
 RUN .                  1:   RUN NUMBER
 DD  .F               430:   DEPTH DRILLER
 DL  .F               433:   DEPTH LOGGER
 BLI .F               427:   BOTTOM LOG INTERVAL
 TLI .F                50:   TOP LOG INTERVAL
 CS  .IN            8.625:   CASING SIZE
 CBD .F                40:   CASING BOTTOM DRILLER
 CBL .F                48:   CASING BOTTOM LOGGER
 BS  .IN            7.875:   BIT SIZE
 BSD .F               430:   BIT SIZE AT DEPTH
 DFT .                KCL:   DRILLING FLUID TYPE
 DFD .                8.7:   DRILLING FLUID DENSITY
 DFV .                 32:   DRILLING FLUID VISCOSITY
 DFPH.                9.5:   DRILLING FLUID PH
 DFL .                8.4:   DRILLING FLUID LOSS
 MSS .           FLOWLINE:   MUD SAMPLE SOURCE
 RMS .OHMM            .38:   RESISTIVITY MUD SAMPLE
 MST .F                86:   MUD SAMPLE TEMPERATURE
 RMF .OHMM            .36:   RESISTIVITY MUD FILTRATE SAMPLE
 MFST.F                82:   MUD FILTRATE SAMPLE TEMPERATURE
 MFSS.               MEAS:   MUD FILTRATE SAMPLE SOURCE
 MCSS.               MEAS:   MUD CAKE SAMPLE SOURCE
 TCS .HRS               3:   TIME CURCULATED STOPPED
 MRT .F                73:   MAXIMUM RECORDED TEMPERATURE
 LUN .               2958:   LOGGING UNIT NUMBER
 LUL .               CASP:   LOGGING UNIT LOCATION
 ENGI.           REYNOLDS:   RECORDING ENGINEER
 WITN.           MCGINLEY:   WITNESSED BY
 CLNT.            A2DTECH:   CLIENT CODE
 ORIG.           5" PRINT:   ORIGIN OF DATA
 UWI .       490251063000:   UNIQUE WELL ID
 DICO. A2D Technologies, Inc.:   DIGITIZING COMPANY
~OTHER INFORMATION
~A   DEPT     CALD       CORR        DEN        GRD       DPHI         IL         SN        SPR   
# ...
  194.5000     7.5140     0.0282     2.4379   117.9107     0.1421     5.4744     7.9734   -68.8487
  195.0000     7.3940     0.0253     2.4349   117.6082     0.1566     5.3673     7.5519   -68.8382
  195.5000     7.3636     0.0223     2.4259   116.5589     0.1637     5.2614     7.1527   -68.8297
  196.0000     7.3629     0.0282     2.4140   115.5017     0.1772     5.0495     6.5872   -68.8212
  196.5000     7.2578     0.0297     2.3954   114.3103     0.2050     4.7203     6.0741   -68.6637
  197.0000     7.1826     0.0312     2.3692   116.4001     0.2205     4.2311     5.6355   -68.6534
  197.5000     7.1522     0.0371     2.3527   120.5826     0.2341     3.8188     5.1218   -68.6449
  198.0000     7.3009     0.0430     2.3326   119.9818     0.2489     3.4944     4.8178   -68.6365
  198.5000     7.3302     0.0549     2.2915   118.3347     0.2516     3.2185     4.4308   -68.6280
  199.0000     7.2847     0.0460     2.2690   115.7868     0.2498     3.1135     3.6649   -68.6174
  199.5000     7.2244     0.0371     2.2521   113.6945     0.2453     3.0521     2.9837   -68.7599
  200.0000     7.0447     0.0342     2.2422   112.4958     0.1771     3.0125     2.3959   -68.7493
  200.5000     7.0417     0.0519     2.2601   112.4929     0.1702     3.0147     2.2537   -68.7408
  201.0000     7.1183     0.0578     2.2982   113.6859     0.1658     3.0169     2.2399   -68.4186
  201.5000     7.1475     0.0549     2.3543   115.4767     0.1517     3.1469     2.2730   -67.7125
  202.0000     7.0572     0.0460     2.3946   119.3602     0.1305     3.3969     2.3868   -67.5221
  202.5000     6.9820     0.0282     2.4126   119.6563     0.1197     3.6668     2.6481   -67.5137
  203.0000     6.9665     0.0312     2.4238   118.7559     0.1137     3.8772     3.2129   -67.5052
  203.5000     6.9660     0.0463     2.4619   118.4540     0.1293     4.3427     4.1290   -67.4967
  204.0000     6.9956     0.0578     2.4709   120.2570     0.1260     4.9755     4.7629   -67.4881
  204.5000     7.0542     0.0637     2.4605   128.3658     0.1176     5.2610     5.5071   -67.4777
  205.0000     7.0984     0.0667     2.4515   132.0626     0.1146     5.3012     6.0265   -67.4692
  205.5000     7.1874     0.0697     2.4526   132.8089     0.1184     5.3416     6.2419   -67.4608
  206.0000     7.3510     0.0844     2.4627   126.2302     0.1301     5.3088     6.5193   -67.4523
  206.5000     7.1564     0.0785     2.4650   127.1253     0.1256     5.2762     6.6972   -67.4417
  207.0000     7.2584     0.0667     2.4650   127.5723     0.1208     5.1375     6.7020   -67.4333
  207.5000     7.4433     0.0561     2.4635   127.4214     0.1196     5.0361     6.3095   -67.4266
  208.0000     7.4728     0.0623     2.4493   126.8221     0.1297     4.9368     6.2294   -67.4192
  208.5000     7.4128     0.0549     2.4501   125.9235     0.1578     4.8728     6.1020   -67.4119
  209.0000     7.3677     0.0503     2.4508   125.6232     0.1489     4.8772     5.9063   -67.4045
  209.5000     7.3227     0.0597     2.4411   126.5186     0.1423     4.8807     5.6709   -67.3971
  210.0000     7.4607     0.0785     2.4037   131.5994     0.1405     4.8842     5.8348   -67.3810
  210.5000     7.7549     0.0490     2.3959   130.4001     0.1327     4.8877     5.7596   -67.0643
  211.0000     7.6800     0.0356     2.4232   125.6171     0.1195     4.9592     5.3708   -66.0070
  211.5000     7.5603     0.0297     2.4262   123.8220     0.1255     4.9829     5.0272   -65.6938
  212.0000     7.3211     0.0490     2.4396   123.2227     0.1351     5.1678     5.2442   -66.1250
  212.5000     7.5895     0.0386     2.4576   122.6233     0.1135     5.2429     5.5452   -64.4221
  213.0000     7.6490     0.0282     2.4516   128.6007     0.1108     5.3238     5.7834   -63.1132
  213.5000     7.5591     0.0149     2.4456   129.9445     0.1114     5.5098     5.9971   -62.9488
  214.0000     7.2602     0.0105     2.4499   129.4947     0.1129     5.6673     6.0378   -62.9332
  214.5000     7.1406     0.0164     2.4544   128.8954     0.1105     5.8696     6.3843   -63.2152
  215.0000     7.1702     0.0209     2.4581   129.9400     0.1111     6.0374     6.7045   -63.1994
  215.5000     7.1997     0.0282     2.4619   130.9849     0.1135     6.1685     7.0894   -63.1830
  216.0000     7.1546     0.0312     2.4664   133.8236     0.1111     6.1725     7.4978   -63.1644
  216.5000     7.0946     0.0342     2.4694   131.1313     0.1105     6.1765     7.7662   -62.9999
  217.0000     7.1093     0.0401     2.4746   129.1867     0.1105     6.1804     7.9891   -62.9843
  217.5000     7.1687     0.0342     2.4800   127.3916     0.1087     6.1846     7.9954   -63.1175
  218.0000     7.1982     0.0223     2.4955   126.7922     0.1054     6.1897     7.9468   -63.0980
  218.5000     7.2278     0.0268     2.5007   127.8368     0.1064     6.1502     8.0096   -63.0823
  219.0000     7.2722     0.0253     2.4843   130.0776     0.1140     6.1553     8.1269   -63.0667
  219.5000     7.3316     0.0164     2.4852   129.4783     0.1164     6.1170     8.1333   -63.0152
  220.0000     7.3762     0.0090     2.4673   127.3244     0.1209     6.0790     7.9172   -62.8866
  220.5000     7.2713     0.0061     2.4649   127.9804     0.1314     6.0840     7.7097   -62.8705
  221.0000     7.2710     0.0075     2.4664   127.5305     0.1355     6.0880     7.5066   -62.8515
  221.5000     7.4499     0.0090     2.4544   126.1838     0.1307     6.0492     7.3100   -62.9886
  222.0000     7.2853     0.0105     2.4425   125.8835     0.1247     5.9304     7.1663   -62.9690
  222.5000     7.2404     0.0105     2.4350   123.4901     0.1304     5.7290     7.0740   -62.9534
  223.0000     7.2848     0.0120     2.4410   123.1898     0.1358     5.5824     6.9349   -62.9375
  223.5000     7.2695     0.0194     2.4469   124.6936     0.1372     5.4718     6.8000   -62.9183
  224.0000     7.2095     0.0253     2.4484   125.7281     0.1420     5.4006     6.5753   -62.7538
  224.5000     7.1645     0.0238     2.4365   125.8761     0.1459     5.3302     6.1430   -62.1430
  225.0000     7.1343     0.0194     2.4268   126.1733     0.1417     5.2971     5.8187   -61.9785
  225.5000     7.1042     0.0135     2.4200   126.4709     0.1300     5.3380     5.5087   -61.9628
  226.0000     7.1338     0.0135     2.4185   127.0670     0.1234     5.4530     5.2928   -61.9434
  226.5000     7.1334     0.0135     2.4260   127.9625     0.1222     5.5704     5.4458   -62.0804
  227.0000     7.0734     0.0120     2.4426   127.9611     0.1194     5.6906     5.6021   -61.9121
  227.5000     6.9985     0.0105     2.4574   123.9235     0.1165     5.8138     5.8027   -62.0492
  228.0000     6.9833     0.0105     2.4581   120.4845     0.1156     5.9801     6.6737   -62.0297
  228.5000     7.0278     0.0105     2.4596   124.0702     0.1132     6.1935     7.2942   -62.0101
  229.0000     7.0573     0.0105     2.4723   124.3677     0.1102     6.4146     7.8197   -61.9945
  229.5000     7.0122     0.0120     2.4709   129.8966     0.1060     6.6462     7.9342   -61.9807
  230.0000     7.0119     0.0135     2.4723   133.6321     0.1072     6.7877     8.0505   -61.8144
  230.5000     7.0116     0.0253     2.4753   136.0224     0.1108     6.7916     7.9467   -61.7988
  231.0000     7.0263     0.0372     2.4753   135.0912     0.1132     6.7966     8.0647   -61.9320
  231.5000     7.0409     0.0490     2.4761   133.4781     0.1060     6.8011     8.1268   -62.0613
  232.0000     7.0406     0.0549     2.4738   133.3276     0.0991     6.7125     8.3027   -62.0476
  232.5000     7.0402     0.0490     2.4851   137.2122     0.0940     6.7180     8.4825   -62.0300
  233.0000     7.0550     0.0401     2.4970   137.5098     0.0916     6.7218     8.6663   -62.0144
  233.5000     7.0696     0.0416     2.5090   131.5289     0.0886     6.7267     8.7948   -61.9985
  234.0000     7.0846     0.0490     2.5127   126.7443     0.0913     6.7776     8.6220   -61.9821
  234.5000     7.2182     0.0519     2.5060   124.9492     0.0982     6.7823     8.6883   -61.9658
