~VERSION INFORMATION
 VERS.                2.0:   CWLS LOG ASCII STANDARD - VERSION 2.0
 WRAP.                 NO:   ONE LINE PER DEPTH STEP
~WELL INFORMATION
#MNEM.UNIT      DATA TYPE    INFORMATION
#----------   ------------   ------------------------------
 STRT.F           16.0000:   START DEPTH
 STOP.F          634.0000:   STOP DEPTH
 STEP.F            0.5000:   STEP LENGTH
 NULL.          -999.2500:   NO VALUE
 COMP. LAWRENCE/ALLISON INC:   COMPANY
 WELL.    14-15 SX #11-11:   WELL
 FLD .             TEAPOT:   FIELD
 LOC .      S11 T38N R78W:   LOCATION
 CNTY.            NATRONA:   COUNTY
 STAT.            WYOMING:   STATE
 CTRY. UNITED STATES OF AMERICA:   COUNTRY
 SRVC.      Dresser Atlas:   SERVICE COMPANY
 DATE.        06-JAN-1985:   LOGDATE
 API .       490251101700:   API NUMBER
~CURVE INFORMATION
#MNEM.UNIT       API CODE    CURVE DESCRIPTION
#----------   ------------   ------------------------------
 DEPT.F                  :   
 SPR .MV     11 010 01 00:   SPONTANEOUS POTENTIAL FROM RES.
 RD  .OHMM   11 220 10 00:   RESISTIVITY DEEP
 RS  .OHMM   11 220 09 00:   RESISTIVITY SHALLOW
 RMLL.OHMM   20 270 04 00:   RESISTIVITY MICROLATEROLOG
 AC  .US/F   60 520 00 00:   ACCOUSTIC SONIC
 CNC .DEC    42 890 03 00:   COMPENSATED NEUTRON POROSITY SANDSTONE
 PORD.DEC    45 890 12 00:   POROSITY DENSITY SANDSTONE
 GRD .GAPI   45 310 01 00:   GAMMA RAY FROM DENSITY LOG
 CALD.IN     45 280 60 00:   CALIPER FROM DENSITY
 CORR.G/C3   45 356 01 00:   DENSITY CORRECTION
 DEN .G/C3   45 350 01 00:   COMPENSATED BULK DENSTIY
~PARAMETER INFORMATION
#MNEM.UNIT          VALUE    DESCRIPTION
#----------   ------------   ------------------------------
 PD  .                 GL:   PERMANENT DATUM
 EPD .F            5196.8:   ELEVATION PERMANENT DATUM
 LMF .                 KB:   LOG MEASURED FROM
 DMF .                 KB:   DRILLING MEASURED FROM
 EKB .F            5196.8:   KELLING BUSHING
 EGL .F            5196.8:   GROUND LEVEL
 DATE.        06-JAN-1985:   RUN DATE
 RUN .                  1:   RUN NUMBER
 DD  .F               650:   DEPTH DRILLER
 DL  .F               636:   DEPTH LOGGER
 BLI .F               634:   BOTTOM LOG INTERVAL
 CS  .IN            8.625:   CASING SIZE
 CBD .F                20:   CASING BOTTOM DRILLER
 CBL .F                22:   CASING BOTTOM LOGGER
 BS  .IN             6.25:   BIT SIZE
 BSD .F               650:   BIT SIZE AT DEPTH
 DFT .        KCL POLYMER:   DRILLING FLUID TYPE
 RMS .OHMM           .105:   RESISTIVITY MUD SAMPLE
 MST .F                72:   MUD SAMPLE TEMPERATURE
 RMF .OHMM            .08:   RESISTIVITY MUD FILTRATE SAMPLE
 MFST.F                72:   MUD FILTRATE SAMPLE TEMPERATURE
 RMC .OHMM            .13:   RESISTIVITY MUD CAKE
 MCST.F                72:   MUD CAKE SAMPLE TEMPERATURE
 MFSS.               CALC:   MUD FILTRATE SAMPLE SOURCE
 MCSS.               CALC:   MUD CAKE SAMPLE SOURCE
 TCS .HRS               3:   TIME CURCULATED STOPPED
 LUN .               6307:   LOGGING UNIT NUMBER
 LUL .               GLTE:   LOGGING UNIT LOCATION
 ENGI.               MACK:   RECORDING ENGINEER
 WITN.               PAGE:   WITNESSED BY
 CLNT.            A2DTECH:   CLIENT CODE
 ORIG.           5" PRINT:   ORIGIN OF DATA
 UWI .       490251101700:   UNIQUE WELL ID
 DICO. A2D Technologies, Inc.:   DIGITIZING COMPANY
 R1  . POROSITY WITH SANDSTONE:   REMARKS 1
~OTHER INFORMATION
~A   DEPT      SPR         RD         RS       RMLL         AC        CNC       PORD        GRD       CALD       CORR        DEN   
# ...
  199.0000   -69.1813    11.5708     8.2947  -999.2500   100.4469     0.3187     0.1137   106.8231     6.4565     0.1134     2.4995
  199.5000   -69.0317    11.5669     8.2918  -999.2500   101.5017     0.3253     0.1056   106.2330     6.4410     0.1014     2.5147
  200.0000   -68.8822    11.8556     8.4047  -999.2500   102.7814     0.3234     0.0965   108.9835     6.4187     0.1119     2.5218
  200.5000   -68.5217    12.1491     8.8826  -999.2500   103.1604     0.3097     0.0993   113.5163     6.3944     0.1682     2.5208
  201.0000   -68.2790    12.3937     8.8189  -999.2500   102.1867     0.2921     0.1074   116.2455     6.3786     0.1757     2.5055
  201.5000   -67.9893    12.3859     8.8171  -999.2500   100.0844     0.2938     0.1080   117.7644     6.3780     0.1602     2.5020
  202.0000   -67.5407    12.2875     8.8153  -999.2500    96.7040     0.3043     0.0972   117.6191     6.3774     0.1290     2.5256
  202.5000   -67.2231    12.2102     8.8134  -999.2500    94.7521     0.3188     0.0876   116.1123     6.3768     0.0942     2.5391
  203.0000   -66.9214    12.2077     8.8116  -999.2500    96.0333     0.3200     0.0903   110.8233     6.3762     0.0930     2.5325
  203.5000   -66.3457    12.2902     8.8716  -999.2500   100.9235     0.3125     0.1015   112.7960     6.3756     0.1087     2.5108
  204.0000   -65.8982    12.4593     8.9932  -999.2500   102.2047     0.3068     0.1081   117.9458     6.3750     0.1224     2.5021
  204.5000   -65.7505    12.5434     9.0539  -999.2500   102.2822     0.3059     0.1012   117.1953     6.3744     0.1340     2.5120
  205.0000   -65.4529    12.8038     9.2423  -999.2500   102.2100     0.3074     0.0967   113.5705     6.3738     0.1492     2.5204
  205.5000   -65.1564    12.8909     9.3700  -999.2500   102.3641     0.3098     0.0945   112.9597     6.3732     0.1569     2.5265
  206.0000   -65.1609    13.1586     9.4989  -999.2500   102.5927     0.3116     0.0901   114.9441     6.3726     0.1826     2.5341
  206.5000   -65.0132    13.2481     9.6292  -999.2500   102.8964     0.3123     0.0877   115.2527     6.3720     0.2008     2.5386
  207.0000   -64.8678    13.2447     9.6942  -999.2500   103.2002     0.3080     0.0904   112.2330     6.3714     0.2069     2.5326
  207.5000   -64.8723    13.2419     9.6921  -999.2500   103.3536     0.3087     0.0940   111.7851     6.3708     0.1995     2.5281
  208.0000   -64.7246    13.1477     9.4906  -999.2500   104.0333     0.3187     0.0965   112.7050     6.3702     0.1694     2.5221
  208.5000   -64.7302    12.9639     9.3579  -999.2500   105.3896     0.3214     0.1004   112.2415     6.3696     0.1514     2.5168
  209.0000   -64.5825    12.7827     9.2271  -999.2500   105.2415     0.3195     0.1025   110.3893     6.3690     0.1439     2.5085
  209.5000   -64.5882    12.6040     9.1615  -999.2500   104.6438     0.3198     0.1146   107.5567     6.3684     0.1365     2.4919
  210.0000   -64.4416    12.5143     9.0963  -999.2500   103.8197     0.3344     0.1267   107.4279     6.3678     0.1048     2.4737
  210.5000   -64.4461    12.3394     9.0315  -999.2500   103.9731     0.3389     0.1309   109.9733     6.3672     0.0974     2.4639
  211.0000   -64.1474    12.2516     9.0296  -999.2500   103.9009     0.3371     0.1276   114.0968     6.3666     0.1080     2.4662
  211.5000   -64.0008    12.1644     8.9653  -999.2500   103.6031     0.3218     0.1267   113.0451     6.3660     0.1217     2.4708
  212.0000   -63.8554    12.1618     8.9631  -999.2500   102.8543     0.3079     0.1291   112.1419     6.3653     0.1007     2.4633
  212.5000   -63.7077    12.1593     9.0236  -999.2500   101.9550     0.2937     0.1286   114.4187     6.3495     0.0796     2.4625
  213.0000   -63.5612    12.1568     9.0218  -999.2500   101.0558     0.2874     0.1256   117.9043     6.3488     0.0843     2.4701
  213.5000   -63.5668    12.1543     9.0199  -999.2500   100.1565     0.2932     0.1256   118.2113     6.3482     0.1115     2.4717
  214.0000   -63.8734    12.1518     9.0813  -999.2500    99.5580     0.3077     0.1286   115.1932     6.3476     0.1161     2.4672
  214.5000   -64.0290    12.3190     9.2057  -999.2500    98.8843     0.3068     0.1274   110.5093     6.3470     0.1207     2.4702
  215.0000   -64.0335    12.4885     9.3324  -999.2500    98.6618     0.2860     0.1169   110.6666     6.3464     0.1299     2.4793
  215.5000   -64.0380    12.8371     9.5929  -999.2500    99.1159     0.2812     0.1076   112.1855     6.3458     0.1556     2.5013
  216.0000   -64.0425    13.3798     9.9294  -999.2500    99.7204     0.2779     0.1039   112.4926     6.3452     0.1602     2.5097
  216.5000   -64.0470    13.8491    10.2776  -999.2500    99.7234     0.2842     0.1085   110.0795     6.3446     0.1226     2.5052
  217.0000   -64.0515    14.2357    10.4921  -999.2500    99.1249     0.2897     0.1255   105.3957     6.3440     0.1227     2.4870
  217.5000   -64.0560    14.3318    10.7099  -999.2500    98.3008     0.2948     0.1327   102.5273     6.3434     0.1560     2.4613
  218.0000   -63.9094    14.3288    10.7828  -999.2500    97.4768     0.2936     0.1307   101.9266     6.3428     0.1712     2.4591
  218.5000   -63.7629    14.3258    10.8556  -999.2500    96.8031     0.2810     0.1150   104.9599     6.3422     0.1747     2.4750
  219.0000   -63.6163    14.3229    11.0044  -999.2500    96.5053     0.2722     0.1117   110.5635     6.3416     0.1412     2.4925
  219.5000   -63.6208    14.4366    11.1564  -999.2500    96.5083     0.2698     0.1080   111.0218     6.3410     0.1050     2.5024
  220.0000   -63.4742    14.7198    11.3880  -999.2500    96.4361     0.2765     0.1068   107.3985     6.3404     0.0931     2.5061
  220.5000   -63.4789    15.1307    11.7059  -999.2500    96.1384     0.3036     0.1113   105.1352     6.3398     0.0992     2.5037
  221.0000   -63.4834    15.4449    12.0327  -999.2500    95.6903     0.3030     0.1165   104.0822     6.3392     0.1129     2.4923
  221.5000   -63.3367    15.5500    12.1983  -999.2500    95.1670     0.2961     0.1174   101.2138     6.3386     0.1130     2.4858
  222.0000   -63.1642    15.7631    12.3661  -999.2500    94.7188     0.2886     0.1168    96.8325     6.3380     0.1192     2.4858
  222.5000   -62.8936    15.8703    12.4496  -999.2500    93.5188     0.2817     0.1162    97.1411     6.3374     0.1298     2.4896
  223.0000   -62.8981    15.9775    12.4471  -999.2500    90.5895     0.2769     0.1138    99.7190     6.3368     0.1422     2.4965
  223.5000   -62.9027    15.9734    12.6183  -999.2500    84.7264     0.2693     0.1066   101.5405     6.3514     0.1623     2.5086
  224.0000   -62.7550    16.0820    12.7035  -999.2500    80.6709     0.2651     0.1012   104.7235     6.3507     0.1985     2.5132
  224.5000   -62.4585    16.1906    12.7893  -999.2500    81.0499     0.2640     0.1021   105.7885     6.3653     0.2086     2.5110
  225.0000   -62.4630    16.1864    12.7865  -999.2500    85.9211     0.2660     0.1090   105.9458     6.3647     0.2064     2.5034
  225.5000   -62.4675    16.1831    12.6950  -999.2500    92.3341     0.2788     0.1124   105.8003     6.3641     0.1822     2.4921
  226.0000   -62.6230    16.0679    12.6047  -999.2500    96.0213     0.2899     0.1193   103.6885     6.3635     0.1666     2.4830
  226.5000   -62.7786    15.9536    12.5150  -999.2500    97.8288     0.2912     0.1196   100.8200     6.3629     0.1682     2.4831
  227.0000   -62.9342    15.9503    12.4259  -999.2500    98.4333     0.2885     0.1163   101.5826     6.3623     0.1940     2.4861
  227.5000   -62.9387    15.7273    12.4233  -999.2500    98.5107     0.2921     0.1173   103.2527     6.3617     0.2122     2.4869
  228.0000   -62.9432    15.5075    12.2497  -999.2500    98.1378     0.2954     0.1203   105.3767     6.3610     0.2137     2.4794
  228.5000   -63.0987    15.0801    12.0784  -999.2500    98.1416     0.2909     0.1212   105.9879     6.3452     0.1912     2.4779
  229.0000   -63.1032    14.6644    11.9096  -999.2500   102.3551     0.2801     0.1197   105.6913     6.3446     0.1551     2.4832
