~VERSION INFORMATION
 VERS.                2.0:   CWLS LOG ASCII STANDARD - VERSION 2.0
 WRAP.                 NO:   ONE LINE PER DEPTH STEP
~WELL INFORMATION
#MNEM.UNIT      DATA TYPE    INFORMATION
#----------   ------------   ------------------------------
 STRT.F          110.5000:   START DEPTH
 STOP.F         1944.0000:   STOP DEPTH
 STEP.F            0.5000:   STEP LENGTH
 NULL.          -999.2500:   NO VALUE
 COMP.    FENIX & SCISSON:   COMPANY
 WELL.   NPR 3 SHX #34-10:   WELL
 FLD .             TEAPOT:   FIELD
 LOC .      S10 T38N R78W:   LOCATION
 CNTY.            NATRONA:   COUNTY
 STAT.            WYOMING:   STATE
 CTRY. UNITED STATES OF AMERICA:   COUNTRY
 SRVC.            Unknown:   SERVICE COMPANY
 DATE.        14-APR-1978:   LOGDATE
 API .       490251061800:   API NUMBER
~CURVE INFORMATION
#MNEM.UNIT       API CODE    CURVE DESCRIPTION
#----------   ------------   ------------------------------
 DEPT.F                  :   
 ILD .OHMM   05 120 46 00:   INDUCTION LOG DEEP
 CILD.MMHO   05 110 00 00:   CONDUCTIVITY INDUCTION LOG
 NPHI.DEC    42 890 01 00:   NEUTRON POROSITY LIMESTONE
 GRD .GAPI   45 310 01 00:   GAMMA RAY FROM DENSITY LOG
~PARAMETER INFORMATION
#MNEM.UNIT          VALUE    DESCRIPTION
#----------   ------------   ------------------------------
 PD  .                 GL:   PERMANENT DATUM
 EPD .F              5244:   ELEVATION PERMANENT DATUM
 LMF .                 KB:   LOG MEASURED FROM
 DMF .                 KB:   DRILLING MEASURED FROM
 EKB .F              5252:   KELLING BUSHING
 EGL .F              5244:   GROUND LEVEL
 DATE.          4-14-1978:   RUN DATE
 RUN .                  1:   RUN NUMBER
 DD  .F              1953:   DEPTH DRILLER
 DL  .F              1950:   DEPTH LOGGER
 BLI .F              1944:   BOTTOM LOG INTERVAL
 TLI .F               715:   TOP LOG INTERVAL
 CS  .IN            9.625:   CASING SIZE
 CBD .F               708:   CASING BOTTOM DRILLER
 CBL .F               712:   CASING BOTTOM LOGGER
 BS  .IN             8.75:   BIT SIZE
 BSD .F              1953:   BIT SIZE AT DEPTH
 DFT .                OIL:   DRILLING FLUID TYPE
 TCS .HRS               5:   TIME CURCULATED STOPPED
 LUN .               2958:   LOGGING UNIT NUMBER
 LUL .               CASP:   LOGGING UNIT LOCATION
 ENGI.             MILLER:   RECORDING ENGINEER
 CLNT.            A2DTECH:   CLIENT CODE
 ORIG.           5" PRINT:   ORIGIN OF DATA
 UWI .       490251061800:   UNIQUE WELL ID
 DICO. A2D Technologies, Inc.:   DIGITIZING COMPANY
~OTHER INFORMATION
~A   DEPT      ILD       CILD       NPHI        GRD   
# ...
 1205.5000     9.1462   119.9212  -999.2500  -999.2500
 1206.0000     9.1394   120.2506  -999.2500  -999.2500
 1206.5000     9.1326   120.9412  -999.2500  -999.2500
 1207.0000     9.1016   121.6318  -999.2500  -999.2500
 1207.5000     9.0478   122.3225  -999.2500  -999.2500
 1208.0000     8.9940   122.8856  -999.2500  -999.2500
 1208.5000     8.9402   122.8856  -999.2500  -999.2500
 1209.0000     8.8863   122.8856  -999.2500  -999.2500
 1209.5000     8.8322   122.8856  -999.2500  -999.2500
 1210.0000     8.7782   122.8856  -999.2500  -999.2500
 1210.5000     8.7756   122.8856  -999.2500  -999.2500
 1211.0000     8.7808   122.8856  -999.2500  -999.2500
 1211.5000     8.7861   122.8856  -999.2500  -999.2500
 1212.0000     8.7914   122.8856  -999.2500  -999.2500
 1212.5000     8.7966   122.8856  -999.2500  -999.2500
 1213.0000     8.8019   122.8856  -999.2500  -999.2500
 1213.5000     8.8070   122.8856  -999.2500  -999.2500
 1214.0000     8.8080   122.8856  -999.2500  -999.2500
 1214.5000     8.7894   122.8856  -999.2500  -999.2500
 1215.0000     8.7712   122.8856  -999.2500  -999.2500
 1215.5000     8.7531   122.8856  -999.2500  -999.2500
 1216.0000     8.7349   122.8856  -999.2500  -999.2500
 1216.5000     8.7168   122.8856  -999.2500  -999.2500
 1217.0000     8.6986   122.8856  -999.2500  -999.2500
 1217.5000     8.6804   122.8856  -999.2500  -999.2500
 1218.0000     8.6623   122.8856  -999.2500  -999.2500
 1218.5000     8.6440   122.8856  -999.2500  -999.2500
 1219.0000     8.6259   122.8856  -999.2500  -999.2500
 1219.5000     8.6126   122.8856  -999.2500  -999.2500
 1220.0000     8.6224   122.8856  -999.2500  -999.2500
 1220.5000     8.6317   122.8856  -999.2500  -999.2500
 1221.0000     8.6409   122.8856  -999.2500  -999.2500
 1221.5000     8.6507   122.8856  -999.2500  -999.2500
 1222.0000     8.6221   122.8856  -999.2500  -999.2500
 1222.5000     8.5803   122.8856  -999.2500  -999.2500
 1223.0000     8.5378   122.8856  -999.2500  -999.2500
 1223.5000     8.4950   122.8856  -999.2500  -999.2500
 1224.0000     8.4533   122.8856  -999.2500  -999.2500
 1224.5000     8.4610   122.7291  -999.2500  -999.2500
 1225.0000     8.4714   122.4553  -999.2500  -999.2500
 1225.5000     8.4817   122.1815  -999.2500  -999.2500
 1226.0000     8.4919   121.9078  -999.2500  -999.2500
 1226.5000     8.5020   121.6340  -999.2500  -999.2500
 1227.0000     8.5122   121.3602  -999.2500  -999.2500
 1227.5000     8.5221   121.0865  -999.2500  -999.2500
 1228.0000     8.5321   120.7840  -999.2500  -999.2500
 1228.5000     8.5864   119.7328  -999.2500  -999.2500
 1229.0000     8.6471   118.6817  -999.2500  -999.2500
 1229.5000     8.7079   117.6305  -999.2500  -999.2500
 1230.0000     8.7685   116.5794  -999.2500  -999.2500
 1230.5000     8.8291   115.5282  -999.2500  -999.2500
 1231.0000     8.8898   114.4771  -999.2500  -999.2500
 1231.5000     8.9504   113.4259  -999.2500  -999.2500
 1232.0000     9.0110   112.3747  -999.2500  -999.2500
 1232.5000     9.0716   111.3223  -999.2500  -999.2500
 1233.0000     9.1323   110.2716  -999.2500  -999.2500
 1233.5000     9.1929   109.8702  -999.2500  -999.2500
 1234.0000     9.2535   109.7205  -999.2500  -999.2500
 1234.5000     9.3141   109.5670  -999.2500  -999.2500
 1235.0000     9.3748   109.4135  -999.2500  -999.2500
 1235.5000     9.4354   109.2601  -999.2500  -999.2500
 1236.0000     9.4960   109.1066  -999.2500  -999.2500
 1236.5000     9.5567   108.9552  -999.2500  -999.2500
 1237.0000     9.6172   107.2836  -999.2500  -999.2500
 1237.5000     9.6778   105.6346  -999.2500  -999.2500
 1238.0000     9.7396   103.9856  -999.2500  -999.2500
 1238.5000     9.8363   102.3367  -999.2500  -999.2500
 1239.0000     9.9751   100.6877  -999.2500  -999.2500
 1239.5000    10.1132    99.0388  -999.2500  -999.2500
 1240.0000    10.2518    97.3898  -999.2500  -999.2500
 1240.5000    10.3903    95.7408  -999.2500  -999.2500
 1241.0000    10.5288    94.8059  -999.2500  -999.2500
 1241.5000    10.6673    94.4190  -999.2500  -999.2500
 1242.0000    10.8060    94.0317  -999.2500  -999.2500
 1242.5000    10.9441    93.6451  -999.2500  -999.2500
 1243.0000    11.0541    93.2581  -999.2500  -999.2500
 1243.5000    11.0649    92.8711  -999.2500  -999.2500
 1244.0000    11.0773    92.4842  -999.2500  -999.2500
 1244.5000    11.0892    92.0972  -999.2500  -999.2500
 1245.0000    11.1478    91.7102  -999.2500  -999.2500
 1245.5000    11.2133    91.3233  -999.2500  -999.2500
 1246.0000    11.2788    90.9363  -999.2500  -999.2500
 1246.5000    11.3440    90.5494  -999.2500  -999.2500
 1247.0000    11.4091    90.1624  -999.2500  -999.2500
 1247.5000    11.4630    89.7754  -999.2500  -999.2500
 1248.0000    11.5403    89.3885  -999.2500  -999.2500
 1248.5000    11.6169    89.0015  -999.2500  -999.2500
 1249.0000    11.6931    88.6146  -999.2500  -999.2500
 1249.5000    11.7693    88.2276  -999.2500  -999.2500
 1250.0000    11.8060    87.8406  -999.2500  -999.2500
 1250.5000    11.8012    87.4537  -999.2500  -999.2500
 1251.0000    11.7965    87.0667  -999.2500  -999.2500
 1251.5000    11.7917    86.6798  -999.2500  -999.2500
 1252.0000    11.7870    86.2928  -999.2500  -999.2500
 1252.5000    11.7823    85.9058  -999.2500  -999.2500
 1253.0000    11.7774    85.5189  -999.2500  -999.2500
 1253.5000    11.7720    85.1319  -999.2500  -999.2500
 1254.0000    11.7723    84.7449  -999.2500  -999.2500
 1254.5000    11.8821    84.3580  -999.2500  -999.2500
 1255.0000    11.9945    83.9710  -999.2500  -999.2500
 1255.5000    12.1063    83.5841  -999.2500  -999.2500
 1256.0000    12.2179    83.1971  -999.2500  -999.2500
 1256.5000    12.3295    82.8102  -999.2500  -999.2500
 1257.0000    12.4409    82.4232  -999.2500  -999.2500
 1257.5000    12.5525    81.9063  -999.2500  -999.2500
 1258.0000    12.6884    80.5761  -999.2500  -999.2500
 1258.5000    12.9538    79.2459  -999.2500  -999.2500
 1259.0000    13.2204    77.9157  -999.2500  -999.2500
 1259.5000    13.4867    77.1563  -999.2500  -999.2500
 1260.0000    13.7528    77.2616  -999.2500  -999.2500
 1260.5000    14.0190    77.3669  -999.2500  -999.2500
 1261.0000    14.2853    77.4722  -999.2500  -999.2500
 1261.5000    14.5520    77.5775  -999.2500  -999.2500
 1262.0000    14.8168    77.6828  -999.2500  -999.2500
 1262.5000    14.9971    77.7881  -999.2500  -999.2500
 1263.0000    14.9448    77.8922  -999.2500  -999.2500
 1263.5000    14.8987    77.9988  -999.2500  -999.2500
 1264.0000    14.7564    78.1095  -999.2500  -999.2500
 1264.5000    14.5822    79.6355  -999.2500  -999.2500
 1265.0000    14.4075    81.2432  -999.2500  -999.2500
 1265.5000    14.2329    82.8549  -999.2500  -999.2500
 1266.0000    14.0583    84.4589  -999.2500  -999.2500
 1266.5000    13.8837    85.2309  -999.2500  -999.2500
 1267.0000    13.7091    85.4836  -999.2500  -999.2500
 1267.5000    13.5344    85.7363  -999.2500  -999.2500
 1268.0000    13.3595    85.9891  -999.2500  -999.2500
 1268.5000    13.1878    86.2418  -999.2500  -999.2500
 1269.0000    13.1001    86.4945  -999.2500  -999.2500
 1269.5000    13.0260    86.7473  -999.2500  -999.2500
 1270.0000    12.9517    87.0000  -999.2500  -999.2500
 1270.5000    12.8774    88.7102  -999.2500  -999.2500
 1271.0000    12.8031    90.9216  -999.2500  -999.2500
 1271.5000    12.7287    93.1331  -999.2500  -999.2500
 1272.0000    12.6544    93.9953  -999.2500  -999.2500
 1272.5000    12.5800    93.9372  -999.2500  -999.2500
 1273.0000    12.5057    93.8791  -999.2500  -999.2500
 1273.5000    12.4314    93.8210  -999.2500  -999.2500
 1274.0000    12.3570    93.7629  -999.2500  -999.2500
 1274.5000    12.2826    93.7048  -999.2500  -999.2500
 1275.0000    12.2073    93.6467  -999.2500  -999.2500
 1275.5000    12.1321    93.5886  -999.2500  -999.2500
 1276.0000    12.1949    93.5305  -999.2500  -999.2500
 1276.5000    12.2727    93.4724  -999.2500  -999.2500
 1277.0000    12.2368    93.4143  -999.2500  -999.2500
 1277.5000    12.1695    93.3562  -999.2500  -999.2500
 1278.0000    12.1016    93.2981  -999.2500  -999.2500
