~VERSION INFORMATION
 VERS.                2.0:   CWLS LOG ASCII STANDARD - VERSION 2.0
 WRAP.                 NO:   ONE LINE PER DEPTH STEP
~WELL INFORMATION
#MNEM.UNIT      DATA TYPE    INFORMATION
#----------   ------------   ------------------------------
 STRT.F            0.0000:   START DEPTH
 STOP.F          489.0000:   STOP DEPTH
 STEP.F            0.5000:   STEP LENGTH
 NULL.          -999.2500:   NO VALUE
 COMP.   FLUOR DANIEL INC:   COMPANY
 WELL. NAVAL PETROLEUM RES 3 SX-3 44 #1-3:   WELL
 FLD .             TEAPOT:   FIELD
 LOC .       S3 T38N R78W:   LOCATION
 CNTY.            NATRONA:   COUNTY
 STAT.            WYOMING:   STATE
 CTRY. UNITED STATES OF AMERICA:   COUNTRY
 SRVC.      Western Atlas:   SERVICE COMPANY
 DATE.        10-JUL-1995:   LOGDATE
 API .       490252273800:   API NUMBER
~CURVE INFORMATION
#MNEM.UNIT       API CODE    CURVE DESCRIPTION
#----------   ------------   ------------------------------
 DEPT.F                  :   
 RILD.OHMM   07 120 46 00:   INDUCTION LOG DEEP RESISTIVITY
 RILM.OHMM   07 120 44 00:   INDUCTION LOG MEDIUM RESISTIVITY
 GRR .GAPI   07 310 01 00:   GAMMA RAY FROM RES. LOG.
~PARAMETER INFORMATION
#MNEM.UNIT          VALUE    DESCRIPTION
#----------   ------------   ------------------------------
 PD  .                 GL:   PERMANENT DATUM
 EPD .F              5164:   ELEVATION PERMANENT DATUM
 LMF .                 KB:   LOG MEASURED FROM
 DAPD.F                10:   FEET ABOVE PERMANENT DATUM
 DMF .                 KB:   DRILLING MEASURED FROM
 EKB .F              5174:   KELLING BUSHING
 EDF .F              5173:   DRILLING FLOOR
 EGL .F              5164:   GROUND LEVEL
 DATE.            7-10-95:   RUN DATE
 RUN .                  1:   RUN NUMBER
 DD  .F               500:   DEPTH DRILLER
 DL  .F               500:   DEPTH LOGGER
 BLI .F               494:   BOTTOM LOG INTERVAL
 TLI .F                53:   TOP LOG INTERVAL
 CS  .IN            9.625:   CASING SIZE
 CBD .F                53:   CASING BOTTOM DRILLER
 CBL .F                53:   CASING BOTTOM LOGGER
 BS  .IN             8.75:   BIT SIZE
 BSD .F               500:   BIT SIZE AT DEPTH
 DFT .                AIR:   DRILLING FLUID TYPE
 BHT .F                92:   BOTTOM HOLE TEMPERATURE
 MRT .F                92:   MAXIMUM RECORDED TEMPERATURE
 LUN .            HL 6530:   LOGGING UNIT NUMBER
 LUL .             CASPER:   LOGGING UNIT LOCATION
 ENGI.          RASMUSEEN:   RECORDING ENGINEER
 WITN.             STRONG:   WITNESSED BY
 CLNT.            A2DTECH:   CLIENT CODE
 ORIG.       2", 5" PRINT:   ORIGIN OF DATA
 UWI .       490252273800:   UNIQUE WELL ID
 DICO. A2D Technologies, Inc.:   DIGITIZING COMPANY
~OTHER INFORMATION
~A    DEPT    RILD       RILM          GRR 
    0.0000  -999.2500  -999.2500     2.2088
    0.5000  -999.2500  -999.2500     2.7795
    1.0000  -999.2500  -999.2500     4.5208
    1.5000  -999.2500  -999.2500     4.5208
    2.0000  -999.2500  -999.2500     4.5208
    2.5000  -999.2500  -999.2500     4.5208
    3.0000  -999.2500  -999.2500  -999.2500
    3.5000  -999.2500  -999.2500  -999.2500
    4.0000  -999.2500  -999.2500  -999.2500
    4.5000  -999.2500  -999.2500  -999.2500
    5.0000  -999.2500  -999.2500  -999.2500
    5.5000  -999.2500  -999.2500  -999.2500
    6.0000  -999.2500  -999.2500  -999.2500
    6.5000  -999.2500  -999.2500  -999.2500
    7.0000  -999.2500  -999.2500  -999.2500
    7.5000  -999.2500  -999.2500  -999.2500
    8.0000  -999.2500  -999.2500  -999.2500
    8.5000  -999.2500  -999.2500     6.6300
    9.0000  -999.2500  -999.2500    17.8187
    9.5000  -999.2500  -999.2500    29.0343
   10.0000  -999.2500  -999.2500    40.3770
   10.5000  -999.2500  -999.2500    45.4821
   11.0000  -999.2500  -999.2500    50.0658
   11.5000  -999.2500  -999.2500    53.7619
   12.0000  -999.2500  -999.2500    55.3095
   12.5000  -999.2500  -999.2500    53.2190
   13.0000  -999.2500  -999.2500    51.1286
   13.5000  -999.2500  -999.2500    51.1874
   14.0000  -999.2500  -999.2500    54.9288
   14.5000  -999.2500  -999.2500    58.7213
   15.0000  -999.2500  -999.2500    61.8854
   15.5000  -999.2500  -999.2500    64.3218
   16.0000  -999.2500  -999.2500    65.1602
   16.5000  -999.2500  -999.2500    62.0573
   17.0000  -999.2500  -999.2500    53.6660
   17.5000  -999.2500  -999.2500    43.3549
   18.0000  -999.2500  -999.2500    47.0157
   18.5000  -999.2500  -999.2500    53.9817
   19.0000  -999.2500  -999.2500    60.0867
   19.5000  -999.2500  -999.2500    60.7717
   20.0000  -999.2500  -999.2500    59.8051
   20.5000  -999.2500  -999.2500    58.7150
   21.0000  -999.2500  -999.2500    56.2770
   21.5000  -999.2500  -999.2500    54.1408
   22.0000  -999.2500  -999.2500    52.0241
   22.5000  -999.2500  -999.2500    50.0132
   23.0000  -999.2500  -999.2500    49.3323
   23.5000  -999.2500  -999.2500    48.7807
   24.0000  -999.2500  -999.2500    48.7951
   24.5000  -999.2500  -999.2500    48.5766
   25.0000  -999.2500  -999.2500    47.4825
   25.5000  -999.2500  -999.2500    46.4236
   26.0000  -999.2500  -999.2500    46.5130
   26.5000  -999.2500  -999.2500    46.6883
   27.0000  -999.2500  -999.2500    46.4469
   27.5000  -999.2500  -999.2500    45.7425
   28.0000  -999.2500  -999.2500    45.0469
   28.5000  -999.2500  -999.2500    44.3393
   29.0000  -999.2500  -999.2500    42.9548
   29.5000  -999.2500  -999.2500    40.7783
   30.0000  -999.2500  -999.2500    40.6346
   30.5000  -999.2500  -999.2500    41.3730
   31.0000  -999.2500  -999.2500    40.7726
   31.5000  -999.2500  -999.2500    38.2336
   32.0000  -999.2500  -999.2500    37.1070
   32.5000  -999.2500  -999.2500    39.4995
   33.0000  -999.2500  -999.2500    41.8368
   33.5000  -999.2500  -999.2500    43.7468
   34.0000  -999.2500  -999.2500    45.9641
   34.5000  -999.2500  -999.2500    48.8370
   35.0000  -999.2500  -999.2500    51.7808
   35.5000  -999.2500  -999.2500    52.8088
   36.0000  -999.2500  -999.2500    53.4946
   36.5000  -999.2500  -999.2500    54.8192
   37.0000  -999.2500  -999.2500    56.1799
   37.5000  -999.2500  -999.2500    56.3098
   38.0000  -999.2500  -999.2500    52.1974
   38.5000  -999.2500  -999.2500    49.8965
   39.0000  -999.2500  -999.2500    50.0001
   39.5000  -999.2500  -999.2500    51.3387
   40.0000  -999.2500  -999.2500    52.7736
   40.5000  -999.2500  -999.2500    53.1172
   41.0000  -999.2500  -999.2500    52.9965
   41.5000  -999.2500  -999.2500    52.8481
   42.0000  -999.2500  -999.2500    53.7179
   42.5000  -999.2500  -999.2500    55.1151
   43.0000  -999.2500  -999.2500    56.5467
   43.5000  -999.2500  -999.2500    56.4131
   44.0000  -999.2500  -999.2500    54.6605
   44.5000  -999.2500  -999.2500    52.8927
   45.0000  -999.2500  -999.2500    54.0090
   45.5000  -999.2500  -999.2500    58.8763
   46.0000  -999.2500  -999.2500    61.2057
   46.5000  -999.2500  -999.2500    60.6288
   47.0000  -999.2500  -999.2500    60.0194
   47.5000  -999.2500  -999.2500    60.6210
   48.0000  -999.2500  -999.2500    63.5940
   48.5000  -999.2500  -999.2500    68.3625
   49.0000  -999.2500  -999.2500    69.1418
   49.5000  -999.2500  -999.2500    64.3916
   50.0000  -999.2500  -999.2500    60.4846
   50.5000  -999.2500  -999.2500    63.8920
   51.0000  -999.2500  -999.2500    67.4457
   51.5000  -999.2500  -999.2500    71.6861
   52.0000  -999.2500  -999.2500    85.4322
   52.5000  -999.2500   198.1627   104.5569
   53.0000     5.3858     4.5051   116.2093
   53.5000     2.6742     2.7372   119.4269
   54.0000     2.3220     2.9010   116.0592
   54.5000     2.2851     4.0150   116.1128
   55.0000     4.8693     6.1958   116.6567
   55.5000     7.7352     9.6917   113.8737
   56.0000    10.5862    11.9835   109.4022
   56.5000     8.0506    11.7644   107.5797
   57.0000     6.4487    10.1139   108.3456
   57.5000     6.0693     7.0165   109.0433
   58.0000     5.6746     7.0928   109.3794
   58.5000     5.3196     7.4183   108.8012
   59.0000     5.2707     7.9109   109.0489
   59.5000     5.7127     7.0890   110.3580
   60.0000     6.8314     6.4957   111.7547
   60.5000     6.8308     6.1429   111.8030
   61.0000     6.4563     6.0006   111.1350
   61.5000     6.1433     5.8323   110.7026
   62.0000     5.8464     5.8848   110.9984
   62.5000     5.7245     6.0248   111.2782
   63.0000     5.7932     6.1107   111.4133
   63.5000     5.8763     6.2775   110.2917
   64.0000     5.9609     6.3801   107.9161
   64.5000     6.0465     6.4383   109.4876
   65.0000     6.1334     6.4573   112.9650
   65.5000     6.2215     6.4573   114.6518
   66.0000     6.2809     6.4573   113.7173
   66.5000     6.2809     6.4572   112.6976
   67.0000     6.2809     6.4579   113.1920
   67.5000     6.2809     6.4595   115.1306
   68.0000     6.3499     6.4546   118.9736
   68.5000     6.3991     6.5705   121.0187
   69.0000     6.4503     6.6212   119.5405
   69.5000     6.5011     6.6733   117.7878
   70.0000     6.5523     6.7259   114.7895
   70.5000     6.6039     6.7789   111.6674
   71.0000     6.6559     6.8325   111.0802
   71.5000     6.7001     6.8887   112.6715
   72.0000     6.7001     6.8880   114.7056
   72.5000     6.7001     6.8882   113.3104
   73.0000     6.7001     6.8882   112.6835
   73.5000     6.6999     6.8881   112.8619
   74.0000     6.6986     6.8882   113.0266
   74.5000     6.7513     6.9288   113.1878
   75.0000     6.8111     6.9902   113.3579
   75.5000     6.8715     7.0522   113.9472
   76.0000     6.9324     7.1147   115.3173
   76.5000     6.9940     7.1778   114.5979
   77.0000     7.0557     7.2414   114.4501
   77.5000     7.0905     7.2803   116.2259
   78.0000     7.1361     7.3272   118.0704
   78.5000     7.1821     7.3744   116.1741
   79.0000     7.2283     7.4220   114.7837
   79.5000     7.2803     7.4701   115.5219
   80.0000     7.2587     7.4847   117.5905
   80.5000     7.2264     7.4358   118.9379
   81.0000     7.1946     7.4030   119.5102
   81.5000     7.1629     7.3703   120.7522
   82.0000     7.1314     7.3378   123.4433
   82.5000     7.1000     7.3051   120.8418
   83.0000     7.0815     7.2795   116.9163
   83.5000     7.2117     7.3924   114.5802
   84.0000     7.3205     7.5039   117.2007
   84.5000     7.4309     7.6171   119.7640
   85.0000     7.5430     7.7321   116.5486
   85.5000     7.5972     7.7828   112.3701
   86.0000     7.7359     7.9249   109.1910
   86.5000     7.8772     8.0697   106.7172
   87.0000     7.9157     8.1364   107.9137
   87.5000     7.9253     8.1458   111.3377
   88.0000     7.9343     8.1551   114.7763
   88.5000     7.9433     8.1645   118.0593
   89.0000     7.9525     8.1739   119.5293
   89.5000     7.9617     8.1832   117.9577
   90.0000     7.9708     8.1926   115.8960
   90.5000     7.9801     8.2020   115.3919
