~VERSION INFORMATION
 VERS.                2.0:   CWLS LOG ASCII STANDARD - VERSION 2.0
 WRAP.                 NO:   ONE LINE PER DEPTH STEP
~WELL INFORMATION
#MNEM.UNIT      DATA TYPE    INFORMATION
#----------   ------------   ------------------------------
 STRT.F            7.0000:   START DEPTH
 STOP.F          587.0000:   STOP DEPTH
 STEP.F            0.5000:   STEP LENGTH
 NULL.          -999.2500:   NO VALUE
 COMP. FENIX & SCISSON INC:   COMPANY
 WELL.        NPR-3 #63-3:   WELL
 FLD .             TEAPOT:   FIELD
 LOC .       S3 T38N R78W:   LOCATION
 CNTY.            NATRONA:   COUNTY
 STAT.            WYOMING:   STATE
 CTRY. UNITED STATES OF AMERICA:   COUNTRY
 SRVC.     Wedge Wireline:   SERVICE COMPANY
 DATE.        06-JAN-1978:   LOGDATE
 API .       490251044700:   API NUMBER
~CURVE INFORMATION
#MNEM.UNIT       API CODE    CURVE DESCRIPTION
#----------   ------------   ------------------------------
 DEPT.F                  :   
 ILD .OHMM   05 120 46 00:   INDUCTION LOG DEEP
 SN  .OHMM   05 040 16 00:   SHORT NORMAL
 SPR .MV     05 010 01 00:   SPONTANEOUS POTENTIAL FROM RES.
 CALD.IN     45 280 60 00:   CALIPER FROM DENSITY LOG
 CORR.G/C3   45 356 01 00:   DENSITY CORRECTION
 DPHI.DEC    45 890 12 00:   DENSITY POROSITY SANDSTONE
 GRD .GAPI   45 310 01 00:   GAMMA RAY FROM DENSITY LOG
 RHOB.G/C3   45 350 01 00:   BULK DENSITY
~PARAMETER INFORMATION
#MNEM.UNIT          VALUE    DESCRIPTION
#----------   ------------   ------------------------------
 PD  .                 GL:   PERMANENT DATUM
 EPD .F              5177:   ELEVATION PERMANENT DATUM
 LMF .                 KB:   LOG MEASURED FROM
 DMF .                 KB:   DRILLING MEASURED FROM
 EKB .F              5181:   KELLING BUSHING
 EGL .F              5177:   GROUND LEVEL
 DATE.        06-JAN-1978:   RUN DATE
 RUN .                  1:   RUN NUMBER
 DD  .F               590:   DEPTH DRILLER
 DL  .F               581:   DEPTH LOGGER
 BLI .F               576:   BOTTOM LOG INTERVAL
 TLI .F                20:   TOP LOG INTERVAL
 CS  .IN            9.625:   CASING SIZE
 CBD .F                19:   CASING BOTTOM DRILLER
 CBL .F                19:   CASING BOTTOM LOGGER
 BS  .IN            7.875:   BIT SIZE
 BSD .F               590:   BIT SIZE AT DEPTH
 DFT .                KCL:   DRILLING FLUID TYPE
 DFD .                8.5:   DRILLING FLUID DENSITY
 DFV .                 34:   DRILLING FLUID VISCOSITY
 DFPH.                9.0:   DRILLING FLUID PH
 DFL .                7.8:   DRILLING FLUID LOSS
 MSS .           FLOWLINE:   MUD SAMPLE SOURCE
 RMS .OHMM           0.22:   RESISTIVITY MUD SAMPLE
 MST .F                63:   MUD SAMPLE TEMPERATURE
 RMF .OHMM           0.24:   RESISTIVITY MUD FILTRATE SAMPLE
 MFST.F                63:   MUD FILTRATE SAMPLE TEMPERATURE
 RMC .OHMM           0.48:   RESISTIVITY MUD CAKE
 MCST.F                64:   MUD CAKE SAMPLE TEMPERATURE
 MFSS.               MEAS:   MUD FILTRATE SAMPLE SOURCE
 MCSS.               MEAS:   MUD CAKE SAMPLE SOURCE
 RMB .OHMM           0.19:   RESISTIVITY MUD AT BHT
 BHT .F                71:   BOTTOM HOLE TEMPERATURE
 TCS .HRS               3:   TIME CURCULATED STOPPED
 MRT .F                71:   MAXIMUM RECORDED TEMPERATURE
 LUN .               2958:   LOGGING UNIT NUMBER
 LUL .             CASPER:   LOGGING UNIT LOCATION
 ENGI.             MILLER:   RECORDING ENGINEER
 WITN.         HARRINGTON:   WITNESSED BY
 CLNT.            A2DTECH:   CLIENT CODE
 ORIG.           5" PRINT:   ORIGIN OF DATA
 UWI .       490251044700:   UNIQUE WELL ID
 DICO. A2D Technologies, Inc.:   DIGITIZING COMPANY
~OTHER INFORMATION
~A    DEPT     ILD         SN        SPR       CALD       CORR       DPHI         GRD      RHOB   
# ...
  290.5000     4.3006     3.9576   -52.0198     8.4550    -0.3978     0.1408   109.0293     2.4046
  291.0000     4.9380     4.2976   -51.5698     8.4554    -0.3766     0.1305   107.8658     2.4432
  291.5000     5.6006     4.6692   -51.2403     8.4559    -0.3644     0.1236   105.8212     2.4553
  292.0000     6.6012     5.2507   -50.8116     8.4564    -0.3583     0.1172   103.4635     2.4653
  292.5000     7.4758     5.8239   -50.5070     8.4567    -0.3537     0.1105   101.1475     2.4705
  293.0000     8.0120     6.3274   -50.4930     8.4572    -0.3506     0.1133   101.4524     2.4668
  293.5000     8.4691     6.6951   -50.4791     8.4576    -0.3506     0.1150   104.4005     2.4638
  294.0000     8.8296     6.9722   -50.3198     8.4433    -0.3521     0.1159   107.9360     2.4623
  294.5000     9.0914     7.0708   -50.4512     8.4292    -0.3520     0.1168   106.1851     2.4639
  295.0000     9.4669     7.1216   -50.4337     8.4297    -0.3535     0.1180    99.1507     2.4647
  295.5000     9.6015     7.1727   -50.4198     8.4301    -0.3534     0.1184    96.5187     2.4648
  296.0000     9.6711     7.2741   -50.4058     8.4158    -0.3534     0.1195    95.3524     2.4641
  296.5000     9.7412     7.2761   -50.3919     8.4163    -0.3533     0.1207   100.0654     2.4626
  297.0000     9.6110     7.2784   -50.3779     8.4168    -0.3518     0.1222   106.8314     2.4612
  297.5000     9.3442     7.2304   -50.3634     8.4025    -0.3502     0.1249   114.9680     2.4557
  298.0000     8.8545     7.1822   -50.4953     8.4030    -0.3471     0.1282   123.8905     2.4454
  298.5000     8.1541     7.0862   -50.4779     8.4034    -0.3410     0.1320   125.0736     2.4349
  299.0000     7.3050     6.9911   -50.4640     8.4038    -0.3349     0.1421   117.4518     2.4206
  299.5000     6.6351     6.8425   -50.5954     8.4043    -0.3364     0.1666   108.3588     2.4018
  300.0000     6.1951     6.7027   -50.5814     8.4048    -0.4061     0.1817    95.7416     2.3814
  300.5000     5.8651     6.5790   -50.4081     8.4057    -0.4257     0.1787    96.9285     2.3774
  301.0000     5.6215     6.4030   -50.2660     8.4066    -0.3969     0.1509    99.9059     2.3762
  301.5000     5.4393     6.1483   -50.2550     8.4074    -0.3665     0.1311   104.5896     2.4042
  302.0000     5.4407     6.0677   -50.2440     8.4083    -0.3513     0.1254   109.2998     2.4382
  302.5000     5.5943     6.0722   -50.0654     8.4091    -0.3543     0.1223   112.8352     2.4526
  303.0000     6.0366     6.1178   -49.9285     8.4100    -0.3669     0.1199   114.0212     2.4595
  303.5000     6.7747     6.2493   -49.9175     8.4110    -0.3785     0.1169   114.0324     2.4648
  304.0000     7.7416     6.4276   -49.7612     8.4119    -0.3662     0.1128   111.5771     2.4709
  304.5000     8.3537     6.6617   -49.6047     8.4126    -0.3540     0.1090   108.7714     2.4777
  305.0000     8.8908     6.8952   -49.5911     8.4135    -0.3478     0.1059   105.2584     2.4853
  305.5000     9.2687     7.0433   -49.4348     8.3997    -0.3601     0.1044   100.8643     2.4921
  306.0000     9.6633     7.2444   -49.2784     8.4152    -0.3717     0.1041    98.2324     2.4893
  306.5000     9.9361     7.4512   -49.2674     8.4163    -0.3685     0.1050    97.6562     2.4852
  307.0000    10.2166     7.6686   -49.1083     8.4171    -0.3624     0.1059    98.8450     2.4816
  307.5000    10.3611     7.8297   -48.9520     8.4180    -0.3743     0.1066   102.3805     2.4794
  308.0000    10.5077     7.9430   -48.9410     8.4188    -0.3468     0.1075   104.4475     2.4770
  308.5000    10.5839     8.0580   -48.9300     8.4196    -0.3482     0.1083   105.9272     2.4749
  309.0000    10.6599     8.0627   -48.9186     8.4205    -0.3587     0.1098   106.2321     2.4690
  309.5000    10.6627     8.0676   -48.9052     8.4216    -0.3616     0.1135   106.1997     2.4652
  310.0000    10.5922     7.9630   -48.8942     8.4371    -0.3372     0.1167   105.0826     2.4826
  310.5000    10.5112     7.9677   -48.8833     8.4378    -0.3187     0.1176   103.6254     2.4948
  311.0000    10.2387     7.8622   -48.8721     8.4427    -0.3127     0.1173   101.8746     2.4908
  311.5000     9.9634     7.7602   -48.8585     8.4543    -0.3186     0.1158   105.9974     2.4856
  312.0000     9.6950     7.6034   -48.8475     8.4557    -0.3245     0.1133   111.3343     2.4775
  312.5000     9.4338     7.4549   -48.9846     8.4707    -0.3349     0.1142   114.8332     2.4685
  313.0000     9.1087     7.2566   -49.1163     8.4862    -0.3486     0.1184   115.4318     2.4587
  313.5000     8.6899     7.0635   -49.1025     8.4871    -0.3619     0.1239   115.4431     2.4557
  314.0000     8.3399     6.8765   -49.3849     8.4880    -0.3496     0.1284   106.3501     2.4534
  314.5000     8.1152     6.6920   -49.6619     8.4889    -0.3419     0.1314   103.7181     2.4505
  315.0000     7.8966     6.5166   -49.6509     8.4899    -0.3342     0.1327   103.1420     2.4475
  315.5000     7.8991     6.4302   -49.9306     8.4907    -0.3280     0.1362   102.8623     2.4430
  316.0000     7.9012     6.3460   -50.0622     8.4916    -0.3611     0.1380   103.1672     2.4385
  316.5000     8.0684     6.3946   -50.0512     8.4924    -0.3655     0.1341   108.4648     2.4325
  317.0000     8.3536     6.6245   -50.0402     8.4933    -0.3532     0.1214   111.4129     2.4414
  317.5000     8.7097     7.0030   -50.0291     8.4941    -0.3334     0.1129   112.6480     2.4658
  318.0000     9.2055     7.3028   -49.8701     8.4952    -0.3257     0.1085   114.0814     2.4780
  318.5000     9.5967     7.5113   -49.5684     8.4960    -0.3353     0.1065   114.3863     2.4878
  319.0000     9.9359     7.7257   -49.4121     8.4673    -0.3526     0.1062   113.8073     2.4886
  319.5000    10.2871     7.8377   -48.9650     8.4684    -0.3600     0.1065   115.5835     2.4864
  320.0000    10.6507     8.0071   -48.3699     8.4546    -0.3569     0.1074   119.7063     2.4841
  320.5000    10.8020     8.1791   -47.7775     8.4554    -0.3492     0.1086   121.4825     2.4812
  321.0000    10.8796     8.2975   -47.3305     8.4416    -0.3490     0.1095   120.9063     2.4782
  321.5000    10.8825     8.3598   -47.1741     8.4426    -0.3640     0.1098   120.0337     2.4772
  322.0000    10.8105     8.4226   -47.1628     8.4286    -0.3729     0.1098   125.6278     2.4760
  322.5000    10.7391     8.5457   -47.1494     8.4148    -0.3758     0.1094   127.4011     2.4753
  323.0000    10.6681     8.5508   -47.1384     8.4158    -0.3741     0.1091   128.9104     2.4753
  323.5000    10.5976     8.5558   -46.9820     8.4167    -0.3725     0.1086   129.7731     2.4761
  324.0000    10.6010     8.5008   -46.9709     8.4029    -0.3723     0.1081   128.9061     2.4769
  324.5000    10.6038     8.5071   -47.1054     8.4062    -0.3721     0.1075   127.4489     2.4784
  325.0000    10.4614     8.4537   -47.3851     8.4194    -0.3735     0.1070   124.5232     2.4807
  325.5000    10.4648     8.3430   -47.6648     8.4056    -0.3598     0.1060   123.0611     2.4839
  326.0000    10.3949     8.2337   -48.0872     8.4211    -0.3324     0.1051   122.1962     2.4869
  326.5000    10.3269     8.2398   -48.0734     8.4073    -0.3519     0.1042   122.5039     2.4892
  327.0000    10.3296     8.2446   -48.0624     8.4083    -0.3608     0.1032   122.5152     2.4910
  327.5000    10.3330     8.2497   -48.0514     8.4092    -0.3501     0.1026   121.6453     2.4930
  328.0000    10.3357     8.2556   -48.0404     8.4100    -0.3378     0.1017   119.3071     2.4931
  328.5000    10.4099     8.2605   -48.0291     8.4109    -0.3316     0.1014   118.1436     2.4939
  329.0000    10.4847     8.2074   -47.8703     8.4117    -0.3254     0.1011   117.5674     2.4954
  329.5000    10.6331     8.1570   -47.8593     8.4274    -0.3222     0.1008   119.6373     2.4954
  330.0000    10.6365     8.1059   -47.8483     8.4283    -0.3190     0.1014   121.7043     2.4940
  330.5000    10.6393     8.0550   -47.9826     8.4291    -0.3250     0.1026   120.5404     2.4895
