~VERSION INFORMATION
 VERS.                2.0:   CWLS LOG ASCII STANDARD - VERSION 2.0
 WRAP.                 NO:   ONE LINE PER DEPTH STEP
~WELL INFORMATION
#MNEM.UNIT      DATA TYPE    INFORMATION
#----------   ------------   ------------------------------
 STRT.F           29.0000:   START DEPTH
 STOP.F          500.0000:   STOP DEPTH
 STEP.F            0.5000:   STEP LENGTH
 NULL.          -999.2500:   NO VALUE
 COMP.    FENIX & SCISSON:   COMPANY
 WELL.        NPR #48-S-3:   WELL
 FLD .             TEAPOT:   FIELD
 LOC .       S3 T38N R78W:   LOCATION
 CNTY.            NATRONA:   COUNTY
 STAT.            WYOMING:   STATE
 CTRY. UNITED STATES OF AMERICA:   COUNTRY
 SRVC.              Welex:   SERVICE COMPANY
 DATE.        24-APR-1977:   LOGDATE
 API .       490251034900:   API NUMBER
~CURVE INFORMATION
#MNEM.UNIT       API CODE    CURVE DESCRIPTION
#----------   ------------   ------------------------------
 DEPT.F                  :   
 SPR .MV     07 010 01 00:   SPONTANEOUS POTENTIAL
 ILD .OHMM   07 120 46 00:   INDUCTION LOG DEEP
 ILM .OHMM   07 120 44 00:   INDUCTION LOG MEDIUM
 SGRD.OHMM   07 221 05 00:   SHALLOW SHORT GUARD RESISTIVITY
 GRD .GAPI   45 310 01 00:   GAMMA RAY FROM DENSITY LOG
 CALD.IN     45 280 60 00:   CALIPER FROM DENSITY LOG
 CORR.G/C3   45 356 01 00:   DENSITY CORRECTION
 RHOB.G/C3   45 350 01 00:   BULK DENSITY
 DPHI.DEC    45 890 12 00:   DENSITY POROSITY SANDSTONE
~PARAMETER INFORMATION
#MNEM.UNIT          VALUE    DESCRIPTION
#----------   ------------   ------------------------------
 PD  .                 GL:   PERMANENT DATUM
 EPD .F              5199:   ELEVATION PERMANENT DATUM
 LMF .                 GL:   LOG MEASURED FROM
 DMF .                 GL:   DRILLING MEASURED FROM
 EGL .F              5199:   GROUND LEVEL
 DATE.        24-APR-1977:   RUN DATE
 RUN .                  1:   RUN NUMBER
 DD  .F               500:   DEPTH DRILLER
 DL  .F               499:   DEPTH LOGGER
 BLI .F               497:   BOTTOM LOG INTERVAL
 TLI .F                30:   TOP LOG INTERVAL
 CS  .IN            8.625:   CASING SIZE
 BS  .IN               12:   BIT SIZE
 BSD .F               500:   BIT SIZE AT DEPTH
 DFT .             KCLMUD:   DRILLING FLUID TYPE
 DFD .                8.9:   DRILLING FLUID DENSITY
 TCS .HRS               1:   TIME CURCULATED STOPPED
 MRT .F                70:   MAXIMUM RECORDED TEMPERATURE
 ENGI.          T. JOYNER:   RECORDING ENGINEER
 WITN.            R. LYON:   WITNESSED BY
 CLNT.            A2DTECH:   CLIENT CODE
 ORIG.           5" PRINT:   ORIGIN OF DATA
 UWI .       490251034900:   UNIQUE WELL ID
 DICO. A2D Technologies, Inc.:   DIGITIZING COMPANY
~OTHER INFORMATION
~A   DEPT      SPR        ILD        ILM       SGRD        GRD         CALD      CORR        RHOB     DPHI   
# ...
  430.5000   -37.7039    10.3907    12.8056    17.3585   109.0201     7.7861    -0.0048     2.4479     0.1209
  431.0000   -37.8375    10.3276    12.6450    17.0158   109.9180     7.7922    -0.0050     2.4456     0.1214
  431.5000   -37.9741    10.1942    12.5700    16.6773   111.6769     7.7937    -0.0053     2.4403     0.1232
  432.0000   -38.1106    10.1323    12.4925    16.3456   110.3264     7.8236    -0.0054     2.4313     0.1262
  432.5000   -38.2472    10.0035    12.4184    16.1289   109.2758     7.8386    -0.0054     2.4133     0.1322
  433.0000   -38.2354     9.8062    12.1782    15.8105   108.0762     7.8386    -0.0055     2.4088     0.1394
  433.5000   -38.3749     9.4808    11.9368    15.6034   105.6843     7.8386    -0.0070     2.4147     0.1379
  434.0000   -38.5115     9.1662    11.6252    15.2930   106.7202     7.8386    -0.0071     2.4204     0.1337
  434.5000   -38.7934     8.8620    11.3190    15.0926   108.7993     7.8236    -0.0071     2.4308     0.1290
  435.0000   -38.9329     8.5679    11.0209    14.9957   112.2197     7.8236    -0.0071     2.4375     0.1260
  435.5000   -39.3633     8.1699    10.5103    15.0074   116.5342     7.8236    -0.0072     2.4430     0.1242
  436.0000   -39.7966     7.7366     9.9543    15.4372   121.1468     7.8087    -0.0072     2.4397     0.1254
  436.5000   -40.0815     7.1759     9.2983    15.3405   124.1207     7.8087    -0.0072     2.4277     0.1299
  437.0000   -40.3694     6.7485     8.3903    14.2273   120.5119     7.8087    -0.0073     2.4110     0.1380
  437.5000   -40.5059     6.2163     7.7297    13.1042   117.6601     7.8087    -0.0073     2.3939     0.1547
  438.0000   -40.7909     5.7260     7.1211    11.9042   118.5539     7.8087    -0.0074     2.3827     0.1631
  438.5000   -40.9274     5.5360     6.8857    10.3753   121.2195     7.7937    -0.0082     2.3738     0.1694
  439.0000   -40.7643     5.4268     6.7961     7.6619   123.3369     7.7937    -0.0082     2.3709     0.1694
  439.5000   -40.1590     5.3198     6.9951     6.7707   125.2669     7.7937    -0.0082     2.3769     0.1608
  440.0000   -39.7021     5.4358     7.5553     7.9408   126.8028     7.7937    -0.0083     2.3985     0.1494
  440.5000   -39.2452     5.6337     8.1602    12.1072   129.4337     7.7788    -0.0058     2.4275     0.1384
  441.0000   -38.7883     5.9597     8.8136    15.8582   125.7079     7.7788    -0.0035     2.4515     0.1289
  441.5000   -38.3313     6.3932     9.9226    15.9780   120.7899     7.7788    -0.0031     2.4763     0.1214
  442.0000   -38.0228     6.8614    10.7915    15.9879   112.5931     7.7937    -0.0031     2.4882     0.1151
  442.5000   -37.8626     7.4080    11.3377    15.9978   110.5067     7.7937    -0.0031     2.4852     0.1122
  443.0000   -37.7024     7.8377    11.7479    16.0077   111.5499     7.8236    -0.0031     2.4792     0.1104
  443.5000   -37.5423     8.2922    12.0890    16.0177   113.3383     7.8236    -0.0031     2.4739     0.1095
  444.0000   -37.3821     8.8341    12.4401    16.0276   112.1460     7.8236    -0.0031     2.4731     0.1089
  444.5000   -37.0735     9.3464    12.6255    16.0375   109.6125     7.8236    -0.0039     2.4731     0.1077
  445.0000   -36.9134     9.8089    12.9026    16.0475   110.3577     7.8087    -0.0039     2.4738     0.1068
  445.5000   -36.7532    10.0936    13.2773    16.3935   112.1460     7.8087    -0.0039     2.4737     0.1054
  446.0000   -36.5930    10.3738    13.6629    17.0975   115.1561     7.8087    -0.0039     2.4797     0.1042
  446.5000   -36.4328    10.6000    13.9628    17.7090   120.0926     7.8087    -0.0039     2.4834     0.1021
  447.0000   -36.2726    10.7565    14.1709    18.3424   119.4486     7.8087    -0.0047     2.4849     0.1018
  447.5000   -36.1125    10.9910    14.3821    18.7379   116.6170     7.7937    -0.0047     2.4826     0.1018
  448.0000   -36.1007    11.0764    14.4959    18.7495   113.8849     7.7937    -0.0047     2.4787     0.1018
  448.5000   -36.0888    11.3179    14.8141    18.6291   110.3577     7.7937    -0.0048     2.4765     0.1021
  449.0000   -36.0770    11.4850    14.9313    19.2984   107.0790     7.7937    -0.0040     2.4787     0.1022
  449.5000   -36.0652    11.6546    15.0495    19.7115   106.3338     7.7937    -0.0033     2.4824     0.1013
  450.0000   -36.0534    11.7682    15.2202    19.5880   107.3008     7.7949    -0.0011     2.4876     0.0992
  450.5000   -36.0384    12.0001    15.2858    20.0130   108.2432     7.8025    -0.0011     2.4914     0.0971
  451.0000   -36.0255    12.0104    15.0846    20.3035   108.8780     7.8102    -0.0011     2.4921     0.0968
  451.5000   -36.0126    12.1042    14.9977    20.7409   108.7326     7.8178    -0.0011     2.4913     0.0971
  452.0000   -35.9998    12.2834    15.0109    20.8940   109.1856     7.8236    -0.0011     2.4882     0.0980
  452.5000   -35.9869    12.3793    15.0238    20.7627   109.9355     7.7937    -0.0011     2.4867     0.0987
  453.0000   -35.9740    12.4760    15.0368    20.4934   111.0035     7.7937    -0.0004     2.4859     0.0999
  453.5000   -36.1127    12.5734    15.0498    19.9471   112.6287     7.7937     0.0003     2.4896     0.0984
  454.0000   -36.2482    12.5901    15.0803    19.6849   113.9747     7.7937     0.0011     2.4971     0.0933
  454.5000   -36.3837    12.6826    15.3057    20.1095   113.2343     7.7937     0.0011     2.5015     0.0909
  455.0000   -36.5160    12.6935    15.5147    21.4116   110.5565     7.7937     0.0011     2.5037     0.0895
  455.5000   -36.5031    12.7045    15.7443    21.1306   108.8988     7.7937     0.0010     2.5059     0.0892
  456.0000   -36.6418    12.7155    15.9773    21.2898   106.6924     7.7937     0.0010     2.5059     0.0907
  456.5000   -36.6257    12.7262    15.6627    22.2036   104.6107     7.7937     0.0010     2.5051     0.0916
  457.0000   -36.6129    12.6494    15.0391    23.1632   102.6780     7.7937     0.0010     2.5028     0.0910
  457.5000   -36.4516    12.5731    14.2420    21.7746   100.8944     7.7937     0.0010     2.5020     0.0907
  458.0000   -36.2904    12.4972    13.8654    20.1943    99.1108     7.7937     0.0017     2.4990     0.0922
  458.5000   -36.2775    12.3362    13.8773    19.2530    98.8174     7.7937     0.0017     2.4945     0.0967
  459.0000   -36.1163    12.2495    13.9857    19.1321   101.9530     7.7937     0.0024     2.4877     0.0994
  459.5000   -36.1034    12.1878    14.1926    19.4183   104.6403     7.7937     0.0032     2.4802     0.1042
  460.0000   -35.9421    12.0308    14.2048    19.8396   106.7315     7.7937     0.0024     2.4689     0.1109
  460.5000   -35.7808    11.9582    14.0188    19.9776   109.4188     7.7872     0.0024     2.4666     0.1126
  461.0000   -35.7678    11.8860    13.1871    19.8350   109.8707     7.7807     0.0016     2.4673     0.1129
  461.5000   -35.7548    11.7992    12.5721    19.5720   108.0882     7.7742     0.0016     2.4725     0.1111
  462.0000   -35.7419    11.5817    12.1580    19.2012   106.4536     7.7677     0.0008     2.4724     0.1105
  462.5000   -35.7294    11.4350    11.9160    18.6658   105.2661     7.7600     0.0008     2.4657     0.1120
  463.0000   -36.1616    11.2853    11.7625    18.3173   105.1217     7.7744     0.0008     2.4649     0.1129
  463.5000   -36.2971    11.0655    11.6109    18.3310   105.7228     7.7586     0.0008     2.4716     0.1130
  464.0000   -36.4326    10.8477    11.4638    17.8424   106.6228     7.7578     0.0015     2.4806     0.1073
  464.5000   -36.4165    10.7056    11.3921    17.0108   107.5217     7.7420     0.0015     2.4905     0.1003
  465.0000   -36.4036    10.4248    11.3233    16.5574   109.3149     7.7264     0.0023     2.4962     0.0963
  465.5000   -36.3908    10.3597    11.1798    16.9141   110.9589     7.7257     0.0030     2.4992     0.0927
  466.0000   -36.5295    10.1557    11.1100    17.2785   112.1692     7.7250     0.0037     2.5022     0.0903
  466.5000   -36.8133     9.9580    10.9692    17.4060   113.8012     7.7241     0.0045     2.5066     0.0870
