~VERSION INFORMATION
 VERS.                2.0:   CWLS LOG ASCII STANDARD - VERSION 2.0
 WRAP.                 NO:   ONE LINE PER DEPTH STEP
~WELL INFORMATION
#MNEM.UNIT      DATA TYPE    INFORMATION
#----------   ------------   ------------------------------
 STRT.F           38.0000:   START DEPTH
 STOP.F         1202.0000:   STOP DEPTH
 STEP.F            0.5000:   STEP LENGTH
 NULL.          -999.2500:   NO VALUE
 COMP.       INTEX OIL CO:   COMPANY
 WELL.     72 S 14 #72-14:   WELL
 FLD .            WILDCAT:   FIELD
 LOC .      S14 T38N R78W:   LOCATION
 CNTY.            NATRONA:   COUNTY
 STAT.            WYOMING:   STATE
 CTRY. UNITED STATES OF AMERICA:   COUNTRY
 SRVC.       Schlumberger:   SERVICE COMPANY
 DATE.        26-AUG-1966:   LOGDATE
 API .       490250970800:   API NUMBER
~CURVE INFORMATION
#MNEM.UNIT       API CODE    CURVE DESCRIPTION
#----------   ------------   ------------------------------
 DEPT.F                  :   
 SPR .MV     05 010 01 00:   SPONTANEOUS POTENTIAL FROM RES.
 ASN .OHMM   05 041 16 00:   AMPLIFIED SHORT NORMAL 16"
 ILD .OHMM   05 120 46 00:   INDUCTION LOG DEEP
 CILD.MMHO   05 110 46 00:   CONDUCTIVITY INDUCTION LOG DEEP
 CORR.G/C3   45 356 01 00:   DENSITY CORRECTION
 GRD .GAPI   45 310 01 00:   GAMMA RAY FROM DENSITY LOG
 CALD.IN     45 280 60 00:   CALIPER FROM DENSITY LOG
 DPHI.DEC    45 890 12 00:   DENSITY POROSITY SANDSTONE
 RHOB.G/C3   45 350 01 00:   BULK DENSITY
~PARAMETER INFORMATION
#MNEM.UNIT          VALUE    DESCRIPTION
#----------   ------------   ------------------------------
 PD  .                 GL:   PERMANENT DATUM
 EPD .F              5265:   ELEVATION PERMANENT DATUM
 LMF .                 KB:   LOG MEASURED FROM
 DAPD.F                 5:   FEET ABOVE PERMANENT DATUM
 DMF .                 KB:   DRILLING MEASURED FROM
 EKB .F              5270:   KELLING BUSHING
 DATE.        26-AUG-1966:   RUN DATE
 RUN .                  1:   RUN NUMBER
 DD  .F              1201:   DEPTH DRILLER
 DL  .F              1203:   DEPTH LOGGER
 BLI .F              1202:   BOTTOM LOG INTERVAL
 TLI .F                46:   TOP LOG INTERVAL
 CS  .IN            8.625:   CASING SIZE
 BS  .IN             6.75:   BIT SIZE
 BSD .F              1201:   BIT SIZE AT DEPTH
 DFT .     CHEM- GEL- OIL:   DRILLING FLUID TYPE
 DFD .                9.4:   DRILLING FLUID DENSITY
 MRT .F                94:   MAXIMUM RECORDED TEMPERATURE
 LUN .               3527:   LOGGING UNIT NUMBER
 LUL .             CASPER:   LOGGING UNIT LOCATION
 ENGI.             KNOBEL:   RECORDING ENGINEER
 WITN.                MAY:   WITNESSED BY
 CLNT.            A2DTECH:   CLIENT CODE
 ORIG.       2", 5" PRINT:   ORIGIN OF DATA
 UWI .       490250970800:   UNIQUE WELL ID
 DICO. A2D Technologies, Inc.:   DIGITIZING COMPANY
~OTHER INFORMATION
~A   DEPT      SPR        ASN        ILD       CILD       CORR        GRD       CALD       DPHI       RHOB   
# ...
 1096.5000   -24.3873    10.5261     8.6388   114.8131     0.0372    91.1156     7.0063     0.1143     2.4688
 1097.0000   -24.5393    10.5240     8.6381   114.8202     0.0272    90.6819     6.9924     0.1181     2.4538
 1097.5000   -24.8420    10.5969     8.6373   114.8274     0.0267    89.8011     6.9935     0.1142     2.4628
 1098.0000   -24.9940    10.6698     8.6366   114.8363     0.0331    88.4732     6.9945     0.1106     2.4748
 1098.5000   -25.2967    10.7427     8.6359   114.0909     0.0438    87.5891     6.9956     0.1094     2.4778
 1099.0000   -25.5997    10.8907     8.6350   113.3473     0.0381    87.6058     6.9966     0.1151     2.4659
 1099.5000   -25.9023    11.1133     8.7844   111.8547     0.0349    88.0663     6.9976     0.1223     2.4570
 1100.0000   -26.0736    11.3363     8.9341   110.3604     0.0543    92.5984     6.9966     0.1115     2.4929
 1100.5000   -26.2032    11.6400     9.1332   107.4193     0.0724    94.7982     6.9751     0.0989     2.5071
 1101.0000   -26.8042    11.9384     9.3860   102.1178     0.0649    90.5704     6.9535     0.1121     2.4720
 1101.5000   -26.9533    12.2483     9.9873    96.8699     0.0564    84.9973     6.9410     0.1214     2.4466
 1102.0000   -27.4033    12.8410    10.8138    90.8711     0.0521    80.7655     6.9419     0.1369     2.4339
 1102.5000   -28.9079    13.3672    11.5126    84.8724     0.0509    76.9809     6.9427     0.1596     2.4003
 1103.0000   -31.3161    14.0436    12.3170    80.1751     0.0460    72.9726     6.9434     0.1752     2.3599
 1103.5000   -33.7243    14.7200    12.7681    75.8797     0.0274    72.0941     6.8995     0.1889     2.3427
 1104.0000   -35.5300    15.4715    13.2193    71.3825     0.0095    75.9388     6.8851     0.1946     2.3353
 1104.5000   -36.7334    16.1505    13.5203    69.1375     0.0107    79.9216     6.8710     0.1883     2.3502
 1105.0000   -37.3393    16.7742    13.8964    66.8925     0.0207    82.8712     6.8568     0.1793     2.3712
 1105.5000   -36.9805    17.4258    14.0473    66.1472     0.0300    82.6594     6.8578     0.1715     2.3802
 1106.0000   -35.8250    17.6516    13.6728    66.9070     0.0371    81.7847     6.8434     0.1679     2.3765
 1106.5000   -36.1248    17.2771    13.3732    68.4159     0.0470    80.9061     6.8443     0.1871     2.3533
 1107.0000   -36.5751    16.9775    13.2236    69.9264     0.0259    79.3569     6.8451     0.1906     2.3444
 1107.5000   -37.0259    16.7529    13.0742    70.6844     0.0185    77.5842     6.8607     0.1837     2.3466
 1108.0000   -36.8734    16.5235    12.9999    71.4424     0.0194    77.3724     6.8764     0.1715     2.3676
 1108.5000   -36.4202    16.3791    12.9257    71.4497     0.0258    78.2861     6.8920     0.1682     2.3767
 1109.0000   -35.9478    16.3047    12.9264    72.2077     0.0238    81.6549     6.8928     0.1774     2.3691
 1109.5000   -35.5133    16.1555    12.8521    72.9657     0.0126    82.5647     6.8935     0.1798     2.3647
 1110.0000   -34.9094    16.0810    12.7777    73.7237     0.0125    82.1332     6.8943     0.1651     2.3909
 1110.5000   -34.7574    15.9317    12.6285    74.4819     0.0222    81.4782     6.8950     0.1537     2.4066
 1111.0000   -34.9069    15.7823    12.4790    75.2416     0.0329    81.2664     6.9107     0.1475     2.4120
 1111.5000   -35.0560    15.8581    12.3296    75.9996     0.0561    83.5214     6.8518     0.1564     2.4007
 1112.0000   -34.4518    16.0842    12.1802    77.5084     0.0611    85.3254     6.8226     0.1594     2.3999
 1112.5000   -33.6848    15.8597    12.1058    79.0171     0.0434    85.3410     6.8533     0.1561     2.4000
 1113.0000   -32.7919    15.4851    12.0315    79.7751     0.0313    83.7918     6.8988     0.1576     2.3955
 1113.5000   -32.1880    15.1104    11.8822    80.5332     0.0244    83.1329     6.9144     0.1630     2.3895
 1114.0000   -31.7348    15.0361    11.8077    82.0920     0.0202    83.3759     6.9301     0.1617     2.3868
 1114.5000   -31.7333    14.8866    11.7333    83.5525     0.0258    83.8387     6.9308     0.1737     2.3656
 1115.0000   -31.8828    14.6621    11.5841    85.0613     0.0264    84.0778     6.9315     0.1770     2.3681
 1115.5000   -31.1280    14.3627    11.4282    86.5700     0.0176    84.5405     6.9172     0.1680     2.3818
 1116.0000   -30.2170    14.2131    11.2102    87.3281     0.0157    84.7758     6.9181     0.1548     2.4042
 1116.5000   -29.3175    14.0637    11.0607    88.0861     0.0255    83.0070     6.9189     0.1509     2.4007
 1117.0000   -29.1658    14.0646    10.9115    89.5948     0.0371    82.1245     6.9196     0.1587     2.3957
 1117.5000   -30.0676    13.9152    10.7621    89.6021     0.0442    83.9324     6.9204     0.1470     2.4120
 1118.0000   -30.6685    13.7658    10.6877    91.1111     0.0498    85.7364     6.9211     0.1266     2.4439
 1118.5000   -30.9686    13.4664    10.6129    92.6214     0.0543    85.5246     6.9068     0.1236     2.4327
 1119.0000   -30.9668    13.2419    10.5270    94.1302     0.0658    89.1208     6.8928     0.1365     2.4285
 1119.5000   -30.6642    13.0172    10.3896    95.6390     0.0801    92.0426     6.8487     0.1437     2.4263
 1120.0000   -30.0402    12.7929    10.3152    97.1478     0.0555    90.2698     6.8049     0.1451     2.4183
 1120.5000   -29.4561    12.7183    10.2409    97.9058     0.0489    90.2854     6.7756     0.1421     2.4228
 1121.0000   -29.1534    12.5691    10.0915    98.6638     0.0472    89.6304     6.9554     0.1400     2.4280
 1121.5000   -28.8507    12.4196    10.0173   100.1727     0.0453    87.4106     6.9562     0.1388     2.4176
 1122.0000   -28.5481    12.2704     9.9429   100.1816     0.0442    84.0730     6.9271     0.1484     2.4124
 1122.5000   -28.2454    12.2711     9.9438   100.1889     0.0421    84.9828     6.9576     0.1403     2.4318
 1123.0000   -28.2440    12.1966     9.9446   100.1962     0.0400    89.2458     6.9733     0.1364     2.4333
 1123.5000   -28.0919    12.1975     9.9453    99.4509     0.0376    92.1675     6.9740     0.1367     2.4296
 1124.0000   -27.7889    12.1982     9.9460    98.7074     0.0337    93.0735     6.9599     0.1328     2.4431
 1124.5000   -27.4862    12.1989     9.9467    98.7165     0.0291    89.7398     6.9159     0.1193     2.4529
 1125.0000   -27.1836    12.1997    10.0225    97.9730     0.0264    81.4842     6.9016     0.1223     2.4499
 1125.5000   -27.0315    12.1253    10.0983    97.2295     0.0321    80.6017     6.9174     0.1402     2.4320
 1126.0000   -27.0300    12.1262    10.1743    97.9893     0.0422    85.0922     7.0076     0.1351     2.4410
 1126.5000   -27.6310    12.1269    10.0999    98.7473     0.0402    87.5668     6.9932     0.1294     2.4470
 1127.0000   -27.9377    12.1277    10.1007    98.7546     0.0302    88.7002     6.9942     0.1303     2.4163
 1127.5000   -28.2305    12.1284    10.0261    99.5126     0.0430    89.3864     6.9798     0.1489     2.4029
 1128.0000   -28.3796    12.2042     9.9520   100.2706     0.0456    85.8253     6.9808     0.1563     2.3992
 1128.5000   -28.5288    12.2051     9.9472   101.0286     0.0310    84.4957     6.9815     0.1515     2.4089
 1129.0000   -28.5270    12.2809     9.8783   101.7868     0.0286    86.0801     6.9823     0.1443     2.4254
 1129.5000   -28.5255    12.2816     9.8040   101.7957     0.0279    86.3193     6.9830     0.1362     2.4284
 1130.0000   -28.5240    12.2823     9.8049   102.5538     0.0273    85.4407     6.9837     0.1377     2.4254
 1130.5000   -28.6732    12.2080     9.6555   103.3118     0.0280    83.4444     6.9694     0.1422     2.4322
 1131.0000   -28.8223    12.1336     9.5811   104.0698     0.0288    83.2326     6.9852     0.1341     2.4322
 1131.5000   -28.9715    12.1257     9.5068   104.8278     0.0347    84.8130     6.9860     0.1314     2.4285
 1132.0000   -29.1206    11.9849     9.5075   105.5858     0.0423    82.5971     6.9867     0.1440     2.4248
 1132.5000   -29.1188    11.9106     9.4331   106.3438     0.0258    81.4949     6.9875     0.1410     2.4233
