~VERSION INFORMATION
 VERS.                2.0:   CWLS LOG ASCII STANDARD - VERSION 2.0
 WRAP.                 NO:   ONE LINE PER DEPTH STEP
~WELL INFORMATION
#MNEM.UNIT      DATA TYPE    INFORMATION
#----------   ------------   ------------------------------
 STRT.F           80.0000:   START DEPTH
 STOP.F         1011.0000:   STOP DEPTH
 STEP.F            0.5000:   STEP LENGTH
 NULL.          -999.2500:   NO VALUE
 COMP.          U.S. NAVY:   COMPANY
 WELL. RES 3 TEAPOT DOM #61S-11:   WELL
 FLD .             TEAPOT:   FIELD
 LOC .      S11 T38N R78W:   LOCATION
 CNTY.            NATRONA:   COUNTY
 STAT.            WYOMING:   STATE
 CTRY. UNITED STATES OF AMERICA:   COUNTRY
 SRVC.       Schlumberger:   SERVICE COMPANY
 DATE.        23-JUL-1964:   LOGDATE
 API .       490250637500:   API NUMBER
~CURVE INFORMATION
#MNEM.UNIT       API CODE    CURVE DESCRIPTION
#----------   ------------   ------------------------------
 DEPT.F                  :   
 CALS.IN     60 280 50 00:   CALIPER FROM SONIC LOG
 DT  .US/F   60 520 33 00:   INTERVAL TRANSIT TIME
 GR  .GAPI   30 310 01 00:   GAMMA RAY
 CILD.MMHO   05 110 46 00:   CONDUCTIVITY INDUCTION LOG DEEP
 ILD .OHMM   05 120 46 00:   INDUCTION LOG DEEP
 ASN .OHMM   05 041 16 00:   AMPLIFIED SHORT NORMAL 16"
 SPR .MV     05 010 01 00:   SPONTANEOUS POTENTIAL FROM RES.
~PARAMETER INFORMATION
#MNEM.UNIT          VALUE    DESCRIPTION
#----------   ------------   ------------------------------
 PD  .                 GL:   PERMANENT DATUM
 EPD .F              5199:   ELEVATION PERMANENT DATUM
 LMF .                 KB:   LOG MEASURED FROM
 DAPD.F                 5:   FEET ABOVE PERMANENT DATUM
 DMF .                 KB:   DRILLING MEASURED FROM
 EKB .F              5204:   KELLING BUSHING
 EGL .F              5199:   GROUND LEVEL
 DATE.          7-23-1964:   RUN DATE
 RUN .                  1:   RUN NUMBER
 DD  .F              1010:   DEPTH DRILLER
 DL  .F              1012:   DEPTH LOGGER
 BLI .F              1011:   BOTTOM LOG INTERVAL
 TLI .F                88:   TOP LOG INTERVAL
 CS  .IN            8.625:   CASING SIZE
 CBD .F                10:   CASING BOTTOM DRILLER
 BS  .IN             6.75:   BIT SIZE
 BSD .F              1010:   BIT SIZE AT DEPTH
 DFT .            GEL-OIL:   DRILLING FLUID TYPE
 DFD .                9.8:   DRILLING FLUID DENSITY
 DFV .                 54:   DRILLING FLUID VISCOSITY
 MSS .           FLOWLINE:   MUD SAMPLE SOURCE
 RMS .OHMM           1.47:   RESISTIVITY MUD SAMPLE
 MST .F                86:   MUD SAMPLE TEMPERATURE
 RMF .OHMM            .96:   RESISTIVITY MUD FILTRATE SAMPLE
 MFST.F                86:   MUD FILTRATE SAMPLE TEMPERATURE
 RMC .OHMM           2.10:   RESISTIVITY MUD CAKE
 MCST.F                86:   MUD CAKE SAMPLE TEMPERATURE
 MFSS.                 FP:   MUD FILTRATE SAMPLE SOURCE
 MCSS.                 FP:   MUD CAKE SAMPLE SOURCE
 TCS .HRS               2:   TIME CURCULATED STOPPED
 LUN .               4507:   LOGGING UNIT NUMBER
 LUL .              CSPR.:   LOGGING UNIT LOCATION
 ENGI.             DANNER:   RECORDING ENGINEER
 WITN.          JORGENSEN:   WITNESSED BY
 CLNT.            A2DTECH:   CLIENT CODE
 ORIG.      2" & 5" PRINT:   ORIGIN OF DATA
 UWI .       490250637500:   UNIQUE WELL ID
 DICO. A2D Technologies, Inc.:   DIGITIZING COMPANY
~OTHER INFORMATION
~A   DEPT     CALS         DT         GR        CILD         ILD        ASN      SPR   
# ...
  216.5000  -999.2500  -999.2500  -999.2500   173.0791     5.7838     6.5932   -38.5930
  217.0000  -999.2500  -999.2500  -999.2500   174.8149     5.7853     6.5689   -38.5922
  217.5000  -999.2500  -999.2500  -999.2500   175.5185     5.8603     6.6231   -38.7355
  218.0000  -999.2500  -999.2500  -999.2500   174.8840     5.9838     6.8290   -38.7349
  218.5000  -999.2500  -999.2500  -999.2500   172.3482     6.1346     6.9962   -38.7341
  219.0000  -999.2500  -999.2500  -999.2500   168.7827     6.3838     7.0574   -38.7334
  219.5000  -999.2500  -999.2500  -999.2500   165.4224     6.7488     7.0887   -38.7327
  220.0000  -999.2500  -999.2500  -999.2500   160.7412     7.0588     7.1147   -38.8762
  220.5000  -999.2500  -999.2500  -999.2500   156.1246     7.4258     7.1715   -38.8753
  221.0000  -999.2500  -999.2500  -999.2500   152.5626     7.7826     7.3136   -38.8746
  221.5000  -999.2500  -999.2500  -999.2500   147.5996     7.9978     7.4391   -38.8739
  222.0000  -999.2500  -999.2500  -999.2500   141.2443     8.1632     7.6053   -38.8732
  222.5000  -999.2500  -999.2500  -999.2500   136.7736     8.3016     7.8501   -38.8723
  223.0000  -999.2500  -999.2500  -999.2500   133.6888     8.4500     8.1066   -38.8718
  223.5000  -999.2500  -999.2500  -999.2500   129.2123     8.5393     8.2830   -38.8711
  224.0000  -999.2500  -999.2500  -999.2500   126.3378     8.6001     8.8230   -38.8702
  224.5000  -999.2500  -999.2500  -999.2500   124.4889     8.6750     8.8645   -38.8696
  225.0000  -999.2500  -999.2500  -999.2500   124.0741     8.6765     8.9988   -38.8689
  225.5000  -999.2500  -999.2500  -999.2500   124.7908     8.6780     9.2650   -38.8681
  226.0000  -999.2500  -999.2500  -999.2500   125.5998     8.6338     9.3585   -38.8674
  226.5000  -999.2500  -999.2500  -999.2500   127.9012     8.4890     9.4126   -38.8667
  227.0000  -999.2500  -999.2500  -999.2500   129.9105     8.0941     9.0747   -38.8659
  227.5000  -999.2500  -999.2500  -999.2500   133.5559     7.8018     8.5984   -38.8653
  228.0000  -999.2500  -999.2500  -999.2500   136.5632     7.6294     8.4378   -38.8645
  228.5000  -999.2500  -999.2500  -999.2500   139.5384     7.5070     8.3697   -38.8638
  229.0000  -999.2500  -999.2500  -999.2500   141.6707     7.2914     8.2796   -38.8631
  229.5000  -999.2500  -999.2500  -999.2500   143.7803     7.2621     8.1842   -38.8624
  230.0000  -999.2500  -999.2500  -999.2500   146.1729     7.1470     8.1059   -38.8616
  230.5000  -999.2500  -999.2500  -999.2500   148.2718     7.1487     8.0279   -38.8610
  231.0000  -999.2500  -999.2500  -999.2500   148.2518     7.1846     7.9184   -38.8602
  231.5000  -999.2500  -999.2500  -999.2500   147.3235     7.2364     7.8715   -38.7154
  232.0000  -999.2500  -999.2500  -999.2500   146.7249     7.3001     7.8718   -38.7147
  232.5000  -999.2500  -999.2500  -999.2500   145.5062     7.4136     7.8868   -38.7584
  233.0000  -999.2500  -999.2500  -999.2500   144.2271     7.4500     7.9165   -38.8573
  233.5000  -999.2500  -999.2500  -999.2500   143.6890     7.3780     7.9462   -38.8565
  234.0000  -999.2500  -999.2500  -999.2500   142.1888     7.3794     7.9517   -38.8559
  234.5000  -999.2500  -999.2500  -999.2500   142.1704     7.3614     7.9762   -38.8552
  235.0000  -999.2500  -999.2500  -999.2500   142.9630     7.3089     7.9765   -38.8543
  235.5000  -999.2500  -999.2500  -999.2500   143.6074     7.2636     7.9768   -38.8537
  236.0000  -999.2500  -999.2500  -999.2500   144.6914     7.1412     7.9770   -38.8415
  236.5000  -999.2500  -999.2500  -999.2500   145.9260     7.0191     7.9774   -38.7081
  237.0000  -999.2500  -999.2500  -999.2500   147.2430     6.8738     7.9222   -38.7075
  237.5000  -999.2500  -999.2500  -999.2500   148.3951     6.7739     7.7941   -38.7067
  238.0000  -999.2500  -999.2500  -999.2500   149.4259     6.6558     7.6842   -38.7060
  238.5000  -999.2500  -999.2500  -999.2500   150.1404     6.5840     7.5894   -38.7053
  239.0000  -999.2500  -999.2500  -999.2500   150.8550     6.5118     7.5326   -38.7046
  239.5000  -999.2500  -999.2500  -999.2500   151.1110     6.5132     7.4791   -38.7038
  240.0000  -999.2500  -999.2500  -999.2500   152.2972     6.5149     7.4569   -38.7032
  240.5000  -999.2500  -999.2500  -999.2500   152.2710     6.5162     7.4503   -38.7024
  241.0000  -999.2500  -999.2500  -999.2500   152.9926     6.5177     7.4653   -38.7017
  241.5000  -999.2500  -999.2500  -999.2500   153.7132     6.5928     7.4803   -38.7010
  242.0000  -999.2500  -999.2500  -999.2500   153.6870     6.5941     7.4991   -38.7003
  242.5000  -999.2500  -999.2500  -999.2500   153.2592     6.6691     7.5397   -38.6995
  243.0000  -999.2500  -999.2500  -999.2500   152.7210     6.7442     7.5786   -38.6989
  243.5000  -999.2500  -999.2500  -999.2500   152.1400     6.7894     7.5844   -38.6981
  244.0000  -999.2500  -999.2500  -999.2500   151.3778     6.9147     7.5553   -38.6974
  244.5000  -999.2500  -999.2500  -999.2500   150.3655     7.0427     7.4821   -38.6965
  245.0000  -999.2500  -999.2500  -999.2500   149.8272     7.1655     7.4235   -38.6960
  245.5000  -999.2500  -999.2500  -999.2500   149.0854     7.2908     7.4840   -38.6953
  246.0000  -999.2500  -999.2500  -999.2500   148.7507     7.3412     7.5859   -38.6944
  246.5000  -999.2500  -999.2500  -999.2500   147.4717     7.4164     7.6887   -38.6938
  247.0000  -999.2500  -999.2500  -999.2500   146.7976     7.4177     7.8433   -38.6931
  247.5000  -999.2500  -999.2500  -999.2500   146.0370     7.4927     7.9692   -38.6923
  248.0000  -999.2500  -999.2500  -999.2500   144.3752     7.4208     7.9841   -38.6916
  248.5000  -999.2500  -999.2500  -999.2500   143.0284     7.3485     7.9808   -38.6909
  249.0000  -999.2500  -999.2500  -999.2500   142.5580     7.2764     7.9259   -38.6901
  249.5000  -999.2500  -999.2500  -999.2500   141.2790     7.2781     7.8825   -38.6895
  250.0000  -999.2500  -999.2500  -999.2500   140.0000     7.2794     7.9068   -38.6887
  250.5000  -999.2500  -999.2500  -999.2500   138.4923     7.2809     8.2503   -38.6880
  251.0000  -999.2500  -999.2500  -999.2500   138.1827     7.3560     8.4678   -38.6873
  251.5000  -999.2500  -999.2500  -999.2500   136.9038     7.3982     8.5628   -38.6866
  252.0000  -999.2500  -999.2500  -999.2500   135.4639     7.5236     8.5747   -38.6858
  252.5000  -999.2500  -999.2500  -999.2500   135.0865     7.6545     8.5666   -38.6852
  253.0000  -999.2500  -999.2500  -999.2500   133.9408     7.7008     8.5605   -38.6844
  253.5000  -999.2500  -999.2500  -999.2500   133.1762     7.8261     8.5609   -38.6837
  254.0000  -999.2500  -999.2500  -999.2500   132.7308     7.9530     8.5759   -38.6830
  254.5000  -999.2500  -999.2500  -999.2500   131.6519     8.0282     8.7177   -38.6823
  255.0000  -999.2500  -999.2500  -999.2500   130.8884     8.1286     9.0177   -38.6815
  255.5000  -999.2500  -999.2500  -999.2500   130.1215     8.1805     9.1651   -38.6807
  256.0000  -999.2500  -999.2500  -999.2500   129.0963     8.2532     9.1851   -38.7301
  256.5000  -999.2500  -999.2500  -999.2500   127.8593     8.2246     9.1954   -38.9676
  257.0000  -999.2500  -999.2500  -999.2500   127.0931     8.1823     9.1995   -39.1108
  257.5000  -999.2500  -999.2500  -999.2500   126.3333     8.1105     9.1258   -39.1102
  258.0000  -999.2500  -999.2500  -999.2500   126.3111     8.0780     8.8953   -39.1095
  258.5000  -999.2500  -999.2500  -999.2500   126.2868     7.9555     8.7697   -39.1087
  259.0000  -999.2500  -999.2500  -999.2500   127.4664     7.8207     8.7342   -38.9640
  259.5000  -999.2500  -999.2500  -999.2500   131.0394     7.6372     8.6950   -38.8021
  260.0000  -999.2500  -999.2500  -999.2500   133.6288     7.5147     8.6677   -38.6743
  260.5000  -999.2500  -999.2500  -999.2500   136.0224     7.3839     8.6462   -38.4601
  261.0000  -999.2500  -999.2500  -999.2500   138.5138     7.1963     8.6070   -38.3612
  261.5000  -999.2500  -999.2500  -999.2500   141.7458     7.0739     8.5362   -38.2398
