~VERSION INFORMATION
 VERS.                2.0:   CWLS LOG ASCII STANDARD - VERSION 2.0
 WRAP.                 NO:   ONE LINE PER DEPTH STEP
~WELL INFORMATION
#MNEM.UNIT      DATA TYPE    INFORMATION
#----------   ------------   ------------------------------
 STRT.F          420.0000:   START DEPTH
 STOP.F         1937.0000:   STOP DEPTH
 STEP.F            0.5000:   STEP LENGTH
 NULL.          -999.2500:   NO VALUE
 COMP. LAWRENCE/ALLISON INC:   COMPANY
 WELL.      85 "X" #85-29:   WELL
 FLD .             TEAPOT:   FIELD
 LOC .      S29 T39N R78W:   LOCATION
 CNTY.            NATRONA:   COUNTY
 STAT.            WYOMING:   STATE
 CTRY. UNITED STATES OF AMERICA:   COUNTRY
 SRVC.            Unknown:   SERVICE COMPANY
 DATE.        28-SEP-1987:   LOGDATE
 API .       490251119100:   API NUMBER
~CURVE INFORMATION
#MNEM.UNIT       API CODE    CURVE DESCRIPTION
#----------   ------------   ------------------------------
 DEPT.F                  :   
 ROP .FT/HR  91 810 01 00:   RAT OF DRILLING PENETRATION
 TGAS.TC/CC  91 830 01 00:   TOTAL GAS UNIT
~PARAMETER INFORMATION
#MNEM.UNIT          VALUE    DESCRIPTION
#----------   ------------   ------------------------------
 DATE.        28-SEP-1987:   RUN DATE
 BLI .F              1937:   BOTTOM LOG INTERVAL
 TLI .F               420:   TOP LOG INTERVAL
 LUN .              T-146:   LOGGING UNIT NUMBER
 CLNT.            A2DTECH:   CLIENT CODE
 ORIG.           5" PRINT:   ORIGIN OF DATA
 UWI .       490251119100:   UNIQUE WELL ID
 DICO. A2D Technologies, Inc.:   DIGITIZING COMPANY
~OTHER INFORMATION
~A   DEPT        ROP       TGAS 
# ...
 1027.5000     0.2898     3.0580
 1028.0000     0.2901     2.9943
 1028.5000     0.2903     2.9306
 1029.0000     0.2906     2.8668
 1029.5000     0.2909     2.8031
 1030.0000     0.2912     2.7393
 1030.5000     0.2914     2.6756
 1031.0000     0.2917     2.6119
 1031.5000     0.2920     2.5481
 1032.0000     0.2922     2.4844
 1032.5000     0.2925     2.4207
 1033.0000     0.2928     2.3569
 1033.5000     0.2930     2.2932
 1034.0000     0.2933     2.2295
 1034.5000     0.2936     2.1657
 1035.0000     0.2938     2.1020
 1035.5000     0.2941     2.0382
 1036.0000     0.2944     1.9745
 1036.5000     0.2947     1.9108
 1037.0000     0.2949     1.8470
 1037.5000     0.2952     2.1824
 1038.0000     0.2955     3.3103
 1038.5000     0.2957     9.3750
 1039.0000     0.2960    13.9207
 1039.5000     0.2963    17.7069
 1040.0000     0.2965    15.7969
 1040.5000     0.2968    12.3679
 1041.0000     0.2971    10.8377
 1041.5000     0.2973     8.9277
 1042.0000     0.2976     8.5366
 1042.5000     0.2979     8.5254
 1043.0000     0.2982    10.0331
 1043.5000     0.2984    10.4016
 1044.0000     0.2987     9.1948
 1044.5000     0.2990     7.5756
 1045.0000     0.2992     3.5295
 1045.5000     0.2995     1.6195
 1046.0000     0.2998     1.6082
 1046.5000     0.3000     1.9795
 1047.0000     0.3003     1.9654
 1047.5000     0.3006     1.9541
 1048.0000     0.3008     4.2214
 1048.5000     0.3011     6.1088
 1049.0000     0.3014     6.8570
 1049.5000     0.3017     7.2283
 1050.0000     0.3019     7.2143
 1050.5000     0.3022     7.5827
 1051.0000     0.3025     7.5715
 1051.5000     0.3027     7.5602
 1052.0000     0.3027     7.5489
 1052.5000     0.3027     7.9177
 1053.0000     0.3027     8.2859
 1053.5000     0.3027     8.2746
 1054.0000     0.3027     8.2633
 1054.5000     0.3027     8.2519
 1055.0000     0.3027     8.2405
 1055.5000     0.3026     8.2286
 1056.0000     0.3026     8.2127
 1056.5000     0.3026     8.1960
 1057.0000     0.3026     8.1793
 1057.5000     0.3026     8.1627
 1058.0000     0.3026     8.1460
 1058.5000     0.3026     8.1293
 1059.0000     0.3026     8.1127
 1059.5000     0.3026     8.0960
 1060.0000     0.3025     8.0793
 1060.5000     0.3025     8.0626
 1061.0000     0.3025     8.0460
 1061.5000     0.3025     8.0293
 1062.0000     0.3025     8.0126
 1062.5000     0.3025     7.9960
 1063.0000     0.3025     7.9793
 1063.5000     0.3024     7.9626
 1064.0000     0.3022     7.9459
 1064.5000     0.3020     7.9293
 1065.0000     0.3017     7.9126
 1065.5000     0.3015     7.8959
 1066.0000     0.3012     7.8793
 1066.5000     0.3010     7.8626
 1067.0000     0.3008     7.8459
 1067.5000     0.3005     7.8292
 1068.0000     0.3003     7.8126
 1068.5000     0.3000     7.7959
 1069.0000     0.2998     7.7792
 1069.5000     0.2996     7.7626
 1070.0000     0.2993     8.1288
 1070.5000     0.2991     8.1102
 1071.0000     0.2988     8.0953
 1071.5000     0.2986     8.0803
 1072.0000     0.2984     8.0654
 1072.5000     0.2981     8.0505
 1073.0000     0.2979     8.0354
 1073.5000     0.2976     8.0203
 1074.0000     0.2974     8.0020
 1074.5000     0.2972     7.9871
 1075.0000     0.2969     7.9722
 1075.5000     0.2967     7.9573
 1076.0000     0.2965     7.9523
 1076.5000     0.2962     7.9474
 1077.0000     0.2960     7.9426
 1077.5000     0.2957     7.9377
 1078.0000     0.2955     7.9329
 1078.5000     0.2953     7.9280
 1079.0000     0.2950     7.9232
 1079.5000     0.2948     7.9183
 1080.0000     0.2945     7.9135
 1080.5000     0.2943     7.9086
 1081.0000     0.2941     7.9037
 1081.5000     0.2938     7.8989
 1082.0000     0.2936     7.8940
 1082.5000     0.2933     7.8892
 1083.0000     0.2931     7.8843
 1083.5000     0.2925     7.8795
 1084.0000     0.2918     7.8746
 1084.5000     0.2910     7.8698
 1085.0000     0.2903     7.8649
 1085.5000     0.2895     7.8600
 1086.0000     0.2888     7.8552
 1086.5000     0.2880     7.8503
 1087.0000     0.2873     7.8455
 1087.5000     0.2865     7.8406
 1088.0000     0.2858     7.8358
 1088.5000     0.2850     7.8309
 1089.0000     0.2843     7.8261
 1089.5000     0.2835     7.8212
 1090.0000     0.2827     7.8164
 1090.5000     0.2820     7.8115
 1091.0000     0.2812     7.8066
 1091.5000     0.2805     7.8018
 1092.0000     0.2797     7.7969
 1092.5000     0.2790     7.7921
 1093.0000     0.2782     7.7872
 1093.5000     0.2775     7.7824
 1094.0000     0.2767     7.7777
 1094.5000     0.2760     7.8221
 1095.0000     0.2752     7.8653
 1095.5000     0.2745     7.9085
 1096.0000     0.2737     7.9517
 1096.5000     0.2729     7.9948
 1097.0000     0.2722     8.0380
 1097.5000     0.2714     8.0812
 1098.0000     0.2707     8.1244
 1098.5000     0.2699     8.1676
 1099.0000     0.2692     8.2108
 1099.5000     0.2684     8.2539
 1100.0000     0.2677     8.2971
 1100.5000     0.2669     8.3395
 1101.0000     0.2662     7.9443
 1101.5000     0.2654     7.5465
 1102.0000     0.2647     7.5315
 1102.5000     0.2637     7.8964
 1103.0000     0.2627     7.8815
 1103.5000     0.2617     7.8665
 1104.0000     0.2607     7.8516
 1104.5000     0.2597     7.8367
 1105.0000     0.2588     7.8218
 1105.5000     0.2678     7.4271
 1106.0000     0.3626     7.4122
 1106.5000     0.4196     7.4796
 1107.0000     0.4766     7.5490
 1107.5000     0.5147     7.6184
 1108.0000     0.5244     7.6878
 1108.5000     0.5251     7.7572
 1109.0000     0.4115     7.8266
 1109.5000     0.3835     7.8961
 1110.0000     0.3831     7.9655
 1110.5000     0.3840     8.0349
 1111.0000     0.3856     8.1043
 1111.5000     0.3940     8.1737
 1112.0000     0.4038     8.2431
 1112.5000     0.2623     8.3125
 1113.0000     0.2343     8.3394
 1113.5000     0.2440     8.3240
 1114.0000     0.2537     8.3081
 1114.5000     0.2540     8.3231
 1115.0000     0.2547     8.3390
 1115.5000     0.2556     8.3549
 1116.0000     0.2565     8.3709
 1116.5000     0.2573     8.3868
 1117.0000     0.2582     8.4027
 1117.5000     0.2591     8.4186
 1118.0000     0.2600     8.4345
 1118.5000     0.2609     8.4504
 1119.0000     0.2618     8.4663
 1119.5000     0.2627     8.4822
 1120.0000     0.2636     8.4981
 1120.5000     0.2645     8.5140
 1121.0000     0.2654     8.5299
 1121.5000     0.2663     8.5458
 1122.0000     0.2672     8.5618
 1122.5000     0.2680     8.5777
 1123.0000     0.2777     8.5936
 1123.5000     0.2780     8.6095
 1124.0000     0.2783     8.6254
 1124.5000     0.2786     8.6413
 1125.0000     0.2788     8.6572
 1125.5000     0.1846     8.6731
 1126.0000     0.1745     8.6890
 1126.5000     0.1757     8.6886
 1127.0000     0.1760     8.6734
 1127.5000     0.1763     8.6582
 1128.0000     0.1766     8.2604
 1128.5000     0.1768     8.2454
 1129.0000     0.1771     8.2304
 1129.5000     0.1774     8.2153
 1130.0000     0.1777     8.2003
 1130.5000     0.1780     8.1852
 1131.0000     0.1783     8.1740
 1131.5000     0.1785     8.1910
 1132.0000     0.1788     8.2062
 1132.5000     0.1791     8.2214
 1133.0000     0.1794     8.2367
 1133.5000     0.1797     8.2519
 1134.0000     0.1800     8.2671
 1134.5000     0.1802     8.2823
 1135.0000     0.1805     8.2975
 1135.5000     0.1808     8.3128
 1136.0000     0.1811     8.3280
 1136.5000     0.1814     8.3432
 1137.0000     0.1817     8.3584
 1137.5000     0.1819     8.3737
 1138.0000     0.1822     8.3889
 1138.5000     0.1825     8.4041
 1139.0000     0.1828     8.4193
 1139.5000     0.1831     8.4346
 1140.0000     0.1834     8.4498
 1140.5000     0.1836     8.4650
 1141.0000     0.1839     8.4802
 1141.5000     0.1842     8.4955
 1142.0000     0.1845     8.5107
 1142.5000     0.1848     8.5259
 1143.0000     0.1851     8.5411
 1143.5000     0.1853     8.5563
 1144.0000     0.1856     8.5716
 1144.5000     0.1859     8.5868
 1145.0000     0.1862     8.6020
 1145.5000     0.1865     8.6172
 1146.0000     0.1868     8.6325
 1146.5000     0.1871     8.6477
 1147.0000     0.1873     8.6629
 1147.5000     0.1876     8.6781
 1148.0000     0.1879     8.6934
 1148.5000     0.1882     8.7086
