~VERSION INFORMATION
 VERS.                2.0:   CWLS LOG ASCII STANDARD - VERSION 2.0
 WRAP.                 NO:   ONE LINE PER DEPTH STEP
~WELL INFORMATION
#MNEM.UNIT      DATA TYPE    INFORMATION
#----------   ------------   ------------------------------
 STRT.F           88.0000:   START DEPTH
 STOP.F          919.0000:   STOP DEPTH
 STEP.F            0.5000:   STEP LENGTH
 NULL.          -999.2500:   NO VALUE
 COMP. U S NAVY-INTEX OIL:   COMPANY
 WELL. RES 3 TEAPOT DOM #51S-11:   WELL
 FLD .             TEAPOT:   FIELD
 LOC .      S11 T38N R78W:   LOCATION
 CNTY.            NATRONA:   COUNTY
 STAT.            WYOMING:   STATE
 CTRY. UNITED STATES OF AMERICA:   COUNTRY
 SRVC.      NL McCullough:   SERVICE COMPANY
 DATE.        08-AUG-1961:   LOGDATE
 API .       490250638400:   API NUMBER
~CURVE INFORMATION
#MNEM.UNIT       API CODE    CURVE DESCRIPTION
#----------   ------------   ------------------------------
 DEPT.F                  :   
 NEUT.CPS    35 330 30 00:   NEUTRON
 GRN .MG/TON 35 310 01 00:   GAMMA RAY
~PARAMETER INFORMATION
#MNEM.UNIT          VALUE    DESCRIPTION
#----------   ------------   ------------------------------
 PD  .                 GL:   PERMANENT DATUM
 EPD .F              5176:   ELEVATION PERMANENT DATUM
 LMF .                 KB:   LOG MEASURED FROM
 DAPD.F                 6:   FEET ABOVE PERMANENT DATUM
 DMF .                 KB:   DRILLING MEASURED FROM
 EKB .F              5182:   KELLING BUSHING
 EGL .F              5176:   GROUND LEVEL
 DATE.           8-8-1961:   RUN DATE
 RUN .                  1:   RUN NUMBER
 DD  .F               920:   DEPTH DRILLER
 DL  .F             920.5:   DEPTH LOGGER
 BLI .F               919:   BOTTOM LOG INTERVAL
 TLI .F                90:   TOP LOG INTERVAL
 BSD .F               920:   BIT SIZE AT DEPTH
 DFT .       OIL EMULSION:   DRILLING FLUID TYPE
 DFD .                  9:   DRILLING FLUID DENSITY
 TCS .HRS               2:   TIME CURCULATED STOPPED
 ENGI.            JACKSON:   RECORDING ENGINEER
 WITN.          JORGENSEN:   WITNESSED BY
 CLNT.            A2DTECH:   CLIENT CODE
 ORIG.      2" & 5" PRINT:   ORIGIN OF DATA
 UWI .       490250638400:   UNIQUE WELL ID
 DICO. A2D Technologies, Inc.:   DIGITIZING COMPANY
~OTHER INFORMATION
~A   DEPT     NEUT          GRN 
   88.0000  -999.2500     8.0000
   88.5000  -999.2500     7.9135
   89.0000  -999.2500     7.6374
   89.5000  -999.2500     7.3426
   90.0000  -999.2500     7.2313
   90.5000  -999.2500     7.1199
   91.0000  -999.2500     6.8582
   91.5000  -999.2500     6.8110
   92.0000  1093.1726     6.7860
   92.5000  1076.8989     6.7521
   93.0000   771.7426     6.3915
   93.5000   386.1716     5.9700
   94.0000   375.2266     5.8683
   94.5000   382.5283     5.8124
   95.0000   389.1404     5.4322
   95.5000   390.6363     5.1419
   96.0000   389.7577     5.1038
   96.5000   378.7374     5.2401
   97.0000   373.1682     5.2517
   97.5000   350.5370     5.2638
   98.0000   338.0361     5.2772
   98.5000   336.1537     5.7503
   99.0000   334.6236     5.8160
   99.5000   328.3518     5.8302
  100.0000   308.9124     5.9110
  100.5000   306.1593     5.9663
  101.0000   307.7379     5.9750
  101.5000   314.9023     5.9370
  102.0000   319.0484     5.6241
  102.5000   335.0274     5.5260
  103.0000   354.1249     5.4931
  103.5000   357.6719     5.4792
  104.0000   363.9122     5.4789
  104.5000   373.2686     5.4938
  105.0000   375.2101     5.5181
  105.5000   366.8810     5.5557
  106.0000   333.9504     5.5992
  106.5000   324.5535     5.5572
  107.0000   332.8407     5.5380
  107.5000   350.7266     5.5073
  108.0000   363.0208     5.3428
  108.5000   392.3023     5.1502
  109.0000   425.9074     5.3035
  109.5000   446.0499     5.5964
  110.0000   444.4107     5.8323
  110.5000   425.9876     5.5487
  111.0000   389.3510     5.3874
  111.5000   386.3521     5.2473
  112.0000   384.0326     5.2198
  112.5000   384.0163     5.3957
  113.0000   382.8249     5.7400
  113.5000   363.5875     5.7622
  114.0000   350.0833     5.7012
  114.5000   348.4503     5.7161
  115.0000   351.7181     5.8615
  115.5000   351.4370     6.0267
  116.0000   353.6850     6.0625
  116.5000   374.5997     6.1330
  117.0000   387.3826     6.3748
  117.5000   389.8886     6.4050
  118.0000   382.3423     6.3668
  118.5000   371.7281     6.2889
  119.0000   376.2159     6.1606
  119.5000   377.7390     6.0397
  120.0000   344.7379     5.9909
  120.5000   337.6718     5.9695
  121.0000   344.4504     5.8948
  121.5000   353.8561     5.6645
  122.0000   379.5905     5.4011
  122.5000   386.1845     5.2877
  123.0000   383.5030     5.0665
  123.5000   371.5570     4.9602
  124.0000   363.1515     5.1000
  124.5000   344.1836     5.1653
  125.0000   336.6063     5.2856
  125.5000   344.9785     5.3309
  126.0000   348.8146     5.3067
  126.5000   342.5652     5.0533
  127.0000   339.7197     5.0115
  127.5000   347.2516     5.1098
  128.0000   336.4206     5.1053
  128.5000   325.7324     5.0126
  129.0000   341.1570     4.9859
  129.5000   355.7906     5.1645
  130.0000   352.1798     5.2858
  130.5000   330.0282     5.4064
  131.0000   325.9884     5.4538
  131.5000   333.5203     5.5022
  132.0000   336.8882     5.5448
  132.5000   316.4811     5.7688
  133.0000   313.8305     6.0817
  133.5000   313.3433     6.4799
  134.0000   314.5544     6.4473
  134.5000   319.6087     6.1134
  135.0000   331.5591     5.9871
  135.5000   353.0216     5.9035
  136.0000   355.6194     5.8774
  136.5000   361.1185     5.8789
  137.0000   380.9149     5.9089
  137.5000   394.9045     5.9239
  138.0000   394.4786     5.8857
  138.5000   385.0989     5.8692
  139.0000   379.4249     5.8091
  139.5000   374.0335     5.7960
  140.0000   361.7831     5.8108
  140.5000   353.3388     5.6795
  141.0000   349.0567     5.6262
  141.5000   344.0022     5.6183
  142.0000   337.6959     5.6104
  142.5000   324.7577     5.5303
  143.0000   304.8628     5.3191
  143.5000   291.5710     5.2682
  144.0000   295.0098     5.3866
  144.5000   302.1136     5.4650
  145.0000   296.0504     5.4958
  145.5000   290.5557     5.5216
  146.0000   286.9555     5.5628
  146.5000   292.0723     5.5886
  147.0000   295.6421     5.5472
  147.5000   300.4983     5.5620
  148.0000   308.8823     5.5718
  148.5000   341.5394     5.5767
  149.0000   367.7151     5.5470
  149.5000   372.1877     5.5077
  150.0000   372.9221     5.4089
  150.5000   359.9910     5.3556
  151.0000   348.5977     5.3629
  151.5000   348.7006     5.3777
  152.0000   349.4411     5.3979
  152.5000   348.4702     5.3773
  153.0000   337.9162     5.3010
  153.5000   334.2872     5.2630
  154.0000   340.3086     5.3006
  154.5000   354.5405     5.3418
  155.0000   366.1696     5.3626
  155.5000   367.4490     5.3757
  156.0000   353.5524     5.3859
  156.5000   331.1474     5.4055
  157.0000   328.6794     5.2844
  157.5000   329.0534     5.2190
  158.0000   330.3537     5.1923
  158.5000   331.4703     5.1104
  159.0000   332.5881     4.7798
  159.5000   319.7273     4.4783
  160.0000   322.2053     4.4674
  160.5000   331.0252     4.5334
  161.0000   334.8286     4.7362
  161.5000   341.5678     4.9881
  162.0000   341.5468     5.2150
  162.5000   331.8067     5.4551
  163.0000   321.4166     5.6903
  163.5000   315.8147     5.8397
  164.0000   317.8348     5.9549
  164.5000   321.0703     6.0015
  165.0000   323.9049     5.8634
  165.5000   329.7750     5.6966
  166.0000   350.4741     5.5791
  166.5000   351.9694     5.4992
  167.0000   342.7794     5.4682
  167.5000   329.2737     5.5203
  168.0000   333.4248     5.6756
  168.5000   351.9009     6.0288
  169.0000   353.3950     6.1700
  169.5000   353.3780     6.2259
  170.0000   320.8818     6.3197
  170.5000   313.7375     6.3844
  171.0000   315.2264     6.3082
  171.5000   330.6481     6.1810
  172.0000   352.3456     6.0127
  172.5000   379.7104     5.9281
  173.0000   392.4291     5.7478
  173.5000   399.8409     5.5387
  174.0000   405.3377     5.1762
  174.5000   408.2220     5.2157
  175.0000   410.6244     5.2288
  175.5000   411.8328     5.2512
  176.0000   414.2295     5.3235
  176.5000   419.6044     5.4404
  177.0000   417.2747     5.2277
  177.5000   404.2842     5.1199
  178.0000   358.3738     5.0977
  178.5000   356.8485     5.0702
  179.0000   356.8316     5.0598
  179.5000   356.3281     5.1808
  180.0000   341.6409     5.1882
  180.5000   331.0997     5.2319
  181.0000   332.2256     5.3242
  181.5000   330.7630     5.3618
  182.0000   327.2709     5.3824
  182.5000   337.2053     5.6041
  183.0000   355.9650     5.6191
  183.5000   383.2859     5.6339
  184.0000   398.3887     5.6574
  184.5000   386.8547     5.6742
  185.0000   362.7081     5.8077
  185.5000   351.3236     6.0527
  186.0000   355.8356     6.0878
  186.5000   376.6612     6.0344
  187.0000   382.9945     6.0267
  187.5000   372.3564     5.6344
  188.0000   359.6558     5.5253
  188.5000   342.1566     5.5292
  189.0000   340.2744     5.6346
  189.5000   341.7245     5.7977
  190.0000   364.7629     5.7170
  190.5000   372.3017     5.5934
  191.0000   370.7738     5.4630
  191.5000   365.6570     5.4528
  192.0000   395.8624     5.4322
  192.5000   439.4525     5.4112
  193.0000   422.5038     5.3708
  193.5000   417.4609     5.3099
  194.0000   415.2310     5.2479
  194.5000   378.7357     5.1124
  195.0000   347.2237     4.9829
  195.5000   334.7724     4.9549
  196.0000   328.9225     5.1886
  196.5000   326.7786     5.7175
  197.0000   325.6822     6.1649
  197.5000   321.9694     6.2270
  198.0000   311.6205     6.3526
  198.5000   310.0963     6.4328
  199.0000   310.8338     6.5362
  199.5000   311.5729     6.6951
  200.0000   312.3129     6.6921
  200.5000   311.5367     6.6254
  201.0000   303.2583     6.3910
  201.5000   296.3995     6.3948
  202.0000   311.6342     6.4080
  202.5000   321.2926     6.4434
  203.0000   304.6553     6.4895
  203.5000   316.9430     6.5265
  204.0000   326.9687     6.2726
  204.5000   331.0380     6.1089
  205.0000   327.9018     5.9795
  205.5000   320.4324     5.7974
  206.0000   323.3003     5.6767
  206.5000   328.7093     5.6981
  207.0000   325.6672     5.8801
  207.5000   304.3953     6.0770
  208.0000   288.5202     6.1566
  208.5000   281.0529     6.1919
  209.0000   279.7219     6.2053
