~VERSION INFORMATION
 VERS.                2.0:   CWLS LOG ASCII STANDARD - VERSION 2.0
 WRAP.                 NO:   ONE LINE PER DEPTH STEP
~WELL INFORMATION
#MNEM.UNIT      DATA TYPE    INFORMATION
#----------   ------------   ------------------------------
 STRT.F            0.5000:   START DEPTH
 STOP.F         3087.0000:   STOP DEPTH
 STEP.F            0.5000:   STEP LENGTH
 NULL.          -999.2500:   NO VALUE
 COMP. DEPARTMENT OF ENERGY:   COMPANY
 WELL.    NPR-3 #201-A-29:   WELL
 FLD . TEAPOT NAVAL RESERVE:   FIELD
 LOC .      S29 T39N R78W:   LOCATION
 CNTY.            NATRONA:   COUNTY
 STAT.            WYOMING:   STATE
 CTRY. UNITED STATES OF AMERICA:   COUNTRY
 SRVC.      NL McCullough:   SERVICE COMPANY
 DATE.        24-JUN-1965:   LOGDATE
 API .       490251144400:   API NUMBER
~CURVE INFORMATION
#MNEM.UNIT       API CODE    CURVE DESCRIPTION
#----------   ------------   ------------------------------
 DEPT.F                  :   
 GRR .GAPI   30 310 01 00:   GAMMA RAY
 CALI.IN     30 280 01 00:   CALIPER
~PARAMETER INFORMATION
#MNEM.UNIT          VALUE    DESCRIPTION
#----------   ------------   ------------------------------
 PD  .                 GL:   PERMANENT DATUM
 LMF .                 GL:   LOG MEASURED FROM
 EDF .F              5012:   DRILLING FLOOR
 DATE.        24-JUN-1965:   RUN DATE
 RUN .                  1:   RUN NUMBER
 DD  .F              2782:   DEPTH DRILLER
 DL  .F              2772:   DEPTH LOGGER
 BLI .F              2770:   BOTTOM LOG INTERVAL
 TLI .F              2300:   TOP LOG INTERVAL
 CS  .IN            6.625:   CASING SIZE
 CBD .F              2756:   CASING BOTTOM DRILLER
 ENGI.         COWLTHORPE:   RECORDING ENGINEER
 WITN.             HUDSON:   WITNESSED BY
 CLNT.            A2DTECH:   CLIENT CODE
 ORIG.           5" PRINT:   ORIGIN OF DATA
 UWI .       490251144400:   UNIQUE WELL ID
 DICO. A2D Technologies, Inc.:   DIGITIZING COMPANY
~OTHER INFORMATION
~A    DEPT     GRR         CALI 
# ...
 1215.5000  -999.2500     6.4647
 1216.0000  -999.2500     6.4647
 1216.5000  -999.2500     6.4647
 1217.0000  -999.2500     6.4647
 1217.5000  -999.2500     6.4647
 1218.0000  -999.2500     6.4647
 1218.5000  -999.2500     6.4647
 1219.0000  -999.2500     6.4647
 1219.5000  -999.2500     6.4647
 1220.0000  -999.2500     6.4647
 1220.5000  -999.2500     6.4648
 1221.0000  -999.2500     6.4657
 1221.5000  -999.2500     6.4666
 1222.0000  -999.2500     6.4675
 1222.5000  -999.2500     6.4683
 1223.0000  -999.2500     6.4692
 1223.5000  -999.2500     6.4701
 1224.0000  -999.2500     6.4710
 1224.5000  -999.2500     6.4719
 1225.0000  -999.2500     6.4728
 1225.5000  -999.2500     6.4737
 1226.0000  -999.2500     6.4746
 1226.5000  -999.2500     6.4755
 1227.0000  -999.2500     6.4763
 1227.5000  -999.2500     6.4772
 1228.0000  -999.2500     6.4781
 1228.5000  -999.2500     6.4790
 1229.0000  -999.2500     6.4799
 1229.5000  -999.2500     6.4808
 1230.0000  -999.2500     6.4817
 1230.5000  -999.2500     6.4826
 1231.0000  -999.2500     6.4835
 1231.5000  -999.2500     6.4844
 1232.0000  -999.2500     6.4846
 1232.5000  -999.2500     6.4846
 1233.0000  -999.2500     6.4846
 1233.5000  -999.2500     6.4846
 1234.0000  -999.2500     6.4847
 1234.5000  -999.2500     6.4847
 1235.0000  -999.2500     6.4821
 1235.5000  -999.2500     6.4610
 1236.0000  -999.2500     6.4398
 1236.5000  -999.2500     6.4189
 1237.0000  -999.2500     6.4060
 1237.5000  -999.2500     6.4109
 1238.0000  -999.2500     6.4154
 1238.5000  -999.2500     6.4200
 1239.0000  -999.2500     6.4246
 1239.5000  -999.2500     6.4292
 1240.0000  -999.2500     6.4337
 1240.5000  -999.2500     6.4383
 1241.0000  -999.2500     6.4429
 1241.5000  -999.2500     6.4474
 1242.0000  -999.2500     6.4520
 1242.5000  -999.2500     6.4566
 1243.0000  -999.2500     6.4612
 1243.5000  -999.2500     6.4644
 1244.0000  -999.2500     6.4534
 1244.5000  -999.2500     6.4421
 1245.0000  -999.2500     6.4309
 1245.5000  -999.2500     6.4198
 1246.0000  -999.2500     6.4085
 1246.5000  -999.2500     6.4061
 1247.0000  -999.2500     6.4079
 1247.5000  -999.2500     6.4098
 1248.0000  -999.2500     6.4117
 1248.5000  -999.2500     6.4136
 1249.0000  -999.2500     6.4155
 1249.5000  -999.2500     6.4174
 1250.0000  -999.2500     6.4193
 1250.5000  -999.2500     6.4212
 1251.0000  -999.2500     6.4231
 1251.5000  -999.2500     6.4250
 1252.0000  -999.2500     6.4269
 1252.5000  -999.2500     6.4288
 1253.0000  -999.2500     6.4307
 1253.5000  -999.2500     6.4326
 1254.0000  -999.2500     6.4345
 1254.5000  -999.2500     6.4364
 1255.0000  -999.2500     6.4384
 1255.5000  -999.2500     6.4402
 1256.0000  -999.2500     6.4422
 1256.5000  -999.2500     6.4441
 1257.0000  -999.2500     6.4447
 1257.5000  -999.2500     6.4447
 1258.0000  -999.2500     6.4447
 1258.5000  -999.2500     6.4447
 1259.0000  -999.2500     6.4447
 1259.5000  -999.2500     6.4447
 1260.0000  -999.2500     6.4447
 1260.5000  -999.2500     6.4447
 1261.0000  -999.2500     6.4447
 1261.5000  -999.2500     6.4447
 1262.0000  -999.2500     6.4447
 1262.5000  -999.2500     6.4447
 1263.0000  -999.2500     6.4447
 1263.5000  -999.2500     6.4447
 1264.0000  -999.2500     6.4447
 1264.5000  -999.2500     6.4447
 1265.0000  -999.2500     6.4447
 1265.5000  -999.2500     6.4447
 1266.0000  -999.2500     6.4447
 1266.5000  -999.2500     6.4447
 1267.0000  -999.2500     6.4456
 1267.5000  -999.2500     6.4466
 1268.0000  -999.2500     6.4475
 1268.5000  -999.2500     6.4485
 1269.0000  -999.2500     6.4495
 1269.5000  -999.2500     6.4505
 1270.0000  -999.2500     6.4515
 1270.5000  -999.2500     6.4524
 1271.0000  -999.2500     6.4534
 1271.5000  -999.2500     6.4544
 1272.0000  -999.2500     6.4554
 1272.5000  -999.2500     6.4564
 1273.0000  -999.2500     6.4573
 1273.5000  -999.2500     6.4583
 1274.0000  -999.2500     6.4593
 1274.5000  -999.2500     6.4603
 1275.0000  -999.2500     6.4613
 1275.5000  -999.2500     6.4623
 1276.0000  -999.2500     6.4632
 1276.5000  -999.2500     6.4642
 1277.0000  -999.2500     6.4637
 1277.5000  -999.2500     6.4619
 1278.0000  -999.2500     6.4602
 1278.5000  -999.2500     6.4584
 1279.0000  -999.2500     6.4566
 1279.5000  -999.2500     6.4549
 1280.0000  -999.2500     6.4531
 1280.5000  -999.2500     6.4513
 1281.0000  -999.2500     6.4495
 1281.5000  -999.2500     6.4478
 1282.0000  -999.2500     6.4460
 1282.5000  -999.2500     6.4447
 1283.0000  -999.2500     6.4447
 1283.5000  -999.2500     6.4447
 1284.0000  -999.2500     6.4447
 1284.5000  -999.2500     6.4447
 1285.0000  -999.2500     6.4447
 1285.5000  -999.2500     6.4447
 1286.0000  -999.2500     6.4447
 1286.5000  -999.2500     6.4447
 1287.0000  -999.2500     6.4447
 1287.5000  -999.2500     6.4447
 1288.0000  -999.2500     6.4447
 1288.5000  -999.2500     6.4447
 1289.0000  -999.2500     6.4447
 1289.5000  -999.2500     6.4447
 1290.0000  -999.2500     6.4447
 1290.5000  -999.2500     6.4452
 1291.0000  -999.2500     6.4462
 1291.5000  -999.2500     6.4471
 1292.0000  -999.2500     6.4481
 1292.5000  -999.2500     6.4491
 1293.0000  -999.2500     6.4501
 1293.5000  -999.2500     6.4511
 1294.0000  -999.2500     6.4521
 1294.5000  -999.2500     6.4531
 1295.0000  -999.2500     6.4541
 1295.5000  -999.2500     6.4551
 1296.0000  -999.2500     6.4561
 1296.5000  -999.2500     6.4570
 1297.0000  -999.2500     6.4580
 1297.5000  -999.2500     6.4590
 1298.0000  -999.2500     6.4600
 1298.5000  -999.2500     6.4610
 1299.0000  -999.2500     6.4620
 1299.5000  -999.2500     6.4630
 1300.0000  -999.2500     6.4640
 1300.5000  -999.2500     6.4647
 1301.0000  -999.2500     6.4647
 1301.5000  -999.2500     6.4647
 1302.0000  -999.2500     6.4647
 1302.5000  -999.2500     6.4647
 1303.0000  -999.2500     6.4647
 1303.5000  -999.2500     6.4647
 1304.0000  -999.2500     6.4647
 1304.5000  -999.2500     6.4647
 1305.0000  -999.2500     6.4647
 1305.5000  -999.2500     6.4647
 1306.0000  -999.2500     6.4647
 1306.5000  -999.2500     6.4647
 1307.0000  -999.2500     6.4647
 1307.5000  -999.2500     6.4647
 1308.0000  -999.2500     6.4647
 1308.5000  -999.2500     6.4647
 1309.0000  -999.2500     6.4647
 1309.5000  -999.2500     6.4647
 1310.0000  -999.2500     6.4647
 1310.5000  -999.2500     6.4647
 1311.0000  -999.2500     6.4647
 1311.5000  -999.2500     6.4647
 1312.0000  -999.2500     6.4647
 1312.5000  -999.2500     6.4647
 1313.0000  -999.2500     6.4647
 1313.5000  -999.2500     6.4647
 1314.0000  -999.2500     6.4647
 1314.5000  -999.2500     6.4647
 1315.0000  -999.2500     6.4647
 1315.5000  -999.2500     6.4647
 1316.0000  -999.2500     6.4647
 1316.5000  -999.2500     6.4647
 1317.0000  -999.2500     6.4647
 1317.5000  -999.2500     6.4647
 1318.0000  -999.2500     6.4652
 1318.5000  -999.2500     6.4663
 1319.0000  -999.2500     6.4675
 1319.5000  -999.2500     6.4686
 1320.0000  -999.2500     6.4697
 1320.5000  -999.2500     6.4708
 1321.0000  -999.2500     6.4720
 1321.5000  -999.2500     6.4731
 1322.0000  -999.2500     6.4742
 1322.5000  -999.2500     6.4753
 1323.0000  -999.2500     6.4765
 1323.5000  -999.2500     6.4776
 1324.0000  -999.2500     6.4787
 1324.5000  -999.2500     6.4798
 1325.0000  -999.2500     6.4810
 1325.5000  -999.2500     6.4821
 1326.0000  -999.2500     6.4832
 1326.5000  -999.2500     6.4844
 1327.0000  -999.2500     6.4846
 1327.5000  -999.2500     6.4846
 1328.0000  -999.2500     6.4846
 1328.5000  -999.2500     6.4846
 1329.0000  -999.2500     6.4846
 1329.5000  -999.2500     6.4846
 1330.0000  -999.2500     6.4846
 1330.5000  -999.2500     6.4846
 1331.0000  -999.2500     6.4846
 1331.5000  -999.2500     6.4846
 1332.0000  -999.2500     6.4846
 1332.5000  -999.2500     6.4846
 1333.0000  -999.2500     6.4846
 1333.5000  -999.2500     6.4847
 1334.0000  -999.2500     6.4847
 1334.5000  -999.2500     6.4817
 1335.0000  -999.2500     6.4779
 1335.5000  -999.2500     6.4742
 1336.0000  -999.2500     6.4704
 1336.5000  -999.2500     6.4667
