~VERSION INFORMATION
 VERS.                2.0:   CWLS LOG ASCII STANDARD - VERSION 2.0
 WRAP.                 NO:   ONE LINE PER DEPTH STEP
~WELL INFORMATION
#MNEM.UNIT      DATA TYPE    INFORMATION
#----------   ------------   ------------------------------
 STRT.F            0.5000:   START DEPTH
 STOP.F         3087.0000:   STOP DEPTH
 STEP.F            0.5000:   STEP LENGTH
 NULL.          -999.2500:   NO VALUE
 COMP. DEPARTMENT OF ENERGY:   COMPANY
 WELL.    NPR-3 #201-A-29:   WELL
 FLD . TEAPOT NAVAL RESERVE:   FIELD
 LOC .      S29 T39N R78W:   LOCATION
 CNTY.            NATRONA:   COUNTY
 STAT.            WYOMING:   STATE
 CTRY. UNITED STATES OF AMERICA:   COUNTRY
 SRVC.      NL McCullough:   SERVICE COMPANY
 DATE.        24-JUN-1965:   LOGDATE
 API .       490251144400:   API NUMBER
~CURVE INFORMATION
#MNEM.UNIT       API CODE    CURVE DESCRIPTION
#----------   ------------   ------------------------------
 DEPT.F                  :   
 GRR .GAPI   30 310 01 00:   GAMMA RAY
 CALI.IN     30 280 01 00:   CALIPER
~PARAMETER INFORMATION
#MNEM.UNIT          VALUE    DESCRIPTION
#----------   ------------   ------------------------------
 PD  .                 GL:   PERMANENT DATUM
 LMF .                 GL:   LOG MEASURED FROM
 EDF .F              5012:   DRILLING FLOOR
 DATE.        24-JUN-1965:   RUN DATE
 RUN .                  1:   RUN NUMBER
 DD  .F              2782:   DEPTH DRILLER
 DL  .F              2772:   DEPTH LOGGER
 BLI .F              2770:   BOTTOM LOG INTERVAL
 TLI .F              2300:   TOP LOG INTERVAL
 CS  .IN            6.625:   CASING SIZE
 CBD .F              2756:   CASING BOTTOM DRILLER
 ENGI.         COWLTHORPE:   RECORDING ENGINEER
 WITN.             HUDSON:   WITNESSED BY
 CLNT.            A2DTECH:   CLIENT CODE
 ORIG.           5" PRINT:   ORIGIN OF DATA
 UWI .       490251144400:   UNIQUE WELL ID
 DICO. A2D Technologies, Inc.:   DIGITIZING COMPANY
~OTHER INFORMATION
~A    DEPT     GRR         CALI 
# ...
 2916.5000   121.3801  -999.2500
 2917.0000   121.5871  -999.2500
 2917.5000   121.8451  -999.2500
 2918.0000   125.6815  -999.2500
 2918.5000   122.3723  -999.2500
 2919.0000   125.2662  -999.2500
 2919.5000   124.0198  -999.2500
 2920.0000   122.3395  -999.2500
 2920.5000   125.0211  -999.2500
 2921.0000   125.0672  -999.2500
 2921.5000   125.2047  -999.2500
 2922.0000   123.8625  -999.2500
 2922.5000   121.8099  -999.2500
 2923.0000   120.4231  -999.2500
 2923.5000   121.3486  -999.2500
 2924.0000   122.8496  -999.2500
 2924.5000   124.3261  -999.2500
 2925.0000   125.1449  -999.2500
 2925.5000   124.6323  -999.2500
 2926.0000   124.1377  -999.2500
 2926.5000   123.6276  -999.2500
 2927.0000   123.6079  -999.2500
 2927.5000   125.7600  -999.2500
 2928.0000   125.1399  -999.2500
 2928.5000   124.2657  -999.2500
 2929.0000   123.5799  -999.2500
 2929.5000   124.0340  -999.2500
 2930.0000   122.0726  -999.2500
 2930.5000   120.5377  -999.2500
 2931.0000   120.6380  -999.2500
 2931.5000   121.2801  -999.2500
 2932.0000   120.6518  -999.2500
 2932.5000   118.8900  -999.2500
 2933.0000   117.7716  -999.2500
 2933.5000   116.5180  -999.2500
 2934.0000   114.8913  -999.2500
 2934.5000   112.7059  -999.2500
 2935.0000   110.5442  -999.2500
 2935.5000   108.8064  -999.2500
 2936.0000   107.7478  -999.2500
 2936.5000   112.4598  -999.2500
 2937.0000   118.6720  -999.2500
 2937.5000   118.1178  -999.2500
 2938.0000   117.5256  -999.2500
 2938.5000   120.5725  -999.2500
 2939.0000   123.0621  -999.2500
 2939.5000   121.6091  -999.2500
 2940.0000   118.8696  -999.2500
 2940.5000   124.6944  -999.2500
 2941.0000   123.3455  -999.2500
 2941.5000   124.0329  -999.2500
 2942.0000   125.7487  -999.2500
 2942.5000   124.8336  -999.2500
 2943.0000   123.6316  -999.2500
 2943.5000   123.1736  -999.2500
 2944.0000   125.9429  -999.2500
 2944.5000   125.7895  -999.2500
 2945.0000   127.0373  -999.2500
 2945.5000   126.9312  -999.2500
 2946.0000   127.2041  -999.2500
 2946.5000   127.6979  -999.2500
 2947.0000   127.1814  -999.2500
 2947.5000   126.9898  -999.2500
 2948.0000   128.2439  -999.2500
 2948.5000   129.6165  -999.2500
 2949.0000   124.2034  -999.2500
 2949.5000   121.6594  -999.2500
 2950.0000   120.7534  -999.2500
 2950.5000   120.9681  -999.2500
 2951.0000   119.7943  -999.2500
 2951.5000   120.3298  -999.2500
 2952.0000   119.6852  -999.2500
 2952.5000   117.5996  -999.2500
 2953.0000   117.5036  -999.2500
 2953.5000   114.8431  -999.2500
 2954.0000   118.0594  -999.2500
 2954.5000   119.2117  -999.2500
 2955.0000   119.1961  -999.2500
 2955.5000   120.6008  -999.2500
 2956.0000   121.9879  -999.2500
 2956.5000   121.7056  -999.2500
 2957.0000   120.9817  -999.2500
 2957.5000   122.5332  -999.2500
 2958.0000   120.7687  -999.2500
 2958.5000   121.5082  -999.2500
 2959.0000   120.7881  -999.2500
 2959.5000   121.4522  -999.2500
 2960.0000   122.6961  -999.2500
 2960.5000   123.2269  -999.2500
 2961.0000   125.0358  -999.2500
 2961.5000   126.1205  -999.2500
 2962.0000   121.7557  -999.2500
 2962.5000   123.4363  -999.2500
 2963.0000   124.9656  -999.2500
 2963.5000   128.9079  -999.2500
 2964.0000   131.5939  -999.2500
 2964.5000   127.5476  -999.2500
 2965.0000   126.4334  -999.2500
 2965.5000   132.6792  -999.2500
 2966.0000   133.5829  -999.2500
 2966.5000   134.4904  -999.2500
 2967.0000   136.7072  -999.2500
 2967.5000   136.1278  -999.2500
 2968.0000   130.8561  -999.2500
 2968.5000   123.6294  -999.2500
 2969.0000   121.4531  -999.2500
 2969.5000   123.4270  -999.2500
 2970.0000   121.9862  -999.2500
 2970.5000   120.5835  -999.2500
 2971.0000   120.0627  -999.2500
 2971.5000   121.1150  -999.2500
 2972.0000   122.0479  -999.2500
 2972.5000   121.2541  -999.2500
 2973.0000   122.9662  -999.2500
 2973.5000   125.7583  -999.2500
 2974.0000   128.5883  -999.2500
 2974.5000   125.8010  -999.2500
 2975.0000   127.1748  -999.2500
 2975.5000   126.9885  -999.2500
 2976.0000   126.7565  -999.2500
 2976.5000   126.4594  -999.2500
 2977.0000   128.2492  -999.2500
 2977.5000   130.9427  -999.2500
 2978.0000   133.6380  -999.2500
 2978.5000   133.2924  -999.2500
 2979.0000   130.9027  -999.2500
 2979.5000   130.7691  -999.2500
 2980.0000   132.8553  -999.2500
 2980.5000   134.6549  -999.2500
 2981.0000   131.3485  -999.2500
 2981.5000   129.7048  -999.2500
 2982.0000   126.9758  -999.2500
 2982.5000   121.5075  -999.2500
 2983.0000   118.6717  -999.2500
 2983.5000   118.3480  -999.2500
 2984.0000   117.3319  -999.2500
 2984.5000   117.7465  -999.2500
 2985.0000   116.1429  -999.2500
 2985.5000   115.9480  -999.2500
 2986.0000   115.0182  -999.2500
 2986.5000   112.9634  -999.2500
 2987.0000   114.2857  -999.2500
 2987.5000   114.9896  -999.2500
 2988.0000   115.4396  -999.2500
 2988.5000   116.6592  -999.2500
 2989.0000   116.9466  -999.2500
 2989.5000   116.0691  -999.2500
 2990.0000   114.7087  -999.2500
 2990.5000   118.7565  -999.2500
 2991.0000   117.8569  -999.2500
 2991.5000   120.3770  -999.2500
 2992.0000   117.5671  -999.2500
 2992.5000   120.8004  -999.2500
 2993.0000   120.0655  -999.2500
 2993.5000   123.4024  -999.2500
 2994.0000   123.9734  -999.2500
 2994.5000   125.2846  -999.2500
 2995.0000   126.2368  -999.2500
 2995.5000   129.0054  -999.2500
 2996.0000   126.6261  -999.2500
 2996.5000   131.0708  -999.2500
 2997.0000   131.3631  -999.2500
 2997.5000   134.1973  -999.2500
 2998.0000   136.9492  -999.2500
 2998.5000   139.5677  -999.2500
 2999.0000   142.1934  -999.2500
 2999.5000   145.4415  -999.2500
 3000.0000   153.6110  -999.2500
 3000.5000   159.4121  -999.2500
 3001.0000   158.2465  -999.2500
 3001.5000   153.3177  -999.2500
 3002.0000   143.6306  -999.2500
 3002.5000   133.7584  -999.2500
 3003.0000   123.9549  -999.2500
 3003.5000   117.1091  -999.2500
 3004.0000   116.4930  -999.2500
 3004.5000   116.7209  -999.2500
 3005.0000   117.3295  -999.2500
 3005.5000   119.6168  -999.2500
 3006.0000   121.9109  -999.2500
 3006.5000   122.0941  -999.2500
 3007.0000   123.6463  -999.2500
 3007.5000   124.4659  -999.2500
 3008.0000   126.7221  -999.2500
 3008.5000   125.5961  -999.2500
 3009.0000   133.4824  -999.2500
 3009.5000   134.6587  -999.2500
 3010.0000   130.0442  -999.2500
 3010.5000   135.8343  -999.2500
 3011.0000   138.5901  -999.2500
 3011.5000   140.8253  -999.2500
 3012.0000   143.1886  -999.2500
 3012.5000   149.1930  -999.2500
 3013.0000   152.8235  -999.2500
 3013.5000   151.9281  -999.2500
 3014.0000   154.1228  -999.2500
 3014.5000   148.0789  -999.2500
 3015.0000   139.5417  -999.2500
 3015.5000   130.9536  -999.2500
 3016.0000   123.2577  -999.2500
 3016.5000   122.8707  -999.2500
 3017.0000   124.6384  -999.2500
 3017.5000   126.6890  -999.2500
 3018.0000   129.0720  -999.2500
 3018.5000   131.3568  -999.2500
 3019.0000   134.9677  -999.2500
 3019.5000   137.7321  -999.2500
 3020.0000   139.9179  -999.2500
 3020.5000   143.6267  -999.2500
 3021.0000   145.0352  -999.2500
 3021.5000   147.6072  -999.2500
 3022.0000   149.9065  -999.2500
 3022.5000   150.3985  -999.2500
 3023.0000   155.4020  -999.2500
 3023.5000   162.2564  -999.2500
 3024.0000   169.4272  -999.2500
 3024.5000   173.0943  -999.2500
 3025.0000   173.8224  -999.2500
 3025.5000   169.7585  -999.2500
 3026.0000   172.1778  -999.2500
 3026.5000   166.5729  -999.2500
 3027.0000   166.7229  -999.2500
 3027.5000   166.1012  -999.2500
 3028.0000   165.4916  -999.2500
 3028.5000   165.5373  -999.2500
 3029.0000   164.3586  -999.2500
 3029.5000   163.5104  -999.2500
 3030.0000   164.9005  -999.2500
 3030.5000   164.3850  -999.2500
 3031.0000   164.7258  -999.2500
 3031.5000   168.2769  -999.2500
 3032.0000   168.2568  -999.2500
 3032.5000   165.5936  -999.2500
 3033.0000   164.2296  -999.2500
 3033.5000   163.4244  -999.2500
 3034.0000   161.6914  -999.2500
 3034.5000   162.6617  -999.2500
 3035.0000   164.6499  -999.2500
 3035.5000   166.6316  -999.2500
 3036.0000   168.4839  -999.2500
 3036.5000   169.2691  -999.2500
 3037.0000   169.7569  -999.2500
 3037.5000   169.5450  -999.2500
