~VERSION INFORMATION
 VERS.                2.0:   CWLS LOG ASCII STANDARD - VERSION 2.0
 WRAP.                 NO:   ONE LINE PER DEPTH STEP
~WELL INFORMATION
#MNEM.UNIT      DATA TYPE    INFORMATION
#----------   ------------   ------------------------------
 STRT.F            0.0000:   START DEPTH
 STOP.F         3139.0000:   STOP DEPTH
 STEP.F            0.5000:   STEP LENGTH
 NULL.          -999.2500:   NO VALUE
 COMP. BROWN JOHN E&C INC:   COMPANY
 WELL.       TX-10 #63-10:   WELL
 FLD .             TEAPOT:   FIELD
 LOC .      S10 T38N R78W:   LOCATION
 CNTY.            NATRONA:   COUNTY
 STAT.            WYOMING:   STATE
 CTRY. UNITED STATES OF AMERICA:   COUNTRY
 SRVC.       Schlumberger:   SERVICE COMPANY
 DATE.        05-OCT-1982:   LOGDATE
 API .       490251090100:   API NUMBER
~CURVE INFORMATION
#MNEM.UNIT       API CODE    CURVE DESCRIPTION
#----------   ------------   ------------------------------
 DEPT.F                  :   
 DPHI.DEC    45 890 12 00:   DENSITY POROSITY  SANDSTONE
 GRD .GAPI   45 310 01 00:   GAMMA RAY FROM DENSITY LOG
 NPHI.DEC    42 890 03 00:   NEUTRON POROSITY SANDSTONE
 CALD.IN     45 280 60 00:   CALIPER FROM DENSITY LOG
 CORR.G/C3   45 356 01 00:   DENSITY CORRECTION
 RHOB.G/C3   45 350 01 00:   BULK DENSITY
 ILD .OHMM   07 120 46 00:   INDUCTION LOG DEEP
 ILM .OHMM   07 120 44 00:   INDUCTION LOG MEDIUM
 SFLU.OHMM   07 220 01 00:   SPHERICALLY FOCUSED LOG UNAVERAGED RESISTIVITY
 SPR .MV     07 010 01 00:   SPONTANEOUS POTENTIAL
~PARAMETER INFORMATION
#MNEM.UNIT          VALUE    DESCRIPTION
#----------   ------------   ------------------------------
 PD  .                 GL:   PERMANENT DATUM
 EPD .F              5189:   ELEVATION PERMANENT DATUM
 LMF .                 KB:   LOG MEASURED FROM
 DAPD.F                10:   FEET ABOVE PERMANENT DATUM
 DMF .                 KB:   DRILLING MEASURED FROM
 EKB .F              5199:   KELLING BUSHING
 EGL .F              5189:   GROUND LEVEL
 DATE.        05-OCT-1982:   RUN DATE
 RUN .                  1:   RUN NUMBER
 DD  .F              3200:   DEPTH DRILLER
 DL  .F              3142:   DEPTH LOGGER
 BLI .F              3139:   BOTTOM LOG INTERVAL
 TLI .F               484:   TOP LOG INTERVAL
 CS  .IN            9.625:   CASING SIZE
 CBD .F               482:   CASING BOTTOM DRILLER
 CBL .F               484:   CASING BOTTOM LOGGER
 BS  .IN            7.875:   BIT SIZE
 BSD .F              3200:   BIT SIZE AT DEPTH
 DFT .        KCL/POLYMER:   DRILLING FLUID TYPE
 DFD .                8.6:   DRILLING FLUID DENSITY
 DFV .                 38:   DRILLING FLUID VISCOSITY
 DFPH.                8.5:   DRILLING FLUID PH
 DFL .                6.8:   DRILLING FLUID LOSS
 MSS .           MUD TANK:   MUD SAMPLE SOURCE
 RMS .OHMM            .40:   RESISTIVITY MUD SAMPLE
 MST .F                64:   MUD SAMPLE TEMPERATURE
 RMF .OHMM            .34:   RESISTIVITY MUD FILTRATE SAMPLE
 MFST.F                64:   MUD FILTRATE SAMPLE TEMPERATURE
 RMC .OHMM            .36:   RESISTIVITY MUD CAKE
 MCST.F                64:   MUD CAKE SAMPLE TEMPERATURE
 MFSS.               MEAS:   MUD FILTRATE SAMPLE SOURCE
 MCSS.               CALC:   MUD CAKE SAMPLE SOURCE
 RMB .OHMM             .2:   RESISTIVITY MUD AT BHT
 BHT .F               125:   BOTTOM HOLE TEMPERATURE
 TCS .HRS            2300:   TIME CURCULATED STOPPED
 TLAB.HRS            0500:   TIME LOGGER AT BOTTOM
 MRT .F               125:   MAXIMUM RECORDED TEMPERATURE
 LUN .               8043:   LOGGING UNIT NUMBER
 LUL .                GLT:   LOGGING UNIT LOCATION
 ENGI.            NEUFFER:   RECORDING ENGINEER
 WITN.             STRONG:   WITNESSED BY
 CLNT.            A2DTECH:   CLIENT CODE
 ORIG.           5" PRINT:   ORIGIN OF DATA
 UWI .       490251090100:   UNIQUE WELL ID
 DICO. A2D Technologies, Inc.:   DIGITIZING COMPANY
~OTHER INFORMATION
~A    DEPT    DPHI          GRD     NPHI       CALD       CORR       RHOB        ILD        ILM       SFLU        SPR   
# ...
  469.0000  -999.2500    54.1663  -999.2500  -999.2500  -999.2500  -999.2500  -999.2500  -999.2500  -999.2500  -999.2500
  469.5000  -999.2500    51.0474  -999.2500  -999.2500  -999.2500  -999.2500  -999.2500  -999.2500  -999.2500  -999.2500
  470.0000  -999.2500    50.5919  -999.2500  -999.2500  -999.2500  -999.2500  -999.2500  -999.2500  -999.2500  -999.2500
  470.5000  -999.2500    52.3402  -999.2500  -999.2500  -999.2500  -999.2500  -999.2500  -999.2500  -999.2500  -999.2500
  471.0000  -999.2500    53.8715  -999.2500  -999.2500  -999.2500  -999.2500  -999.2500  -999.2500  -999.2500  -999.2500
  471.5000  -999.2500    55.8411  -999.2500  -999.2500  -999.2500  -999.2500  -999.2500  -999.2500  -999.2500  -999.2500
  472.0000  -999.2500    58.2574  -999.2500  -999.2500  -999.2500  -999.2500  -999.2500  -999.2500  -999.2500  -999.2500
  472.5000  -999.2500    60.8949  -999.2500  -999.2500  -999.2500  -999.2500  -999.2500  -999.2500  -999.2500  -999.2500
  473.0000  -999.2500    62.6524  -999.2500  -999.2500  -999.2500  -999.2500  -999.2500  -999.2500  -999.2500  -999.2500
  473.5000  -999.2500    63.9533  -999.2500  -999.2500  -999.2500  -999.2500  -999.2500  -999.2500  -999.2500  -999.2500
  474.0000  -999.2500    61.9449  -999.2500  -999.2500  -999.2500  -999.2500  -999.2500  -999.2500  -999.2500  -999.2500
  474.5000  -999.2500    60.8214  -999.2500  -999.2500  -999.2500  -999.2500  -999.2500  -999.2500  -999.2500  -999.2500
  475.0000  -999.2500    61.0374  -999.2500  -999.2500  -999.2500  -999.2500  -999.2500  -999.2500  -999.2500  -999.2500
  475.5000  -999.2500    61.6717  -999.2500  -999.2500  -999.2500  -999.2500  -999.2500  -999.2500  -999.2500  -999.2500
  476.0000  -999.2500    57.0041  -999.2500  -999.2500  -999.2500  -999.2500  -999.2500  -999.2500  -999.2500  -999.2500
  476.5000  -999.2500    51.8983  -999.2500  -999.2500  -999.2500  -999.2500  -999.2500  -999.2500  -999.2500  -999.2500
  477.0000  -999.2500    48.3411  -999.2500  -999.2500  -999.2500  -999.2500  -999.2500  -999.2500  -999.2500  -999.2500
  477.5000  -999.2500    53.4080  -999.2500  -999.2500  -999.2500  -999.2500  -999.2500  -999.2500  -999.2500  -999.2500
  478.0000  -999.2500    55.1606  -999.2500  -999.2500  -999.2500  -999.2500  -999.2500  -999.2500  -999.2500  -999.2500
  478.5000  -999.2500    53.8159  -999.2500  -999.2500  -999.2500  -999.2500  -999.2500  -999.2500  -999.2500  -999.2500
  479.0000  -999.2500    50.4474     0.6019  -999.2500  -999.2500  -999.2500  -999.2500  -999.2500  -999.2500  -999.2500
  479.5000  -999.2500    49.7946     0.6016  -999.2500  -999.2500  -999.2500  -999.2500  -999.2500  -999.2500  -999.2500
  480.0000  -999.2500    67.8447     0.6013  -999.2500  -999.2500  -999.2500  -999.2500  -999.2500  -999.2500  -999.2500
  480.5000  -999.2500    54.4073     0.5625  -999.2500  -999.2500  -999.2500  -999.2500  -999.2500  -999.2500  -999.2500
  481.0000  -999.2500    54.4073     0.5338  -999.2500  -999.2500  -999.2500  -999.2500  -999.2500  -999.2500  -999.2500
  481.5000  -999.2500    53.7994     0.4925  -999.2500  -999.2500  -999.2500  -999.2500  -999.2500  -999.2500  -999.2500
  482.0000  -999.2500    53.7629     0.4538  -999.2500  -999.2500  -999.2500  -999.2500  -999.2500  -999.2500  -999.2500
  482.5000  -999.2500    53.1915     0.4126  -999.2500  -999.2500  -999.2500  -999.2500  -999.2500  -999.2500  -999.2500
  483.0000  -999.2500    52.5836     0.4079  -999.2500  -999.2500  -999.2500  -999.2500  -999.2500  -999.2500  -999.2500
  483.5000  -999.2500    50.7599     0.4114  -999.2500  -999.2500  -999.2500  -999.2500  -999.2500  -999.2500  -999.2500
  484.0000     0.2612    50.8894     0.4078     9.5497    -0.1720     2.1969  2004.4227  1827.7429     0.2371   -42.6136
  484.5000     0.0560    64.7416     0.4070     9.4692    -0.0450     2.5237  2004.2604  1802.3257     0.2037   -60.6491
  485.0000     0.0439    71.4286     0.4141     9.7116     0.1321     2.5927  2004.1298  1103.7096     0.6870   -72.2034
  485.5000     0.0381    75.6839     0.4135     9.9693     0.1885     2.5725  1976.5172   555.6243     3.0553   -93.1816
  486.0000     0.0746    77.8399     0.3977    10.1663     0.2015     2.4869  1595.5802  1001.5782     8.6719  -103.3686
  486.5000     0.1432    79.3313     0.3717    10.3329     0.1800     2.4172   147.3671   842.6312    10.3772  -111.5796
  487.0000     0.1515    80.2432     0.3670    10.4085     0.1846     2.4052     2.1993     6.7546     9.3540  -118.1189
  487.5000     0.1409    80.5471     0.3623    10.4840     0.2013     2.4247     4.1221     4.7162     8.8498  -122.6825
  488.0000     0.1326    80.8754     0.3579    10.5596     0.2106     2.4396    15.7326     5.7603     8.4893  -126.1418
  488.5000     0.1288    81.1550     0.3661    10.5897     0.2013     2.4426   351.1045     6.2136     8.7261  -130.2910
  489.0000     0.1338    81.7629     0.3747    10.5742     0.1890     2.4306   886.8750     7.1323     9.0940  -133.6387
  489.5000     0.1406    82.3708     0.3788    10.4980     0.1806     2.4096   711.0199     8.1868     9.1561  -136.9865
  490.0000     0.1515    82.3708     0.3726    10.4067     0.1736     2.3946    11.2915    10.3504     9.0290  -139.1489
  490.5000     0.1602    81.7629     0.3718    10.3425     0.1675     2.3803     8.2455    10.6386     8.7213  -140.6436
  491.0000     0.1707    81.1550     0.3741    10.2543     0.1644     2.3593     7.2575    10.6360     9.0889  -141.4078
  491.5000     0.1818    79.9392     0.3765    10.2236     0.1598     2.3406     7.3579    10.9317     9.3427  -141.5641
  492.0000     0.1939    78.6910     0.3715    10.2234     0.1552     2.3338     8.2168    12.2056     9.2130  -140.0486
  492.5000     0.1927    77.5076     0.3579    10.2382     0.1521     2.3346     9.0003    15.0117     8.9607  -137.7744
  493.0000     0.1930    78.4195     0.3402    10.2379     0.1460     2.3345     9.8991    11.2307     8.5954  -134.8912
  493.5000     0.1975    80.8511     0.3267    10.2225     0.1429     2.3278    10.1758     7.7340     8.3600  -129.2724
  494.0000     0.1989    83.0030     0.3191    10.2526     0.1705     2.3323     9.2375     6.6264     7.9094  -122.7417
  494.5000     0.1662    85.4103     0.3315    10.2834     0.2474     2.3975     8.7995     6.3279     7.6928  -115.8102
  495.0000     0.1333    86.6261     0.3444    10.7678     0.2519     2.4381     8.3852     6.2831     7.4819  -108.1618
  495.5000     0.1309    88.1459     0.3518    11.2986     0.2038     2.4342     8.1001     6.3695     7.3783  -104.0627
  496.0000     0.1589    88.7538     0.3562    11.7232     0.1521     2.3839     7.8790     6.5953     7.3773  -100.5723
  496.5000     0.1783    89.9696     0.3586    11.9961     0.0693     2.3577     7.6639     6.8687     7.4790   -97.5107
  497.0000     0.1651    92.0973     0.3562    12.2233     0.0510     2.3774     7.6632     6.9153     7.6876   -95.4141
  497.5000     0.1518    91.7933     0.3480    12.3444     0.0448     2.4094     7.7158     6.6790     7.5808   -93.8987
  498.0000     0.1433    89.6616     0.3403    12.4048     0.0565     2.4288     7.8768     6.5861     7.2720   -92.6872
  498.5000     0.1347    89.0577     0.3389    12.4349     0.0951     2.4357     8.0411     6.7224     7.1219   -91.4757
  499.0000     0.1336    90.5775     0.3462    12.3738     0.1226     2.4285     8.3230     7.0538     7.1208   -90.4173
  499.5000     0.1457    92.0973     0.3468    11.9942     0.1332     2.4063     8.5555     7.3002     7.3194   -89.9657
  500.0000     0.1557    95.1368     0.3492    11.2807     0.0775     2.3846     8.4960     7.4515     7.5235   -90.2739
  500.5000     0.1359    98.2512     0.3521    10.7190     0.0629     2.3837     8.3213     7.5017     7.3682   -90.2782
  501.0000     0.1274    99.6960     0.3489    10.3803     0.0690     2.4175     8.1901     7.4998     7.2659   -90.5866
  501.5000     0.1082   100.6079     0.3431    10.3390     0.0764     2.4677     7.7650     7.2941     7.3155   -90.8958
  502.0000     0.0873   100.6079     0.3348    10.3756     0.0964     2.5007     7.0491     6.7128     7.3653   -91.0521
