~VERSION INFORMATION
 VERS.                2.0:   CWLS LOG ASCII STANDARD - VERSION 2.0
 WRAP.                 NO:   ONE LINE PER DEPTH STEP
~WELL INFORMATION
#MNEM.UNIT      DATA TYPE    INFORMATION
#----------   ------------   ------------------------------
 STRT.F           32.0000:   START DEPTH
 STOP.F          812.0000:   STOP DEPTH
 STEP.F            0.5000:   STEP LENGTH
 NULL.          -999.2500:   NO VALUE
 COMP. FENIX & SCISSON INC:   COMPANY
 WELL.       75 SX #15-15:   WELL
 FLD .             TEAPOT:   FIELD
 LOC .      S15 T38N R78W:   LOCATION
 CNTY.            NATRONA:   COUNTY
 STAT.            WYOMING:   STATE
 CTRY. UNITED STATES OF AMERICA:   COUNTRY
 SRVC.              Welex:   SERVICE COMPANY
 DATE.        28-FEB-1977:   LOGDATE
 API .       490251030100:   API NUMBER
~CURVE INFORMATION
#MNEM.UNIT       API CODE    CURVE DESCRIPTION
#----------   ------------   ------------------------------
 DEPT.F                  :   
 SPR .MV     07 010 01 00:   SPONTANEOUS POTENTIAL
 ILD .OHMM   07 120 46 00:   INDUCTION LOG DEEP
 SGRD.OHMM   07 220 05 00:   SHALLOW RESISTIVITY
 ILM .OHMM   07 120 44 00:   INDUCTION LOG MEDIUM
 GRD .GAPI   45 310 01 00:   GAMMA RAY FROM DENSITY LOG
 CALD.IN     45 280 60 00:   CALIPER FROM DENSITY LOG
 RHOB.G/C3   45 350 01 00:   BULK DENSITY
 DPHI.DEC    45 890 12 00:   DENSITY POROSITY SANDSTONE
 CORR.G/C3   45 356 01 00:   DENSITY CORRECTION
~PARAMETER INFORMATION
#MNEM.UNIT          VALUE    DESCRIPTION
#----------   ------------   ------------------------------
 PD  .                 GL:   PERMANENT DATUM
 EPD .F              5264:   ELEVATION PERMANENT DATUM
 LMF .                 GL:   LOG MEASURED FROM
 DMF .                 GL:   DRILLING MEASURED FROM
 EGL .F              5264:   GROUND LEVEL
 DATE.          2-28-1977:   RUN DATE
 RUN .                  1:   RUN NUMBER
 DD  .F               830:   DEPTH DRILLER
 DL  .F               814:   DEPTH LOGGER
 BLI .F               812:   BOTTOM LOG INTERVAL
 TLI .F                42:   TOP LOG INTERVAL
 CS  .IN            8.625:   CASING SIZE
 CBD .F                40:   CASING BOTTOM DRILLER
 CBL .F                42:   CASING BOTTOM LOGGER
 BS  .IN            7.875:   BIT SIZE
 BSD .F               830:   BIT SIZE AT DEPTH
 DFT .           CHEM-GEL:   DRILLING FLUID TYPE
 DFD .                9.3:   DRILLING FLUID DENSITY
 DFV .                 38:   DRILLING FLUID VISCOSITY
 DFPH.               10.5:   DRILLING FLUID PH
 DFL .               16.2:   DRILLING FLUID LOSS
 MSS .          FLOW LINE:   MUD SAMPLE SOURCE
 RMS .OHMM           0.44:   RESISTIVITY MUD SAMPLE
 MST .F                62:   MUD SAMPLE TEMPERATURE
 RMF .OHMM            .38:   RESISTIVITY MUD FILTRATE SAMPLE
 MFST.F                62:   MUD FILTRATE SAMPLE TEMPERATURE
 RMC .OHMM           0.79:   RESISTIVITY MUD CAKE
 MCST.F                62:   MUD CAKE SAMPLE TEMPERATURE
 MFSS.           MEASURED:   MUD FILTRATE SAMPLE SOURCE
 MCSS.           MEASURED:   MUD CAKE SAMPLE SOURCE
 RMB .OHMM           .368:   RESISTIVITY MUD AT BHT
 BHT .F                74:   BOTTOM HOLE TEMPERATURE
 TCS .HRS               3:   TIME CURCULATED STOPPED
 MRT .F                74:   MAXIMUM RECORDED TEMPERATURE
 LUN .               8611:   LOGGING UNIT NUMBER
 LUL .           GILLETTE:   LOGGING UNIT LOCATION
 ENGI.               DOAK:   RECORDING ENGINEER
 WITN.               JAPP:   WITNESSED BY
 CLNT.            A2DTECH:   CLIENT CODE
 ORIG.       2", 5" PRINT:   ORIGIN OF DATA
 UWI .       490251030100:   UNIQUE WELL ID
 DICO. A2D Technologies, Inc.:   DIGITIZING COMPANY
~OTHER INFORMATION
~A   DEPT      SPR        ILD       SGRD        ILM         GRD        CALD       RHOB       DPHI      CORR  
# ...
  470.0000   -46.9539     8.9391    12.8153    10.5088   110.6940     7.7648     2.4557     0.1078     0.0236
  470.5000   -47.0421     8.9306    12.9691    10.4998   111.7440     7.7680     2.4531     0.1112     0.0231
  471.0000   -47.1302     8.9221    13.1532    10.4909   113.8642     7.7712     2.4504     0.1157     0.0227
  471.5000   -47.2182     8.9136    13.0678    10.4819   116.4090     7.7744     2.4477     0.1181     0.0223
  472.0000   -47.3061     8.9051    12.9643    10.4730   118.9557     7.7776     2.4451     0.1193     0.0218
  472.5000   -47.3942     8.8966    12.8617    10.4641   121.1196     7.7808     2.4424     0.1205     0.0214
  473.0000   -47.4822     8.8881    12.7598    10.4555   120.3965     7.7840     2.4397     0.1201     0.0210
  473.5000   -47.5704     8.8796    12.6587    10.4350   119.0814     7.7872     2.4417     0.1193     0.0205
  474.0000   -47.5886     8.8711    12.5612    10.3597   119.6382     7.7904     2.4462     0.1159     0.0201
  474.5000   -47.5508     8.8627    12.6382    10.2858   119.9071     7.7936     2.4508     0.1127     0.0197
  475.0000   -47.5125     8.8542    12.7594    10.2125   118.2808     7.7968     2.4554     0.1095     0.0193
  475.5000   -47.4738     8.7743    13.1981    10.1396   116.7602     7.7991     2.4594     0.1063     0.0183
  476.0000   -47.4355     8.6665    14.0229    10.0673   118.4719     7.7936     2.4548     0.1088     0.0151
  476.5000   -47.4233     8.5599    13.2744     9.9955   122.2851     7.7882     2.4500     0.1124     0.0121
  477.0000   -47.5308     8.4547    11.8858     9.9243   126.3595     7.7828     2.4453     0.1159     0.0091
  477.5000   -47.6356     8.3508    12.0591     9.8535   124.2893     7.7775     2.4409     0.1173     0.0094
  478.0000   -47.7403     8.2481    12.2664     9.7832   121.1357     7.7721     2.4467     0.1177     0.0099
  478.5000   -47.8450     8.1467    12.4460     9.7135   118.4638     7.7667     2.4527     0.1147     0.0103
  479.0000   -47.9497     8.0466    12.4460     9.6442   115.9559     7.7613     2.4599     0.1087     0.0108
  479.5000   -48.0544     7.9476    12.2360     9.5754   117.5174     7.7559     2.4692     0.1026     0.0128
  480.0000   -48.1591     7.8499    12.0047     9.5071   118.7151     7.7506     2.4787     0.0966     0.0160
  480.5000   -48.2638     7.7266    11.6689     9.4394   116.9269     7.7451     2.4815     0.0958     0.0192
  481.0000   -48.3685     7.5396    12.7448     9.3720   117.2566     7.7397     2.4759     0.1002     0.0224
  481.5000   -48.4732     7.3572    16.2566     9.0714   120.2509     7.7422     2.4695     0.1051     0.0256
  482.0000   -48.5779     7.1791    11.4559     8.7027   123.0266     7.7457     2.4642     0.1098     0.0288
  482.5000   -48.6826     7.0054    10.7541     8.3491   123.1840     7.7491     2.4628     0.1087     0.0320
  483.0000   -48.7874     6.8358    10.0977     8.0098   120.7994     7.7526     2.4613     0.1074     0.0352
  483.5000   -48.8936     6.6704     9.4785     7.7838   118.9493     7.7561     2.4606     0.1061     0.0384
  484.0000   -48.9954     6.5318     8.9054     7.8182   117.1276     7.7595     2.4648     0.1048     0.0409
  484.5000   -48.8438     6.6557     8.4585     7.8469   116.6434     7.7630     2.4699     0.1035     0.0400
  485.0000   -48.6740     6.7661    10.2658     7.9462   117.0735     7.7665     2.4716     0.1033     0.0391
  485.5000   -48.5055     6.8784    11.2550     8.0654   118.0361     7.7699     2.4645     0.1055     0.0382
  486.0000   -48.3372     6.9925    11.1252     8.1866   121.7917     7.7734     2.4576     0.1077     0.0374
  486.5000   -48.1689     7.1084    11.0415     8.3096   127.0812     7.7768     2.4549     0.1094     0.0365
  487.0000   -48.0004     7.2264    11.2375     8.4344   129.6200     7.7793     2.4579     0.1089     0.0357
  487.5000   -47.8323     7.3462    11.5088     8.5611   129.1420     7.7809     2.4608     0.1072     0.0348
  488.0000   -47.6623     7.4681    11.7769     8.7852   126.2011     7.7925     2.4637     0.1062     0.0340
  488.5000   -47.6171     7.5920    11.6599     9.2145   126.9668     7.8041     2.4667     0.1078     0.0331
  489.0000   -47.6338     7.7179    11.6460     9.3547   127.7067     7.8158     2.4623     0.1105     0.0322
  489.5000   -47.6519     7.8529    11.6319     9.0494   123.8323     7.8191     2.4545     0.1133     0.0314
  490.0000   -47.6698     7.8529    11.6182     8.7706   118.8760     7.8192     2.4466     0.1162     0.0305
  490.5000   -47.6877     7.8103    11.6044     8.8018   119.1042     7.8189     2.4386     0.1191     0.0297
  491.0000   -47.7055     7.7809    11.5908     8.8544   119.3112     7.8129     2.4307     0.1220     0.0288
  491.5000   -47.7233     7.6292    11.5774     8.9337   118.5251     7.8067     2.4340     0.1234     0.0280
  492.0000   -47.7411     7.4876    11.5623     8.7999   118.6097     7.8006     2.4401     0.1204     0.0270
  492.5000   -47.7589     7.3486    11.3091     8.5316   118.7503     7.7945     2.4462     0.1175     0.0294
  493.0000   -47.7766     7.2126    11.0426     8.5778   118.9090     7.7884     2.4523     0.1146     0.0325
  493.5000   -47.7955     7.0772    10.7823     8.6260   119.5225     7.7822     2.4564     0.1114     0.0322
  494.0000   -47.8593     6.8722    10.6422     8.6931   120.1471     7.7761     2.4550     0.1113     0.0313
  494.5000   -47.9811     6.6293    10.7562     8.5309   120.4137     7.7700     2.4537     0.1121     0.0305
  495.0000   -48.1025     6.3963    10.8400     8.1265   120.1549     7.7639     2.4524     0.1132     0.0296
  495.5000   -48.2243     6.1715    10.4807     7.6700   119.6066     7.7578     2.4511     0.1141     0.0288
  496.0000   -48.3462     5.9546    10.1123     7.2376   120.9015     7.7516     2.4498     0.1149     0.0279
  496.5000   -48.4674     5.7453     9.7569     6.8302   122.8984     7.7455     2.4485     0.1157     0.0271
  497.0000   -48.5916     5.5433     9.3820     6.4458   125.5095     7.7394     2.4464     0.1165     0.0263
  497.5000   -48.4254     5.3337     8.1914     6.1239   123.9252     7.7333     2.4395     0.1173     0.0254
  498.0000   -48.1766     5.3494     6.3538     6.1239   121.3031     7.7272     2.4323     0.1186     0.0246
  498.5000   -47.9237     5.3664     7.1920     6.3664   120.4809     7.7208     2.4335     0.1200     0.0237
  499.0000   -47.6715     5.3831     8.9337     6.6299   125.5407     7.7227     2.4374     0.1204     0.0230
  499.5000   -47.4195     5.5828    10.1109     6.9043   128.8667     7.7267     2.4360     0.1202     0.0208
  500.0000   -47.1674     5.7844    10.2730     7.1806   132.9485     7.7307     2.4318     0.1222     0.0182
  500.5000   -46.9154     5.9933    10.4389     7.3769   133.8722     7.7347     2.4277     0.1252     0.0156
  501.0000   -46.6582     6.2098    10.6050     7.5785   128.7458     7.7386     2.4282     0.1267     0.0131
  501.5000   -46.5464     6.4340    10.7750     7.7856   124.9107     7.7426     2.4388     0.1212     0.0129
  502.0000   -46.4689     6.6664    10.9477     7.9984   122.1806     7.7466     2.4492     0.1166     0.0149
  502.5000   -46.3919     6.9071    11.1232     8.2648   121.5084     7.7505     2.4596     0.1120     0.0177
  503.0000   -46.3146     7.1016    11.2468     8.5658   120.8370     7.7545     2.4671     0.1074     0.0214
  503.5000   -46.2372     7.2451    10.5446     8.8779   118.8396     7.7585     2.4706     0.1039     0.0251
  504.0000   -46.1597     7.3916    10.9982     9.2013   116.6064     7.7624     2.4741     0.1010     0.0288
  504.5000   -46.0821     7.5409    11.9958     9.5286   114.1013     7.7664     2.4776     0.0981     0.0325
  505.0000   -46.0086     7.6933    11.9295     9.4942   115.8293     7.7704     2.4806     0.0993     0.0311
  505.5000   -45.9852     7.8488    11.8277     9.4586   118.1430     7.7744     2.4769     0.1022     0.0290
  506.0000   -45.9638     7.9489    11.7245     9.4410   119.5401     7.7783     2.4728     0.1050     0.0270
