~VERSION INFORMATION
 VERS.                2.0:   CWLS LOG ASCII STANDARD - VERSION 2.0
 WRAP.                 NO:   ONE LINE PER DEPTH STEP
~WELL INFORMATION
#MNEM.UNIT      DATA TYPE    INFORMATION
#----------   ------------   ------------------------------
 STRT.F            0.0000:   START DEPTH
 STOP.F         2230.0000:   STOP DEPTH
 STEP.F            0.5000:   STEP LENGTH
 NULL.          -999.2500:   NO VALUE
 COMP. LAWRENCE/ALLISON INC:   COMPANY
 WELL. NPR 3 SH X 34 #48-34:   WELL
 FLD .            WILDCAT:   FIELD
 LOC .      S34 T39N R78W:   LOCATION
 CNTY.            NATRONA:   COUNTY
 STAT.            WYOMING:   STATE
 CTRY. UNITED STATES OF AMERICA:   COUNTRY
 SRVC.            Unknown:   SERVICE COMPANY
 DATE.        02-SEP-1991:   LOGDATE
 API .       490251110600:   API NUMBER
~CURVE INFORMATION
#MNEM.UNIT       API CODE    CURVE DESCRIPTION
#----------   ------------   ------------------------------
 DEPT.F                  :   
 ROP .MIN/FT 91 810 01 00:   RAT OF DRILLING PENETRATION
 TGAS.UNITS  91 830 01 00:   TOTAL GAS FROM HOTWIRE
 C1  .VF     91 831 01 00:   METHANE
 C2  .VF     91 832 01 00:   ETHANE
 C3  .VF     91 833 01 00:   PROPANE
 C4  .VF     91 834 01 00:   BUTANE
 TT  .US/F   81 520 00 00:   TRANSIT TIME
 GR  .GAPI   81 310 01 00:   GAMMA RAY FROM CEMENT BOND LOG
~PARAMETER INFORMATION
#MNEM.UNIT          VALUE    DESCRIPTION
#----------   ------------   ------------------------------
 EKB .F              5145:   KELLING BUSHING
 EGL .F              5135:   GROUND LEVEL
 DATE.          09-2-1991:   RUN DATE
 RUN .                  1:   RUN NUMBER
 BLI .F              2400:   BOTTOM LOG INTERVAL
 TLI .F              2200:   TOP LOG INTERVAL
 ENGI.           C. TOWER:   RECORDING ENGINEER
 WITN.            R. HUSK:   WITNESSED BY
 CLNT.            A2DTECH:   CLIENT CODE
 ORIG.           5" PRINT:   ORIGIN OF DATA
 UWI .       490251110600:   UNIQUE WELL ID
 DICO. A2D Technologies, Inc.:   DIGITIZING COMPANY
~OTHER INFORMATION
~A    DEPT     ROP       TGAS         C1         C2         C3         C4          TT         GR  
# ...
 1215.0000     0.5403     6.8604     9.7470     1.9388  -999.2500  -999.2500  -999.2500  -999.2500
 1215.5000     0.5397     6.8812     9.7514     1.9388  -999.2500  -999.2500  -999.2500  -999.2500
 1216.0000     0.5390     6.9019     9.7559     1.9388  -999.2500  -999.2500  -999.2500  -999.2500
 1216.5000     0.5383     6.9048     9.7604     1.9388  -999.2500  -999.2500  -999.2500  -999.2500
 1217.0000     0.5376     6.9048     9.7649     1.9388  -999.2500  -999.2500  -999.2500  -999.2500
 1217.5000     0.5370     6.9048     9.7694     1.9388  -999.2500  -999.2500  -999.2500  -999.2500
 1218.0000     0.5363     6.9048     9.7739     1.9388  -999.2500  -999.2500  -999.2500  -999.2500
 1218.5000     0.5356     6.9048     9.7783     1.9388  -999.2500  -999.2500  -999.2500  -999.2500
 1219.0000     0.5349     6.9048     9.7828     1.9388  -999.2500  -999.2500  -999.2500  -999.2500
 1219.5000     0.5343     6.9048     9.7873     1.9388  -999.2500  -999.2500  -999.2500  -999.2500
 1220.0000     0.5343     6.9048     9.7918     1.9388  -999.2500  -999.2500  -999.2500  -999.2500
 1220.5000     0.5349     6.9048     9.7963     1.9388  -999.2500  -999.2500  -999.2500  -999.2500
 1221.0000     0.5356     6.9048     9.8008     1.9388  -999.2500  -999.2500  -999.2500  -999.2500
 1221.5000     0.5362     6.9048     9.8053     1.9388  -999.2500  -999.2500  -999.2500  -999.2500
 1222.0000     0.5369     6.9048     9.8097     1.9388  -999.2500  -999.2500  -999.2500  -999.2500
 1222.5000     0.5376     6.9048     9.8142     1.9388  -999.2500  -999.2500  -999.2500  -999.2500
 1223.0000     0.5382     6.9048     9.8187     1.9388  -999.2500  -999.2500  -999.2500  -999.2500
 1223.5000     0.5389     6.9048     9.8232     1.9388  -999.2500  -999.2500  -999.2500  -999.2500
 1224.0000     0.5395     6.9048     9.8277     1.9388  -999.2500  -999.2500  -999.2500  -999.2500
 1224.5000     0.5402     6.9048     9.8322     1.9396  -999.2500  -999.2500  -999.2500  -999.2500
 1225.0000     0.5409     6.9048     9.8366     1.9440  -999.2500  -999.2500  -999.2500  -999.2500
 1225.5000     0.5415     6.9048     9.8411     1.9484  -999.2500  -999.2500  -999.2500  -999.2500
 1226.0000     0.5422     6.9048     9.8456     1.9527  -999.2500  -999.2500  -999.2500  -999.2500
 1226.5000     0.5429     6.9048     9.8501     1.9570  -999.2500  -999.2500  -999.2500  -999.2500
 1227.0000     0.5435     6.9048     9.8546     1.9613  -999.2500  -999.2500  -999.2500  -999.2500
 1227.5000     0.5442     6.9048     9.8591     1.9657  -999.2500  -999.2500  -999.2500  -999.2500
 1228.0000     0.5448     6.9048     9.8636     1.9700  -999.2500  -999.2500  -999.2500  -999.2500
 1228.5000     0.5455     6.9048     9.8680     1.9743  -999.2500  -999.2500  -999.2500  -999.2500
 1229.0000     0.5462     6.9048     9.8725     1.9787  -999.2500  -999.2500  -999.2500  -999.2500
 1229.5000     0.5465     6.9048     9.8770     1.9830  -999.2500  -999.2500  -999.2500  -999.2500
 1230.0000     0.5465     6.9048     9.8815     1.9873  -999.2500  -999.2500  -999.2500  -999.2500
 1230.5000     0.5465     6.9048     9.8860     1.9917  -999.2500  -999.2500  -999.2500  -999.2500
 1231.0000     0.5465     6.9048     9.8905     1.9960  -999.2500  -999.2500  -999.2500  -999.2500
 1231.5000     0.5465     6.9048     9.8949     2.0003  -999.2500  -999.2500  -999.2500  -999.2500
 1232.0000     0.5465     6.9048     9.8994     2.0047  -999.2500  -999.2500  -999.2500  -999.2500
 1232.5000     0.5465     6.9048     9.9039     2.0090  -999.2500  -999.2500  -999.2500  -999.2500
 1233.0000     0.5465     6.9048     9.9084     2.0133  -999.2500  -999.2500  -999.2500  -999.2500
 1233.5000     0.5465     6.9048     9.9129     2.0177  -999.2500  -999.2500  -999.2500  -999.2500
 1234.0000     0.5465     6.9048     9.9174     2.0220  -999.2500  -999.2500  -999.2500  -999.2500
 1234.5000     0.5465     6.9048     9.9219     2.0263  -999.2500  -999.2500  -999.2500  -999.2500
 1235.0000     0.5465     6.9048     9.9263     2.0307  -999.2500  -999.2500  -999.2500  -999.2500
 1235.5000     0.5465     6.9048     9.9308     2.0350  -999.2500  -999.2500  -999.2500  -999.2500
 1236.0000     0.5465     6.9048     9.9353     2.0393  -999.2500  -999.2500  -999.2500  -999.2500
 1236.5000     0.5465     6.9048     9.9398     2.0437  -999.2500  -999.2500  -999.2500  -999.2500
 1237.0000     0.5465     6.9048     9.9443     2.0480  -999.2500  -999.2500  -999.2500  -999.2500
 1237.5000     0.5465     6.9048     9.9488     2.0523  -999.2500  -999.2500  -999.2500  -999.2500
 1238.0000     0.5465     6.9048     9.9532     2.0566  -999.2500  -999.2500  -999.2500  -999.2500
 1238.5000     0.5472     6.9048     9.9577     2.0610  -999.2500  -999.2500  -999.2500  -999.2500
 1239.0000     0.5500     6.9048     9.9622     2.0653  -999.2500  -999.2500  -999.2500  -999.2500
 1239.5000     0.5526     6.9048     9.9667     2.0696  -999.2500  -999.2500  -999.2500  -999.2500
 1240.0000     0.5552     6.9048     9.9712     2.0740  -999.2500  -999.2500  -999.2500  -999.2500
 1240.5000     0.5578     6.9048     9.9757     2.0783  -999.2500  -999.2500  -999.2500  -999.2500
 1241.0000     0.5604     6.9048     9.9802     2.0826  -999.2500  -999.2500  -999.2500  -999.2500
 1241.5000     0.5630     6.9048     9.9846     2.0870  -999.2500  -999.2500  -999.2500  -999.2500
 1242.0000     0.5656     6.9048     9.9891     2.0913  -999.2500  -999.2500  -999.2500  -999.2500
 1242.5000     0.5682     6.9053     9.9936     2.0956  -999.2500  -999.2500  -999.2500  -999.2500
 1243.0000     0.5709     6.9038     9.9981     2.1000  -999.2500  -999.2500  -999.2500  -999.2500
 1243.5000     0.5698     6.9018    10.0026     2.1043  -999.2500  -999.2500  -999.2500  -999.2500
 1244.0000     0.5664     6.9268    10.0071     2.1086  -999.2500  -999.2500  -999.2500  -999.2500
 1244.5000     0.5629     5.9569    10.0115     2.1130  -999.2500  -999.2500  -999.2500  -999.2500
 1245.0000     0.5594     5.9485    10.0160     2.1173  -999.2500  -999.2500  -999.2500  -999.2500
 1245.5000     0.5559     5.9529    10.0205     2.1216  -999.2500  -999.2500  -999.2500  -999.2500
 1246.0000     0.5524     5.9522    10.0250     2.1260  -999.2500  -999.2500  -999.2500  -999.2500
 1246.5000     0.5489     5.9524    10.0295     2.1303  -999.2500  -999.2500  -999.2500  -999.2500
 1247.0000     0.5454     5.9524    10.0340     2.1346  -999.2500  -999.2500  -999.2500  -999.2500
 1247.5000     0.5419     5.9524    10.0385     2.1390  -999.2500  -999.2500  -999.2500  -999.2500
 1248.0000     0.5385     5.9524    10.0429     2.1428  -999.2500  -999.2500  -999.2500  -999.2500
 1248.5000     0.5349     5.9524    10.0474     2.1429  -999.2500  -999.2500  -999.2500  -999.2500
 1249.0000     0.5339     5.9524    10.0519     2.1429  -999.2500  -999.2500  -999.2500  -999.2500
 1249.5000     0.5339     5.9524    10.0564     2.1429  -999.2500  -999.2500  -999.2500  -999.2500
 1250.0000     0.5339     5.9524    10.0609     2.1429  -999.2500  -999.2500  -999.2500  -999.2500
 1250.5000     0.5339     5.9524    10.0654     2.1429  -999.2500  -999.2500  -999.2500  -999.2500
 1251.0000     0.5339     5.9524    10.0698     2.1429  -999.2500  -999.2500  -999.2500  -999.2500
 1251.5000     0.5339     5.9524    10.0743     2.1429  -999.2500  -999.2500  -999.2500  -999.2500
 1252.0000     0.5339     5.9524    10.0788     2.1429  -999.2500  -999.2500  -999.2500  -999.2500
 1252.5000     0.5339     5.9524    10.0833     2.1429  -999.2500  -999.2500  -999.2500  -999.2500
 1253.0000     0.5339     5.9524    10.0878     2.1429  -999.2500  -999.2500  -999.2500  -999.2500
 1253.5000     0.5339     5.9524    10.0923     2.1429  -999.2500  -999.2500  -999.2500  -999.2500
 1254.0000     0.5339     5.9524    10.0968     2.1429  -999.2500  -999.2500  -999.2500  -999.2500
 1254.5000     0.5339     5.9524    10.1012     2.1429  -999.2500  -999.2500  -999.2500  -999.2500
 1255.0000     0.5339     5.9524    10.1057     2.1429  -999.2500  -999.2500  -999.2500  -999.2500
