~VERSION INFORMATION
 VERS.                2.0:   CWLS LOG ASCII STANDARD - VERSION 2.0
 WRAP.                 NO:   ONE LINE PER DEPTH STEP
~WELL INFORMATION
#MNEM.UNIT      DATA TYPE    INFORMATION
#----------   ------------   ------------------------------
 STRT.F           66.0000:   START DEPTH
 STOP.F          892.0000:   STOP DEPTH
 STEP.F            0.5000:   STEP LENGTH
 NULL.          -999.2500:   NO VALUE
 COMP. LAWRENCE/ALLISON INC:   COMPANY
 WELL. NPR #3 #31-11 SX 2:   WELL
 FLD .             TEAPOT:   FIELD
 LOC .       S2 T38N R78W:   LOCATION
 CNTY.            NATRONA:   COUNTY
 STAT.            WYOMING:   STATE
 CTRY. UNITED STATES OF AMERICA:   COUNTRY
 SRVC.      Dresser Atlas:   SERVICE COMPANY
 DATE.        10-AUG-1985:   LOGDATE
 API .       490251103900:   API NUMBER
~CURVE INFORMATION
#MNEM.UNIT       API CODE    CURVE DESCRIPTION
#----------   ------------   ------------------------------
 DEPT.F                  :   
 PORD.DEC    45 890 12 00:   POROSITY DENSITY SANDSTONE
 CNC .DEC    42 890 03 00:   NEUTRON POROSITY SANDSTONE
 CORR.G/C3   45 356 01 00:   DENSITY CORRECTION
 DEN .G/C3   45 350 01 00:   COMPENSATED BULK DENSTIY
 CALD.IN     45 280 60 00:   CALIPER FROM DENSITY LOG
 SPR .MV     07 010 01 00:   SPONTANEOUS POTENTIAL
 RILD.OHMM   07 120 46 00:   INDUCTION LOG DEEP RESISTIVITY
 RILM.OHMM   07 120 44 00:   INDUCTION LOG MEDIUM RESISTIVITY
 RFOC.OHMM   07 220 04 00:   RESISTIVITY FOCUSED LOG
~PARAMETER INFORMATION
#MNEM.UNIT          VALUE    DESCRIPTION
#----------   ------------   ------------------------------
 PD  .                 GL:   PERMANENT DATUM
 EPD .F              5110:   ELEVATION PERMANENT DATUM
 LMF .                 GL:   LOG MEASURED FROM
 DMF .                 GL:   DRILLING MEASURED FROM
 EKB .F              5115:   KELLING BUSHING
 EGL .F              5110:   GROUND LEVEL
 DATE.        10-AUG-1985:   RUN DATE
 RUN .                  1:   RUN NUMBER
 DD  .F               899:   DEPTH DRILLER
 DL  .F               895:   DEPTH LOGGER
 BLI .F               892:   BOTTOM LOG INTERVAL
 CS  .IN            8.625:   CASING SIZE
 CBD .F                75:   CASING BOTTOM DRILLER
 CBL .F                78:   CASING BOTTOM LOGGER
 BS  .IN            7.875:   BIT SIZE
 BSD .F               899:   BIT SIZE AT DEPTH
 DFT .                KCL:   DRILLING FLUID TYPE
 MSS .           FLOWLINE:   MUD SAMPLE SOURCE
 RMS .OHMM            .21:   RESISTIVITY MUD SAMPLE
 MST .F                75:   MUD SAMPLE TEMPERATURE
 TCS .HRS            0200:   TIME CURCULATED STOPPED
 MRT .F               100:   MAXIMUM RECORDED TEMPERATURE
 LUN .               6274:   LOGGING UNIT NUMBER
 LUL .               GLTE:   LOGGING UNIT LOCATION
 ENGI.             RAUTIO:   RECORDING ENGINEER
 WITN.        LINDA FIVAS:   WITNESSED BY
 CLNT.            A2DTECH:   CLIENT CODE
 ORIG.           5" PRINT:   ORIGIN OF DATA
 UWI .       490251103900:   UNIQUE WELL ID
 DICO. A2D Technologies, Inc.:   DIGITIZING COMPANY
~OTHER INFORMATION
~A   DEPT     PORD        CNC       CORR        DEN       CALD        SPR       RILD       RILM       RFOC   
# ...
  723.0000     0.1845     0.2745     0.0406     2.3805     7.9754   -31.6651    12.7635    12.7300    12.0349
  723.5000     0.1881     0.2706     0.0209     2.3714     7.9895   -31.6724    13.2141    12.9060    12.4601
  724.0000     0.1909     0.2666     0.0027     2.3654     7.9885   -31.6797    13.4916    13.1741    12.8111
  724.5000     0.1924     0.2639     0.0012     2.3623     7.9875   -31.5356    13.6796    13.3554    13.0806
  725.0000     0.1924     0.2655     0.0026     2.3570     7.9864   -31.0893    13.7731    13.4451    13.4491
  725.5000     0.1933     0.2658     0.0086     2.3562     7.9852   -30.9263    14.0622    13.7380    13.6368
  726.0000     0.1966     0.2652     0.0145     2.3562     7.9841   -30.8014    13.9626    14.0115    13.6358
  726.5000     0.1999     0.2710     0.0129     2.3501     7.9831   -30.5061    13.7670    13.9095    13.5401
  727.0000     0.2011     0.2770    -0.0037     2.3456     7.9821   -30.0614    13.6695    13.7133    13.3520
  727.5000     0.1984     0.2776    -0.0158     2.3441     7.9811   -29.9156    13.3847    13.6145    13.2584
  728.0000     0.1948     0.2734     0.0022     2.3493     7.9800   -29.7717    13.1976    13.4225    12.9835
  728.5000     0.1915     0.2673     0.0141     2.3563     7.9790   -29.7808    12.9227    13.1413    12.7143
  729.0000     0.1900     0.2625     0.0141     2.3620     7.9779   -29.7882    12.6535    12.8600    12.4507
  729.5000     0.1918     0.2598     0.0140     2.3589     7.9767   -29.3207    12.6517    12.6837    12.4499
  730.0000     0.1912     0.2604     0.0124     2.3597     7.9757   -28.5944    12.7385    12.7698    12.4606
  730.5000     0.1894     0.2622     0.0123     2.3619     7.9747   -28.7530    12.8259    12.7655    12.4480
  731.0000     0.1870     0.2651     0.0002     2.3664     7.9736   -28.9116    12.7347    12.6734    12.4471
  731.5000     0.1885     0.2677    -0.0194     2.3631     7.9726   -29.2215    12.6445    12.5820    12.3599
  732.0000     0.1954     0.2704    -0.0421     2.3550     7.9716   -29.5314    12.6428    12.4913    12.2734
  732.5000     0.1960     0.2725    -0.0466     2.3550     7.9705   -29.5388    12.4660    12.2297    12.1029
  733.0000     0.1945     0.2734    -0.0181     2.3579     7.9694   -29.5461    12.3777    12.2149    11.8519
  733.5000     0.1920     0.2732    -0.0017     2.3639     7.9682   -29.4021    12.2901    12.1374    11.6062
  734.0000     0.1867     0.2723     0.0059     2.3707     7.9672   -29.4113    12.1036    11.8831    11.5110
  734.5000     0.1822     0.2702     0.0102     2.3775     7.9662   -29.2655    11.7830    11.7974    11.3646
  735.0000     0.1786     0.2684     0.0071     2.3834     7.9652   -29.1216    11.6182    11.5503    11.2850
  735.5000     0.1752     0.2663    -0.0005     2.3871     7.9641   -28.9776    11.4558    11.4670    11.2059
  736.0000     0.1725     0.2645    -0.0081     2.3908     7.9631   -28.8355    11.2956    11.2268    11.1274
  736.5000     0.1713     0.2624     0.0054     2.3915     7.9621   -28.8428    11.2156    11.0633    11.0495
  737.0000     0.1710     0.2609     0.0219     2.3922     7.9610   -28.8502    11.2141    10.9879    10.9721
  737.5000     0.1710     0.2600     0.0309     2.3930     7.9598   -28.8578    11.2126    11.0625    11.0480
  738.0000     0.1725     0.2615     0.0247     2.3913     7.9589   -28.8666    11.1332    11.1368    11.0471
  738.5000     0.1746     0.2624     0.0066     2.3869     7.9577   -28.8740    11.2096    11.2117    11.0463
  739.0000     0.1762     0.2609    -0.0175     2.3853     7.9566   -28.8813    11.1298    11.2863    11.0456
  739.5000     0.1765     0.2599    -0.0191     2.3845     7.9708   -28.8886    11.1283    11.2832    11.0448
  740.0000     0.1756     0.2636    -0.0087     2.3868     7.9698   -29.0473    11.1268    11.2802    11.1214
  740.5000     0.1744     0.2697    -0.0012     2.3875     7.9687   -29.0546    11.1253    11.2666    11.1205
  741.0000     0.1732     0.2688     0.0032     2.3883     7.9677   -29.0620    11.1238    11.2741    11.1197
  741.5000     0.1726     0.2652     0.0077     2.3912     7.9818   -29.0711    11.1223    11.2703    11.1190
  742.0000     0.1725     0.2615     0.0106     2.3904     7.9805   -28.9253    11.1204    11.1890    11.1180
  742.5000     0.1707     0.2594     0.0060     2.3941     7.9795   -28.9345    11.1189    11.1860    11.1173
  743.0000     0.1683     0.2613     0.0044     2.3986     7.9784   -28.7905    11.1174    11.1830    11.1165
  743.5000     0.1650     0.2629    -0.0002     2.4046     7.9774   -28.9491    11.0387    11.1800    11.1158
  744.0000     0.1590     0.2646     0.0053     2.4114     7.9764   -29.2590    11.0372    11.1769    11.1150
  744.5000     0.1536     0.2652     0.0223     2.4210     7.9754   -29.5689    11.0357    11.0956    11.1143
  745.0000     0.1481     0.2688     0.0418     2.4308     7.9895   -29.7277    11.1114    11.0926    11.0364
  745.5000     0.1496     0.2746     0.0342     2.4315     7.9882   -30.0393    11.1099    11.0896    10.9591
  746.0000     0.1514     0.2725     0.0220     2.4299     7.9871   -30.1979    10.8781    11.0097    10.8822
  746.5000     0.1508     0.2628     0.0219     2.4298     8.0012   -30.3565    10.6515    10.9303    10.8060
  747.0000     0.1478     0.2574     0.0283     2.4352     8.0002   -30.8177    10.7246    11.0037    10.8052
  747.5000     0.1409     0.2562     0.0459     2.4449     7.9992   -31.4302    11.1035    11.0008    10.8045
  748.0000     0.1361     0.2586     0.0503     2.4539     7.9981   -31.8914    11.1801    10.9977    10.8038
  748.5000     0.1312     0.2599     0.0457     2.4614     7.9971   -32.0500    11.1005    11.0717    10.8785
  749.0000     0.1318     0.2608     0.0336     2.4576     7.9961   -32.0575    11.1047    11.0680    10.9538
  749.5000     0.1346     0.2629     0.0170     2.4530     7.9948   -31.6126    11.0972    10.9882    10.9529
  750.0000     0.1418     0.2668    -0.0071     2.4402     7.9940   -31.3090    11.0904    10.9094    10.9488
  750.5000     0.1451     0.2771    -0.0162     2.4379     7.9959   -31.2274    11.0201    10.9079    10.9047
  751.0000     0.1458     0.2744     0.0033     2.4347     7.9977   -31.1815    10.9499    10.9063    10.8607
  751.5000     0.1503     0.2699     0.0168     2.4265     7.9995   -31.1923    10.8797    10.9047    10.8166
  752.0000     0.1581     0.2617     0.0288     2.4152     8.0012   -31.2012    10.9362    10.9032    10.7977
  752.5000     0.1611     0.2638     0.0348     2.4106     8.0030   -31.2118    10.9344    10.9013    10.8726
  753.0000     0.1618     0.2637     0.0347     2.4091     8.0018   -30.9157    10.9329    10.9764    10.8717
  753.5000     0.1602     0.2599     0.0287     2.4098     8.0004   -30.6240    11.0083    10.9746    10.9469
  754.0000     0.1578     0.2530     0.0256     2.4135     7.9992   -30.3301    10.9300    10.9732    10.9460
  754.5000     0.1548     0.2503     0.0255     2.4187     7.9981   -30.3500    10.9285    10.9707    10.8693
  755.0000     0.1536     0.2566     0.0240     2.4232     7.9969   -30.6521    10.9267    10.8937    10.7932
  755.5000     0.1518     0.2620     0.0209     2.4247     8.0109   -30.8121    10.7740    10.7415    10.7925
  756.0000     0.1473     0.2666     0.0134     2.4344     8.0094   -31.1233    10.6977    10.7401    10.7169
  756.5000     0.1433     0.2639     0.0088     2.4403     8.0083   -31.5858    10.5482    10.5164    10.4945
  757.0000     0.1403     0.2606     0.0043     2.4433     8.0071   -32.0545    10.4007    10.4420    10.3488
  757.5000     0.1406     0.2645     0.0087     2.4455     8.0060   -32.3617    10.3990    10.4406    10.2763
  758.0000     0.1370     0.2764     0.0207     2.4510     8.0048   -32.5217    10.3976    10.4393    10.2043
  758.5000     0.1325     0.2730     0.0346     2.4590     8.0036   -32.6816    10.3962    10.4375    10.2036
  759.0000     0.1295     0.2597     0.0447     2.4642     8.0022   -32.8416    10.4679    10.3637    10.2029
