~VERSION INFORMATION
 VERS.                2.0:   CWLS LOG ASCII STANDARD - VERSION 2.0
 WRAP.                 NO:   ONE LINE PER DEPTH STEP
~WELL INFORMATION
#MNEM.UNIT      DATA TYPE    INFORMATION
#----------   ------------   ------------------------------
 STRT.F            8.0000:   START DEPTH
 STOP.F          513.0000:   STOP DEPTH
 STEP.F            0.5000:   STEP LENGTH
 NULL.          -999.2500:   NO VALUE
 COMP. LAWRENCE-ALLISON &AS:   COMPANY
 WELL. NPR 3 #51-63SX10UP3:   WELL
 FLD .             TEAPOT:   FIELD
 LOC .      S10 T38N R78W:   LOCATION
 CNTY.            NATRONA:   COUNTY
 STAT.            WYOMING:   STATE
 CTRY. UNITED STATES OF AMERICA:   COUNTRY
 SRVC.      Dresser Atlas:   SERVICE COMPANY
 DATE.        09-DEC-1984:   LOGDATE
 API .       490251099400:   API NUMBER
~CURVE INFORMATION
#MNEM.UNIT       API CODE    CURVE DESCRIPTION
#----------   ------------   ------------------------------
 DEPT.F                  :   
 RFOC.OHMM   07 220 01 00:   RESISTIVITY FOCUSED LOG
 RILD.OHMM   07 120 46 00:   INDUCTION LOG DEEP RESISTIVITY
 RILM.OHMM   07 120 44 00:   RESITIVITY LONG MEDIUM
 SPR .MV     07 010 01 00:   SPONTANEOUS POTENTIAL
 CALD.IN     45 280 60 00:   CALIPER FROM DENSITY LOG
 CORR.none               :   
 DEN .G/C3   45 350 01 00:   COMPENSATED BULK DENSTIY
 GRD .GAPI   45 310 01 00:   GAMMA RAY FROM DENSITY LOG
 PORD.DEC    45 890 12 00:   POROSITY DENSITY SANDSTONE
 CNC .DEC    42 890 03 00:   NEUTRON POROSITY SANDSTONE
~PARAMETER INFORMATION
#MNEM.UNIT          VALUE    DESCRIPTION
#----------   ------------   ------------------------------
 PD  .                 GL:   PERMANENT DATUM
 EPD .F              5162:   ELEVATION PERMANENT DATUM
 LMF .                 GL:   LOG MEASURED FROM
 DMF .                 GL:   DRILLING MEASURED FROM
 EGL .F              5162:   GROUND LEVEL
 DATE.        09-DEC-1984:   RUN DATE
 RUN .                  1:   RUN NUMBER
 DD  .F               510:   DEPTH DRILLER
 DL  .F               515:   DEPTH LOGGER
 BLI .F               513:   BOTTOM LOG INTERVAL
 TLI .F                20:   TOP LOG INTERVAL
 CS  .IN            8.625:   CASING SIZE
 CBD .F                20:   CASING BOTTOM DRILLER
 CBL .F                20:   CASING BOTTOM LOGGER
 BS  .IN            7.875:   BIT SIZE
 BSD .F               510:   BIT SIZE AT DEPTH
 DFT .          KCL-WATER:   DRILLING FLUID TYPE
 MSS .            MUDTANK:   MUD SAMPLE SOURCE
 RMS .OHMM           0.41:   RESISTIVITY MUD SAMPLE
 MST .F                45:   MUD SAMPLE TEMPERATURE
 RMF .OHMM           0.31:   RESISTIVITY MUD FILTRATE SAMPLE
 MFST.F                45:   MUD FILTRATE SAMPLE TEMPERATURE
 RMC .OHMM           0.51:   RESISTIVITY MUD CAKE
 MCST.F                45:   MUD CAKE SAMPLE TEMPERATURE
 MFSS.               CALC:   MUD FILTRATE SAMPLE SOURCE
 MCSS.               CALC:   MUD CAKE SAMPLE SOURCE
 RMB .OHMM           0.22:   RESISTIVITY MUD AT BHT
 BHT .F                85:   BOTTOM HOLE TEMPERATURE
 TCS .HRS               2:   TIME CURCULATED STOPPED
 MRT .F               100:   MAXIMUM RECORDED TEMPERATURE
 LUN .               6270:   LOGGING UNIT NUMBER
 LUL .                 FM:   LOGGING UNIT LOCATION
 ENGI.          E. GOVETT:   RECORDING ENGINEER
 WITN.              LUERS:   WITNESSED BY
 CLNT.            A2DTECH:   CLIENT CODE
 ORIG.           5" PRINT:   ORIGIN OF DATA
 UWI .       490251099400:   UNIQUE WELL ID
 DICO. A2D Technologies, Inc.:   DIGITIZING COMPANY
~OTHER INFORMATION
~A    DEPT    RFOC       RILD       RILM        SPR       CALD       CORR        DEN        GRD       PORD          CNC 
# ...
  108.5000    10.0508     7.9785     8.1979   -50.3161     8.1407     0.0137     2.4638    96.1382     0.1277     0.2680
  109.0000     9.7827     7.9533     8.2018   -50.3045     8.1401     0.0091     2.4531    96.1323     0.1354     0.2768
  109.5000     9.5203     7.9025     8.2057   -50.2928     8.1403     0.0090     2.4477    99.0797     0.1388     0.2808
  110.0000     9.2649     7.9068     8.2096   -49.9840     8.1442     0.0225     2.4439   100.4815     0.1415     0.2742
  110.5000     9.2063     7.8563     8.3285   -49.6751     8.1482     0.0376     2.4430    98.3689     0.1427     0.2661
  111.0000     9.2134     7.8616     8.5081   -49.6635     8.1521     0.0497     2.4499    97.0096     0.1397     0.2729
  111.5000     9.4133     7.8659     8.8157   -49.6518     8.1560     0.0526     2.4497    96.7045     0.1406     0.2972
  112.0000     9.6846     7.8702     9.1353   -49.4916     8.1599     0.0334     2.4412    99.1031     0.1434     0.3030
  112.5000     9.8948     7.9294     9.1975   -49.3314     8.1638     0.0159     2.4345   100.9018     0.1470     0.2991
  113.0000     9.9684     7.9337     9.1380   -49.3195     8.1678     0.0113     2.4307   100.4448     0.1495     0.2824
  113.5000     9.7024     7.9935     9.0790   -49.6052     8.1717     0.0081     2.4283    99.8374     0.1507     0.2672
  114.0000     9.4422     7.9978     9.0845   -49.8878     8.1756     0.0080     2.4305    99.5307     0.1511     0.2703
  114.5000     9.3811     8.0022     9.0888   -50.0277     8.1770     0.0110     2.4343    99.5248     0.1486     0.2773
  115.0000     9.5197     8.0066     9.0932   -50.1646     8.1762     0.0124     2.4365    99.0476     0.1468     0.2832
  115.5000     9.6589     8.0110     9.0975   -50.1500     8.1755     0.0138     2.4387    97.8575     0.1456     0.2880
  116.0000     9.6649     7.9608     9.0388   -50.1384     8.1746     0.0122     2.4432    97.0998     0.1431     0.2846
  116.5000     9.4711     7.9651     8.9794   -50.1267     8.1739     0.0121     2.4471    97.9961     0.1392     0.2755
  117.0000     9.3461     7.9131     8.9223   -50.1151     8.1581     0.0119     2.4492    99.3436     0.1371     0.2694
  117.5000     9.2227     7.8091     8.6820   -50.1040     8.1423     0.0134     2.4492    99.9407     0.1371     0.2813
  118.0000     9.1644     7.7592     8.3894   -50.2407     8.1416     0.0148     2.4491    99.4823     0.1378     0.2871
  118.5000     9.1715     7.7634     8.2176   -50.5259     8.1408     0.0177     2.4491    97.9726     0.1378     0.2792
  119.0000     9.1771     7.6603     8.0544   -50.8114     8.1401     0.0237     2.4505    95.4104     0.1366     0.2819
  119.5000     9.1827     7.6114     8.0592   -50.9483     8.1392     0.0357     2.4558    92.6977     0.1333     0.2935
  120.0000     9.1233     7.5626     8.0063   -51.0824     8.1536     0.0508     2.4626    92.3911     0.1290     0.2917
  120.5000     9.0668     7.4611     7.7914   -51.5165     8.1528     0.0583     2.4671    95.6631     0.1257     0.2805
  121.0000     8.9472     7.2559     7.4767   -51.9535     8.1672     0.0521     2.4693    98.2425     0.1251     0.2770
  121.5000     8.8292     6.9693     7.2247   -52.2361     8.1663     0.0427     2.4629    98.0863     0.1330     0.3011
  122.0000     8.5845     6.7348     6.9329   -52.3730     8.1809     0.0321     2.4487    97.9300     0.1427     0.3021
  122.5000     8.1150     6.5081     6.6993   -52.3614     8.1799     0.0275     2.4372    98.9768     0.1500     0.2945
  123.0000     7.4356     6.3771     6.5642   -52.5012     8.1943     0.0259     2.4288    99.7242     0.1525     0.2799
  123.5000     7.0377     6.2488     6.5211   -52.4867     8.2086     0.0333     2.4235    96.7094     0.1540     0.2906
  124.0000     6.8489     6.2522     6.4796   -52.4750     8.2078     0.0408     2.4204    95.3501     0.1522     0.3058
  124.5000     7.2450     6.2993     6.5281   -52.4634     8.1919     0.0498     2.4294    98.3517     0.1482     0.3168
  125.0000     7.7713     6.3910     6.5312   -52.3031     8.1761     0.0507     2.4332   100.6015     0.1480     0.3191
  125.5000     8.3358     6.4841     6.6721   -51.9941     8.1452     0.0314     2.4308    99.5148     0.1498     0.3152
  126.0000     8.6961     6.6713     6.8705   -51.8336     8.1144     0.0206     2.4293    98.1823     0.1504     0.3100
  126.5000     8.5219     6.8677     7.1600   -51.5223     8.0986     0.0206     2.4316    96.8230     0.1483     0.3064
  127.0000     8.4634     7.1104     7.3654   -51.3621     8.0677     0.0280     2.4375    95.0126     0.1453     0.3028
  127.5000     8.7131     7.2643     7.4721   -51.3504     8.0519     0.0325     2.4405    93.3526     0.1429     0.2973
  128.0000     9.0318     7.3701     7.5278   -51.1902     8.0512     0.0278     2.4374    92.5948     0.1450     0.2828
  128.5000     9.0313     7.4256     7.5839   -51.1785     8.0427     0.0232     2.4328    94.8446     0.1477     0.2737
  129.0000     8.9742     7.4815     7.6405   -51.3184     8.0346     0.0200     2.4282    95.7424     0.1499     0.2725
  129.5000     8.9189     7.5378     7.6441   -51.3038     8.0339     0.0199     2.4251    96.0359     0.1517     0.2775
  130.0000     8.9244     7.4896     7.6478   -51.2921     8.0330     0.0244     2.4228    97.6841     0.1526     0.2846
  130.5000     8.9298     7.4203     7.5975   -51.2805     8.0378     0.0288     2.4242    99.6331     0.1529     0.2901
  131.0000     8.8720     7.2920     7.6020   -51.2688     8.0468     0.0318     2.4265    98.5564     0.1514     0.2944
  131.5000     8.8788     7.1950     7.5530   -51.2572     8.0558     0.0316     2.4287    97.9658     0.1496     0.2980
  132.0000     8.6407     7.0504     7.5566   -51.6256     8.0753     0.0300     2.4294    98.5614     0.1496     0.3129
  132.5000     8.4089     6.9095     7.5602   -51.8425     8.0896     0.0329     2.4309    97.8036     0.1493     0.3132
  133.0000     8.2979     6.8177     7.5026   -52.2594     8.1039     0.0359     2.4331    94.6399     0.1478     0.3145
  133.5000     8.2454     6.5883     7.4113   -52.5479     8.1182     0.0388     2.4346    93.5813     0.1475     0.3190
  134.0000     8.1366     6.2350     7.2627   -52.5333     8.1175     0.0296     2.4368    94.9289     0.1470     0.3145
  134.5000     8.0292     5.8192     6.9693   -52.2245     8.1469     0.0249     2.4390    96.8779     0.1451     0.3054
  135.0000     7.9232     5.3561     6.3702   -52.6615     8.1611     0.0279     2.4435    98.8269     0.1427     0.3027
  135.5000     7.6584     5.0338     5.8632   -52.9470     8.1753     0.0323     2.4480   100.9263     0.1391     0.3060
  136.0000     7.2486     4.9318     5.6264   -53.2325     8.1746     0.0391     2.4421   100.4371     0.1479     0.3009
  136.5000     6.2679     5.0392     5.5507   -53.3670     8.1787     0.0458     2.4084    97.9248     0.1674     0.2930
  137.0000     5.3402     5.0070     5.8716   -53.3549     8.1884     0.0441     2.3818    94.8921     0.1807     0.2778
  137.5000     4.6864     4.8022     6.1673   -53.6404     8.1875     0.0379     2.3757    94.5870     0.1798     0.2684
  138.0000     5.1486     4.8253     6.4330   -53.4799     8.1717     0.0333     2.4128    97.5871     0.1622     0.2833
  138.5000     7.1711     5.1934     6.8994   -53.4443     8.1559     0.0302     2.4401    98.9346     0.1451     0.3012
  139.0000     7.9089     5.5706     7.3029   -52.7110     8.1551     0.0422     2.4537    99.8310     0.1325     0.3031
  139.5000     8.3663     5.9752     7.7322   -52.2536     8.1392     0.0527     2.4613   100.1273     0.1350     0.2967
  140.0000     8.6075     6.4091     8.0520   -51.9448     8.1384     0.0329     2.4521   100.2704     0.1392     0.2773
  140.5000     8.6728     6.7796     8.2256   -51.4873     8.1377     0.0158     2.4429   100.7156     0.1435     0.2706
  141.0000     8.6782     7.1218     8.2869   -51.1785     8.1370    -0.0118     2.4366   101.3113     0.1471     0.2803
  141.5000     8.7441     7.3267     8.3487   -51.0183     8.1212    -0.0236     2.4299   101.7565     0.1502     0.2837
