~VERSION INFORMATION
 VERS.                2.0:   CWLS LOG ASCII STANDARD - VERSION 2.0
 WRAP.                 NO:   ONE LINE PER DEPTH STEP
~WELL INFORMATION
#MNEM.UNIT      DATA TYPE    INFORMATION
#----------   ------------   ------------------------------
 STRT.F           60.0000:   START DEPTH
 STOP.F          482.0000:   STOP DEPTH
 STEP.F            0.5000:   STEP LENGTH
 NULL.          -999.2500:   NO VALUE
 COMP. BROWN JOHN E&C INC:   COMPANY
 WELL. NPR 3 68 SX-3 #68-1-3:   WELL
 FLD .             TEAPOT:   FIELD
 LOC .       S3 T38N R78W:   LOCATION
 CNTY.            NATRONA:   COUNTY
 STAT.            WYOMING:   STATE
 CTRY. UNITED STATES OF AMERICA:   COUNTRY
 SRVC.     Atlas Wireline:   SERVICE COMPANY
 DATE.        29-SEP-1991:   LOGDATE
 API .       490252244800:   API NUMBER
~CURVE INFORMATION
#MNEM.UNIT       API CODE    CURVE DESCRIPTION
#----------   ------------   ------------------------------
 DEPT.F                  :   
 CALD.IN     45 280 60 00:   CALIPER FROM DENSITY LOG
 CNC .DEC    42 890 03 00:   NEUTRON POROSITY SANDSTONE
 CORR.G/C3   45 356 01 00:   DENSITY CORRECTION
 GRD .GAPI   45 310 01 00:   GAMMA RAY FROM DENSITY LOG
 PORD.DEC    45 890 12 00:   POROSITY DENSITY SANDSTONE
 RHOB.G/C3   45 350 01 00:   BULK DENSITY
 RFOC.OHMM   07 220 04 00:   RESISTIVITY FOCUSED LOG
 RILD.OHMM   07 120 46 00:   RESISTIVITY INDUCTION LOG DEEP
 RILM.OHMM   07 120 44 00:   RESISTIVITY INDUCTION LOG MEDIUM
~PARAMETER INFORMATION
#MNEM.UNIT          VALUE    DESCRIPTION
#----------   ------------   ------------------------------
 PD  .                 GL:   PERMANENT DATUM
 EPD .F              5153:   ELEVATION PERMANENT DATUM
 LMF .                 KB:   LOG MEASURED FROM
 DAPD.F                10:   FEET ABOVE PERMANENT DATUM
 DMF .                 KB:   DRILLING MEASURED FROM
 EKB .F              5163:   KELLING BUSHING
 EGL .F              5153:   GROUND LEVEL
 DATE.        29-SEP-1991:   RUN DATE
 RUN .                  1:   RUN NUMBER
 DD  .F               485:   DEPTH DRILLER
 DL  .F               485:   DEPTH LOGGER
 BLI .F               482:   BOTTOM LOG INTERVAL
 CS  .IN            8.625:   CASING SIZE
 CBD .F                98:   CASING BOTTOM DRILLER
 CBL .F               100:   CASING BOTTOM LOGGER
 BS  .IN            7.875:   BIT SIZE
 BSD .F               485:   BIT SIZE AT DEPTH
 DFT .           CHEM GEL:   DRILLING FLUID TYPE
 DFD .               15.4:   DRILLING FLUID DENSITY
 DFV .                 38:   DRILLING FLUID VISCOSITY
 DFPH.                9.0:   DRILLING FLUID PH
 DFL .                8.0:   DRILLING FLUID LOSS
 MSS .           FLOWLINE:   MUD SAMPLE SOURCE
 RMS .OHMM           1.65:   RESISTIVITY MUD SAMPLE
 MST .F                90:   MUD SAMPLE TEMPERATURE
 RMF .OHMM           1.32:   RESISTIVITY MUD FILTRATE SAMPLE
 MFST.F                90:   MUD FILTRATE SAMPLE TEMPERATURE
 RMC .OHMM           2.06:   RESISTIVITY MUD CAKE
 MCST.F                90:   MUD CAKE SAMPLE TEMPERATURE
 MFSS.               CALC:   MUD FILTRATE SAMPLE SOURCE
 MCSS.               CALC:   MUD CAKE SAMPLE SOURCE
 RMB .OHMM           1.65:   RESISTIVITY MUD AT BHT
 BHT .F                90:   BOTTOM HOLE TEMPERATURE
 TCS .HRS               1:   TIME CURCULATED STOPPED
 MRT .F                90:   MAXIMUM RECORDED TEMPERATURE
 LUN .            HL 6272:   LOGGING UNIT NUMBER
 LUL .             CASPER:   LOGGING UNIT LOCATION
 ENGI. WADDELL/ OTTERHOLT:   RECORDING ENGINEER
 WITN.             STRONG:   WITNESSED BY
 CLNT.            A2DTECH:   CLIENT CODE
 ORIG.           5" PRINT:   ORIGIN OF DATA
 UWI .       490252244800:   UNIQUE WELL ID
 DICO. A2D Technologies, Inc.:   DIGITIZING COMPANY
~OTHER INFORMATION
~A   DEPT     CALD        CNC       CORR         GRD      PORD       RHOB       RFOC       RILD       RILM   
# ...
  279.0000     8.1289     0.3089    -0.0023    61.4221     0.1935     2.3378    16.1356    16.4881    16.3958
  279.5000     8.1294     0.3098    -0.0023    61.4221     0.2001     2.3310    16.9503    16.4925    16.3958
  280.0000     8.1144     0.3116    -0.0016    62.0272     0.1977     2.3196    17.3147    16.3822    16.3958
  280.5000     8.0994     0.3086     0.0008    62.6324     0.1904     2.3318    17.1997    16.2727    16.2818
  281.0000     8.0998     0.3030     0.0025    63.2375     0.1816     2.3478    16.9640    16.1639    16.1687
  281.5000     8.1003     0.2940     0.0053    64.4478     0.1713     2.3615    17.4515    16.2816    16.0564
  282.0000     8.0854     0.2891     0.0068    64.4478     0.1674     2.3662    18.0779    16.5150    16.0564
  282.5000     8.0798     0.2866     0.0038    64.4478     0.1643     2.3729    18.7268    16.7524    16.1687
  283.0000     8.0707     0.2767    -0.0008    65.6581     0.1607     2.3821    18.7318    17.9679    16.8595
  283.5000     8.0713     0.2652    -0.0053    64.7221     0.1486     2.3958    18.7586    18.3529    17.8266
  284.0000     8.0717     0.2288    -0.0100    62.9349     0.1189     2.4659    23.2846    18.2302    18.2034
  284.5000     8.0722     0.1994    -0.0145    62.0272     0.0831     2.5154    23.7850    17.9824    18.0769
  285.0000     8.0882     0.1949    -0.0160    61.4221     0.0792     2.5222    21.8749    17.6972    17.9513
  285.5000     8.0886     0.1985    -0.0145    61.1195     0.1004     2.4994    19.0227    17.0164    17.5797
  286.0000     8.0735     0.2209    -0.0084    65.9607     0.1322     2.4470    16.7756    16.7840    16.6260
  286.5000     8.0741     0.2537    -0.0008    69.8941     0.1486     2.3996    16.2031    16.4418    16.1687
  287.0000     8.0745     0.2729     0.0038    72.3227     0.1510     2.4012    16.5525    16.2183    15.9448
  287.5000     8.0750     0.2759     0.0068    72.9198     0.1495     2.4042    16.7903    15.8867    15.7240
  288.0000     8.0754     0.2771     0.0099    71.4070     0.1483     2.4080    16.9128    15.8909    15.6148
  288.5000     8.0760     0.2777     0.0129    69.5915     0.1473     2.4088    16.9174    15.7847    15.5063
  289.0000     8.0764     0.2780     0.0129    67.7761     0.1467     2.4081    17.0408    15.7900    15.5063
  289.5000     8.0923     0.2765     0.0114    66.5658     0.1464     2.4080    16.9214    15.7942    15.5063
  290.0000     8.0927     0.2752     0.0068    66.8684     0.1473     2.4111    16.8130    15.6876    15.5063
  290.5000     8.1087     0.2764     0.0053    69.2952     0.1449     2.4134    16.5837    15.6929    15.3985
  291.0000     8.1092     0.2779     0.0038    71.7982     0.1443     2.4127    16.3576    15.5879    15.2916
  291.5000     8.1096     0.2788     0.0039    72.6172     0.1455     2.4150    16.4781    15.2569    15.0798
  292.0000     8.1100     0.2773     0.0068    71.7095     0.1440     2.4172    16.5983    14.8529    14.6651
  292.5000     8.1105     0.2745     0.0099    69.2890     0.1416     2.4188    16.8368    14.7536    14.3615
  293.0000     8.1077     0.2730     0.0129    68.0787     0.1400     2.4195    16.8415    14.6559    14.4620
  293.5000     8.0805     0.2730     0.0145    68.0787     0.1403     2.4188    16.6128    14.6598    14.4620
  294.0000     8.0810     0.2752     0.0145    68.6838     0.1416     2.4165    16.0458    14.8699    14.6651
  294.5000     8.0815     0.2787     0.0129    69.2890     0.1449     2.4111    15.0704    15.2948    14.8710
  295.0000     8.0819     0.2814     0.0114    69.2890     0.1522     2.4033    15.2869    15.5141    15.1853
  295.5000     8.0669     0.2853     0.0084    69.5915     0.1534     2.3960    16.6307    15.7372    15.5063
  296.0000     8.0675     0.2865     0.0068    69.2890     0.1549     2.3929    17.4705    15.9627    15.7240
  296.5000     8.0679     0.2862     0.0068    69.5915     0.1555     2.3929    17.4763    16.1914    15.9448
  297.0000     8.0683     0.2856     0.0068    70.4992     0.1558     2.3990    17.3591    16.4233    16.0564
  297.5000     8.0688     0.2850     0.0068    70.7918     0.1536     2.4051    17.1213    16.6586    16.1687
  298.0000     8.0693     0.2846     0.0068    71.5744     0.1485     2.4097    17.1271    16.6632    16.2595
  298.5000     8.0697     0.2840     0.0068    72.3147     0.1443     2.4128    17.0120    16.6687    16.2650
  299.0000     8.0702     0.2834     0.0068    72.9198     0.1421     2.4158    17.0168    16.6732    16.2705
  299.5000     8.0706     0.2825     0.0053    73.5250     0.1436     2.4166    16.9027    16.7944    16.1628
  300.0000     8.0556     0.2815     0.0068    71.4070     0.1462     2.4143    16.9083    16.6810    16.1696
  300.5000     8.0695     0.2818     0.0068    71.0463     0.1473     2.4105    17.0316    16.6870    16.1751
  301.0000     8.0815     0.2821     0.0008    72.2998     0.1448     2.4112    16.8005    16.5754    16.0667
  301.5000     8.1016     0.2827     0.0008    73.5160     0.1424     2.4143    16.5726    16.4646    15.9605
  302.0000     8.1168     0.2842     0.0009    73.5129     0.1405     2.4165    16.3492    16.1279    15.5280
  302.5000     8.1012     0.2838    -0.0007    72.9041     0.1402     2.4112    16.2350    15.9014    15.2117
  303.0000     8.0856     0.2814    -0.0022    72.2960     0.1453     2.4051    16.1328    15.8023    15.1111
  303.5000     8.0855     0.2787    -0.0021    71.0827     0.1504     2.4005    16.1396    15.8076    15.2232
  304.0000     8.0853     0.2777    -0.0021    70.4745     0.1510     2.3982    16.1451    15.8119    15.2283
  304.5000     8.0851     0.2789    -0.0021    71.3792     0.1513     2.3974    16.3782    15.8161    15.4473
  305.0000     8.0850     0.2795    -0.0021    72.2840     0.1525     2.3974    16.4988    16.0427    15.5607
  305.5000     8.0848     0.2789    -0.0020    72.8869     0.1543     2.3974    16.5044    16.2726    15.6748
  306.0000     8.0692     0.2804    -0.0020    73.7916     0.1555     2.3974    16.5100    16.2770    15.6802
  306.5000     8.0536     0.2849    -0.0005    74.6956     0.1561     2.3974    16.4017    16.2824    15.5763
  307.0000     8.0535     0.2885    -0.0004    75.6003     0.1566     2.3966    16.2915    16.1511    15.2603
  307.5000     8.0379     0.2900    -0.0019    75.9006     0.1560     2.3973    16.1833    15.8417    15.0541
  308.0000     8.0278     0.2903    -0.0019    75.8969     0.1547     2.3988    15.8537    15.6274    14.8506
  308.5000     8.0221     0.2884     0.0012    75.2887     0.1517     2.4011    15.5296    15.5230    14.7522
  309.0000     8.0219     0.2878     0.0032    73.7729     0.1468     2.4049    15.3189    15.4191    14.4486
  309.5000     8.0216     0.2884     0.0058    72.8621     0.1420     2.4171    15.1052    15.3034    14.0603
  310.0000     8.0062     0.2872     0.0073    73.1617     0.1371     2.4262    14.9061    15.0028    13.6782
  310.5000     8.0060     0.2832     0.0073    74.6716     0.1364     2.4277    14.7038    14.7989    13.4922
  311.0000     8.0059     0.2804     0.0058    75.8790     0.1364     2.4262    14.7101    14.5987    13.4029
  311.5000     8.0057     0.2786     0.0043    76.7836     0.1358     2.4262    14.7150    14.1020    13.3143
  312.0000     8.0056     0.2792     0.0059    77.3858     0.1346     2.4277    14.7200    13.8135    13.3199
  312.5000     8.0054     0.2807     0.0059    77.3828     0.1342     2.4208    14.7250    13.5311    13.3244
  313.0000     8.0053     0.2822     0.0059    77.0772     0.1369     2.4154    14.7300    13.3472    13.3299
  313.5000     8.0051     0.2825     0.0059    76.4690     0.1387     2.4192    14.5301    13.3517    13.2406
  314.0000     8.0049     0.2815     0.0060    75.2557     0.1396     2.4246    14.3342    13.3553    12.9709
  314.5000     8.0048     0.2808     0.0075    74.6475     0.1375     2.4291    14.1385    13.3589    12.7967
  315.0000     8.0046     0.2800     0.0136    74.0387     0.1335     2.4352    13.9479    13.3625    12.6235
