~VERSION INFORMATION
 VERS.                2.0:   CWLS LOG ASCII STANDARD - VERSION 2.0
 WRAP.                 NO:   ONE LINE PER DEPTH STEP
~WELL INFORMATION
#MNEM.UNIT      DATA TYPE    INFORMATION
#----------   ------------   ------------------------------
 STRT.F           30.0000:   START DEPTH
 STOP.F          715.0000:   STOP DEPTH
 STEP.F            0.5000:   STEP LENGTH
 NULL.          -999.2500:   NO VALUE
 COMP. FENIX & SCISSON INC:   COMPANY
 WELL.   NPR-3 #84SX15-15:   WELL
 FLD .             TEAPOT:   FIELD
 LOC .      S15 T38N R78W:   LOCATION
 CNTY.            NATRONA:   COUNTY
 STAT.            WYOMING:   STATE
 CTRY. UNITED STATES OF AMERICA:   COUNTRY
 SRVC.            Unknown:   SERVICE COMPANY
 DATE.        15-MAY-1978:   LOGDATE
 API .       490251064000:   API NUMBER
~CURVE INFORMATION
#MNEM.UNIT       API CODE    CURVE DESCRIPTION
#----------   ------------   ------------------------------
 DEPT.F                  :   
 SPR .MV     05 010 01 00:   SPONTANEOUS POTENTIAL FROM RES.
 SN  .OHMM   05 040 16 00:   SHORT NORMAL 16"
 ILD .OHMM   05 120 46 00:   INDUCTION LOG DEEP
 CALD.IN     45 280 60 00:   CALIPER FROM DENSITY LOG
 GRD .GAPI   45 310 01 00:   GAMMA RAY FROM DENSITY LOG
 CORR.G/C3   45 356 01 00:   DENSITY CORRECTION
 DPHI.DEC    45 890 12 00:   DENSITY POROSITY SANDSTONE
 DEN .G/C3   45 350 01 00:   COMPENSATED BULK DENSITY
~PARAMETER INFORMATION
#MNEM.UNIT          VALUE    DESCRIPTION
#----------   ------------   ------------------------------
 PD  .                 GL:   PERMANENT DATUM
 EPD .F              5247:   ELEVATION PERMANENT DATUM
 LMF .                 KB:   LOG MEASURED FROM
 DMF .                 KB:   DRILLING MEASURED FROM
 EKB .F              5251:   KELLING BUSHING
 EGL .F              5247:   GROUND LEVEL
 DATE.        15-MAY-1978:   RUN DATE
 RUN .                  1:   RUN NUMBER
 DD  .F               725:   DEPTH DRILLER
 DL  .F               720:   DEPTH LOGGER
 BLI .F               713:   BOTTOM LOG INTERVAL
 TLI .F                40:   TOP LOG INTERVAL
 CS  .IN            8.625:   CASING SIZE
 CBD .F                40:   CASING BOTTOM DRILLER
 CBL .F                40:   CASING BOTTOM LOGGER
 BS  .IN            7.875:   BIT SIZE
 BSD .F               725:   BIT SIZE AT DEPTH
 DFT .                KCL:   DRILLING FLUID TYPE
 DFD .                8.6:   DRILLING FLUID DENSITY
 DFV .                 33:   DRILLING FLUID VISCOSITY
 DFPH.                9.5:   DRILLING FLUID PH
 DFL .                 12:   DRILLING FLUID LOSS
 MSS .           FLOWLINE:   MUD SAMPLE SOURCE
 RMS .OHMM             .2:   RESISTIVITY MUD SAMPLE
 MST .F                80:   MUD SAMPLE TEMPERATURE
 RMF .OHMM            .18:   RESISTIVITY MUD FILTRATE SAMPLE
 MFST.F                83:   MUD FILTRATE SAMPLE TEMPERATURE
 RMC .OHMM            .26:   RESISTIVITY MUD CAKE
 MCST.F                83:   MUD CAKE SAMPLE TEMPERATURE
 MFSS.               MEAS:   MUD FILTRATE SAMPLE SOURCE
 RMB .OHMM             .2:   RESISTIVITY MUD AT BHT
 BHT .F                80:   BOTTOM HOLE TEMPERATURE
 TCS .HRS            0200:   TIME CURCULATED STOPPED
 MRT .F                80:   MAXIMUM RECORDED TEMPERATURE
 LUN .               3006:   LOGGING UNIT NUMBER
 LUL .               CASP:   LOGGING UNIT LOCATION
 ENGI.             MILLER:   RECORDING ENGINEER
 WITN.           MCGINLEY:   WITNESSED BY
 CLNT.            A2DTECH:   CLIENT CODE
 ORIG.           5" PRINT:   ORIGIN OF DATA
 UWI .       490251064000:   UNIQUE WELL ID
 DICO. A2D Technologies, Inc.:   DIGITIZING COMPANY
~OTHER INFORMATION
~A   DEPT      SPR         SN        ILD       CALD         GRD      CORR       DPHI        DEN   
# ...
  435.0000   -44.9176     5.9635     5.6968     6.9517    84.7594     0.0189     0.1437     2.4419
  435.5000   -44.9188     5.7609     5.5268     7.0115    83.5471     0.0218     0.1550     2.4359
  436.0000   -44.9203     5.6037     5.3390     6.9958    82.7881     0.0173     0.1756     2.4141
  436.5000   -44.9218     5.3760     4.9823     6.9493    83.5352     0.0125     0.1922     2.3742
  437.0000   -44.9233     5.0516     4.5226     6.8879    83.9810     0.0068     0.2061     2.3607
  437.5000   -44.9248     4.6817     4.1053     6.8114    84.1271     0.0053     0.2234     2.3426
  438.0000   -44.9263     4.3089     3.5999     6.7668    84.2718     0.0098     0.2447     2.3031
  438.5000   -44.9278     3.9658     3.2677     6.8134    82.1559     0.0143     0.2543     2.2670
  439.0000   -44.9293     3.7008     2.9458     6.8736    76.7282     0.0248     0.2556     2.2522
  439.5000   -44.9308     3.4775     2.7490     6.9462    75.0656     0.0429     0.2535     2.2566
  440.0000   -44.9325     3.3132     2.6010     7.0966    74.3066     0.0504     0.2439     2.2891
  440.5000   -44.9339     3.1567     2.4953     7.5342    73.3970     0.0534     0.2068     2.3762
  441.0000   -44.9354     3.0075     2.3610     7.3219    72.6381     0.0504     0.1606     2.3822
  441.5000   -44.9369     2.9458     2.3126     7.3213    72.0297     0.0444     0.1502     2.3912
  442.0000   -44.9384     3.0284     2.3448     7.0187    72.6276     0.0414     0.1397     2.4248
  442.5000   -44.9399     3.1567     2.5126     6.9575    75.0298     0.0414     0.1231     2.4488
  443.0000   -44.9414     3.3593     2.7872     7.1082    79.3913     0.0414     0.1153     2.4718
  443.5000   -44.9429     3.5751     3.1133     7.0768    80.4397     0.0429     0.1126     2.4829
  444.0000   -44.9444     3.7784     3.5260     7.0449    80.4336     0.0414     0.1195     2.4895
  444.5000   -44.9459     3.9933     3.9113     6.9831    80.4276     0.0308     0.1244     2.4714
  445.0000   -44.9474     4.2204     4.2497     6.8928    80.5722     0.0248     0.1263     2.4661
  445.5000   -45.0993     4.5226     4.5226     6.8786    82.6814     0.0188     0.1328     2.4661
  446.0000   -45.2511     4.7798     4.7141     6.8780    86.2891     0.0128     0.1371     2.4600
  446.5000   -45.2526     4.9823     4.7798     7.0110    86.2540     0.0068     0.1519     2.4450
  447.0000   -45.2541     5.0867     4.7468     7.2602    85.1998     0.0023     0.1679     2.4292
  447.5000   -45.2556     5.2293     4.5855     7.2991    84.4579     0.0053     0.1706     2.3998
  448.0000   -45.1068     5.2656     4.4914     7.3136    84.9598     0.0113     0.1683     2.3938
  448.5000   -44.9579     5.2293     4.3992     7.3281    86.4025     0.0173     0.1536     2.4148
  449.0000   -44.8090     5.1575     4.3689     7.3274    88.2037     0.0188     0.1404     2.4321
  449.5000   -44.3594     5.0516     4.3689     7.3420    90.4568     0.0233     0.1335     2.4606
  450.0000   -44.0602     4.9479     4.3716     7.3412    91.9583     0.0263     0.1255     2.4696
  450.5000   -43.8785     4.9673     4.4045     7.3394    82.4495     0.0260     0.1233     2.4747
  451.0000   -43.7594     5.0154     4.4373     7.3375    76.1290     0.0257     0.1211     2.4785
  451.5000   -43.7594     5.1198     4.5206     7.3357    75.5210     0.0255     0.1194     2.4816
  452.0000   -43.7594     5.2992     4.7770     7.3338    79.7285     0.0252     0.1172     2.4877
  452.5000   -43.7938     5.4471     5.0480     7.3319    88.0041     0.0249     0.1100     2.4934
  453.0000   -43.8337     5.5605     5.2977     7.3301    90.1576     0.0246     0.1081     2.4995
  453.5000   -43.8736     5.6762     5.5596     7.3282    87.9892     0.0244     0.1057     2.5001
  454.0000   -43.9136     5.7944     5.7943     7.3263    86.0239     0.0181     0.1192     2.4982
  454.5000   -43.9535     5.8743     5.9152     7.3551    85.7152     0.0103     0.1261     2.4747
  455.0000   -43.9934     5.9573     6.0381     7.3550    85.7077     0.0062     0.1261     2.4662
  455.5000   -44.0334     6.0150     6.1216     7.3073    85.7002     0.0061     0.1247     2.4669
  456.0000   -44.0602     6.0726     6.1205     7.2943    85.0903     0.0060     0.1307     2.4684
  456.5000   -44.0602     6.1199     6.1197     7.2941    79.0588     0.0060     0.1343     2.4623
  457.0000   -44.0602     6.1189     6.1189     7.3119    77.2453     0.0059     0.1346     2.4570
  457.5000   -44.0602     6.0340     6.1180     7.3240    79.1938     0.0074     0.1319     2.4570
  458.0000   -44.0602     5.9916     6.1172     7.3087    80.8429     0.0118     0.1250     2.4599
  458.5000   -44.2105     5.9085     6.0742     7.2784    82.7933     0.0178     0.1166     2.4659
  459.0000   -44.2105     5.7864     6.0315     7.2329    92.2737     0.0282     0.1142     2.4757
  459.5000   -44.2105     5.7856     5.9069     7.2479    92.8690     0.0357     0.1203     2.4839
  460.0000   -44.0602     5.7848     5.7848     7.3232    92.2588     0.0356     0.1140     2.4778
  460.5000   -44.0602     5.7840     5.7441     7.3533    91.0465     0.0416     0.1248     2.4740
  461.0000   -44.0602     5.7434     5.6645     7.3078    90.2860     0.0430     0.1236     2.4748
  461.5000   -44.0602     5.7417     5.5859     7.2473    90.4291     0.0339     0.1393     2.4732
  462.0000   -44.0602     5.6218     5.4705     7.2169    91.0240     0.0294     0.1504     2.4461
  462.5000   -44.0602     5.4290     5.2474     7.1865    91.7696     0.0293     0.1546     2.4288
  463.0000   -44.0602     5.2791     4.8962     7.1713    89.6097     0.0293     0.1585     2.4167
  463.5000   -43.7594     5.0578     4.5057     7.1711    86.7846     0.0292     0.1754     2.3987
  464.0000   -42.8571     4.8161     4.1463     7.2314    88.4938     0.0412     0.1682     2.3776
  464.5000   -42.4060     4.5987     4.1148     7.3370    95.1329     0.0817     0.1562     2.3843
  465.0000   -42.4060     4.5350     4.1740     7.3066    96.2503     0.0756     0.1310     2.4354
  465.5000   -42.4060     4.5031     4.3202     7.3518    92.6097     0.0575     0.1274     2.4631
  466.0000   -42.4060     4.5969     4.5970     7.4121    90.3333     0.0454     0.1280     2.4714
  466.5000   -42.2556     4.7251     4.6927     7.5025    89.1476     0.0469     0.1277     2.4706
  467.0000   -42.2556     4.8571     4.7582     7.5175    86.1281     0.0498     0.1259     2.4690
  467.5000   -42.2556     4.9925     5.0997     7.5174    85.5182     0.0513     0.1145     2.4713
  468.0000   -42.2556     5.3492     5.4654     7.5172    85.5107     0.0467     0.1226     2.4742
  468.5000   -42.2556     5.7711     5.6949     7.5171    85.5033     0.0466     0.1214     2.4749
  469.0000   -42.3203     6.0985     5.8546     7.5320    86.5500     0.0451     0.1179     2.4742
  469.5000   -42.3852     6.3124     6.0188     7.5319    89.7070     0.0405     0.1189     2.4741
  470.0000   -42.2556     6.3113     6.1026     7.5317    89.0953     0.0389     0.1230     2.4741
  470.5000   -41.5038     6.3545     6.2305     7.5316    88.4854     0.0359     0.1203     2.4740
  471.0000   -41.6541     6.3977     6.3172     7.5314    88.9297     0.0358     0.1290     2.4733
  471.5000   -41.6541     6.3966     6.3611     7.5313    89.6771     0.0388     0.1281     2.4692
  472.0000   -41.6541     6.3957     6.4402     7.5160    90.1214     0.0462     0.1174     2.4709
  472.5000   -41.6541     6.4841     6.3947     7.4856    90.1121     0.0567     0.1107     2.4799
  473.0000   -41.5038     6.5733     6.3939     7.4704    90.1046     0.0702     0.1096     2.4889
  473.5000   -41.5038     6.5271     6.4376     7.4551    93.8622     0.0806     0.1096     2.4919
  474.0000   -41.5038     6.5262     6.4365     7.3492    92.4993     0.0821     0.1117     2.4888
  474.5000   -41.5096     6.5253     6.3912     7.2131    86.4696     0.0760     0.1156     2.4858
  475.0000   -41.5335     6.5244     6.3903     7.1828    87.8156     0.0759     0.1144     2.4857
