~VERSION INFORMATION
 VERS.                2.0:   CWLS LOG ASCII STANDARD - VERSION 2.0
 WRAP.                 NO:   ONE LINE PER DEPTH STEP
~WELL INFORMATION
#MNEM.UNIT      DATA TYPE    INFORMATION
#----------   ------------   ------------------------------
 STRT.F           22.0000:   START DEPTH
 STOP.F          564.0000:   STOP DEPTH
 STEP.F            0.5000:   STEP LENGTH
 NULL.          -999.2500:   NO VALUE
 COMP.    FENIX & SCISSON:   COMPANY
 WELL. NPR # #3 12 - SX 11:   WELL
 FLD .             TEAPOT:   FIELD
 LOC .      S11 T38N R78W:   LOCATION
 CNTY.            NATRONA:   COUNTY
 STAT.            WYOMING:   STATE
 CTRY. UNITED STATES OF AMERICA:   COUNTRY
 SRVC.           BIRDWELL:   SERVICE COMPANY
 DATE.        29-NOV-1978:   LOGDATE
 API .       490251075500:   API NUMBER
~CURVE INFORMATION
#MNEM.UNIT       API CODE    CURVE DESCRIPTION
#----------   ------------   ------------------------------
 DEPT.F                  :   
 ILD .OHMM   05 120 46 00:   INDUCTION LOG DEEP
 SN  .OHMM   05 040 00 00:   SHORT NORMAL
 SPR .MV     05 010 01 00:   SPONTANEOUS POTENTIAL FROM RES.
 CALD.IN     45 280 60 00:   CALIPER FROM DENSITY LOG
 CORR.G/C3   45 356 01 00:   DENSITY CORRECTION
 DPHI.DEC    45 890 12 00:   DENSITY POROSITY SANDSTONE
 GRD .GAPI   45 310 01 00:   GAMMA RAY FROM DENSITY LOG
 RHOB.G/C3   45 350 01 00:   BULK DENSITY
~PARAMETER INFORMATION
#MNEM.UNIT          VALUE    DESCRIPTION
#----------   ------------   ------------------------------
 PD  .                 GL:   PERMANENT DATUM
 EPD .F              5143:   ELEVATION PERMANENT DATUM
 LMF .                 KB:   LOG MEASURED FROM
 DAPD.F                 4:   FEET ABOVE PERMANENT DATUM
 DMF .                 KB:   DRILLING MEASURED FROM
 EKB .F              5147:   KELLING BUSHING
 EGL .F              5143:   GROUND LEVEL
 DATE.        29-NOV-1978:   RUN DATE
 RUN .                  1:   RUN NUMBER
 DD  .F               562:   DEPTH DRILLER
 DL  .F               564:   DEPTH LOGGER
 BLI .F               564:   BOTTOM LOG INTERVAL
 TLI .F                30:   TOP LOG INTERVAL
 CS  .IN            8.625:   CASING SIZE
 CBL .F                48:   CASING BOTTOM LOGGER
 BS  .IN            7.875:   BIT SIZE
 BSD .F               562:   BIT SIZE AT DEPTH
 DFT .                KCL:   DRILLING FLUID TYPE
 DFD .                8.7:   DRILLING FLUID DENSITY
 DFV .                 36:   DRILLING FLUID VISCOSITY
 DFPH.               10.9:   DRILLING FLUID PH
 DFL .                 12:   DRILLING FLUID LOSS
 MSS .           FLOWLINE:   MUD SAMPLE SOURCE
 RMS .OHMM           0.34:   RESISTIVITY MUD SAMPLE
 MST .F                56:   MUD SAMPLE TEMPERATURE
 RMF .OHMM           0.32:   RESISTIVITY MUD FILTRATE SAMPLE
 MFST.F                59:   MUD FILTRATE SAMPLE TEMPERATURE
 RMC .OHMM            0.4:   RESISTIVITY MUD CAKE
 MCST.F                59:   MUD CAKE SAMPLE TEMPERATURE
 MFSS.               MEAS:   MUD FILTRATE SAMPLE SOURCE
 MCSS.               MEAS:   MUD CAKE SAMPLE SOURCE
 RMB .OHMM           0.33:   RESISTIVITY MUD AT BHT
 BHT .F                59:   BOTTOM HOLE TEMPERATURE
 TCS .HRS               1:   TIME CURCULATED STOPPED
 MRT .F                59:   MAXIMUM RECORDED TEMPERATURE
 LUN .               2958:   LOGGING UNIT NUMBER
 LUL .               CASP:   LOGGING UNIT LOCATION
 ENGI.             MILLER:   RECORDING ENGINEER
 WITN.           DINSMORE:   WITNESSED BY
 CLNT.            A2DTECH:   CLIENT CODE
 ORIG.           5" PRINT:   ORIGIN OF DATA
 UWI .       490251075500:   UNIQUE WELL ID
 DICO. A2D Technologies, Inc.:   DIGITIZING COMPANY
~OTHER INFORMATION
~A   DEPT      ILD         SN        SPR       CALD       CORR       DPHI         GRD      RHOB   
# ...
  386.5000    25.0992    20.0000   -27.2716     8.0571     0.0423     0.1811    83.0224     2.3836
  387.0000    25.0974    19.8618   -27.2661     8.0580     0.0454     0.1775    80.9300     2.3896
  387.5000    25.0957    19.7245   -27.4136     8.0436     0.0454     0.1763    80.6391     2.3926
  388.0000    25.0940    19.5882   -27.7107     8.0296     0.0436     0.1787    80.6498     2.3897
  388.5000    25.4478    19.5882   -27.8571     8.0305     0.0380     0.1799    79.7479     2.3867
  389.0000    25.8270    19.7245   -27.8515     8.0314     0.0320     0.1824    78.6957     2.3822
  389.5000    26.5191    19.7245   -27.9990     8.0323     0.0201     0.1947    77.5253     2.3702
  390.0000    26.5169    19.8618   -28.4459     8.0482     0.0126     0.2138    77.3826     2.3508
  390.5000    26.6999    19.8618   -28.5934     8.0642     0.0127     0.2131    77.5458     2.3335
  391.0000    26.6976    19.7245   -28.8906     8.0502     0.0142     0.2077    78.1576     2.3328
  391.5000    26.6958    19.5882   -28.8850     8.0360     0.0098     0.1957    79.9724     2.3433
  392.0000    26.8801    19.5882   -29.0325     8.0216     0.0038     0.1939    82.0879     2.3599
  392.5000    26.8778    19.5882   -29.0269     7.9924    -0.0022     0.2008    80.5944     2.3574
  393.0000    26.8759    19.5882   -29.0225     7.9483    -0.0081     0.2101    77.8979     2.3479
  393.5000    26.8741    19.4528   -29.0180     7.9040    -0.0081     0.2131    75.5022     2.3375
  394.0000    26.8723    19.5882   -29.1644     7.8597    -0.0050     0.2124    76.9063     2.3315
  394.5000    26.8704    19.5882   -29.0091     7.8304    -0.0035     0.2085    81.2396     2.3345
  395.0000    27.0559    19.5882   -29.1555     7.8464    -0.0020     0.2037    84.7085     2.3405
  395.5000    27.2418    19.5882   -29.4527     7.8789    -0.0019     0.1980    88.6285     2.3526
  396.0000    27.2399    19.5882   -29.4471     7.9387     0.0011     0.1932    87.1350     2.3594
  396.5000    27.8102    19.4528   -29.5946     7.9697     0.0012     0.1953    83.5363     2.3594
  397.0000    28.3926    19.5882   -29.7409     7.9857    -0.0033     0.2001    82.6417     2.3564
  397.5000    28.9971    19.5882   -30.0381     8.0167    -0.0032     0.2064    84.3087     2.3509
  398.0000    29.1867    19.5882   -30.3353     8.0477    -0.0032     0.2139    85.3716     2.3370
  398.5000    29.3876    19.7245   -30.3298     8.0636    -0.0031     0.2148    85.0762     2.3310
  399.0000    29.3851    19.5882   -30.6270     8.0796    -0.0016     0.2104    84.3198     2.3370
  399.5000    29.3831    19.7245   -30.9242     8.0955     0.0030     0.2024    83.6005     2.3461
  400.0000    29.3814    19.7245   -31.3723     8.0964     0.0045     0.1955    81.8036     2.3589
  400.5000    29.1785    19.3183   -31.6717     8.1117     0.0106     0.1919    82.5724     2.3604
  401.0000    28.9770    19.3183   -31.9698     8.0820     0.0151     0.1895    82.7101     2.3641
  401.5000    28.7769    19.3183   -31.9668     8.0823     0.0152     0.1892    81.9597     2.3679
  402.0000    28.7769    19.3183   -31.9638     8.0674     0.0107     0.1901    81.3593     2.3657
  402.5000    28.7769    19.1848   -31.9608     8.0527     0.0062     0.1922    81.0600     2.3611
  403.0000    28.7769    19.1848   -31.9572     8.0380     0.0018     0.1946    80.7611     2.3604
  403.5000    28.7769    19.1848   -31.9542     8.0383    -0.0042     0.1994    80.4618     2.3500
  404.0000    28.9770    19.1848   -32.1028     8.0235    -0.0071     0.2051    80.1625     2.3402
  404.5000    28.9770    19.1848   -32.0991     8.0238    -0.0071     0.2078    79.7128     2.3357
  405.0000    28.9770    19.1848   -32.2470     8.0242    -0.0055     0.2123    79.2632     2.3320
  405.5000    28.9770    19.0487   -32.5457     8.0244    -0.0040     0.2138    78.6536     2.3290
  406.0000    28.7769    18.9205   -32.8444     8.0247    -0.0040     0.2141    79.1399     2.3283
  406.5000    28.3808    18.7898   -32.9923     8.0250    -0.0039     0.2138    80.3206     2.3290
  407.0000    28.1847    18.4029   -33.2910     8.0253    -0.0039     0.2126    81.5251     2.3313
  407.5000    27.9901    18.1494   -33.5897     8.0256    -0.0038     0.2093    83.4814     2.3358
  408.0000    27.7763    18.1494   -34.3489     8.0410    -0.0038     0.1985    84.6859     2.3474
  408.5000    27.6048    18.1494   -34.6817     8.0413    -0.0022     0.1753    84.9881     2.3681
  409.0000    26.8501    18.1494   -35.2392     8.0416    -0.0007     0.1493    84.9896     2.4027
  409.5000    26.4805    18.1494   -35.5380     8.0496    -0.0006     0.1300    84.8406     2.4515
  410.0000    26.1160    18.1494   -35.6866     8.0592    -0.0006     0.1198    84.6917     2.4898
  410.5000    26.1160    18.2757   -35.8344     8.0726    -0.0005     0.1180    84.2376     2.4853
  411.0000    26.1160    18.1494   -36.2832     8.0729    -0.0005     0.1363    83.4706     2.4523
  411.5000    25.9356    18.0056   -36.4319     8.0762    -0.0005     0.1838    80.6364     2.3967
  412.0000    25.7565    17.6528   -36.7306     8.0886    -0.0004     0.1931    81.0890     2.3710
  412.5000    25.4020    17.4096   -36.7269     8.1039     0.0026     0.1910    82.2934     2.3667
  413.0000    25.0512    17.1698   -36.7239     8.1344     0.0027     0.1862    83.1972     2.3735
  413.5000    24.6746    16.9333   -36.5691     8.1347     0.0042     0.1791    83.8001     2.3795
  414.0000    24.0320    16.8162   -36.4163     8.1500     0.0058     0.1742    84.5535     2.3871
  414.5000    23.3749    16.4700   -36.4133     8.1503     0.0088     0.1697    83.5023     2.3938
  415.0000    22.8940    16.2431   -36.4097     8.1355     0.0089     0.1682    81.3985     2.4021
  415.5000    22.2680    15.9086   -36.4068     8.1358     0.0089     0.1697    79.5955     2.4014
  416.0000    21.5096    15.7987   -36.8563     8.1362     0.0090     0.1697    80.3629     2.4006
  416.5000    21.0670    15.5810   -37.3066     8.1365     0.0090     0.1685    80.9522     2.4014
  417.0000    20.6336    15.3664   -37.6053     8.1368     0.0060     0.1676    80.8029     2.4022
  417.5000    20.2090    15.3664   -37.6016     8.1370     0.0046     0.1685    80.8047     2.4067
  418.0000    19.7932    15.2602   -37.5986     8.1223     0.0031     0.1721    80.5051     2.3996
  418.5000    19.5207    15.1547   -37.5957     8.1226     0.0002     0.1781    77.4994     2.3909
  419.0000    18.9757    15.0500   -37.7436     8.1078     0.0002     0.1790    78.4031     2.3857
  419.5000    18.4454    14.8427   -38.2001     8.1018     0.0003     0.1787    80.5099     2.3865
  420.0000    17.8389    14.5370   -38.6426     8.0783     0.0003     0.1769    82.6166     2.3880
  420.5000    17.4719    14.3368   -38.7905     8.0636     0.0003     0.1718    84.1218     2.3940
  421.0000    17.1124    14.1393   -39.0885     8.0337     0.0004     0.1661    82.2917     2.4030
  421.5000    16.5295    14.1393   -39.0855     8.0190     0.0004     0.1634    81.4180     2.4121
  422.0000    16.1894    13.9445   -39.3850     8.0193    -0.0025     0.1670    82.9236     2.4076
  422.5000    15.8563    13.7524   -39.8338     8.0045    -0.0025     0.1679    84.5792     2.4023
  423.0000    15.5301    13.5630   -40.1325     8.0049    -0.0009     0.1682    85.4829     2.4031
  423.5000    15.2105    13.3762   -40.4319     8.0052     0.0051     0.1661    85.3340     2.4062
  424.0000    15.0011    13.2837   -40.5792     8.0205     0.0082     0.1634    84.1325     2.4101
  424.5000    14.5910    13.1007   -40.5761     8.0208     0.0067     0.1619    82.0287     2.4137
  425.0000    14.3902    13.0102   -40.8748     8.0211     0.0038     0.1610    80.5264     2.4152
  425.5000    14.2908    13.0102   -40.8718     8.0214    -0.0008     0.1622    76.4677     2.4144
  426.0000    14.1921    12.8310   -40.8688     8.0217    -0.0022     0.1649    74.8150     2.4099
  426.5000    14.1921    12.8310   -40.8652     8.0303    -0.0036     0.1667    77.2019     2.4032
