~VERSION INFORMATION
 VERS.                2.0:   CWLS LOG ASCII STANDARD - VERSION 2.0
 WRAP.                 NO:   ONE LINE PER DEPTH STEP
~WELL INFORMATION
#MNEM.UNIT      DATA TYPE    INFORMATION
#----------   ------------   ------------------------------
 STRT.F            0.0000:   START DEPTH
 STOP.F         3994.5000:   STOP DEPTH
 STEP.F            0.5000:   STEP LENGTH
 NULL.          -999.2500:   NO VALUE
 COMP. LAWRENCE/ALLISON INC:   COMPANY
 WELL. STX 10 #36SHX10-10:   WELL
 FLD .         LOST HILLS:   FIELD
 LOC .      S10 T38N R78W:   LOCATION
 CNTY.            NATRONA:   COUNTY
 STAT.            WYOMING:   STATE
 CTRY. UNITED STATES OF AMERICA:   COUNTRY
 SRVC.              Welex:   SERVICE COMPANY
 DATE.        20-MAR-1980:   LOGDATE
 API .       490251095600:   API NUMBER
~CURVE INFORMATION
#MNEM.UNIT       API CODE    CURVE DESCRIPTION
#----------   ------------   ------------------------------
 DEPT.F                  :   
 GRD .GAPI   45 310 01 00:   GAMMA RAY FROM DENSITY LOG
 CALD.IN     45 280 60 00:   CALIPER
 RHOB.G/C3   45 350 01 00:   BULK DENSITY
 CORR.G/C3   45 356 01 00:   DENSITY CORRECTION
 DPHI.DEC    45 890 12 00:   DENSITY POROSITY SANDSTONE
 GR  .GAPI   81 310 01 00:   GAMMA RAY FROM CEMENT LOG
~PARAMETER INFORMATION
#MNEM.UNIT          VALUE    DESCRIPTION
#----------   ------------   ------------------------------
 PD  .                 GL:   PERMANENT DATUM
 EPD .F              5224:   ELEVATION PERMANENT DATUM
 LMF .                 KB:   LOG MEASURED FROM
 DAPD.F                10:   FEET ABOVE PERMANENT DATUM
 DMF .                 KB:   DRILLING MEASURED FROM
 EKB .F              5234:   KELLING BUSHING
 EGL .F              5224:   GROUND LEVEL
 DATE.            3-20-80:   RUN DATE
 RUN .                  1:   RUN NUMBER
 DD  .F              1000:   DEPTH DRILLER
 DL  .F               954:   DEPTH LOGGER
 BLI .F               952:   BOTTOM LOG INTERVAL
 TLI .F               654:   TOP LOG INTERVAL
 CS  .IN            9.625:   CASING SIZE
 BS  .IN             8.75:   BIT SIZE
 BSD .F              1000:   BIT SIZE AT DEPTH
 DFT .                OIL:   DRILLING FLUID TYPE
 TCS .HRS               2:   TIME CURCULATED STOPPED
 MRT .F                94:   MAXIMUM RECORDED TEMPERATURE
 ENGI.            TOTHILL:   RECORDING ENGINEER
 WITN.           DINSMORE:   WITNESSED BY
 CLNT.            A2DTECH:   CLIENT CODE
 ORIG.           5" PRINT:   ORIGIN OF DATA
 UWI .       490251095600:   UNIQUE WELL ID
 DICO. A2D Technologies, Inc.:   DIGITIZING COMPANY
~OTHER INFORMATION
~A    DEPT     GRD       CALD       RHOB       CORR       DPHI          GR  
# ...
  728.0000    74.8416     9.3980     2.5415     0.0583     0.0615  -999.2500
  728.5000    75.7154     9.4261     2.5512     0.0683     0.0528  -999.2500
  729.0000    76.7498     9.4985     2.5527     0.0618     0.0581  -999.2500
  729.5000    77.6358     9.5725     2.5316     0.0493     0.0662  -999.2500
  730.0000    78.0410     9.6389     2.5445     0.0558     0.0615  -999.2500
  730.5000    78.5300     9.6189     2.5391     0.0496     0.0637  -999.2500
  731.0000    77.3352     9.5976     2.5327     0.0436     0.0670  -999.2500
  731.5000    75.7576     9.5773     2.5264     0.0377     0.0703  -999.2500
  732.0000    74.1882     9.5001     2.5203     0.0317     0.0736  -999.2500
  732.5000    73.2207     9.4234     2.5159     0.0258     0.0770  -999.2500
  733.0000    72.9865     9.3466     2.5028     0.0165     0.0833  -999.2500
  733.5000    72.7578     9.2679     2.4885     0.0059     0.0927  -999.2500
  734.0000    72.5247     9.2587     2.4741    -0.0046     0.1021  -999.2500
  734.5000    72.5148     9.2540     2.4633    -0.0110     0.1090  -999.2500
  735.0000    72.8808     9.2490     2.4768     0.0038     0.1030  -999.2500
  735.5000    73.2505     9.2439     2.4936     0.0292     0.0867  -999.2500
  736.0000    73.1679     9.2388     2.5101     0.0548     0.0766  -999.2500
  736.5000    72.6223     9.2338     2.5198     0.0593     0.0729  -999.2500
  737.0000    73.6602     9.2287     2.5003     0.0383     0.0869  -999.2500
  737.5000    74.6296     9.2123     2.4839     0.0172     0.0983  -999.2500
  738.0000    74.9847     9.1287     2.4852     0.0146     0.0938  -999.2500
  738.5000    75.3540     9.0431     2.4960     0.0260     0.0880  -999.2500
  739.0000    75.8000     9.0106     2.5059     0.0375     0.0834  -999.2500
  739.5000    76.2233     8.9839     2.5009     0.0379     0.0859  -999.2500
  740.0000    76.9971     8.9829     2.4962     0.0453     0.0884  -999.2500
  740.5000    78.1098     8.9556     2.4914     0.0382     0.0911  -999.2500
  741.0000    78.8543     8.9286     2.4890     0.0369     0.0898  -999.2500
  741.5000    77.7753     8.9021     2.4992     0.0446     0.0846  -999.2500
  742.0000    77.1404     8.8660     2.4876     0.0429     0.0944  -999.2500
  742.5000    78.4293     8.8823     2.4734     0.0286     0.1066  -999.2500
  743.0000    79.6837     8.8983     2.4593     0.0209     0.1121  -999.2500
  743.5000    80.9314     8.9139     2.4458     0.0146     0.1174  -999.2500
  744.0000    82.1654     8.9295     2.4413     0.0224     0.1170  -999.2500
  744.5000    82.4541     8.9452     2.4371     0.0216     0.1226  -999.2500
  745.0000    81.4117     8.9608     2.4329     0.0228     0.1245  -999.2500
  745.5000    80.3859     8.9602     2.4289     0.0293     0.1264  -999.2500
  746.0000    79.3942     8.9314     2.4231     0.0358     0.1282  -999.2500
  746.5000    78.4563     8.9033     2.4008     0.0427     0.1364  -999.2500
  747.0000    77.5708     8.8752     2.4301     0.0629     0.1313  -999.2500
  747.5000    76.5328     8.8471     2.4535     0.0999     0.1234  -999.2500
  748.0000    76.6000     8.8184     2.4764     0.1323     0.1155  -999.2500
  748.5000    77.1742     8.7872     2.4838     0.1465     0.1130  -999.2500
  749.0000    77.6732     8.9148     2.4330     0.1218     0.1237  -999.2500
  749.5000    78.1637     9.0595     2.4040     0.0992     0.1345  -999.2500
  750.0000    78.0045     9.2018     2.4033     0.0971     0.1317  -999.2500
  750.5000    78.4575     9.2680     2.4264     0.1183     0.1289  -999.2500
  751.0000    79.3447     9.1378     2.4036     0.1015     0.1482  -999.2500
  751.5000    80.2407     9.0119     2.3723     0.0807     0.1637  -999.2500
  752.0000    81.1239     8.9891     2.3881     0.1068     0.1529  -999.2500
  752.5000    81.5723     9.1550     2.3915     0.1218     0.1565  -999.2500
  753.0000    80.7021     9.3331     2.3779     0.1302     0.1608  -999.2500
  753.5000    79.8484     9.5116     2.3903     0.1533     0.1492  -999.2500
  754.0000    78.9956     9.6422     2.4233     0.1771     0.1305  -999.2500
  754.5000    78.1040     9.7243     2.4531     0.1839     0.1120  -999.2500
  755.0000    78.2076     9.7849     2.4879     0.1318     0.0935  -999.2500
  755.5000    79.6786     9.5222     2.5203     0.0972     0.0750  -999.2500
  756.0000    81.2048     9.1315     2.5342     0.0970     0.0647  -999.2500
  756.5000    82.7234     8.8584     2.5157     0.0831     0.0767  -999.2500
  757.0000    84.0122     8.9880     2.5093     0.0752     0.0809  -999.2500
  757.5000    82.9059     9.1075     2.5033     0.0682     0.0829  -999.2500
  758.0000    81.6296     9.2269     2.5088     0.0680     0.0797  -999.2500
  758.5000    80.3627     9.3065     2.5092     0.0609     0.0830  -999.2500
  759.0000    79.0963     9.1838     2.5087     0.0523     0.0798  -999.2500
  759.5000    77.8323     9.0234     2.5154     0.0533     0.0771  -999.2500
  760.0000    76.5574     8.8591     2.5073     0.0518     0.0823  -999.2500
  760.5000    76.0555     8.7958     2.5018     0.0498     0.0837  -999.2500
  761.0000    76.4089     8.7543     2.5016     0.0538     0.0846  -999.2500
  761.5000    77.3455     8.7730     2.5068     0.0623     0.0818  -999.2500
  762.0000    78.2925     8.8130     2.5029     0.0693     0.0860  -999.2500
  762.5000    77.7315     8.8522     2.4915     0.0624     0.0902  -999.2500
  763.0000    76.6756     8.8842     2.4976     0.0753     0.0856  -999.2500
  763.5000    75.6108     8.8652     2.5082     0.0884     0.0799  -999.2500
  764.0000    74.8553     8.8377     2.5067     0.0874     0.0832  -999.2500
  764.5000    75.2149     8.6476     2.5035     0.0794     0.0839  -999.2500
  765.0000    75.3797     8.4576     2.5111     0.0762     0.0784  -999.2500
  765.5000    74.9843     8.5377     2.5185     0.0717     0.0724  -999.2500
  766.0000    74.7360     8.6612     2.5315     0.0759     0.0659  -999.2500
  766.5000    74.4969     8.7833     2.5473     0.0895     0.0587  -999.2500
  767.0000    74.2691     8.8056     2.5452     0.0891     0.0607  -999.2500
  767.5000    74.5790     8.8227     2.5411     0.0893     0.0573  -999.2500
  768.0000    75.4501     8.8407     2.5511     0.0999     0.0551  -999.2500
  768.5000    76.3117     8.8495     2.5242     0.0603     0.0730  -999.2500
  769.0000    77.1749     8.7562     2.5031     0.0373     0.0853  -999.2500
  769.5000    78.0390     8.6452     2.4963     0.0276     0.0876  -999.2500
  770.0000    78.9090     8.6251     2.4871     0.0259     0.0943  -999.2500
  770.5000    78.7987     8.6195     2.4734     0.0150     0.1054  -999.2500
  771.0000    79.3064     8.6141     2.4665     0.0091     0.1076  -999.2500
  771.5000    79.8193     8.6086     2.4643     0.0073     0.1086  -999.2500
  772.0000    79.8890     8.6030     2.4646     0.0063     0.1058  -999.2500
  772.5000    78.7783     8.5974     2.4729     0.0140     0.1019  -999.2500
  773.0000    77.6857     8.5918     2.4845     0.0286     0.0964  -999.2500
  773.5000    76.5471     8.5917     2.4905     0.0395     0.0922  -999.2500
  774.0000    77.2031     8.5958     2.4825     0.0450     0.0959  -999.2500
  774.5000    78.3199     8.6000     2.4741     0.0403     0.1016  -999.2500
  775.0000    79.0758     8.6042     2.4726     0.0419     0.1040  -999.2500
  775.5000    79.3527     8.6084     2.4769     0.0500     0.0995  -999.2500
  776.0000    79.5722     8.6126     2.4835     0.0625     0.0954  -999.2500
  776.5000    78.6178     8.6182     2.5055     0.0796     0.0823  -999.2500
  777.0000    77.6354     8.6241     2.5273     0.1049     0.0683  -999.2500
  777.5000    76.6439     8.6271     2.5400     0.1129     0.0595  -999.2500
  778.0000    76.6952     8.5881     2.5052     0.0702     0.0877  -999.2500
  778.5000    77.0717     8.5489     2.4837     0.0385     0.0958  -999.2500
  779.0000    76.3124     8.5557     2.4927     0.0359     0.0889  -999.2500
  779.5000    75.5931     8.6056     2.5029     0.0499     0.0842  -999.2500
