~VERSION INFORMATION
 VERS.                2.0:   CWLS LOG ASCII STANDARD - VERSION 2.0
 WRAP.                 NO:   ONE LINE PER DEPTH STEP
~WELL INFORMATION
#MNEM.UNIT      DATA TYPE    INFORMATION
#----------   ------------   ------------------------------
 STRT.F           90.0000:   START DEPTH
 STOP.F          928.0000:   STOP DEPTH
 STEP.F            0.5000:   STEP LENGTH
 NULL.          -999.2500:   NO VALUE
 COMP.  UNITED STATE NAVY:   COMPANY
 WELL.      NPR 3 #58-S-2:   WELL
 FLD .             TEAPOT:   FIELD
 LOC .       S2 T38N R78W:   LOCATION
 CNTY.            NATRONA:   COUNTY
 STAT.            WYOMING:   STATE
 CTRY. UNITED STATES OF AMERICA:   COUNTRY
 SRVC.       Schlumberger:   SERVICE COMPANY
 DATE.        26-JUN-1962:   LOGDATE
 API .       490250639500:   API NUMBER
~CURVE INFORMATION
#MNEM.UNIT       API CODE    CURVE DESCRIPTION
#----------   ------------   ------------------------------
 DEPT.F                  :   
 ASN .OHMM   05 041 16 00:   AMPLIFIED SHORT NORMAL 16"
 ILD .OHMM   05 120 46 00:   INDUCTION LOG DEEP
 CILD.MMHO   05 110 46 00:   CONDUCTIVITY INDUCTION LOG DEEP
 SPR .MV     05 010 01 00:   SPONTANEOUS POTENTIAL FROM RES.
 GR  .GAPI   30 310 01 00:   GAMMA RAY
~PARAMETER INFORMATION
#MNEM.UNIT          VALUE    DESCRIPTION
#----------   ------------   ------------------------------
 PD  .                 KB:   PERMANENT DATUM
 EKB .F              5189:   KELLING BUSHING
 EGL .F              5184:   GROUND LEVEL
 DATE.        26-JUN-1962:   RUN DATE
 RUN .                  1:   RUN NUMBER
 DD  .F               925:   DEPTH DRILLER
 DL  .F               929:   DEPTH LOGGER
 BLI .F               928:   BOTTOM LOG INTERVAL
 TLI .F                90:   TOP LOG INTERVAL
 BS  .IN             6.75:   BIT SIZE
 BSD .F               925:   BIT SIZE AT DEPTH
 DFT .       OIL EMULSION:   DRILLING FLUID TYPE
 DFD .                 10:   DRILLING FLUID DENSITY
 DFV .                 50:   DRILLING FLUID VISCOSITY
 DFL .                3.7:   DRILLING FLUID LOSS
 RMS .OHMM            4.7:   RESISTIVITY MUD SAMPLE
 MST .F                83:   MUD SAMPLE TEMPERATURE
 RMF .OHMM            3.8:   RESISTIVITY MUD FILTRATE SAMPLE
 MFST.F                83:   MUD FILTRATE SAMPLE TEMPERATURE
 RMC .OHMM            4.4:   RESISTIVITY MUD CAKE
 MCST.F                83:   MUD CAKE SAMPLE TEMPERATURE
 TCS .HRS               1:   TIME CURCULATED STOPPED
 LUN .               2503:   LOGGING UNIT NUMBER
 LUL .               CSPR:   LOGGING UNIT LOCATION
 ENGI.             DANNER:   RECORDING ENGINEER
 WITN.          JORGENSEN:   WITNESSED BY
 CLNT.            A2DTECH:   CLIENT CODE
 ORIG.      2" & 5" PRINT:   ORIGIN OF DATA
 UWI .       490250639500:   UNIQUE WELL ID
 DICO. A2D Technologies, Inc.:   DIGITIZING COMPANY
~OTHER INFORMATION
~A   DEPT        ASN        ILD      CILD       SPR         GR   
# ...
  639.0000     7.5862     7.4963   149.0373   -51.2597  -999.2500
  639.5000     7.6012     7.5712   145.2703   -51.2567  -999.2500
  640.0000     7.6162     7.5712   143.0070   -51.1044  -999.2500
  640.5000     7.6612     7.6462   142.2475   -51.1013  -999.2500
  641.0000     7.6792     7.6462   142.2398   -51.0983  -999.2500
  641.5000     7.7081     7.7211   142.2322   -50.9460  -999.2500
  642.0000     7.7371     7.7961   142.9783   -50.9430  -999.2500
  642.5000     7.7511     7.7961   142.2169   -50.6415  -999.2500
  643.0000     7.7361     7.8711   140.7054   -50.4892  -999.2500
  643.5000     7.7361     7.9460   139.1940   -50.6354  -999.2500
  644.0000     7.8261     8.0210   138.3056   -50.7824  -999.2500
  644.5000     7.9760     8.0960   136.1729   -50.9278  -999.2500
  645.0000     8.1109     8.0960   134.6367   -50.9248  -999.2500
  645.5000     8.1709     8.1709   133.1503   -51.1025  -999.2500
  646.0000     8.2009     8.2459   131.6389   -51.3891  -999.2500
  646.5000     8.1859     8.3208   130.8794   -52.1234  -999.2500
  647.0000     8.1859     8.3208   130.1198   -52.2567  -999.2500
  647.5000     8.2159     8.3208   130.8660   -51.3582  -999.2500
  648.0000     8.2759     8.3208   131.6102   -50.6089  -999.2500
  648.5000     8.2579     8.2459   133.1044   -50.6059  -999.2500
  649.0000     8.2099     8.1709   133.8505   -50.6028  -999.2500
  649.5000     8.0940     8.1709   135.3447   -50.5998  -999.2500
  650.0000     8.0210     8.1533   136.0909   -50.6063  -999.2500
  650.5000     7.9680     7.9468   136.0902   -50.6585  -999.2500
  651.0000     7.9466     8.0974   136.0902   -50.7107  -999.2500
  651.5000     7.9319     8.1731   136.0902   -50.7289  -999.2500
  652.0000     7.9623     8.2489   136.0902   -50.7215  -999.2500
  652.5000     8.0525     8.2496   136.0902   -50.7155  -999.2500
  653.0000     8.1877     8.2503   136.0902   -50.7096  -999.2500
  653.5000     8.2330     8.2511   136.0902   -50.7037  -999.2500
  654.0000     8.1883     8.1769   136.8421   -50.6977  -999.2500
  654.5000     8.0687     8.1028   136.8421   -50.6918  -999.2500
  655.0000     7.9790     8.0286   136.0902   -50.5366  -999.2500
  655.5000     7.9643     8.0294   136.0902   -50.5306  -999.2500
  656.0000     7.9796     8.0301   136.8421   -50.5247  -999.2500
  656.5000     7.9799     7.9559   136.8517   -50.5187  -999.2500
  657.0000     7.9203     7.9566   137.6243   -50.5128  -999.2500
  657.5000     7.8456     7.9574   138.3961   -50.5068  -999.2500
  658.0000     7.8158     7.8830   139.0977   -50.5009  -999.2500
  658.5000     7.8162     7.8088   140.6015   -50.4950  -999.2500
  659.0000     7.8165     7.7345   142.1053   -50.6397  -999.2500
  659.5000     7.8018     7.7355   143.6090   -50.6323  -999.2500
  660.0000     7.7871     7.6611   145.1128   -50.6264  -999.2500
  660.5000     7.7274     7.6620   146.6165   -50.6199  -999.2500
  661.0000     7.6528     7.6627   147.3684   -50.6145  -999.2500
  661.5000     7.5631     7.5883   148.1203   -50.6085  -999.2500
  662.0000     7.4885     7.5141   148.1203   -50.6026  -999.2500
  662.5000     7.3988     7.3651   151.1278   -50.5966  -999.2500
  663.0000     7.3087     7.2907   155.6391   -50.5907  -999.2500
  663.5000     7.2337     7.1417   162.4060   -50.4355  -999.2500
  664.0000     7.1574     6.9926   171.4286   -50.5803  -999.2500
  664.5000     6.9841     6.6185   175.9398   -50.5729  -999.2500
  665.0000     6.5997     6.4693   177.4436   -50.5669  -999.2500
  665.5000     6.5136     6.4700   175.1880   -50.4621  -999.2500
  666.0000     6.4985     6.3958   173.6842   -50.5652  -999.2500
  666.5000     6.3668     6.3216   172.9323   -50.6682  -999.2500
  667.0000     6.2471     6.4723   171.4286   -51.7372  -999.2500
  667.5000     6.3674     6.7729   168.4211   -53.0745  -999.2500
  668.0000     6.7275     7.0735   157.1429   -53.3672  -999.2500
  668.5000     6.9677     7.2991   151.1278   -52.4656  -999.2500
  669.0000     7.0129     7.4508   148.8722   -51.4149  -999.2500
  669.5000     7.1632     7.5255   145.1128   -50.5134  -999.2500
  670.0000     7.4933     7.5262   145.8647   -50.0597  -999.2500
  670.5000     7.5386     7.5270   148.8722   -50.2030  -999.2500
  671.0000     7.5089     7.4528   151.1278   -50.3463  -999.2500
  671.5000     7.4342     7.3676   154.1353   -50.4896  -999.2500
  672.0000     7.2096     7.1544   155.6391   -50.4836  -999.2500
  672.5000     6.8501     7.0054   157.1429   -50.4776  -999.2500
  673.0000     6.7455     6.8560   160.1504   -50.4716  -999.2500
  673.5000     6.6557     6.6321   166.9173   -50.3164  -999.2500
  674.0000     6.5512     6.4827   175.9398   -50.1612  -999.2500
  674.5000     6.3565     6.2587   187.2180   -50.0060  -999.2500
  675.0000     6.0720     5.8847   204.5113   -50.0000  -999.2500
  675.5000     5.8474     5.5854   215.1574   -49.8447  -999.2500
  676.0000     5.4429     5.2865   223.3083   -49.8376  -999.2500
  676.5000     5.2932     5.1373   222.5564   -49.6824  -999.2500
  677.0000     5.3535     5.0629   222.4766   -49.5272  -999.2500
  677.5000     5.2489     5.0638   220.9528   -49.5213  -999.2500
  678.0000     5.1892     5.2894   219.5489   -49.6661  -999.2500
  678.5000     5.6243     5.6650   213.8645   -49.9586  -999.2500
  679.0000     6.0594     6.0406   199.2481   -50.2497  -999.2500
  679.5000     6.2546     6.4161   182.7068   -50.3945  -999.2500
  680.0000     6.4348     6.6418   172.9323   -50.9841  -999.2500
  680.5000     6.6000     6.8674   164.6617   -52.0229  -999.2500
  681.0000     6.7202     6.9431   160.9023   -52.9125  -999.2500
  681.5000     6.7959     7.0188   157.8947   -53.3543  -999.2500
  682.0000     6.9013     7.0945   157.1429   -53.3484    63.4884
  682.5000     6.9770     7.1702   156.3910   -53.0439    57.2514
  683.0000     7.0513     7.2459   154.8872   -52.5902    55.4713
  683.5000     7.1151     7.3216   154.1353   -51.2410    70.4817
  684.0000     7.2512     7.3224   152.6316   -50.0410    78.0619
  684.5000     7.3572     7.3231   151.1278   -49.8858    72.4185
  685.0000     7.4273     7.3988   149.6241   -50.7754    70.7877
  685.5000     7.4426     7.3996   147.3684   -51.9635    69.3041
  686.0000     7.5029     7.4753   145.1128   -52.7038    74.6570
  686.5000     7.6981     7.5510   144.3609   -52.6978    76.1451
  687.0000     7.7284     7.6267   142.8571   -52.5426    62.0329
  687.5000     7.6837     7.7024   142.1053   -52.5367    64.5618
  688.0000     7.7440     7.7802   141.3534   -52.2322    66.6443
  688.5000     7.9242     7.9288   140.6015   -50.8830    55.5039
  689.0000     7.9695     8.0045   139.0977   -51.0278    60.1131
  689.5000     7.9847     8.0802   139.0977   -51.6174    60.2639
  690.0000     8.0450     8.0809   138.3459   -51.7622    61.7535
  690.5000     8.0602     8.0817   138.3459   -51.9055    61.3107
  691.0000     8.0156     8.0824   139.0977   -51.5996    59.3819
  691.5000     8.0009     8.0082   139.8496   -51.5936    67.2602
  692.0000     7.9563     7.9340   141.3534   -51.2892    72.7609
  692.5000     7.8966     7.9349   142.1053   -50.3877    69.4949
  693.0000     7.7769     8.0106   141.3534   -50.2325    61.6227
  693.5000     7.5973     8.0114   141.3534   -50.0773    56.2765
  694.0000     7.4477     8.0871   141.3534   -50.0713    51.3760
  694.5000     7.3580     8.0878   142.1053   -49.7669    51.2303
  695.0000     7.2684     8.0886   142.9073   -49.6117    55.5424
  695.5000     7.1338     7.8644   146.7570   -49.4565    55.2482
  696.0000     6.9691     7.4904   151.9698   -50.0476    55.2512
  696.5000     6.7595     7.0413   155.1074   -50.7879    54.3626
  697.0000     6.5499     6.6673   163.5480   -51.5282    47.8277
  697.5000     6.2804     6.2932   173.6842   -52.1193    62.9867
  698.0000     5.9059     5.9191   185.6385   -50.3223    54.5201
  698.5000     5.5613     5.5451   203.0075   -49.4208    43.3789
  699.0000     5.1718     5.1710   222.5564   -49.5641    49.6226
  699.5000     4.7523     4.7969   253.3835   -49.7074    51.1115
