~VERSION INFORMATION
 VERS.                2.0:   CWLS LOG ASCII STANDARD - VERSION 2.0
 WRAP.                 NO:   ONE LINE PER DEPTH STEP
~WELL INFORMATION
#MNEM.UNIT      DATA TYPE    INFORMATION
#----------   ------------   ------------------------------
 STRT.F            7.5000:   START DEPTH
 STOP.F         2886.0000:   STOP DEPTH
 STEP.F            0.5000:   STEP LENGTH
 NULL.          -999.2500:   NO VALUE
 COMP. LAWRENCE/ALLISON INC:   COMPANY
 WELL.     16-1 AX #21-21:   WELL
 FLD .             TEAPOT:   FIELD
 LOC .      S21 T39N R78W:   LOCATION
 CNTY.            NATRONA:   COUNTY
 STAT.            WYOMING:   STATE
 CTRY. UNITED STATES OF AMERICA:   COUNTRY
 SRVC.      Dresser Atlas:   SERVICE COMPANY
 DATE.        05-DEC-1986:   LOGDATE
 API .       490251111900:   API NUMBER
~CURVE INFORMATION
#MNEM.UNIT       API CODE    CURVE DESCRIPTION
#----------   ------------   ------------------------------
 DEPT.F                  :   
 GRR .GAPI   07 310 01 00:   GAMMA RAY FROM RES. LOG.
 SPR .MV     07 010 01 00:   SPONTANEOUS POTENTIAL
 RFOC.OHMM   07 220 04 00:   RESISTIVITY FOCUSED LOG
 RILM.OHMM   07 120 44 00:   INDUCTION LOG MEDIUM RESISTIVITY
 RILD.OHMM   07 120 46 00:   INDUCTION LOG DEEP RESISTIVITY
 CALD.IN     45 280 60 00:   CALIPER
 DEN .G/C3   45 350 01 00:   BULK DENSITY
 CORR.G/C3   45 356 01 00:   DENSITY CORRECTION
 CNC .DEC    42 890 03 00:   NEUTRON POROSITY SANDSTONE
 PORD.DEC    45 890 12 00:   DENSITY POROSITY SANDSTONE
~PARAMETER INFORMATION
#MNEM.UNIT          VALUE    DESCRIPTION
#----------   ------------   ------------------------------
 PD  .                 GL:   PERMANENT DATUM
 EPD .F              4992:   ELEVATION PERMANENT DATUM
 LMF .                 KB:   LOG MEASURED FROM
 DAPD.F                12:   FEET ABOVE PERMANENT DATUM
 DMF .                 KB:   DRILLING MEASURED FROM
 EKB .F              5004:   KELLING BUSHING
 EGL .F              4992:   GROUND LEVEL
 DATE.            12-5-86:   RUN DATE
 RUN .                  1:   RUN NUMBER
 DD  .F              2905:   DEPTH DRILLER
 DL  .F              2890:   DEPTH LOGGER
 BLI .F              2884:   BOTTOM LOG INTERVAL
 TLI .F              2200:   TOP LOG INTERVAL
 CS  .IN            8.625:   CASING SIZE
 CBD .F               300:   CASING BOTTOM DRILLER
 CBL .F               300:   CASING BOTTOM LOGGER
 BS  .IN            7.875:   BIT SIZE
 BSD .F              2905:   BIT SIZE AT DEPTH
 DFT .        KCL POLYMER:   DRILLING FLUID TYPE
 DFD .                  9:   DRILLING FLUID DENSITY
 DFV .                 36:   DRILLING FLUID VISCOSITY
 DFPH.                9.5:   DRILLING FLUID PH
 DFL .               11.8:   DRILLING FLUID LOSS
 MSS .            MUDTANK:   MUD SAMPLE SOURCE
 RMS .OHMM            .43:   RESISTIVITY MUD SAMPLE
 MST .F                63:   MUD SAMPLE TEMPERATURE
 RMF .OHMM           .348:   RESISTIVITY MUD FILTRATE SAMPLE
 MFST.F                63:   MUD FILTRATE SAMPLE TEMPERATURE
 RMC .OHMM           .538:   RESISTIVITY MUD CAKE
 MCST.F                63:   MUD CAKE SAMPLE TEMPERATURE
 MFSS.               MEAS:   MUD FILTRATE SAMPLE SOURCE
 MCSS.               CALC:   MUD CAKE SAMPLE SOURCE
 RMB .OHMM           .233:   RESISTIVITY MUD AT BHT
 BHT .F               116:   BOTTOM HOLE TEMPERATURE
 TCS .HRS             3.5:   TIME CURCULATED STOPPED
 MRT .F               116:   MAXIMUM RECORDED TEMPERATURE
 LUN .            HL-6274:   LOGGING UNIT NUMBER
 LUL .           GILLETTE:   LOGGING UNIT LOCATION
 ENGI.             RAUTIO:   RECORDING ENGINEER
 WITN.             STRONG:   WITNESSED BY
 CLNT.            A2DTECH:   CLIENT CODE
 ORIG.       2", 5" PRINT:   ORIGIN OF DATA
 UWI .       490251111900:   UNIQUE WELL ID
 DICO. A2D Technologies, Inc.:   DIGITIZING COMPANY
~OTHER INFORMATION
~A    DEPT     GRR        SPR       RFOC       RILM       RILD       CALD        DEN       CORR        CNC       PORD   
# ...
 1046.0000    82.1630   -50.7076     8.8355     7.7497     8.2095  -999.2500  -999.2500  -999.2500  -999.2500  -999.2500
 1046.5000    84.4300   -50.8012     8.5636     7.5950     8.0539  -999.2500  -999.2500  -999.2500  -999.2500  -999.2500
 1047.0000    85.9922   -50.9013     8.2474     7.5373     7.8977  -999.2500  -999.2500  -999.2500  -999.2500  -999.2500
 1047.5000    86.5126   -51.0006     7.9429     7.3930     7.7444  -999.2500  -999.2500  -999.2500  -999.2500  -999.2500
 1048.0000    87.4803   -51.0997     7.8958     7.2622     7.5941  -999.2500  -999.2500  -999.2500  -999.2500  -999.2500
 1048.5000    90.3458   -51.1988     8.0934     7.4073     7.4467  -999.2500  -999.2500  -999.2500  -999.2500  -999.2500
 1049.0000    92.7319   -51.2981     8.1191     7.5373     7.3022  -999.2500  -999.2500  -999.2500  -999.2500  -999.2500
 1049.5000    92.6478   -51.3982     8.1191     7.4424     7.1606  -999.2500  -999.2500  -999.2500  -999.2500  -999.2500
 1050.0000    91.5161   -51.5026     8.0137     7.3553     7.0594  -999.2500  -999.2500  -999.2500  -999.2500  -999.2500
 1050.5000    88.7729   -51.4170     7.8638     7.2622     7.0486  -999.2500  -999.2500  -999.2500  -999.2500  -999.2500
 1051.0000    87.3998   -51.2896     7.8042     7.2485     7.0378  -999.2500  -999.2500  -999.2500  -999.2500  -999.2500
 1051.5000    87.5443   -51.1614     7.7772     7.2336     7.0271  -999.2500  -999.2500  -999.2500  -999.2500  -999.2500
 1052.0000    87.7935   -51.0317     7.7510     7.2188     7.0164  -999.2500  -999.2500  -999.2500  -999.2500  -999.2500
 1052.5000    88.0703   -50.9157     7.7250     7.2039     7.0057  -999.2500  -999.2500  -999.2500  -999.2500  -999.2500
 1053.0000    88.3394   -51.2297     7.6989     7.1911     6.9954  -999.2500  -999.2500  -999.2500  -999.2500  -999.2500
 1053.5000    88.2759   -51.5751     7.6787     7.1810     6.9865  -999.2500  -999.2500  -999.2500  -999.2500  -999.2500
 1054.0000    85.8940   -51.6008     7.7575     7.1711     6.9775  -999.2500  -999.2500  -999.2500  -999.2500  -999.2500
 1054.5000    82.9570   -51.4354     7.8225     7.1611     6.9686  -999.2500  -999.2500  -999.2500  -999.2500  -999.2500
 1055.0000    82.4656   -51.3188     7.8958     7.1511     6.9597  -999.2500  -999.2500  -999.2500  -999.2500  -999.2500
 1055.5000    84.3146   -51.4016     7.8465     7.1413     6.9508  -999.2500  -999.2500  -999.2500  -999.2500  -999.2500
 1056.0000    86.0697   -51.4813     7.7911     7.1290     6.9420  -999.2500  -999.2500  -999.2500  -999.2500  -999.2500
 1056.5000    86.9303   -51.5059     7.7360     7.1427     6.9331  -999.2500  -999.2500  -999.2500  -999.2500  -999.2500
 1057.0000    84.9498   -51.5067     7.6787     7.1628     6.9544  -999.2500  -999.2500  -999.2500  -999.2500  -999.2500
 1057.5000    83.0250   -51.5048     7.6907     7.1829     6.9779  -999.2500  -999.2500  -999.2500  -999.2500  -999.2500
 1058.0000    83.3365   -51.4114     7.7032     7.1946     6.9967  -999.2500  -999.2500  -999.2500  -999.2500  -999.2500
 1058.5000    84.7892   -51.1066     7.7157     7.1591     6.9671  -999.2500  -999.2500  -999.2500  -999.2500  -999.2500
 1059.0000    86.3596   -50.9586     7.7283     7.1330     6.9418  -999.2500  -999.2500  -999.2500  -999.2500  -999.2500
 1059.5000    86.9282   -51.1358     7.7412     7.1071     6.9166  -999.2500  -999.2500  -999.2500  -999.2500  -999.2500
 1060.0000    89.7989   -51.2772     7.7504     7.0813     6.8915  -999.2500  -999.2500  -999.2500  -999.2500  -999.2500
 1060.5000    94.0310   -50.7064     7.6162     7.0626     6.8684  -999.2500  -999.2500  -999.2500  -999.2500  -999.2500
 1061.0000    97.4101   -51.2035     7.5110     7.0114     6.8245  -999.2500  -999.2500  -999.2500  -999.2500  -999.2500
 1061.5000    95.3600   -51.5741     7.3985     6.9641     6.7750  -999.2500  -999.2500  -999.2500  -999.2500  -999.2500
 1062.0000    93.3738   -51.7336     7.4479     6.9325     6.7421  -999.2500  -999.2500  -999.2500  -999.2500  -999.2500
 1062.5000    92.2653   -51.8947     7.5023     6.9810     6.7934  -999.2500  -999.2500  -999.2500  -999.2500  -999.2500
 1063.0000    91.2500   -52.0571     7.5373     7.0178     6.8329  -999.2500  -999.2500  -999.2500  -999.2500  -999.2500
 1063.5000    87.8155   -52.1093     7.5001     7.0547     6.8725  -999.2500  -999.2500  -999.2500  -999.2500  -999.2500
 1064.0000    83.3150   -52.1185     7.4676     7.0919     6.9122  -999.2500  -999.2500  -999.2500  -999.2500  -999.2500
 1064.5000    82.9074   -51.7838     7.5826     7.1285     6.9523  -999.2500  -999.2500  -999.2500  -999.2500  -999.2500
 1065.0000    85.2803   -51.4197     7.7274     7.1817     6.9926  -999.2500  -999.2500  -999.2500  -999.2500  -999.2500
 1065.5000    88.0334   -51.1098     7.7504     7.2341     7.0328  -999.2500  -999.2500  -999.2500  -999.2500  -999.2500
 1066.0000    88.9811   -51.2301     7.7504     7.2622     7.0623  -999.2500  -999.2500  -999.2500  -999.2500  -999.2500
 1066.5000    88.9515   -51.3283     7.7504     7.1995     7.0097  -999.2500  -999.2500  -999.2500  -999.2500  -999.2500
 1067.0000    89.1486   -51.3914     7.7504     7.1516     6.9642  -999.2500  -999.2500  -999.2500  -999.2500  -999.2500
 1067.5000    90.5550   -51.4552     7.7504     7.0865     6.9048  -999.2500  -999.2500  -999.2500  -999.2500  -999.2500
 1068.0000    92.9952   -51.5188     7.7504     7.0066     6.8201  -999.2500  -999.2500  -999.2500  -999.2500  -999.2500
 1068.5000    95.3382   -51.5824     7.7504     6.9274     6.7365  -999.2500  -999.2500  -999.2500  -999.2500  -999.2500
 1069.0000    93.8017   -51.6454     7.6133     6.8491     6.6539  -999.2500  -999.2500  -999.2500  -999.2500  -999.2500
 1069.5000    90.0801   -51.7111     7.2616     6.7719     6.5722  -999.2500  -999.2500  -999.2500  -999.2500  -999.2500
 1070.0000    86.8118   -51.8491     6.9972     6.7218     6.5351  -999.2500  -999.2500  -999.2500  -999.2500  -999.2500
 1070.5000    85.1199   -51.9889     7.0376     6.6890     6.5087  -999.2500  -999.2500  -999.2500  -999.2500  -999.2500
 1071.0000    87.3873   -52.0840     7.0710     6.6563     6.4823  -999.2500  -999.2500  -999.2500  -999.2500  -999.2500
 1071.5000    88.6329   -51.6056     7.1045     6.6238     6.4561  -999.2500  -999.2500  -999.2500  -999.2500  -999.2500
 1072.0000    85.3581   -51.1267     7.1285     6.5915     6.4300  -999.2500  -999.2500  -999.2500  -999.2500  -999.2500
 1072.5000    84.2797   -51.1372     7.1285     6.5567     6.4037  -999.2500  -999.2500  -999.2500  -999.2500  -999.2500
 1073.0000    88.3388   -51.4312     7.1285     6.5724     6.3763  -999.2500  -999.2500  -999.2500  -999.2500  -999.2500
 1073.5000    92.4072   -51.7206     7.1285     6.5904     6.3954  -999.2500  -999.2500  -999.2500  -999.2500  -999.2500
 1074.0000    95.5237   -51.8796     7.1285     6.6083     6.4164  -999.2500  -999.2500  -999.2500  -999.2500  -999.2500
 1074.5000    93.1772   -51.7898     7.1799     6.6262     6.4374  -999.2500  -999.2500  -999.2500  -999.2500  -999.2500
 1075.0000    91.0447   -51.7137     7.2339     6.6441     6.4585  -999.2500  -999.2500  -999.2500  -999.2500  -999.2500
 1075.5000    89.7212   -51.8514     7.2881     6.6621     6.4796  -999.2500  -999.2500  -999.2500  -999.2500  -999.2500
 1076.0000    89.7705   -51.9973     7.3300     6.6795     6.4958  -999.2500  -999.2500  -999.2500  -999.2500  -999.2500
 1076.5000    88.9779   -52.0866     7.3034     6.6175     6.4759  -999.2500  -999.2500  -999.2500  -999.2500  -999.2500
 1077.0000    88.9378   -51.9634     7.2818     6.5581     6.4598  -999.2500  -999.2500  -999.2500  -999.2500  -999.2500
 1077.5000    89.5847   -51.8455     7.2603     6.4987     6.4370  -999.2500  -999.2500  -999.2500  -999.2500  -999.2500
 1078.0000    91.7160   -51.7279     7.2388     6.4359     6.5200  -999.2500  -999.2500  -999.2500  -999.2500  -999.2500
 1078.5000    93.9398   -51.6103     7.2172     6.5283     6.6955  -999.2500  -999.2500  -999.2500  -999.2500  -999.2500
 1079.0000    94.2041   -51.4889     7.1950     6.6329     6.8140  -999.2500  -999.2500  -999.2500  -999.2500  -999.2500
