~VERSION INFORMATION
 VERS.                2.0:   CWLS LOG ASCII STANDARD - VERSION 2.0
 WRAP.                 NO:   ONE LINE PER DEPTH STEP
~WELL INFORMATION
#MNEM.UNIT      DATA TYPE    INFORMATION
#----------   ------------   ------------------------------
 STRT.F          160.0000:   START DEPTH
 STOP.F         1181.5000:   STOP DEPTH
 STEP.F            0.5000:   STEP LENGTH
 NULL.          -999.2500:   NO VALUE
 COMP.            US NAVY:   COMPANY
 WELL. RES 3 TEAPOT DOM #71-SX-14:   WELL
 FLD .             TEAPOT:   FIELD
 LOC .      S14 T38N R78W:   LOCATION
 CNTY.            NATRONA:   COUNTY
 STAT.            WYOMING:   STATE
 CTRY. UNITED STATES OF AMERICA:   COUNTRY
 SRVC.       Schlumberger:   SERVICE COMPANY
 DATE.        23-AUG-1959:   LOGDATE
 API .       490250632200:   API NUMBER
~CURVE INFORMATION
#MNEM.UNIT       API CODE    CURVE DESCRIPTION
#----------   ------------   ------------------------------
 DEPT.F                  :   
 SPR .MV     05 010 01 00:   SPONTANEOUS POTENTIAL FROM RES.
 IL  .OHMM   05 120 00 00:   INDUCTION LOG
 ASN .OHMM   05 041 16 00:   AMPLIFIED SHORT NORMAL 16"
 CIL .MMHO   05 110 00 00:   CONDUCTIVITY INDUCTION LOG
~PARAMETER INFORMATION
#MNEM.UNIT          VALUE    DESCRIPTION
#----------   ------------   ------------------------------
 PD  .                 GL:   PERMANENT DATUM
 EPD .F              5259:   ELEVATION PERMANENT DATUM
 LMF .                 KB:   LOG MEASURED FROM
 DAPD.F                 4:   FEET ABOVE PERMANENT DATUM
 DMF .                 KB:   DRILLING MEASURED FROM
 EKB .F              5263:   KELLING BUSHING
 EGL .F              5259:   GROUND LEVEL
 DATE.            8-23-59:   RUN DATE
 RUN .                  1:   RUN NUMBER
 DD  .F              1190:   DEPTH DRILLER
 DL  .F              1186:   DEPTH LOGGER
 BLI .F              1180:   BOTTOM LOG INTERVAL
 TLI .F               150:   TOP LOG INTERVAL
 CBD .F                17:   CASING BOTTOM DRILLER
 BS  .IN             6.75:   BIT SIZE
 BSD .F              1190:   BIT SIZE AT DEPTH
 DFT .                GEL:   DRILLING FLUID TYPE
 DFD .                9.5:   DRILLING FLUID DENSITY
 DFV .                 52:   DRILLING FLUID VISCOSITY
 MSS .           FLOWLINE:   MUD SAMPLE SOURCE
 RMS .OHMM            2.6:   RESISTIVITY MUD SAMPLE
 MST .F                62:   MUD SAMPLE TEMPERATURE
 MFSS.                  M:   MUD FILTRATE SAMPLE SOURCE
 MCSS.                  M:   MUD CAKE SAMPLE SOURCE
 RMB .OHMM            2.2:   RESISTIVITY MUD AT BHT
 BHT .F                80:   BOTTOM HOLE TEMPERATURE
 TCS .HRS               1:   TIME CURCULATED STOPPED
 MRT .F                80:   MAXIMUM RECORDED TEMPERATURE
 LUN .               2523:   LOGGING UNIT NUMBER
 LUL .               CSPR:   LOGGING UNIT LOCATION
 ENGI.             ATWOOD:   RECORDING ENGINEER
 WITN.             MARTIN:   WITNESSED BY
 CLNT.            A2DTECH:   CLIENT CODE
 ORIG.     1", 2.5" PRINT:   ORIGIN OF DATA
 UWI .       490250632200:   UNIQUE WELL ID
 DICO. A2D Technologies, Inc.:   DIGITIZING COMPANY
~OTHER INFORMATION
~A   DEPT      SPR           IL        ASN      CIL   
# ...
  379.0000   -54.2149     6.4027     6.6928   181.6215
  379.5000   -54.2534     6.3044     6.7736   185.7421
  380.0000   -54.2935     6.2057     6.6273   189.8685
  380.5000   -54.3332     6.1064     6.3142   193.9979
  381.0000   -54.3728     6.0085     6.1757   198.0564
  381.5000   -54.4114     5.9113     6.2018   202.1624
  382.0000   -54.4536     5.8045     6.2225   204.9611
  382.5000   -54.4500     5.7875     6.2470   204.9611
  383.0000   -54.4216     5.8602     6.2607   204.3255
  383.5000   -54.3962     5.9234     6.2554   202.3898
  384.0000   -54.3713     5.9871     6.2886   200.4541
  384.5000   -54.3455     6.0528     6.3568   198.5184
  385.0000   -54.3203     6.1169     6.4221   196.5827
  385.5000   -54.2948     6.1813     6.4862   194.6470
  386.0000   -54.2694     6.2466     6.5504   192.7113
  386.5000   -54.2439     6.3106     6.6227   190.7756
  387.0000   -54.2186     6.3741     6.6151   188.8399
  387.5000   -54.1931     6.4443     6.5282   186.9042
  388.0000   -54.1678     6.4524     6.4499   185.7004
  388.5000   -54.1427     6.3983     6.3686   186.6634
  389.0000   -54.1165     6.3509     6.3100   189.1773
  389.5000   -54.1063     6.3030     6.2771   191.6912
  390.0000   -54.1072     6.2539     6.2409   194.2051
  390.5000   -54.1071     6.2057     6.2055   196.7190
  391.0000   -54.1070     6.1575     6.1696   199.2329
  391.5000   -54.1072     6.1085     6.1348   201.7468
  392.0000   -54.1071     6.0605     6.0997   203.2101
  392.5000   -54.1072     6.0128     6.0590   203.2101
  393.0000   -54.1073     5.9603     6.0923   203.2101
  393.5000   -54.1071     5.9528     6.2050   203.2101
  394.0000   -54.1074     5.9902     6.3224   203.2101
  394.5000   -54.1072     6.0229     6.3132   203.2101
  395.0000   -54.1067     6.0558     6.2829   202.1595
  395.5000   -54.1096     6.0896     6.3568   199.8132
  396.0000   -54.0822     6.1227     6.4242   197.4669
  396.5000   -54.0284     6.1561     6.4840   195.1206
  397.0000   -53.9781     6.1894     6.5498   192.7743
  397.5000   -53.9273     6.2227     6.6303   190.4280
  398.0000   -53.8764     6.2561     6.5429   188.0817
  398.5000   -53.8262     6.2895     6.4495   185.7354
  399.0000   -53.7729     6.3226     6.5182   183.3891
  399.5000   -53.7478     6.3563     6.5702   182.1984
  400.0000   -53.7503     6.3893     6.6228   183.0772
  400.5000   -53.7499     6.4220     6.6524   184.8435
  401.0000   -53.7497     6.4585     6.6483   186.6109
  401.5000   -53.7500     6.4588     6.6483   187.4514
  402.0000   -53.7499     6.4257     6.6519   187.4514
  402.5000   -53.7500     6.3963     6.6224   187.4514
  403.0000   -53.7502     6.3668     6.5657   188.4319
  403.5000   -53.7506     6.3365     6.5123   190.2004
  404.0000   -53.7496     6.3068     6.4588   191.9689
  404.5000   -53.7517     6.2769     6.4044   193.7374
  405.0000   -53.7506     6.2474     6.3513   195.5058
  405.5000   -53.7470     6.2164     6.2966   197.2743
  406.0000   -53.7643     6.1882     6.2432   199.0428
  406.5000   -53.6095     6.1578     6.1914   200.8113
  407.0000   -53.3384     6.1234     6.1304   202.5798
  407.5000   -53.0869     6.1281     6.1635   204.3483
  408.0000   -52.8368     6.0116     6.2550   204.9611
  408.5000   -52.5815     5.9301     6.3383   203.7879
  409.0000   -52.3299     5.9750     6.4209   203.2101
  409.5000   -52.0771     6.0408     6.5045   202.3040
  410.0000   -51.8229     6.0984     6.5883   200.9776
  410.5000   -51.5731     6.1179     6.6146   199.6513
  411.0000   -51.3209     6.1160     6.6139   198.3249
  411.5000   -51.2449     6.1179     6.6119   196.6790
  412.0000   -51.3783     6.1175     6.6665   196.2062
  412.5000   -51.5624     6.2337     6.7385   196.2062
  413.0000   -51.7421     6.3974     6.9598   192.2140
  413.5000   -51.9239     6.5594     7.2399   186.9086
  414.0000   -52.1021     6.7195     7.5168   181.6031
  414.5000   -52.2817     6.8821     7.7898   176.2977
  415.0000   -52.3237     7.0429     8.0764   170.9922
  415.5000   -52.3238     7.2028     8.3352   165.6868
  416.0000   -52.3201     7.3695     8.6144   160.3813
  416.5000   -52.3195     7.5211     8.4784   155.0759
  417.0000   -52.2029     7.6971     8.2523   148.9300
  417.5000   -52.0583     7.6048     8.0121   148.9300
  418.0000   -51.9126     7.4807     7.7788   152.9455
  418.5000   -51.7690     7.3478     7.5518   157.6615
  419.0000   -51.6241     7.2228     7.3047   162.3774
  419.5000   -51.4795     7.0915     7.2567   167.0934
  420.0000   -51.3361     6.9681     7.2430   171.8093
  420.5000   -51.1893     6.8337     7.1740   176.9455
  421.0000   -51.0477     6.8282     7.0837   178.6965
  421.5000   -50.9030     6.8283     7.1545   178.6965
  422.0000   -50.8991     6.9295     7.2391   178.6965
  422.5000   -51.0120     7.0373     7.3287   176.9455
  423.0000   -51.1420     7.1492     7.4154   173.7518
  423.5000   -51.2715     7.2590     7.5002   170.3916
  424.0000   -51.3998     7.3693     7.5907   167.0315
  424.5000   -51.5291     7.4798     7.6843   163.6714
  425.0000   -51.6580     7.5900     7.9153   160.3113
  425.5000   -51.7871     7.7005     8.1512   156.9512
  426.0000   -51.9159     7.8108     8.3915   153.5910
  426.5000   -52.0451     7.9206     8.6332   150.2309
  427.0000   -52.1743     8.0326     8.8668   146.8708
  427.5000   -52.3014     8.1402     9.0893   143.6770
  428.0000   -52.4346     8.2426     9.0919   140.8930
  428.5000   -52.5589     8.2426     9.0852   138.4241
  429.0000   -52.6654     8.2370     8.8618   138.4241
  429.5000   -52.5339     8.0919     8.6551   138.4241
  430.0000   -52.4097     7.9576     8.4352   142.9183
  430.5000   -52.2739     7.8154     8.2204   147.0448
  431.0000   -52.1439     7.6766     8.0091   151.1712
  431.5000   -52.0128     7.5370     7.7864   155.2977
  432.0000   -51.8810     7.3984     7.5774   159.4241
  432.5000   -51.7495     7.2572     7.4146   162.9377
  433.0000   -51.6194     7.1185     7.6005   167.0000
  433.5000   -51.4859     7.0088     7.7826   170.5370
  434.0000   -51.3554     7.0404     7.9544   173.4436
  434.5000   -51.2564     7.0671     8.0580   173.4436
  435.0000   -51.3137     7.0981     7.6685   168.1907
  435.5000   -51.3605     7.1285     7.6925   163.7695
  436.0000   -51.4149     7.1603     7.6739   159.3483
  436.5000   -51.4656     7.1438     7.6343   157.3837
  437.0000   -51.5177     6.9868     7.4497   163.7502
  437.5000   -51.5697     6.8329     7.2647   170.1167
  438.0000   -51.6073     6.6756     7.0801   176.4833
  438.5000   -51.6097     6.5169     6.8946   182.8498
  439.0000   -51.5678     6.3627     6.7063   188.4319
  439.5000   -51.4219     6.2060     6.5756   191.9689
  440.0000   -51.2796     6.0345     6.6064   195.5058
  440.5000   -51.1344     5.9477     6.6996   197.9572
  441.0000   -50.9896     6.0204     6.7907   197.4769
  441.5000   -50.8463     6.0772     6.8840   195.9611
  442.0000   -50.6994     6.1357     6.9875   194.4453
  442.5000   -50.5575     6.1969     7.0065   192.9294
  443.0000   -50.4141     6.2601     6.8817   191.4136
  443.5000   -50.2533     6.2975     6.7709   189.8977
  444.0000   -50.2346     6.2951     6.6572   188.3819
  444.5000   -50.4298     6.2779     6.5339   187.4514
  445.0000   -50.6060     6.2324     6.4570   188.8521
  445.5000   -50.7860     6.1879     6.4398   192.3891
  446.0000   -50.9685     6.1405     6.4118   195.9261
  446.5000   -51.1475     6.1148     6.4111   197.9572
  447.0000   -51.3294     6.1177     6.4455   197.9572
  447.5000   -51.5096     6.1169     6.4746   197.9572
  448.0000   -51.6882     6.1173     6.5068   197.1517
  448.5000   -51.8778     6.1172     6.5368   196.2062
  449.0000   -51.9770     6.1163     6.5654   196.2062
  449.5000   -51.9171     6.1209     6.6079   196.2062
  450.0000   -51.8108     6.0765     6.5250   196.2062
  450.5000   -51.7094     5.9825     6.3170   198.5503
  451.0000   -51.6055     5.8937     6.1233   203.1926
  451.5000   -51.5023     5.8045     5.9210   207.8349
