~VERSION INFORMATION
 VERS.                2.0:   CWLS LOG ASCII STANDARD - VERSION 2.0
 WRAP.                 NO:   ONE LINE PER DEPTH STEP
~WELL INFORMATION
#MNEM.UNIT      DATA TYPE    INFORMATION
#----------   ------------   ------------------------------
 STRT.F            0.0000:   START DEPTH
 STOP.F         2838.0000:   STOP DEPTH
 STEP.F            0.5000:   STEP LENGTH
 NULL.          -999.2500:   NO VALUE
 COMP. INTEX OIL CO U S NAVY:   COMPANY
 WELL. NAVAL PETROLEUM RESERVE 3 29 #NPR #3 (204A29)-29:   WELL
 FLD .                N/A:   FIELD
 LOC .      S29 T39N R78W:   LOCATION
 CNTY.            NATRONA:   COUNTY
 STAT.            WYOMING:   STATE
 CTRY. UNITED STATES OF AMERICA:   COUNTRY
 SRVC.      NL McCullough:   SERVICE COMPANY
 DATE.        24-JUN-1965:   LOGDATE
 API .       490251021700:   API NUMBER
~CURVE INFORMATION
#MNEM.UNIT       API CODE    CURVE DESCRIPTION
#----------   ------------   ------------------------------
 DEPT.F                  :   
 GR  .GAPI   30 310 01 00:   GAMMA RAY
 HD  .IN     70 280 01 00:   DAIMETER
~PARAMETER INFORMATION
#MNEM.UNIT          VALUE    DESCRIPTION
#----------   ------------   ------------------------------
 PD  .                 GL:   PERMANENT DATUM
 LMF .                 GL:   LOG MEASURED FROM
 EDF .F              5016:   DRILLING FLOOR
 DATE.        24-JUN-1965:   RUN DATE
 RUN .                  1:   RUN NUMBER
 DD  .F              2838:   DEPTH DRILLER
 DL  .F              2838:   DEPTH LOGGER
 BLI .F              2836:   BOTTOM LOG INTERVAL
 TLI .F              2400:   TOP LOG INTERVAL
 CS  .IN            6.625:   CASING SIZE
 CBD .F              2820:   CASING BOTTOM DRILLER
 BSD .F              2838:   BIT SIZE AT DEPTH
 LUN .               1497:   LOGGING UNIT NUMBER
 ENGI.         COWLTHORPE:   RECORDING ENGINEER
 WITN.         MR. HUDSON:   WITNESSED BY
 CLNT.            A2DTECH:   CLIENT CODE
 ORIG.           5" PRINT:   ORIGIN OF DATA
 UWI .       490251021700:   UNIQUE WELL ID
 DICO. A2D Technologies, Inc.:   DIGITIZING COMPANY
~OTHER INFORMATION
~A    DEPT      GR           HD 
# ...
 2673.0000    71.1839     6.5380
 2673.5000    69.6890     6.5383
 2674.0000    71.1886     6.5386
 2674.5000    74.9331     6.5389
 2675.0000    77.3945     6.5391
 2675.5000    74.6165     6.5395
 2676.0000    73.9765     6.5398
 2676.5000    76.5453     6.5250
 2677.0000    79.5569     6.5253
 2677.5000    80.3994     6.5256
 2678.0000    80.8286     6.5410
 2678.5000    77.6234     6.5413
 2679.0000    76.1279     6.5416
 2679.5000    74.0984     6.5419
 2680.0000    77.4157     6.5422
 2680.5000    79.5564     6.5425
 2681.0000    80.0458     6.5428
 2681.5000    80.8441     6.5431
 2682.0000    79.9908     6.5434
 2682.5000    78.2815     6.5437
 2683.0000    77.4281     6.5440
 2683.5000    78.2861     6.5443
 2684.0000    78.7159     6.5446
 2684.5000    78.7388     6.5449
 2685.0000    79.5760     6.5452
 2685.5000    75.0871     6.5455
 2686.0000    74.0194     6.5458
 2686.5000    76.1605     6.5461
 2687.0000    75.2002     6.5313
 2687.5000    77.0201     6.5467
 2688.0000    77.8776     6.5470
 2688.5000    79.1633     6.5473
 2689.0000    80.0208     6.5476
 2689.5000    80.4505     6.5479
 2690.0000    80.6665     6.5483
 2690.5000    81.7378     6.5636
 2691.0000    84.4131     6.5639
 2691.5000    84.5221     6.5642
 2692.0000    83.4549     6.5795
 2692.5000    83.1367     6.5798
 2693.0000    80.0378     6.5952
 2693.5000    79.3978     6.5955
 2694.0000    75.7649     6.5958
 2694.5000    77.0501     6.5961
 2695.0000    80.3669     6.6114
 2695.5000    79.1487     6.5967
 2696.0000    76.6291     6.6121
 2696.5000    77.0588     6.5972
 2697.0000    79.1995     6.5976
 2697.5000    79.4154     6.5979
 2698.0000    80.3798     6.5982
 2698.5000    82.0927     6.5985
 2699.0000    83.1641     6.5988
 2699.5000    83.2736     6.5992
 2700.0000    81.5648     6.5994
 2700.5000    76.4343     6.5997
 2701.0000    73.6563     6.6011
 2701.5000    73.1172     6.6065
 2702.0000    76.1111     6.6120
 2702.5000    78.3783     6.6174
 2703.0000    80.9229     6.6229
 2703.5000    82.6337     6.6284
 2704.0000    82.6337     6.6307
 2704.5000    82.6337     6.6280
 2705.0000    83.3822     6.6205
 2705.5000    81.7783     6.6161
 2706.0000    81.7896     6.6012
 2706.5000    82.7407     6.5863
 2707.0000    81.7783     6.5714
 2707.5000    81.6714     6.5715
 2708.0000    81.6714     6.5717
 2708.5000    80.7090     6.5719
 2709.0000    78.7843     6.5720
 2709.5000    80.4952     6.5722
 2710.0000    79.6398     6.5723
 2710.5000    80.2813     6.5725
 2711.0000    81.6714     6.5726
 2711.5000    83.4892     6.5727
 2712.0000    83.4892     6.5729
 2712.5000    81.9922     6.5731
 2713.0000    76.6332     6.5811
 2713.5000    78.9982     6.5884
 2714.0000    81.7783     6.5886
 2714.5000    81.7783     6.5887
 2715.0000    82.6337     6.5888
 2715.5000    80.7090     6.5890
 2716.0000    79.6398     6.5892
 2716.5000    80.0675     6.5893
 2717.0000    78.7843     6.5895
 2717.5000    77.9289     6.5745
 2718.0000    77.0735     6.5747
 2718.5000    75.4696     6.5730
 2719.0000    75.2557     6.5599
 2719.5000    75.7904     6.5451
 2720.0000    77.7365     6.5452
 2720.5000    78.0358     6.5303
 2721.0000    77.9289     6.5304
 2721.5000    76.8596     6.5155
 2722.0000    80.4952     6.5157
 2722.5000    80.4952     6.5158
 2723.0000    80.7090     6.5154
 2723.5000    81.4035     6.5161
 2724.0000    83.3822     6.5163
 2724.5000    82.4199     6.5315
 2725.0000    82.0991     6.5618
 2725.5000    83.7030     6.5770
 2726.0000    84.3446     6.5922
 2726.5000    80.4952     6.5923
 2727.0000    78.3488     6.5925
 2727.5000    76.4319     6.5926
 2728.0000    76.9666     6.5928
 2728.5000    78.7843     6.5929
 2729.0000    80.4952     6.5931
 2729.5000    82.4199     6.5932
 2730.0000    83.4892     6.5934
 2730.5000    83.4563     6.5935
 2731.0000    82.6337     6.5937
 2731.5000    82.2060     6.5938
 2732.0000    79.6398     6.6090
 2732.5000    79.2121     6.6092
 2733.0000    80.0675     6.6093
 2733.5000    81.3506     6.6095
 2734.0000    83.5584     6.6096
 2734.5000    88.6217     6.6098
 2735.0000    92.0434     6.6100
 2735.5000    95.0373     6.6101
 2736.0000    96.7482     6.6103
 2736.5000    97.9244     6.5953
 2737.0000    97.9244     6.6106
 2737.5000    94.0402     6.5956
 2738.0000    83.4892     6.6109
 2738.5000    82.6337     6.6110
 2739.0000    82.2060     6.6111
 2739.5000    81.6714     6.6113
 2740.0000    80.0675     6.5964
 2740.5000    79.5328     6.5966
 2741.0000    80.4246     6.6141
 2741.5000    83.0614     6.6270
 2742.0000    84.9861     6.6271
 2742.5000    84.7723     6.6273
 2743.0000    83.4892     6.6274
 2743.5000    83.0614     6.6276
 2744.0000    84.3446     6.6277
 2744.5000    85.5208     6.6279
 2745.0000    81.3506     6.6129
 2745.5000    80.4952     6.6131
 2746.0000    83.0614     6.6283
 2746.5000    83.4892     6.6134
 2747.0000    82.6337     6.6135
 2747.5000    82.3130     6.6137
 2748.0000    83.9965     6.6138
 2748.5000    88.1940     6.6140
 2749.0000    91.1880     6.6142
 2749.5000    92.7919     6.6143
 2750.0000    92.0434     6.6145
 2750.5000    93.6473     6.6146
 2751.0000    95.8928     6.6133
 2751.5000    96.7482     6.6110
 2752.0000    91.1880     6.6088
 2752.5000    84.3446     6.6065
 2753.0000    83.9169     6.6042
 2753.5000    83.4892     6.6020
 2754.0000    82.6337     6.5855
 2754.5000    81.3506     6.5857
 2755.0000    78.6450     6.5859
 2755.5000    77.5012     6.5860
 2756.0000    77.5012     6.5711
 2756.5000    77.2873     6.5712
 2757.0000    74.9349     6.5714
 2757.5000    74.0795     6.5565
 2758.0000    76.2181     6.5567
 2758.5000    74.5072     6.5417
 2759.0000    74.5072     6.5268
 2759.5000    74.0795     6.5270
 2760.0000    74.4003     6.5271
 2760.5000    74.9349     6.5122
 2761.0000    73.6121     6.5218
 2761.5000    71.6185     6.5276
 2762.0000    69.8024     6.5287
 2762.5000    71.4063     6.5580
 2763.0000    70.0163     6.5732
 2763.5000    67.2361     6.5884
 2764.0000    69.8024     6.6036
 2764.5000    70.6578     6.6038
 2765.0000    72.6045     6.6039
 2765.5000    76.5997     6.6041
 2766.0000    79.2121     6.6042
 2766.5000    81.3506     6.6044
 2767.0000    83.9169     6.6045
 2767.5000    85.8416     6.6047
 2768.0000    86.9108     6.6048
 2768.5000    86.4831     6.6050
 2769.0000    84.7684     6.6051
 2769.5000    84.3293     6.6053
 2770.0000    79.2121     6.6054
 2770.5000    69.9093     6.6056
 2771.0000    65.5253     6.6057
 2771.5000    64.2422     6.6059
 2772.0000    65.0976     6.6060
 2772.5000    68.5193     6.5911
 2773.0000    70.6585     6.5913
 2773.5000    74.1355     6.5914
 2774.0000    72.7964     6.5916
 2774.5000    71.0855     6.5767
 2775.0000    70.6578     6.5768
 2775.5000    74.9349     6.5769
 2776.0000    78.3566     6.5771
 2776.5000    83.4892     6.5622
 2777.0000    86.0554     6.5623
 2777.5000    89.0494     6.5776
 2778.0000    93.6473     6.5777
 2778.5000    97.5354     6.5778
 2779.0000   101.5185     6.5780
 2779.5000   102.7361     6.5782
 2780.0000   108.6172     6.5933
 2780.5000   114.7121     6.5935
 2781.0000   118.9892     6.5937
 2781.5000   121.1277     6.5938
 2782.0000   122.8386     6.5940
 2782.5000   109.5226     6.5942
 2783.0000    96.8152     6.5943
 2783.5000    87.0178     6.5944
 2784.0000    84.3446     6.5946
 2784.5000    85.2000     6.5947
 2785.0000    84.9861     6.5949
 2785.5000    83.9169     6.5950
 2786.0000    81.9922     6.5952
 2786.5000    85.2009     6.5953
 2787.0000    86.4831     6.5955
 2787.5000    83.4892     6.5956
 2788.0000    82.6337     6.5958
 2788.5000    83.0614     6.5959
 2789.0000    84.7723     6.5961
 2789.5000    84.4515     6.5963
 2790.0000    85.6277     6.5964
 2790.5000    87.7663     6.5965
 2791.0000    90.1428     6.5967
 2791.5000    90.9741     6.5968
 2792.0000    91.4018     6.6120
 2792.5000    88.6217     6.6122
 2793.0000    86.9108     6.6124
 2793.5000    86.2693     6.6125
 2794.0000    89.0494     6.6126
