~VERSION INFORMATION
 VERS.                2.0:   CWLS LOG ASCII STANDARD - VERSION 2.0
 WRAP.                 NO:   ONE LINE PER DEPTH STEP
~WELL INFORMATION
#MNEM.UNIT      DATA TYPE    INFORMATION
#----------   ------------   ------------------------------
 STRT.F           34.0000:   START DEPTH
 STOP.F          576.0000:   STOP DEPTH
 STEP.F            0.5000:   STEP LENGTH
 NULL.          -999.2500:   NO VALUE
 COMP. FENIX & SCISSON INC:   COMPANY
 WELL.   NPR-3 #22 SX 3-3:   WELL
 FLD .             TEAPOT:   FIELD
 LOC .       S3 T38N R78W:   LOCATION
 CNTY.            NATRONA:   COUNTY
 STAT.            WYOMING:   STATE
 CTRY. UNITED STATES OF AMERICA:   COUNTRY
 SRVC.            Unknown:   SERVICE COMPANY
 DATE.        17-JUL-1978:   LOGDATE
 API .       490251066700:   API NUMBER
~CURVE INFORMATION
#MNEM.UNIT       API CODE    CURVE DESCRIPTION
#----------   ------------   ------------------------------
 DEPT.F                  :   
 SN  .OHMM   05 040 16 00:   SHORT NORMAL 16"
 ILD .OHMM   05 120 46 00:   INDUCTION LOG DEEP
 SPR .MV     05 010 01 00:   SPONTANEOUS POTENTIAL FROM RES.
 CALD.IN     45 280 60 00:   CALIPER FROM DENSITY LOG
 GRD .GAPI   45 310 01 00:   GAMMA RAY FROM DENSITY LOG
 CORR.G/C3   45 356 01 00:   DENSITY CORRECTION
 DPHI.DEC    45 890 12 00:   DENSITY POROSITY SANDSTONE
 DEN .G/C3   45 350 01 00:   COMPENSATED BULK DENSITY
~PARAMETER INFORMATION
#MNEM.UNIT          VALUE    DESCRIPTION
#----------   ------------   ------------------------------
 PD  .                 GL:   PERMANENT DATUM
 EPD .F              5193:   ELEVATION PERMANENT DATUM
 LMF .                 KB:   LOG MEASURED FROM
 DAPD.F                 4:   FEET ABOVE PERMANENT DATUM
 DMF .                 KB:   DRILLING MEASURED FROM
 EKB .F              5197:   KELLING BUSHING
 EGL .F              5193:   GROUND LEVEL
 DATE.        17-JUL-1978:   RUN DATE
 RUN .                  1:   RUN NUMBER
 DD  .F               570:   DEPTH DRILLER
 DL  .F               576:   DEPTH LOGGER
 BLI .F               576:   BOTTOM LOG INTERVAL
 CS  .IN            8.625:   CASING SIZE
 CBD .F                30:   CASING BOTTOM DRILLER
 BS  .IN            7.875:   BIT SIZE
 BSD .F               570:   BIT SIZE AT DEPTH
 DFT .            MUD KCL:   DRILLING FLUID TYPE
 DFD .                8.6:   DRILLING FLUID DENSITY
 DFV .                 32:   DRILLING FLUID VISCOSITY
 DFL .                 15:   DRILLING FLUID LOSS
 MSS .           FLOWLINE:   MUD SAMPLE SOURCE
 RMS .OHMM            .18:   RESISTIVITY MUD SAMPLE
 MST .F                86:   MUD SAMPLE TEMPERATURE
 RMF .OHMM            .17:   RESISTIVITY MUD FILTRATE SAMPLE
 MFST.F                94:   MUD FILTRATE SAMPLE TEMPERATURE
 RMC .OHMM            .34:   RESISTIVITY MUD CAKE
 MCST.F                94:   MUD CAKE SAMPLE TEMPERATURE
 MFSS.               MEAS:   MUD FILTRATE SAMPLE SOURCE
 TCS .HRS            0300:   TIME CURCULATED STOPPED
 LUN .               2958:   LOGGING UNIT NUMBER
 LUL .               CASP:   LOGGING UNIT LOCATION
 ENGI.             MILLER:   RECORDING ENGINEER
 WITN.           MCGINLEY:   WITNESSED BY
 CLNT.            A2DTECH:   CLIENT CODE
 ORIG.           5" PRINT:   ORIGIN OF DATA
 UWI .       490251066700:   UNIQUE WELL ID
 DICO. A2D Technologies, Inc.:   DIGITIZING COMPANY
~OTHER INFORMATION
~A   DEPT       SN        ILD        SPR       CALD         GRD      CORR       DPHI        DEN   
   34.0000  -999.2500  -999.2500  -999.2500  -999.2500    55.7971  -999.2500  -999.2500  -999.2500
   34.5000  -999.2500  -999.2500  -999.2500  -999.2500    56.0870  -999.2500  -999.2500  -999.2500
   35.0000  -999.2500  -999.2500  -999.2500  -999.2500    49.8551  -999.2500  -999.2500  -999.2500
   35.5000  -999.2500  -999.2500  -999.2500  -999.2500    51.4493  -999.2500  -999.2500  -999.2500
   36.0000  -999.2500  -999.2500  -999.2500  -999.2500    55.7971  -999.2500  -999.2500  -999.2500
   36.5000  -999.2500  -999.2500  -999.2500  -999.2500    55.4984  -999.2500  -999.2500  -999.2500
   37.0000  -999.2500  -999.2500  -999.2500  -999.2500    54.6377  -999.2500  -999.2500  -999.2500
   37.5000  -999.2500  -999.2500  -999.2500  -999.2500    57.6812  -999.2500  -999.2500  -999.2500
   38.0000  -999.2500  -999.2500  -999.2500  -999.2500    59.7101  -999.2500  -999.2500  -999.2500
   38.5000  -999.2500  -999.2500  -999.2500  -999.2500    54.6377  -999.2500  -999.2500  -999.2500
   39.0000  -999.2500  -999.2500  -999.2500  -999.2500    56.5217  -999.2500  -999.2500  -999.2500
   39.5000  -999.2500  -999.2500  -999.2500  -999.2500    59.1304  -999.2500  -999.2500  -999.2500
   40.0000  -999.2500  -999.2500  -999.2500     8.0000    58.9855  -999.2500  -999.2500  -999.2500
   40.5000  -999.2500  -999.2500  -999.2500     8.5942    54.2029  -999.2500  -999.2500  -999.2500
   41.0000  -999.2500  -999.2500  -999.2500     8.0145    49.8551  -999.2500  -999.2500  -999.2500
   41.5000  -999.2500  -999.2500  -999.2500     7.9710    53.6666  -999.2500  -999.2500  -999.2500
   42.0000  -999.2500  -999.2500  -999.2500     7.8986    57.9710  -999.2500  -999.2500  -999.2500
   42.5000  -999.2500  -999.2500  -999.2500     7.8981    56.2319  -999.2500  -999.2500  -999.2500
   43.0000  -999.2500  -999.2500  -999.2500     7.9577    54.7826  -999.2500  -999.2500  -999.2500
   43.5000  -999.2500  -999.2500  -999.2500     8.1304    55.9420  -999.2500  -999.2500  -999.2500
   44.0000  -999.2500  -999.2500  -999.2500     8.1594    56.3768    -0.2466  -999.2500  -999.2500
   44.5000  -999.2500  -999.2500  -999.2500     8.2029    56.5217    -0.2481  -999.2500  -999.2500
   45.0000  -999.2500  -999.2500  -999.2500     8.2899    54.4928    -0.2496  -999.2500  -999.2500
   45.5000  -999.2500  -999.2500  -999.2500     8.1884    51.7348    -0.2407  -999.2500  -999.2500
   46.0000  -999.2500  -999.2500  -999.2500     7.9420    49.3508    -0.1448  -999.2500  -999.2500
   46.5000     2.2880  -999.2500   -17.8390     7.7391    47.9710     0.0195  -999.2500  -999.2500
   47.0000     2.2895  -999.2500   -25.9035     7.7246    53.7681     0.0842  -999.2500     2.0037
   47.5000     2.3069  -999.2500   -13.4896     8.0116    71.1594     0.1051  -999.2500     2.3599
   48.0000     2.3728  -999.2500   -29.4781     8.1159    79.1304     0.0455     0.1541     2.4558
   48.5000     3.2847     1.5525   -28.7228     8.1594    83.6232     0.0574     0.1481     2.4431
   49.0000     3.5444     2.3389   -30.6568     8.2609    84.9275     0.0246     0.1467     2.4506
   49.5000     3.8488     2.3575   -30.5000     8.2754    85.3623    -0.0052     0.1568     2.4580
   50.0000     4.8662     2.2957   -30.1937     8.2029    85.2174     0.0022     0.1841     2.4483
   50.5000     5.9855     4.0480   -30.1864     8.0145    84.6058     0.0335     0.1859     2.3775
   51.0000     6.2849     7.8475   -30.4783     7.8551    83.0435     0.0082     0.1883     2.3717
   51.5000     6.3763     5.7401   -30.6203     7.8553    77.6812     0.0007     0.2180     2.3494
   52.0000     6.3806     5.0582   -30.4634     8.0035    70.0000    -0.0037     0.2222     2.3100
   52.5000     6.3411     5.0997   -29.8381     8.0290    71.4493     0.0380     0.2263     2.3041
   53.0000     6.2586     5.2116   -29.2307     8.0000    73.9130     0.0678     0.2227     2.2981
   53.5000     6.2629     5.2893   -28.9448     8.0000    76.0870     0.0991     0.1826     2.3048
   54.0000     6.3587     5.2947   -29.2382     8.0725    75.9420     0.0171     0.2135     2.3859
   54.5000     6.4473     5.2624   -29.3804     8.2174    76.0870     0.0192     0.2120     2.3256
   55.0000     6.4516     5.2691   -29.3712     8.4348    76.6812     0.0455     0.1960     2.3167
   55.5000     6.4560     5.2022   -29.2144     7.9130    77.3913     0.0261     0.1749     2.3695
   56.0000     6.5950     5.2436   -29.2071     7.8551    77.8261     0.0022     0.2013     2.3836
   56.5000     6.7835     5.4330   -28.9008     7.8841    77.5362    -0.0052     0.2001     2.3755
   57.0000     6.8349     5.6293   -28.7440     7.8116    76.6667    -0.0037     0.2275     2.3353
   57.5000     6.9343     5.7926   -28.5872     7.7391    69.7101     0.0469     0.2530     2.3167
   58.0000     7.0351     5.9196   -28.5799     7.9710    68.4058     0.3048     0.1933     2.2468
   58.5000     7.2861     6.0079   -29.1784     8.5072    71.5942     0.2341     0.1912     2.2334
   59.0000     7.3921     6.0141   -31.7339     8.0580    72.1739    -0.0039     0.2572     2.3399
   59.5000     7.4482     6.0666   -32.7534     8.1159    71.5682     0.0067     0.2614     2.4528
   60.0000     7.6097     6.1596   -33.1816     8.0000    69.2754     0.0261     0.2643     2.3502
   60.5000     7.6674     6.3762   -33.7622     7.8406    74.3478     0.0171     0.1802     2.4037
   61.0000     7.6725     6.5160   -33.5988     7.8551    78.5507     0.0261     0.1869     2.4097
   61.5000     7.7307     6.6590   -32.6914     7.9710    80.8696     0.0455     0.2201     2.3844
   62.0000     7.7893     6.6658   -32.8292     8.1594    81.1594     0.0902     0.2278     2.3093
   62.5000     7.7945     6.6267   -32.8110     8.2029    80.7246     0.2347     0.2204     2.2907
   63.0000     7.6930     6.4961   -32.9488     8.0870    79.2754     0.2180     0.1942     2.3353
   63.5000     7.5411     6.3696   -32.7818     8.2609    77.8261     0.0708     0.1556     2.4812
   64.0000     7.2891     6.3777   -32.0231     8.5217    77.1014     0.0380     0.2287     2.4870
   64.5000     7.0363     6.3842   -31.7109     8.7246    77.8261     0.0618     0.2459     2.3234
   65.0000     6.6775     6.4349   -31.6963     8.0966    81.8841     0.2601     0.2432     2.2743
   65.5000     6.5444     6.4415   -31.6817     8.0435    84.7826     0.2794     0.1582     2.2699
   66.0000     6.4604     6.4480   -32.7262     8.2029    83.1884     0.0380     0.1490     2.5257
   66.5000     6.3753     6.4546   -33.7322     8.3043    79.7101     0.0604     0.1440     2.5546
   67.0000     6.3807     6.4612   -34.1640     8.0290    77.8261     0.0724     0.1422     2.4535
   67.5000     6.3850     6.4679   -34.8935     8.0145    77.3913     0.0633     0.1401     2.4245
   68.0000     6.3892     6.5193   -35.7717     8.0290    78.2609     0.0410     0.1386     2.4383
   68.5000     6.5268     6.5712   -36.2072     8.0435    80.3203     0.0261     0.1455     2.4781
   69.0000     6.6220     6.7633   -36.0401     8.0580    83.0435     0.0201     0.1446     2.4632
   69.5000     6.7181     6.8170   -36.4720     8.0725    86.3768     0.0142     0.1449     2.4364
   70.0000     6.7236     6.8718   -37.3502     8.0725    81.4493     0.0320     0.1473     2.4260
   70.5000     7.1163     6.9225   -37.7820     8.0870    74.6377     0.0395     0.1436     2.4268
   71.0000     7.1688     6.9257   -37.9167     8.0725    74.2029     0.0395     0.1407     2.4305
   71.5000     7.2217     6.9290   -37.7528     8.0580    76.2319     0.0380     0.1392     2.4439
   72.0000     7.2252     6.9802   -37.4405     8.0580    81.4493     0.0425     0.1386     2.4387
   72.5000     7.2286     7.0811   -37.2768     8.0725    83.6377     0.0455     0.1386     2.4364
   73.0000     7.1816     7.0844   -36.9613     8.0725    85.9420     0.0425     0.1401     2.4446
   73.5000     7.2354     7.1367   -36.9467     8.0725    85.5072     0.0425     0.1452     2.4520
   74.0000     7.2389     7.1401   -36.7833     8.0419    87.1014     0.0425     0.1440     2.4349
