~VERSION INFORMATION
 VERS.                2.0:   CWLS LOG ASCII STANDARD - VERSION 2.0
 WRAP.                 NO:   ONE LINE PER DEPTH STEP
~WELL INFORMATION
#MNEM.UNIT      DATA TYPE    INFORMATION
#----------   ------------   ------------------------------
 STRT.F            0.0000:   START DEPTH
 STOP.F         2660.0000:   STOP DEPTH
 STEP.F            0.5000:   STEP LENGTH
 NULL.          -999.2500:   NO VALUE
 COMP. FENIX & SCISSON INC:   COMPANY
 WELL.     101-20 #101-20:   WELL
 FLD .        TEAPOT DOME:   FIELD
 LOC .      S20 T39N R78W:   LOCATION
 CNTY.            NATRONA:   COUNTY
 STAT.            WYOMING:   STATE
 CTRY. UNITED STATES OF AMERICA:   COUNTRY
 SRVC.      NL McCullough:   SERVICE COMPANY
 DATE.        19-SEP-1965:   LOGDATE
 API .       490251022100:   API NUMBER
~CURVE INFORMATION
#MNEM.UNIT       API CODE    CURVE DESCRIPTION
#----------   ------------   ------------------------------
 DEPT.F                  :   
 GR  .GAPI   30 310 01 00:   GAMMA RAY
 CALI.IN     30 280 01 00:   CALIPER
~PARAMETER INFORMATION
#MNEM.UNIT          VALUE    DESCRIPTION
#----------   ------------   ------------------------------
 PD  .                 GL:   PERMANENT DATUM
 LMF .                 GL:   LOG MEASURED FROM
 DMF .                 GL:   DRILLING MEASURED FROM
 DATE.          9-19-1965:   RUN DATE
 RUN .                  1:   RUN NUMBER
 DD  .F              2661:   DEPTH DRILLER
 DL  .F              2659:   DEPTH LOGGER
 BLI .F              2657:   BOTTOM LOG INTERVAL
 TLI .F              2000:   TOP LOG INTERVAL
 CS  .IN              6.5:   CASING SIZE
 CBD .F              2619:   CASING BOTTOM DRILLER
 BSD .F              2661:   BIT SIZE AT DEPTH
 DFT .              WATER:   DRILLING FLUID TYPE
 TCS .HRS               1:   TIME CURCULATED STOPPED
 ENGI.        FITZSIMMONS:   RECORDING ENGINEER
 WITN.          JORGENSEN:   WITNESSED BY
 CLNT.            A2DTECH:   CLIENT CODE
 ORIG.           5" PRINT:   ORIGIN OF DATA
 UWI .       490251022100:   UNIQUE WELL ID
 DICO. A2D Technologies, Inc.:   DIGITIZING COMPANY
~OTHER INFORMATION
~A    DEPT      GR         CALI 
# ...
 2551.5000   111.6636     6.5055
 2552.0000   111.1334     6.5059
 2552.5000   115.0981     6.5063
 2553.0000   115.4929     6.5063
 2553.5000   110.8287     6.5063
 2554.0000   109.3652     6.5063
 2554.5000   107.0217     6.5063
 2555.0000   107.3999     6.5063
 2555.5000   105.2619     6.5063
 2556.0000   104.5670     6.5062
 2556.5000   107.8153     6.5111
 2557.0000   107.7334     6.5205
 2557.5000   111.0041     6.5472
 2558.0000   100.9793     6.5725
 2558.5000    99.3516     6.4611
 2559.0000   116.7114     6.4550
 2559.5000   119.2424     6.4550
 2560.0000   111.8307     6.4546
 2560.5000   104.6231     6.4540
 2561.0000   104.6507     6.4535
 2561.5000   122.4482     6.4529
 2562.0000   134.6406     6.4523
 2562.5000   135.5927     6.4518
 2563.0000   109.6591     6.4512
 2563.5000   112.8722     6.4507
 2564.0000   114.7298     6.4501
 2564.5000   107.7416     6.4495
 2565.0000   108.3892     6.4490
 2565.5000   110.3288     6.4484
 2566.0000   106.0021     6.4479
 2566.5000   105.8383     6.4473
 2567.0000   117.0627     6.4467
 2567.5000   116.8419     6.4461
 2568.0000   111.6299     6.4491
 2568.5000   100.4550     6.4526
 2569.0000    95.1308     6.4560
 2569.5000    95.4705     6.4595
 2570.0000    99.8369     6.4629
 2570.5000   107.2219     6.4663
 2571.0000   110.5964     6.4698
 2571.5000   115.3724     6.4732
 2572.0000   116.9977     6.4766
 2572.5000   117.6772     6.4792
 2573.0000   111.2260     6.4818
 2573.5000   111.6385     6.4845
 2574.0000   105.3094     6.4871
 2574.5000   104.0249     6.4897
 2575.0000    97.6620     6.4924
 2575.5000    98.0944     6.4950
 2576.0000   100.7408     6.4993
 2576.5000   102.9712     6.5050
 2577.0000   102.9814     6.5106
 2577.5000   100.1255     6.5185
 2578.0000   101.7646     6.5606
 2578.5000   104.4564     6.5149
 2579.0000   111.9599     6.4843
 2579.5000   121.7816     6.4860
 2580.0000   129.5986     6.4862
 2580.5000   140.0857     6.4862
 2581.0000   147.5039     6.4862
 2581.5000   135.8484     6.4862
 2582.0000   122.5642     6.4862
 2582.5000   113.5279     6.4862
 2583.0000   108.9924     6.4862
 2583.5000   107.7362     6.4862
 2584.0000   111.8269     6.4862
 2584.5000   102.8746     6.4862
 2585.0000   103.9107     6.4862
 2585.5000   106.8091     6.4862
 2586.0000   109.7555     6.4868
 2586.5000   110.3245     6.4881
 2587.0000   121.4859     6.4894
 2587.5000   123.3196     6.4907
 2588.0000   124.0614     6.4919
 2588.5000   116.2050     6.4932
 2589.0000   118.2068     6.4945
 2589.5000   118.4590     6.4958
 2590.0000   127.2860     6.4970
 2590.5000   128.3247     6.4983
 2591.0000   128.3414     6.4996
 2591.5000   132.2784     6.5009
 2592.0000   148.5761     6.5021
 2592.5000   156.4929     6.5034
 2593.0000   136.7274     6.5047
 2593.5000   119.8756     6.5060
 2594.0000   113.7797     6.5063
 2594.5000   113.6928     6.5063
 2595.0000   107.5732     6.5063
 2595.5000   112.5935     6.5063
 2596.0000   116.5700     6.5063
 2596.5000   115.7972     6.5063
 2597.0000   122.9091     6.5063
 2597.5000   131.1667     6.5062
 2598.0000   124.6200     6.5062
 2598.5000   116.3959     6.5051
 2599.0000   111.3921     6.5486
 2599.5000   116.5897     6.5835
 2600.0000   107.5957     6.5209
 2600.5000   108.0233     6.5053
 2601.0000   108.8997     6.5063
 2601.5000   106.9502     6.5063
 2602.0000   111.0949     6.5063
 2602.5000   117.4605     6.5063
 2603.0000   115.3734     6.5063
 2603.5000   113.3140     6.5063
 2604.0000   117.6327     6.5063
 2604.5000   118.3007     6.5063
 2605.0000   121.9811     6.5063
 2605.5000   121.8652     6.5063
 2606.0000   118.2774     6.5063
 2606.5000   125.2026     6.5063
 2607.0000   121.6622     6.5063
 2607.5000   118.9834     6.5063
 2608.0000   121.5318     6.5063
 2608.5000   120.4260     6.5063
 2609.0000   115.6157     6.5063
 2609.5000   121.6096     6.5063
 2610.0000   124.7539     6.5063
 2610.5000   124.5781     6.5063
 2611.0000   116.6162     6.5063
 2611.5000   114.0443     6.5063
 2612.0000    93.3600     6.5063
 2612.5000    88.9186     6.5063
 2613.0000    85.1444     6.5065
 2613.5000   109.0262     6.5079
 2614.0000   116.0752     6.5093
 2614.5000   112.3985     6.5106
 2615.0000   117.8441     6.5120
 2615.5000   117.6451     6.5133
 2616.0000   109.8890     6.5146
 2616.5000   107.0033     6.5160
 2617.0000   113.5286     6.5188
 2617.5000   115.0079     6.5212
 2618.0000    98.1614     6.5233
 2618.5000    97.8859     6.5626
 2619.0000   111.7714     7.0480
 2619.5000   110.5750     7.9056
 2620.0000   129.3086     7.0834
 2620.5000   136.2239     7.1328
 2621.0000   137.5281     6.9559
 2621.5000   128.3785     6.9746
 2622.0000   124.7703     6.8124
 2622.5000   123.9810     6.7788
 2623.0000   117.9511     6.8055
 2623.5000   117.0576     6.8459
 2624.0000   119.7277     6.8545
 2624.5000   125.6401     6.8605
 2625.0000   127.6609     7.1543
 2625.5000   129.1203     7.1217
 2626.0000   131.0564     7.3017
 2626.5000   125.2085     7.2309
 2627.0000   114.8533     6.9294
 2627.5000   110.6614     6.8433
 2628.0000    99.9882     6.8997
 2628.5000    97.7359     6.9601
 2629.0000    89.0410     6.8165
 2629.5000    82.7905     7.0436
 2630.0000    86.2486     7.1575
 2630.5000    74.9837     6.9347
 2631.0000    76.0319     6.9420
 2631.5000    80.2160     7.4348
 2632.0000    88.1513     7.9726
 2632.5000    93.2656     7.8301
 2633.0000    96.1821     7.8408
 2633.5000    98.6323     8.3962
 2634.0000    93.8238     8.4026
 2634.5000    94.8374     8.7124
 2635.0000    89.8003     8.9805
 2635.5000    88.4533     8.9935
 2636.0000    87.0818     8.4610
 2636.5000    88.7927     8.1883
 2637.0000    81.2206     9.1388
 2637.5000    85.8895     9.1586
 2638.0000    88.5091     8.4116
 2638.5000    88.6024     7.4107
 2639.0000    96.4040     7.1460
 2639.5000   106.3084     6.0774
 2640.0000   104.4463     6.0845
 2640.5000   106.2387     6.1058
 2641.0000   107.4128     6.2231
 2641.5000   103.3989     6.3975
 2642.0000   109.2506     6.8690
 2642.5000    98.5619     7.4335
 2643.0000   102.3218     7.6449
 2643.5000   104.4083     6.4054
 2644.0000   101.5289     6.3577
 2644.5000   108.3335     6.2636
 2645.0000   103.6070     5.9848
 2645.5000    96.6374     5.9158
 2646.0000    95.8645     5.9149
 2646.5000   103.6143     6.1484
 2647.0000   103.0087     6.3150
 2647.5000   107.5240     6.2711
 2648.0000   110.0161     5.7404
 2648.5000   113.5307     5.6564
 2649.0000   116.9942     5.6589
 2649.5000   120.9168     5.8091
 2650.0000   117.0978     5.9050
 2650.5000   113.4536     5.4196
 2651.0000   111.4487     5.2808
 2651.5000   102.7618     5.3219
 2652.0000   108.0848     5.4127
 2652.5000   115.5962  -999.2500
 2653.0000   118.4696  -999.2500
 2653.5000   112.5715  -999.2500
 2654.0000   111.9159  -999.2500
 2654.5000   123.4315  -999.2500
 2655.0000   113.5120  -999.2500
 2655.5000   107.9667  -999.2500
 2656.0000   109.6157  -999.2500
 2656.5000    96.9513  -999.2500
 2657.0000   101.5622  -999.2500
 2657.5000   101.6873  -999.2500
 2658.0000   101.6730  -999.2500
 2658.5000   101.6700  -999.2500
 2659.0000   101.6700  -999.2500
 2659.5000   101.6700  -999.2500
 2660.0000   101.6700  -999.2500
