~VERSION INFORMATION
 VERS.                2.0:   CWLS LOG ASCII STANDARD - VERSION 2.0
 WRAP.                 NO:   ONE LINE PER DEPTH STEP
~WELL INFORMATION
#MNEM.UNIT      DATA TYPE    INFORMATION
#----------   ------------   ------------------------------
 STRT.F           32.0000:   START DEPTH
 STOP.F          501.0000:   STOP DEPTH
 STEP.F            0.5000:   STEP LENGTH
 NULL.          -999.2500:   NO VALUE
 COMP.    FENIX & SCISSON:   COMPANY
 WELL.    NPR "SX" #75-10:   WELL
 FLD .             TEAPOT:   FIELD
 LOC .      S10 T38N R78W:   LOCATION
 CNTY.            NATRONA:   COUNTY
 STAT.            WYOMING:   STATE
 CTRY. UNITED STATES OF AMERICA:   COUNTRY
 SRVC.              Welex:   SERVICE COMPANY
 DATE.        08-MAR-1977:   LOGDATE
 API .       490251029200:   API NUMBER
~CURVE INFORMATION
#MNEM.UNIT       API CODE    CURVE DESCRIPTION
#----------   ------------   ------------------------------
 DEPT.F                  :   
 SPR .MV     07 010 01 00:   SPONTANEOUS POTENTIAL
 ILD .OHMM   07 120 46 00:   INDUCTION LOG DEEP
 ILM .OHMM   07 120 44 00:   INDUCTION LOG MEDIUM
 SGRD.OHMM   07 221 05 00:   SHALLOW SHORT GUARD RESISTIVITY
 GRD .GAPI   45 310 01 00:   GAMMA RAY FROM DENSITY LOG
 CALD.IN     45 280 60 00:   CALIPER FROM DENSITY LOG
 CORR.G/C3   45 356 01 00:   DENSITY CORRECTION
 RHOB.G/C3   45 350 01 00:   BULK DENSITY
 DPHI.DEC    45 890 12 00:   DENSITY POROSITY SANDSTONE
~PARAMETER INFORMATION
#MNEM.UNIT          VALUE    DESCRIPTION
#----------   ------------   ------------------------------
 PD  .                 GL:   PERMANENT DATUM
 EPD .F              5184:   ELEVATION PERMANENT DATUM
 LMF .                 GL:   LOG MEASURED FROM
 DAPD.F                GL:   FEET ABOVE PERMANENT DATUM
 EGL .F              5184:   GROUND LEVEL
 DATE.          03-8-1977:   RUN DATE
 RUN .                  1:   RUN NUMBER
 DD  .F               510:   DEPTH DRILLER
 DL  .F               505:   DEPTH LOGGER
 BLI .F               503:   BOTTOM LOG INTERVAL
 TLI .F                35:   TOP LOG INTERVAL
 CS  .IN            8.625:   CASING SIZE
 CBD .F                42:   CASING BOTTOM DRILLER
 CBL .F                43:   CASING BOTTOM LOGGER
 BS  .IN            7.875:   BIT SIZE
 BSD .F               510:   BIT SIZE AT DEPTH
 DFT .            KCL MUD:   DRILLING FLUID TYPE
 DFD .                8.6:   DRILLING FLUID DENSITY
 DFV .                 36:   DRILLING FLUID VISCOSITY
 DFPH.                9.5:   DRILLING FLUID PH
 DFL .                  2:   DRILLING FLUID LOSS
 MSS .           FLOWLINE:   MUD SAMPLE SOURCE
 RMS .OHMM            .49:   RESISTIVITY MUD SAMPLE
 MST .F                56:   MUD SAMPLE TEMPERATURE
 RMF .OHMM            .42:   RESISTIVITY MUD FILTRATE SAMPLE
 MFST.F                56:   MUD FILTRATE SAMPLE TEMPERATURE
 RMC .OHMM            .62:   RESISTIVITY MUD CAKE
 MCST.F                56:   MUD CAKE SAMPLE TEMPERATURE
 MFSS.               MEAS:   MUD FILTRATE SAMPLE SOURCE
 MCSS.               MEAS:   MUD CAKE SAMPLE SOURCE
 RMB .OHMM            .44:   RESISTIVITY MUD AT BHT
 BHT .F                62:   BOTTOM HOLE TEMPERATURE
 TCS .HRS               2:   TIME CURCULATED STOPPED
 MRT .F                62:   MAXIMUM RECORDED TEMPERATURE
 LUN .               8611:   LOGGING UNIT NUMBER
 LUL .           GILLETTE:   LOGGING UNIT LOCATION
 ENGI.            C. DOAK:   RECORDING ENGINEER
 WITN.           S. BURNE:   WITNESSED BY
 CLNT.            A2DTECH:   CLIENT CODE
 ORIG.        2" 5" PRINT:   ORIGIN OF DATA
 UWI .       490251029200:   UNIQUE WELL ID
 DICO. A2D Technologies, Inc.:   DIGITIZING COMPANY
~OTHER INFORMATION
~A   DEPT      SPR        ILD        ILM       SGRD         GRD        CALD      CORR        RHOB     DPHI   
# ...
  214.5000   -44.8434     4.6355     5.7789     5.9027   129.2265     8.0384     0.0466     2.4219     0.1337
  215.0000   -44.8507     4.5387     5.4255     5.7402   128.6338     8.0702     0.0497     2.4347     0.1276
  215.5000   -44.8594     4.5057     5.0652     6.9610   127.9120     8.1168     0.0529     2.4460     0.1246
  216.0000   -44.8665     4.5039     4.8582     7.1531   128.3786     8.1486     0.0545     2.4603     0.1135
  216.5000   -44.7226     4.5662     5.2035     5.3888   129.8773     8.1505     0.0547     2.4611     0.1117
  217.0000   -44.5823     4.7227     5.7690     7.5526   130.4859     8.1227     0.0563     2.4672     0.1107
  217.5000   -44.4254     4.8867     5.9284     7.9791   130.3502     8.0799     0.0565     2.4800     0.1047
  218.0000   -44.1487     5.0913     6.0923     7.3410   130.2146     8.0520     0.0551     2.4838     0.0990
  218.5000   -44.0066     5.2681     6.6154     6.7004   130.8243     8.0540     0.0553     2.4823     0.0983
  219.0000   -43.8645     5.4515     7.1841     9.1576   129.7945     8.1453     0.0554     2.4869     0.0974
  219.5000   -43.5746     5.7180     7.5892     8.9569   128.9135     8.1920     0.0556     2.4915     0.0944
  220.0000   -43.4229     5.9166     8.0172     9.0778   130.4175     8.1636     0.0588     2.4915     0.0929
  220.5000   -43.1413     6.1219     8.1822     9.3930   130.1329     8.1065     0.0604     2.4908     0.0929
  221.0000   -42.9992     6.2909     8.2361     9.6522   128.3580     8.0637     0.0606     2.4909     0.0922
  221.5000   -42.8571     6.4200     8.2327     9.8586   127.0301     8.0502     0.0607     2.4910     0.0919
  222.0000   -43.0152     6.5972     8.1734     9.9833   126.5643     8.0527     0.0578     2.4865     0.1003
  222.5000   -43.0224     6.6856     8.0588    10.0485   128.1003     8.0695     0.0520     2.4701     0.1102
  223.0000   -43.0312     6.6830     7.8871     9.9744   130.3492     8.1162     0.0446     2.4581     0.1165
  223.5000   -43.0383     6.6803     7.6204     9.8338   130.2136     8.1181     0.0432     2.4514     0.1194
  224.0000   -43.0455     6.5861     7.3090     9.4240   129.6309     8.1052     0.0464     2.4437     0.1239
  224.5000   -43.0526     6.4807     7.0588     8.8584   129.9424     8.1071     0.0496     2.4388     0.1248
  225.0000   -43.2090     6.2267     6.9598     8.8549   132.1913     8.0643     0.0497     2.4429     0.1224
  225.5000   -43.2179     5.9305     7.0057     8.7905   134.2912     8.0509     0.0499     2.4442     0.1238
  226.0000   -43.2250     5.6876     7.0028     8.6069   136.2421     8.0384     0.0500     2.4487     0.1211
  226.5000   -43.2321     5.4171     6.9524     8.3064   136.7026     8.0403     0.0486     2.4353     0.1247
  227.0000   -43.2392     5.2274     6.7609     8.1372   136.2690     8.0721     0.0473     2.4286     0.1289
  227.5000   -43.0971     5.0165     6.5295     8.1340   133.8979     8.1038     0.0459     2.4324     0.1270
  228.0000   -43.1045     4.8444     6.2627     7.9641   133.7590     8.1207     0.0431     2.4225     0.1288
  228.5000   -42.8128     4.7432     5.9650     7.7441   135.4151     8.1375     0.0417     2.4204     0.1339
  229.0000   -42.5214     4.6441     5.8007     6.9620   136.7698     8.1241     0.0449     2.4168     0.1345
  229.5000   -42.5303     4.6422     5.7589     5.7102   134.3988     8.0818     0.0526     2.4305     0.1284
  230.0000   -42.2389     4.6726     5.8370     5.1820   132.9185     8.0684     0.0542     2.4427     0.1230
  230.5000   -42.0968     4.7680     5.9161     4.8012   133.9786     8.0554     0.0544     2.4578     0.1119
  231.0000   -41.9547     4.8996     6.0426     7.1136   134.1411     8.0424     0.0545     2.4712     0.1053
  231.5000   -41.8125     5.1048     6.3779     8.2300   131.9190     8.0598     0.0547     2.4741     0.1037
  232.0000   -41.6722     5.2849     6.5542     8.9878   129.6970     8.1064     0.0533     2.4690     0.1055
  232.5000   -41.6793     5.5414     6.7820     9.4944   130.9027     8.1382     0.0519     2.4660     0.1073
  233.0000   -41.5371     5.7332     7.0663     9.5574   132.5555     8.1247     0.0506     2.4698     0.1058
  233.5000   -41.3950     5.9322     7.3689     9.2285   133.6122     8.1272     0.0493     2.4714     0.1060
  234.0000   -41.2547     6.1382     7.6705     9.0358   134.8179     8.1291     0.0464     2.4714     0.1042
  234.5000   -41.2618     6.3078     7.7751     9.2851   134.3842     8.1161     0.0466     2.4663     0.1063
  235.0000   -41.1194     6.4816     7.8806     9.5413   133.2054     8.1032     0.0482     2.4611     0.1090
  235.5000   -41.1269     6.6140     7.7694     9.6692   132.3247     8.0450     0.0499     2.4634     0.1107
  236.0000   -41.1357     6.7040     7.7134     9.7998   131.4439     7.9729     0.0515     2.4612     0.1107
  236.5000   -41.2920     6.7007     7.9809     9.7285   129.8180     7.9297     0.0532     2.4612     0.1113
  237.0000   -41.4484     6.7444     7.8689     9.5904   130.5766     7.8874     0.0563     2.4508     0.1134
  237.5000   -41.6048     6.6947     7.4439     9.6540   132.3784     7.8739     0.0595     2.4606     0.1085
  238.0000   -41.6119     6.6460     7.0419     9.7843   130.3055     7.9807     0.0612     2.4697     0.1055
  238.5000   -41.6208     6.5072     7.0360     9.8482   132.4053     8.1019     0.0628     2.4727     0.1037
  239.0000   -41.6279     6.4599     7.7139     9.9116   134.6543     8.1187     0.0630     2.4751     0.1031
  239.5000   -41.6350     6.3688     8.1310     9.9067   134.6677     8.1207     0.0631     2.4759     0.1028
  240.0000   -41.4911     6.3224     8.1283     9.7670   135.8734     8.1043     0.0633     2.4737     0.1039
  240.5000   -41.3507     6.3193     8.1257     9.6292   136.4796     8.0495     0.0634     2.4662     0.1069
  241.0000   -41.0594     6.3168     8.0117     9.4934   134.7080     8.0217     0.0606     2.4633     0.1099
  241.5000   -40.9172     6.3587     7.8993     9.3595   133.3802     8.0411     0.0577     2.4588     0.1111
  242.0000   -40.6276     6.3996     8.3441     9.4859   133.6917     8.0877     0.0563     2.4664     0.1086
  242.5000   -40.6347     6.4458     8.8147     9.7467   136.2387     8.1170     0.0580     2.4695     0.1068
  243.0000   -40.4925     6.4835     9.0591     9.9468   136.5502     8.1339     0.0597     2.4703     0.1061
  243.5000   -40.5000     6.5258     9.0640    10.0811   136.5636     8.1208     0.0628     2.4658     0.1063
  244.0000   -40.5086     6.5684     8.7995    10.0771   136.2790     8.0780     0.0660     2.4636     0.1082
  244.5000   -40.6650     6.5652     7.7744     9.8657   135.6964     8.0337     0.0676     2.4690     0.1063
  245.0000   -40.9706     6.5144     7.1051     9.5272   134.9646     7.9762     0.0693     2.4690     0.1061
  245.5000   -41.4255     6.4249     6.8619     9.4579   134.0806     7.9497     0.0664     2.4661     0.1081
  246.0000   -41.6000     6.3781     7.0031     9.6520   136.3328     7.9666     0.0635     2.4601     0.1136
  246.5000   -41.7400     6.2449     7.2969     9.7824   136.7934     8.0143     0.0637     2.4534     0.1178
  247.0000   -41.8964     6.1145     7.4469     9.8462   136.8068     8.0608     0.0669     2.4565     0.1210
  247.5000   -42.0528     6.0282     7.1914     9.5733   139.3538     8.0924     0.0716     2.4453     0.1195
  248.0000   -42.0599     5.9018     6.9453     8.8086   141.1556     8.1383     0.0762     2.4529     0.1192
  248.5000   -42.0672     5.7387     7.0394     7.7226   137.8904     8.1551     0.0794     2.4417     0.1236
  249.0000   -42.0759     5.6189     7.0371     7.8269   133.8800     8.1422     0.0795     2.4402     0.1236
  249.5000   -41.9320     5.4637     7.0347     8.8674   131.2075     8.0994     0.0797     2.4381     0.1245
  250.0000   -41.6424     5.3127     6.9638     8.9803   132.1151     8.0715     0.0763     2.4278     0.1299
  250.5000   -41.6521     4.9821     6.6969     8.7863   129.6020     7.9841     0.0709     2.4134     0.1352
