~VERSION INFORMATION
 VERS.                2.0:   CWLS LOG ASCII STANDARD - VERSION 2.0
 WRAP.                 NO:   ONE LINE PER DEPTH STEP
~WELL INFORMATION
#MNEM.UNIT      DATA TYPE    INFORMATION
#----------   ------------   ------------------------------
 STRT.F            0.0000:   START DEPTH
 STOP.F         2694.5000:   STOP DEPTH
 STEP.F            0.5000:   STEP LENGTH
 NULL.          -999.2500:   NO VALUE
 COMP. FENIX & SCISSON INC:   COMPANY
 WELL.       102 A #20-20:   WELL
 FLD .        TEAPOT DOME:   FIELD
 LOC .      S20 T39N R78W:   LOCATION
 CNTY.            NATRONA:   COUNTY
 STAT.            WYOMING:   STATE
 CTRY. UNITED STATES OF AMERICA:   COUNTRY
 SRVC.            Unknown:   SERVICE COMPANY
 DATE.        17-AUG-1965:   LOGDATE
 API .       490251022200:   API NUMBER
~CURVE INFORMATION
#MNEM.UNIT       API CODE    CURVE DESCRIPTION
#----------   ------------   ------------------------------
 DEPT.F                  :   
 CALI.IN     30 280 01 00:   CALIPER FROM GAMMA RAY LOG
 GR  .GAPI   30 310 01 00:   GAMMA RAY
~PARAMETER INFORMATION
#MNEM.UNIT          VALUE    DESCRIPTION
#----------   ------------   ------------------------------
 PD  .                 GL:   PERMANENT DATUM
 LMF .                 GL:   LOG MEASURED FROM
 DMF .                 GL:   DRILLING MEASURED FROM
 DATE.            8-17-65:   RUN DATE
 RUN .                  1:   RUN NUMBER
 DD  .F            2696.5:   DEPTH DRILLER
 DL  .F              2697:   DEPTH LOGGER
 BLI .F              2695:   BOTTOM LOG INTERVAL
 TLI .F              2000:   TOP LOG INTERVAL
 CS  .IN                7:   CASING SIZE
 CBD .F              2678:   CASING BOTTOM DRILLER
 DFT .                OIL:   DRILLING FLUID TYPE
 TCS .HRS               1:   TIME CURCULATED STOPPED
 ENGI.            JACKSON:   RECORDING ENGINEER
 WITN.          JORGENSEN:   WITNESSED BY
 CLNT.            A2DTECH:   CLIENT CODE
 ORIG.           5" PRINT:   ORIGIN OF DATA
 UWI .       490251022200:   UNIQUE WELL ID
 DICO. A2D Technologies, Inc.:   DIGITIZING COMPANY
~OTHER INFORMATION
~A    DEPT      CALI       GR   
# ...
  486.0000     6.4869  -999.2500
  486.5000     6.4844  -999.2500
  487.0000     6.4862  -999.2500
  487.5000     6.4881  -999.2500
  488.0000     6.4900  -999.2500
  488.5000     6.4918  -999.2500
  489.0000     6.4920  -999.2500
  489.5000     6.4881  -999.2500
  490.0000     6.4841  -999.2500
  490.5000     6.4899  -999.2500
  491.0000     6.5203  -999.2500
  491.5000     6.5019  -999.2500
  492.0000     6.4932  -999.2500
  492.5000     6.4931  -999.2500
  493.0000     6.4902  -999.2500
  493.5000     6.4687  -999.2500
  494.0000     6.4559  -999.2500
  494.5000     6.4653  -999.2500
  495.0000     6.4742  -999.2500
  495.5000     6.4825  -999.2500
  496.0000     6.4443  -999.2500
  496.5000     6.4520  -999.2500
  497.0000     6.4766  -999.2500
  497.5000     6.4894  -999.2500
  498.0000     6.4985  -999.2500
  498.5000     6.4967  -999.2500
  499.0000     6.4844  -999.2500
  499.5000     6.4709  -999.2500
  500.0000     6.4466  -999.2500
  500.5000     6.4424  -999.2500
  501.0000     6.4587  -999.2500
  501.5000     6.4732  -999.2500
  502.0000     6.4648  -999.2500
  502.5000     6.4651  -999.2500
  503.0000     6.4668  -999.2500
  503.5000     6.4685  -999.2500
  504.0000     6.4702  -999.2500
  504.5000     6.4720  -999.2500
  505.0000     6.4727  -999.2500
  505.5000     6.4507  -999.2500
  506.0000     6.4367  -999.2500
  506.5000     6.4604  -999.2500
  507.0000     6.4812  -999.2500
  507.5000     6.4772  -999.2500
  508.0000     6.4733  -999.2500
  508.5000     6.4692  -999.2500
  509.0000     6.4651  -999.2500
  509.5000     6.4634  -999.2500
  510.0000     6.4765  -999.2500
  510.5000     6.4970  -999.2500
  511.0000     6.5178  -999.2500
  511.5000     6.5396  -999.2500
  512.0000     6.5101  -999.2500
  512.5000     6.5006  -999.2500
  513.0000     6.4970  -999.2500
  513.5000     6.4938  -999.2500
  514.0000     6.4977  -999.2500
  514.5000     6.5052  -999.2500
  515.0000     6.5128  -999.2500
  515.5000     6.5122  -999.2500
  516.0000     6.4788  -999.2500
  516.5000     6.4715  -999.2500
  517.0000     6.4617  -999.2500
  517.5000     6.4468  -999.2500
  518.0000     6.4352  -999.2500
  518.5000     6.4530  -999.2500
  519.0000     6.5021  -999.2500
  519.5000     6.4970  -999.2500
  520.0000     6.4953  -999.2500
  520.5000     6.5028  -999.2500
  521.0000     6.5028  -999.2500
  521.5000     6.4846  -999.2500
  522.0000     6.4644  -999.2500
  522.5000     6.4634  -999.2500
  523.0000     6.4637  -999.2500
  523.5000     6.4638  -999.2500
  524.0000     6.4802  -999.2500
  524.5000     6.5013  -999.2500
  525.0000     6.4922  -999.2500
  525.5000     6.4842  -999.2500
  526.0000     6.4841  -999.2500
  526.5000     6.4875  -999.2500
  527.0000     6.4907  -999.2500
  527.5000     6.4932  -999.2500
  528.0000     6.4896  -999.2500
  528.5000     6.4844  -999.2500
  529.0000     6.4792  -999.2500
  529.5000     6.4741  -999.2500
  530.0000     6.4886  -999.2500
  530.5000     6.5062  -999.2500
  531.0000     6.5217  -999.2500
  531.5000     6.5037  -999.2500
  532.0000     6.4936  -999.2500
  532.5000     6.5159  -999.2500
  533.0000     6.5103  -999.2500
  533.5000     6.4852  -999.2500
  534.0000     6.4869  -999.2500
  534.5000     6.4892  -999.2500
  535.0000     6.4917  -999.2500
  535.5000     6.4941  -999.2500
  536.0000     6.4966  -999.2500
  536.5000     6.4990  -999.2500
  537.0000     6.5013  -999.2500
  537.5000     6.4966  -999.2500
  538.0000     6.4848  -999.2500
  538.5000     6.4962  -999.2500
  539.0000     6.5004  -999.2500
  539.5000     6.4932  -999.2500
  540.0000     6.4862  -999.2500
  540.5000     6.4850  -999.2500
  541.0000     6.4878  -999.2500
  541.5000     6.4907  -999.2500
  542.0000     6.4954  -999.2500
  542.5000     6.5099  -999.2500
  543.0000     6.5065  -999.2500
  543.5000     6.4985  -999.2500
  544.0000     6.4930  -999.2500
  544.5000     6.4931  -999.2500
  545.0000     6.4931  -999.2500
  545.5000     6.4930  -999.2500
  546.0000     6.4933  -999.2500
  546.5000     6.5088  -999.2500
  547.0000     6.5076  -999.2500
  547.5000     6.5007  -999.2500
  548.0000     6.4934  -999.2500
  548.5000     6.4930  -999.2500
  549.0000     6.4936  -999.2500
  549.5000     6.5010  -999.2500
  550.0000     6.4955  -999.2500
  550.5000     6.4956  -999.2500
  551.0000     6.4987  -999.2500
  551.5000     6.5020  -999.2500
  552.0000     6.4963  -999.2500
  552.5000     6.4847  -999.2500
  553.0000     6.4946  -999.2500
  553.5000     6.5031  -999.2500
  554.0000     6.4961  -999.2500
  554.5000     6.4929  -999.2500
  555.0000     6.4926  -999.2500
  555.5000     6.4922  -999.2500
  556.0000     6.4918  -999.2500
  556.5000     6.4915  -999.2500
  557.0000     6.4911  -999.2500
  557.5000     6.4908  -999.2500
  558.0000     6.4904  -999.2500
  558.5000     6.4901  -999.2500
  559.0000     6.4897  -999.2500
  559.5000     6.4894  -999.2500
  560.0000     6.4890  -999.2500
  560.5000     6.4887  -999.2500
  561.0000     6.4883  -999.2500
  561.5000     6.4880  -999.2500
  562.0000     6.4876  -999.2500
  562.5000     6.4873  -999.2500
  563.0000     6.4869  -999.2500
  563.5000     6.4866  -999.2500
  564.0000     6.4862  -999.2500
  564.5000     6.4858  -999.2500
  565.0000     6.4855  -999.2500
  565.5000     6.4851  -999.2500
  566.0000     6.4848  -999.2500
  566.5000     6.4844  -999.2500
  567.0000     6.4841  -999.2500
  567.5000     6.4837  -999.2500
  568.0000     6.4834  -999.2500
  568.5000     6.4841  -999.2500
  569.0000     6.4852  -999.2500
  569.5000     6.4864  -999.2500
  570.0000     6.4876  -999.2500
  570.5000     6.4888  -999.2500
  571.0000     6.4900  -999.2500
  571.5000     6.4911  -999.2500
  572.0000     6.4924  -999.2500
  572.5000     6.4962  -999.2500
  573.0000     6.5070  -999.2500
  573.5000     6.5178  -999.2500
  574.0000     6.5330  -999.2500
  574.5000     6.5476  -999.2500
  575.0000     6.4842  -999.2500
  575.5000     6.4615  -999.2500
  576.0000     6.4617  -999.2500
  576.5000     6.4727  -999.2500
  577.0000     6.4579  -999.2500
  577.5000     6.4427  -999.2500
  578.0000     6.4408  -999.2500
  578.5000     6.4527  -999.2500
  579.0000     6.4275  -999.2500
  579.5000     6.4014  -999.2500
  580.0000     6.3991  -999.2500
  580.5000     6.4075  -999.2500
  581.0000     6.4329  -999.2500
  581.5000     6.4343  -999.2500
  582.0000     6.4340  -999.2500
  582.5000     6.4343  -999.2500
  583.0000     6.4503  -999.2500
  583.5000     6.4433  -999.2500
  584.0000     6.4299  -999.2500
  584.5000     6.4243  -999.2500
  585.0000     6.4241  -999.2500
  585.5000     6.4246  -999.2500
  586.0000     6.4378  -999.2500
  586.5000     6.4520  -999.2500
  587.0000     6.4398  -999.2500
  587.5000     6.4245  -999.2500
  588.0000     6.4213  -999.2500
  588.5000     6.4185  -999.2500
  589.0000     6.4158  -999.2500
  589.5000     6.4144  -999.2500
  590.0000     6.4144  -999.2500
  590.5000     6.4192  -999.2500
  591.0000     6.4286  -999.2500
  591.5000     6.4381  -999.2500
  592.0000     6.4475  -999.2500
  592.5000     6.4538  -999.2500
  593.0000     6.4536  -999.2500
  593.5000     6.4596  -999.2500
  594.0000     6.4672  -999.2500
  594.5000     6.4749  -999.2500
  595.0000     6.4824  -999.2500
  595.5000     6.4902  -999.2500
  596.0000     6.4742  -999.2500
  596.5000     6.4791  -999.2500
  597.0000     6.4852  -999.2500
  597.5000     6.4919  -999.2500
  598.0000     6.4661  -999.2500
  598.5000     6.4425  -999.2500
  599.0000     6.4388  -999.2500
  599.5000     6.4347  -999.2500
  600.0000     6.4496  -999.2500
  600.5000     6.4717  -999.2500
  601.0000     6.4843  -999.2500
  601.5000     6.4867  -999.2500
  602.0000     6.4891  -999.2500
  602.5000     6.4914  -999.2500
  603.0000     6.4937  -999.2500
  603.5000     6.4960  -999.2500
  604.0000     6.4984  -999.2500
  604.5000     6.5007  -999.2500
  605.0000     6.5029  -999.2500
  605.5000     6.5014  -999.2500
  606.0000     6.4998  -999.2500
  606.5000     6.4982  -999.2500
  607.0000     6.4966  -999.2500
