~VERSION INFORMATION
 VERS.                2.0:   CWLS LOG ASCII STANDARD - VERSION 2.0
 WRAP.                 NO:   ONE LINE PER DEPTH STEP
~WELL INFORMATION
#MNEM.UNIT      DATA TYPE    INFORMATION
#----------   ------------   ------------------------------
 STRT.F           20.0000:   START DEPTH
 STOP.F          488.0000:   STOP DEPTH
 STEP.F            0.5000:   STEP LENGTH
 NULL.          -999.2500:   NO VALUE
 COMP.    FENIX & SCISSON:   COMPANY
 WELL.  SX-3 NPR #3-3 #43:   WELL
 FLD .             TEAPOT:   FIELD
 LOC .       S3 T38N R78W:   LOCATION
 CNTY.            NATRONA:   COUNTY
 STAT.            WYOMING:   STATE
 CTRY. UNITED STATES OF AMERICA:   COUNTRY
 SRVC.           BIRDWELL:   SERVICE COMPANY
 DATE.        04-JAN-1978:   LOGDATE
 API .       490251044800:   API NUMBER
~CURVE INFORMATION
#MNEM.UNIT       API CODE    CURVE DESCRIPTION
#----------   ------------   ------------------------------
 DEPT.F                  :   
 ILD .OHMM   05 120 46 00:   INDUCTION LOG DEEP
 SN  .OHMM   05 040 16 00:   SHORT NORMAL 16"
 SPR .MV     05 010 01 00:   SPONTANEOUS POTENTIAL FROM RES.
 CALD.IN     45 280 60 00:   CALIPER FROM DENSITY LOG
 DPHI.DEC    45 890 12 00:   DENSITY POROSITY SANDSTONE
 DRHO.G/C3   45 356 01 00:   DENSITY CORRECTION
 GRD .GAPI   45 310 01 00:   GAMMA RAY FROM DENSITY LOG
 RHOB.G/C3   45 350 01 00:   BULK DENSITY
~PARAMETER INFORMATION
#MNEM.UNIT          VALUE    DESCRIPTION
#----------   ------------   ------------------------------
 PD  .                 GL:   PERMANENT DATUM
 LMF .                 KB:   LOG MEASURED FROM
 DAPD.F                 4:   FEET ABOVE PERMANENT DATUM
 DMF .                 KB:   DRILLING MEASURED FROM
 EKB .F              5163:   KELLING BUSHING
 EGL .F              5159:   GROUND LEVEL
 DATE.        04-JAN-1978:   RUN DATE
 RUN .                  1:   RUN NUMBER
 DD  .F               490:   DEPTH DRILLER
 DL  .F               490:   DEPTH LOGGER
 BLI .F               485:   BOTTOM LOG INTERVAL
 TLI .F                20:   TOP LOG INTERVAL
 CS  .IN            8.625:   CASING SIZE
 CBD .F                40:   CASING BOTTOM DRILLER
 CBL .F                44:   CASING BOTTOM LOGGER
 BS  .IN            7.875:   BIT SIZE
 BSD .F               490:   BIT SIZE AT DEPTH
 DFT .                KCL:   DRILLING FLUID TYPE
 DFD .                8.4:   DRILLING FLUID DENSITY
 DFV .                 32:   DRILLING FLUID VISCOSITY
 DFPH.                 11:   DRILLING FLUID PH
 DFL .                  8:   DRILLING FLUID LOSS
 MSS .                PIT:   MUD SAMPLE SOURCE
 RMS .OHMM           0.32:   RESISTIVITY MUD SAMPLE
 MST .F                62:   MUD SAMPLE TEMPERATURE
 RMF .OHMM           0.30:   RESISTIVITY MUD FILTRATE SAMPLE
 MFST.F                62:   MUD FILTRATE SAMPLE TEMPERATURE
 RMC .OHMM           0.35:   RESISTIVITY MUD CAKE
 MCST.F                62:   MUD CAKE SAMPLE TEMPERATURE
 MFSS.               MEAS:   MUD FILTRATE SAMPLE SOURCE
 MCSS.               MEAS:   MUD CAKE SAMPLE SOURCE
 RMB .OHMM           0.26:   RESISTIVITY MUD AT BHT
 BHT .F                75:   BOTTOM HOLE TEMPERATURE
 TCS .HRS               2:   TIME CURCULATED STOPPED
 MRT .F                75:   MAXIMUM RECORDED TEMPERATURE
 LUN .               2958:   LOGGING UNIT NUMBER
 LUL .             CASPER:   LOGGING UNIT LOCATION
 ENGI.             HUGHES:   RECORDING ENGINEER
 WITN.         HARRINGTON:   WITNESSED BY
 CLNT.            A2DTECH:   CLIENT CODE
 ORIG.           5" PRINT:   ORIGIN OF DATA
 UWI .       490251044800:   UNIQUE WELL ID
 DICO. A2D Technologies, Inc.:   DIGITIZING COMPANY
~OTHER INFORMATION
~A   DEPT      ILD         SN        SPR       CALD       DPHI       DRHO         GRD      RHOB   
# ...
  384.5000    33.0238    19.4859   -33.6842     8.2673     0.1848     0.0328    84.5533     2.3467
  385.0000    32.7934    19.3465   -33.6842     8.2671     0.1896     0.0224    88.6426     2.3483
  385.5000    32.7913    19.0758   -33.6842     8.2524     0.1938     0.0127    90.1039     2.3354
  386.0000    32.7887    18.9394   -33.6842     8.2523     0.1860     0.0329    91.4191     2.3319
  386.5000    32.7865    18.6732   -33.6842     8.2521     0.1838     0.0315    93.4643     2.3410
  387.0000    32.7845    18.5397   -33.6842     8.2374     0.1826     0.0225    94.0496     2.3485
  387.5000    32.7818    18.5349   -33.8346     8.2372     0.1820     0.0272    89.5257     2.3501
  388.0000    32.7799    18.5300   -33.8346     8.2371     0.1841     0.0361    84.1257     2.3374
  388.5000    32.7776    18.5240   -31.8797     8.2369     0.1850     0.0368    81.3533     2.3360
  389.0000    32.7754    18.7770   -31.8797     8.2368     0.1850     0.0346    79.6032     2.3413
  389.5000    32.7728    18.7721   -31.8797     8.2366     0.1847     0.0292    80.3345     2.3474
  390.0000    32.7707    18.6379   -32.1805     8.2365     0.1946     0.0190    79.7519     2.3489
  390.5000    32.5421    18.6318   -33.0827     8.2363     0.1990     0.0160    79.8993     2.3355
  391.0000    31.8694    18.4986   -33.6842     8.2362     0.1936     0.0220    83.5507     2.3191
  391.5000    31.8674    18.3664   -33.6842     8.2360     0.1960     0.0235    89.3914     2.3224
  392.0000    31.4264    18.2350   -33.6842     8.2359     0.1831     0.0116    92.7505     2.3372
  392.5000    30.9910    18.0900   -33.9850     8.2358     0.1816     0.0191    91.4380     2.3432
  393.0000    30.9890    17.8502   -34.1353     8.2210     0.1733     0.0296    88.3740     2.3433
  393.5000    30.3989    17.6004   -34.1353     8.2209     0.1703     0.0372    87.7911     2.3504
  394.0000    30.1372    17.3542   -34.2857     8.2207     0.1696     0.0387    89.6906     2.3673
  394.5000    29.3102    17.1038   -34.8872     8.2206     0.1690     0.0260    93.7796     2.3704
  395.0000    29.1058    16.8708   -36.9925     8.2204     0.1684     0.0290    94.6572     2.3697
  395.5000    28.5046    16.5201   -38.4962     8.2203     0.1681     0.0328    95.3885     2.3705
  396.0000    27.7225    16.4020   -38.4962     8.2201     0.1615     0.0350    96.4118     2.3728
  396.5000    26.9622    16.2836   -38.4962     8.2200     0.1526     0.0336    94.2234     2.3744
  397.0000    26.2228    16.0558   -38.4962     8.2199     0.1537     0.0276    90.7215     2.3886
  397.5000    25.5033    15.8312   -39.2481     8.2197     0.1600     0.0200    88.9710     2.3985
  398.0000    24.6325    15.5021   -39.8657     8.2196     0.1615     0.0090    87.0746     2.3805
  398.5000    23.6270    15.1799   -40.3008     8.2340     0.1609     0.0247    84.8861     2.3791
  399.0000    22.9684    14.6593   -40.0962     8.2339     0.1585     0.0397    88.2455     2.3881
  399.5000    22.3485    14.2556   -40.0000     8.2483     0.1539     0.0495    95.5462     2.4004
  400.0000    22.0392    14.0562   -40.1504     8.2628     0.1462     0.0383    98.9052     2.4174
  400.5000    21.5840    13.8595   -40.0000     8.2336     0.1417     0.0331    98.1793     2.4220
  401.0000    21.4331    13.7603   -40.0000     8.2482     0.1396     0.0286    97.0166     2.4108
  401.5000    21.0953    13.5670   -40.4511     8.2482     0.1396     0.0226    88.1156     2.4184
  402.0000    20.8975    13.5635   -40.4511     8.2482     0.1453     0.0168    83.4482     2.4132
  402.5000    20.7587    13.4665   -40.4511     8.2482     0.1483     0.0258    84.7672     2.4080
  403.0000    20.5450    13.3701   -40.7519     8.2482     0.1489     0.0244    88.1290     2.4215
  403.5000    20.4003    13.1823   -41.0526     8.2482     0.1466     0.0207    93.0966     2.4246
  404.0000    19.9777    13.1889   -41.2030     8.2482     0.1425     0.0162    97.4803     2.3992
  404.5000    19.8370    13.2118   -41.8045     8.2336     0.1401     0.0140    97.9224     2.4007
  405.0000    19.4254    13.2346   -44.0602     8.2336     0.1377     0.0111    96.3217     2.4015
  405.5000    19.4231    13.1574   -44.2105     8.2336     0.1350     0.0141    93.5521     2.4101
  406.0000    19.4204    12.7943   -44.3609     8.2336     0.1323     0.0172    89.4687     2.4204
  406.5000    19.2831    12.6145   -44.3609     8.2336     0.1302     0.0232    84.5103     2.4242
  407.0000    19.2806    12.6104   -44.3609     8.2448     0.1276     0.0293    80.5728     2.4296
  407.5000    19.2781    12.5185   -44.3609     8.2336     0.1249     0.0294    83.3507     2.4333
  408.0000    19.1418    12.5144   -44.3509     8.2368     0.1255     0.0231    89.3402     2.4293
  408.5000    19.0071    12.5104   -44.2105     8.2482     0.1291     0.0167    94.0169     2.4199
  409.0000    18.8733    12.5062   -44.2105     8.2482     0.1240     0.0138    98.5466     2.4177
  409.5000    18.8702    12.5890   -44.2105     8.2482     0.1201     0.0146    99.5716     2.4222
  410.0000    18.6079    12.5839   -44.2105     8.2336     0.1212     0.0237    97.6789     2.4298
  410.5000    18.4769    12.6672   -44.0602     8.2283     0.1231     0.0334    95.7862     2.4379
  411.0000    18.3468    12.6629   -43.7594     8.2190     0.1236     0.0334    94.0385     2.4432
  411.5000    18.3439    12.6578   -43.4586     8.2336     0.1212     0.0305    92.2908     2.4492
  412.0000    18.3415    12.7426   -43.4586     8.2336     0.1188     0.0410    92.7329     2.4544
  412.5000    18.3392    12.5625   -43.4586     8.2336     0.1158     0.0209    92.4461     2.4582
  413.0000    18.3362    12.7333   -43.7594     8.2482     0.1139     0.0157    91.4273     2.4537
  413.5000    18.3338    12.6404   -43.7594     8.2482     0.1157     0.0232    95.9580     2.4470
  414.0000    18.2048    12.4628   -43.9098     8.2482     0.1187     0.0263   100.0497     2.4462
  414.5000    17.9511    12.3729   -44.5113     8.2482     0.1184     0.0196   100.4928     2.4500
  415.0000    17.8248    12.2826   -45.2632     8.2406     0.1126     0.0166   100.9349     2.4582
  415.5000    17.8225    12.2786   -45.8647     8.2336     0.1114     0.0302   101.9599     2.4657
  416.0000    17.8196    12.1901   -46.5063     8.2190     0.1069     0.0220    97.0016     2.4710
  416.5000    17.8173    12.2707   -47.2180     8.2190     0.1066     0.0145    96.2758     2.4725
  417.0000    17.5696    12.3508   -47.6692     8.2190     0.1114     0.0191    96.5729     2.4613
  417.5000    17.4459    12.1772   -47.6692     8.2190     0.1132     0.0259    96.5770     2.4598
  418.0000    17.3225    12.2587   -47.6692     8.2190     0.1137     0.0349    96.4350     2.4643
  418.5000    17.3203    12.2537   -47.6692     8.2190     0.1056     0.0395    95.8370     2.4736
  419.0000    17.3181    12.1644   -47.6692     8.2190     0.1017     0.0275    93.8167     2.4838
  419.5000    17.3153    12.1605   -47.6692     8.2190     0.0981     0.0209    88.5654     2.4846
  420.0000    17.3131    11.9896   -47.6692     8.2190     0.0978     0.0164    83.6060     2.4756
  420.5000    17.3108    11.8103   -47.6692     8.2190     0.0984     0.0322    83.1721     2.4726
  421.0000    17.1889    11.7348   -47.6692     8.2190     0.0986     0.0360    85.9510     2.4764
  421.5000    17.1862    11.6502   -47.6692     8.2190     0.0980     0.0315    92.6705     2.4846
  422.0000    17.1350    11.6464   -47.6692     8.2190     0.0971     0.0278   103.4775     2.4921
  422.5000    17.0630    11.6417   -47.8195     8.2190     0.0956     0.0331    99.1312     2.4944
  423.0000    16.8253    11.7187   -48.2707     8.2190     0.0950     0.0347    91.2240     2.4921
  423.5000    16.8231    11.7149   -48.2707     8.2190     0.0988     0.0325    97.0676     2.4877
  424.0000    16.8209    11.7111   -48.7218     8.2190     0.1039     0.0251   106.9987     2.4810
  424.5000    16.8182    11.7070   -49.4737     8.2190     0.1075     0.0184   111.0904     2.4750
