~VERSION INFORMATION
 VERS.                2.0:   CWLS LOG ASCII STANDARD - VERSION 2.0
 WRAP.                 NO:   ONE LINE PER DEPTH STEP
~WELL INFORMATION
#MNEM.UNIT      DATA TYPE    INFORMATION
#----------   ------------   ------------------------------
 STRT.F           38.0000:   START DEPTH
 STOP.F          890.0000:   STOP DEPTH
 STEP.F            0.5000:   STEP LENGTH
 NULL.          -999.2500:   NO VALUE
 COMP. FENIX & SCISSON INC:   COMPANY
 WELL.       43 SX #14-14:   WELL
 FLD .             TEAPOT:   FIELD
 LOC .      S14 T38N R78W:   LOCATION
 CNTY.            NATRONA:   COUNTY
 STAT.            WYOMING:   STATE
 CTRY. UNITED STATES OF AMERICA:   COUNTRY
 SRVC.            Unknown:   SERVICE COMPANY
 DATE.        28-APR-1978:   LOGDATE
 API .       490251063600:   API NUMBER
~CURVE INFORMATION
#MNEM.UNIT       API CODE    CURVE DESCRIPTION
#----------   ------------   ------------------------------
 DEPT.F                  :   
 SPR .MV     05 010 01 00:   SPONTANEOUS POTENTIAL FROM RES.
 SN  .OHMM   05 040 16 00:   SHORT NORMAL 16"
 ILD .OHMM   05 120 46 00:   INDUCTION LOG DEEP
 CILD.MMHO   05 110 46 00:   CONDUCTIVITY INDUCTION LOG DEEP
 CALD.IN     45 280 60 00:   CALIPER FROM DENSITY LOG
 GRD .GAPI   45 310 01 00:   GAMMA RAY FROM DENSITY LOG
 CORR.G/C3   45 356 01 00:   DENSITY CORRECTION
 DPHI.DEC    45 890 12 00:   DENSITY POROSITY SANDSTONE
 DEN .G/C3   45 350 01 00:   COMPENSATED BULK DENSTIY
~PARAMETER INFORMATION
#MNEM.UNIT          VALUE    DESCRIPTION
#----------   ------------   ------------------------------
 PD  .                 GL:   PERMANENT DATUM
 EPD .F              5217:   ELEVATION PERMANENT DATUM
 LMF .                 KB:   LOG MEASURED FROM
 DMF .                 KB:   DRILLING MEASURED FROM
 EKB .F              5221:   KELLING BUSHING
 EGL .F              5217:   GROUND LEVEL
 DATE.        28-APR-1978:   RUN DATE
 RUN .                  1:   RUN NUMBER
 DD  .F               890:   DEPTH DRILLER
 DL  .F               890:   DEPTH LOGGER
 BLI .F               884:   BOTTOM LOG INTERVAL
 TLI .F                40:   TOP LOG INTERVAL
 CS  .IN            8.625:   CASING SIZE
 CBD .F                40:   CASING BOTTOM DRILLER
 CBL .F                40:   CASING BOTTOM LOGGER
 BS  .IN            7.875:   BIT SIZE
 BSD .F               890:   BIT SIZE AT DEPTH
 DFT .                KCL:   DRILLING FLUID TYPE
 DFD .                8.7:   DRILLING FLUID DENSITY
 DFV .                 34:   DRILLING FLUID VISCOSITY
 DFL .                4.8:   DRILLING FLUID LOSS
 MSS .            MUD PIT:   MUD SAMPLE SOURCE
 RMS .OHMM             .4:   RESISTIVITY MUD SAMPLE
 MST .F                56:   MUD SAMPLE TEMPERATURE
 RMF .OHMM            .38:   RESISTIVITY MUD FILTRATE SAMPLE
 MFST.F                64:   MUD FILTRATE SAMPLE TEMPERATURE
 RMC .OHMM              1:   RESISTIVITY MUD CAKE
 MCST.F                66:   MUD CAKE SAMPLE TEMPERATURE
 MFSS.               MEAS:   MUD FILTRATE SAMPLE SOURCE
 RMB .OHMM             .3:   RESISTIVITY MUD AT BHT
 BHT .F                74:   BOTTOM HOLE TEMPERATURE
 TCS .HRS            0100:   TIME CURCULATED STOPPED
 MRT .F                74:   MAXIMUM RECORDED TEMPERATURE
 LUN .               2958:   LOGGING UNIT NUMBER
 LUL .               CASP:   LOGGING UNIT LOCATION
 ENGI.             MILLER:   RECORDING ENGINEER
 WITN.           MCGINLEY:   WITNESSED BY
 CLNT.            A2DTECH:   CLIENT CODE
 ORIG.           5" PRINT:   ORIGIN OF DATA
 UWI .       490251063600:   UNIQUE WELL ID
 DICO. A2D Technologies, Inc.:   DIGITIZING COMPANY
~OTHER INFORMATION
~A   DEPT      SPR         SN        ILD       CILD       CALD        GRD       CORR       DPHI        DEN   
# ...
  184.0000   -42.0771     4.5355     4.5781   209.9146     8.0928    74.8012     0.0239     0.1313     2.4126
  184.5000   -42.0697     4.5060     4.5498   214.3696     8.1082    76.0152     0.0270     0.1361     2.4059
  185.0000   -42.0623     4.5087     4.5217   215.0662     8.0496    76.0270     0.0286     0.1400     2.4044
  185.5000   -42.0548     4.5109     4.5256   215.0006     7.9905    75.8461     0.0303     0.1415     2.4045
  186.0000   -42.0474     4.5131     4.4968   214.9613     7.9917    75.0037     0.0304     0.1420     2.3970
  186.5000   -42.0399     4.5153     4.5310   215.2675     8.0227    74.8625     0.0290     0.1471     2.3805
  187.0000   -42.0325     4.4864     4.5030   215.5247     8.1285    74.8771     0.0276     0.1495     2.3798
  187.5000   -42.0251     4.4271     4.4146   217.1660     8.2044    74.7359     0.0277     0.1528     2.3799
  188.0000   -42.0176     4.3983     4.3271   222.3521     8.2353    74.7505     0.0280     0.1696     2.3612
  188.5000   -42.0102     4.2812     4.0976   232.2049     8.2214    76.7112     0.0310     0.1813     2.3447
  189.0000   -42.0028     4.1668     3.5230   250.1721     8.2225    78.2221     0.0311     0.1912     2.3387
  189.5000   -42.1439     4.0276     3.3361   274.1798     8.2085    79.1439     0.0312     0.1950     2.3109
  190.0000   -42.2849     3.8662     3.1810   297.2787     8.2247    79.1254     0.0314     0.1953     2.2869
  190.5000   -42.4258     3.6859     3.0966   314.2945     8.2257    77.9602     0.0330     0.1908     2.2862
  191.0000   -42.5668     3.5627     3.0769   321.5880     8.2417    77.3722     0.0346     0.1661     2.3021
  191.5000   -42.5590     3.2589     3.1009   323.7386     8.2577    77.0811     0.0332     0.1298     2.3408
  192.0000   -42.4032     3.5173     3.1898   311.5406     8.2737    76.9429     0.0318     0.1156     2.4229
  192.5000   -42.0991     3.7963     3.2814   303.3708     8.2897    77.2573     0.0289     0.1147     2.4398
  193.0000   -41.9433     3.9313     3.4461   298.0074     8.3057    78.4478     0.0261     0.1147     2.4429
  193.5000   -41.6391     4.3617     3.6694   288.1924     8.3069    79.3605     0.0262     0.1165     2.4489
  194.0000   -41.4833     5.2566     4.0443   266.1573     8.3229    79.5236     0.0263     0.1243     2.4467
  194.5000   -41.4758     5.6345     4.3854   237.0609     8.3240    79.5368     0.0249     0.1249     2.4393
  195.0000   -41.3200     5.7948     4.8120   210.0128     8.3097    79.5502     0.0251     0.1263     2.4311
  195.5000   -41.4610     5.8781     5.0536   191.3708     8.2958    79.5637     0.0222     0.1284     2.4258
  196.0000   -41.4535     5.8809     5.2345   177.8875     8.2519    78.9800     0.0208     0.1326     2.4161
  196.5000   -41.4461     5.8838     5.1664   177.1464     8.2382    76.8942     0.0209     0.1389     2.4109
  197.0000   -41.5889     5.8866     5.0982   181.6030     8.2392    76.1578     0.0210     0.1512     2.4048
  197.5000   -41.7298     5.8490     5.0667   183.0339     8.2403    75.7179     0.0212     0.1584     2.3810
  198.0000   -41.8708     5.7710     4.9672   182.9813     8.2415    75.7344     0.0213     0.1707     2.3562
  198.5000   -41.8615     5.6174     4.9706   182.9288     8.2425    76.0474     0.0229     0.1773     2.3480
  199.0000   -42.1508     5.4673     4.8721   188.1450     8.2436    80.5583     0.0275     0.1879     2.3382
  199.5000   -42.4419     5.1764     4.6778   205.3156     8.2446    81.9209     0.0276     0.1919     2.3225
  200.0000   -42.5828     4.9383     4.1945   235.9551     8.2606    82.3838     0.0277     0.1907     2.3123
  200.5000   -42.3173     4.5764     3.8663   253.7078     8.2619    82.3973     0.0414     0.1889     2.3038
  201.0000   -42.0898     4.4241     3.7577   270.2609     8.2632    82.2603     0.0400     0.1714     2.3024
  201.5000   -41.9702     4.0471     3.5091   281.4214     8.2645    80.4776     0.0311     0.1579     2.3235
  202.0000   -41.8159     3.3848     3.3919   282.0974     8.2659    79.2881     0.0297     0.1498     2.3731
  202.5000   -41.8099     3.4575     3.4177   282.7715     8.2672    79.4545     0.0329     0.1389     2.3832
  203.0000   -41.6556     3.8896     3.4911   281.9438     8.2688    80.0674     0.0330     0.1383     2.4078
  203.5000   -41.5013     4.2274     3.6049   281.1192     8.2552    81.2800     0.0346     0.1320     2.3996
  204.0000   -41.4953     4.7556     3.8054   273.5530     8.2565    82.7924     0.0332     0.1304     2.4125
  204.5000   -41.4893     5.0281     4.0827   258.4962     8.2428    83.2554     0.0318     0.1175     2.4253
  205.0000   -41.6320     5.1360     4.4315   223.2147     8.2288    83.5684     0.0289     0.1160     2.4299
  205.5000   -41.6258     5.2825     4.6448   210.4051     8.2152    83.7316     0.0291     0.1172     2.4352
  206.0000   -41.6198     5.4332     4.6795   203.5880     8.2168    81.9881     0.0262     0.1249     2.4427
  206.5000   -41.7637     5.5882     4.6821   200.5162     8.2183    77.9141     0.0233     0.1258     2.4285
  207.0000   -41.7563     5.7476     4.6847   199.6916     8.2197    77.0245     0.0249     0.1264     2.4293
  207.5000   -41.9002     5.9525     4.6550   199.6160     8.2208    76.5879     0.0281     0.1279     2.4285
  208.0000   -41.8927     6.0385     4.6576   200.3084     8.2222    76.3012     0.0297     0.1342     2.4069
  208.5000   -41.8867     5.8775     4.6281   200.2140     8.2237    76.6176     0.0313     0.1365     2.4031
  209.0000   -41.8808     5.6037     4.5989   200.9064     8.2251    75.8811     0.0299     0.1356     2.4100
  209.5000   -41.8748     5.4643     4.5693   203.0781     8.2111    75.5912     0.0300     0.1365     2.3957
  210.0000   -41.8688     5.3064     4.5096   206.7290     8.2128    75.6076     0.0286     0.1470     2.3935
  210.5000   -41.8629     5.1319     4.2113   211.8969     8.2290    75.6208     0.0273     0.1602     2.3893
  211.0000   -41.8569     4.9608     3.9328   220.8101     8.2303    76.2579     0.0274     0.1616     2.3839
  211.5000   -42.0008     4.7624     3.8278   231.2215     8.2316    77.4688     0.0275     0.1655     2.3651
  212.0000   -42.1417     4.6036     3.6494   248.8388     8.2330    78.0625     0.0426     0.1676     2.3486
  212.5000   -42.2841     4.3891     3.5520   258.8047     8.2493    77.1761     0.0367     0.1607     2.3479
  213.0000   -42.2782     4.1847     3.5295   259.4782     8.2656    73.2912     0.0279     0.1624     2.3619
  213.5000   -42.2722     4.1013     3.5310   258.6536     8.2672    72.1017     0.0220     0.1618     2.3646
  214.0000   -42.2662     4.0468     3.5168   260.9239     8.2386    73.0178     0.0221     0.1630     2.3616
  214.5000   -42.2603     4.0496     3.4630   269.0885     8.1800    74.9800     0.0237     0.1831     2.3489
  215.0000   -42.2543     4.0518     3.3940   279.4008     8.1214    75.1431     0.0268     0.1948     2.3287
  215.5000   -42.3982     4.0541     3.1695   286.0668     8.0928    76.8055     0.0301     0.1960     2.3009
  216.0000   -42.3907     4.0008     3.1932   292.7341     8.1091    76.8226     0.0316     0.1950     2.2979
  216.5000   -42.3848     3.8408     3.2166   288.1629     8.1254    76.5320     0.0317     0.1983     2.3025
  217.0000   -42.2304     3.6367     3.0883   297.0761     8.1267    76.6957     0.0303     0.2025     2.3010
  217.5000   -42.2245     3.4435     2.8445   317.9744     8.1130    76.8615     0.0349     0.2043     2.2881
  218.0000   -42.0701     3.2831     2.7496   345.6142     8.0537    77.6243     0.0501     0.1880     2.2823
  218.5000   -42.0642     3.1736     2.7702   369.5087     7.9942    78.0873     0.0547     0.1712     2.3087
  219.0000   -41.9098     3.0890     2.7909   376.1747     7.9523    78.1004     0.0413     0.1381     2.3464
  219.5000   -41.7555     3.0907     2.8509   370.8558     7.9540    75.5649     0.0309     0.1312     2.4058
  220.0000   -41.7507     3.2139     2.9525   349.0574     7.9553    72.5796     0.0265     0.1313     2.4224
