~VERSION INFORMATION
 VERS.                2.0:   CWLS LOG ASCII STANDARD - VERSION 2.0
 WRAP.                 NO:   ONE LINE PER DEPTH STEP
~WELL INFORMATION
#MNEM.UNIT      DATA TYPE    INFORMATION
#----------   ------------   ------------------------------
 STRT.F            0.0000:   START DEPTH
 STOP.F          533.0000:   STOP DEPTH
 STEP.F            0.5000:   STEP LENGTH
 NULL.          -999.2500:   NO VALUE
 COMP. LAWRENCE/ALLISON INC:   COMPANY
 WELL. NAVAL PETROLEUM RESERVE 3 SX-1 #56-66-SX-10:   WELL
 FLD .             TEAPOT:   FIELD
 LOC .      S10 T38N R78W:   LOCATION
 CNTY.            NATRONA:   COUNTY
 STAT.            WYOMING:   STATE
 CTRY. UNITED STATES OF AMERICA:   COUNTRY
 SRVC.           Gearhart:   SERVICE COMPANY
 DATE.        28-JUN-1987:   LOGDATE
 API .       490251114300:   API NUMBER
~CURVE INFORMATION
#MNEM.UNIT       API CODE    CURVE DESCRIPTION
#----------   ------------   ------------------------------
 DEPT.F                  :   
 RLL .OHMM   07 220 00 00:   LATEROLOG RESISTIVITY
 RILM.OHMM   07 120 44 00:   INDUCTION LOG MEDIUM RESISTIVITY
 RILD.OHMM   07 120 46 00:   INDUCTION LOG DEEP RESISTIVITY
 GRR .GAPI   07 310 01 00:   GAMMA RAY FROM RES. LOG.
 SPR .MV     07 010 01 00:   SPONTANEOUS POTENTIAL
~PARAMETER INFORMATION
#MNEM.UNIT          VALUE    DESCRIPTION
#----------   ------------   ------------------------------
 PD  .                 GL:   PERMANENT DATUM
 EPD .F              5198:   ELEVATION PERMANENT DATUM
 LMF .                 KB:   LOG MEASURED FROM
 DAPD.F                 8:   FEET ABOVE PERMANENT DATUM
 DMF .                 KB:   DRILLING MEASURED FROM
 EKB .F              5206:   KELLING BUSHING
 EDF .F              5204:   DRILLING FLOOR
 EGL .F              5198:   GROUND LEVEL
 DATE.            6-28-87:   RUN DATE
 RUN .                  1:   RUN NUMBER
 DD  .F               535:   DEPTH DRILLER
 DL  .F               536:   DEPTH LOGGER
 BLI .F               533:   BOTTOM LOG INTERVAL
 BS  .IN             7.87:   BIT SIZE
 BSD .F               535:   BIT SIZE AT DEPTH
 DFT .                MUD:   DRILLING FLUID TYPE
 RMS .OHMM            .84:   RESISTIVITY MUD SAMPLE
 MST .F                57:   MUD SAMPLE TEMPERATURE
 RMF .OHMM            .63:   RESISTIVITY MUD FILTRATE SAMPLE
 MFST.F                57:   MUD FILTRATE SAMPLE TEMPERATURE
 RMC .OHMM           1.05:   RESISTIVITY MUD CAKE
 MCST.F                57:   MUD CAKE SAMPLE TEMPERATURE
 MFSS.               CALC:   MUD FILTRATE SAMPLE SOURCE
 MCSS.               CALC:   MUD CAKE SAMPLE SOURCE
 RMB .OHMM            .59:   RESISTIVITY MUD AT BHT
 BHT .F                80:   BOTTOM HOLE TEMPERATURE
 TCS .HRS            1200:   TIME CURCULATED STOPPED
 TLAB.HRS            1322:   TIME LOGGER AT BOTTOM
 MRT .F                80:   MAXIMUM RECORDED TEMPERATURE
 LUN .               7650:   LOGGING UNIT NUMBER
 LUL .           GILLETTE:   LOGGING UNIT LOCATION
 ENGI. JOHNSTON/HUCKFELDT:   RECORDING ENGINEER
 WITN.             STRONG:   WITNESSED BY
 CLNT.            A2DTECH:   CLIENT CODE
 ORIG.       2", 5" PRINT:   ORIGIN OF DATA
 UWI .       490251114300:   UNIQUE WELL ID
 DICO. A2D Technologies, Inc.:   DIGITIZING COMPANY
~OTHER INFORMATION
~A    DEPT     RLL         RILM       RILD       GRR       SPR   
# ...
   61.0000     5.9454     5.2387     6.1571    59.5241   -41.0530
   61.5000     5.8527     5.0927     6.0011    58.9063   -40.5677
   62.0000     5.7267     5.0261     5.9162    58.2808   -40.6007
   62.5000     5.6217     5.0693     5.8765    58.0913   -40.8064
   63.0000     5.6054     5.1406     5.8370    58.2554   -41.4898
   63.5000     5.5884     5.2675     5.7979    58.4367   -42.6404
   64.0000     5.5715     5.3974     5.7590    63.5623   -43.7809
   64.5000     5.5545     5.5306     5.7276    72.1648   -44.8044
   65.0000     5.5374     5.6671     5.8547    80.7293   -45.8969
   65.5000     5.5177     5.8069     6.0193    87.0522   -46.9787
   66.0000     5.6512     5.9500     6.1885    89.4991   -48.5504
   66.5000     5.8202     6.0965     6.3624    92.0016   -50.1230
   67.0000     5.9941     6.2467     6.5413    94.6981   -51.3200
   67.5000     6.1733     6.4005     6.7251    97.4868   -52.0159
   68.0000     6.3467     6.5580     6.9028   100.2542   -52.7182
   68.5000     6.4371     6.7197     6.9360    99.8186   -53.4176
   69.0000     6.4840     6.8393     6.9675    98.1796   -54.0593
   69.5000     6.5269     6.8388     6.9991    96.9771   -54.0256
   70.0000     6.5269     6.8387     7.0309    99.0730   -53.9886
   70.5000     6.5270     6.8387     7.0628   101.3614   -53.9544
   71.0000     6.5270     6.8387     7.0949   103.6385   -53.9201
   71.5000     6.4827     6.8386     7.1272   105.1347   -53.8859
   72.0000     6.4062     6.8385     7.1595   102.8414   -53.8515
   72.5000     6.4868     6.8391     7.1920    99.9953   -53.8386
   73.0000     6.5969     6.8643     7.2325    98.7595   -53.8383
   73.5000     6.7132     6.8913     7.2168   100.3705   -53.8384
   74.0000     6.7056     6.9183     7.1962   102.1079   -53.8384
   74.5000     6.6959     6.9456     7.1757   102.9335   -53.8386
   75.0000     6.6865     6.9675     7.1552   102.9516   -53.8368
   75.5000     6.6772     6.9535     7.1347   102.8318   -53.8064
   76.0000     6.6680     6.9396     7.1144   102.7043   -53.7769
   76.5000     6.6587     6.9257     7.0985   102.6868   -53.7475
   77.0000     6.6499     6.9118     7.0988   106.0017   -53.7182
   77.5000     6.5574     6.8980     7.0987   109.5946   -53.6884
   78.0000     6.4697     6.8842     7.0987   113.0679   -53.6574
   78.5000     6.4062     6.8704     7.0994   111.7504   -53.6460
   79.0000     6.4574     6.8565     7.0967   109.3948   -53.9539
   79.5000     6.4981     6.8390     7.2195   107.0513   -54.2708
   80.0000     6.5560     6.8691     7.3030   105.6141   -54.4437
   80.5000     6.6551     6.9143     7.3872   104.3514   -54.3994
   81.0000     6.7556     6.9594     7.4724   103.1055   -54.3566
   81.5000     6.8577     7.0049     7.5586   101.7806   -54.3136
   82.0000     6.9675     7.0508     7.6457   102.2719   -54.2709
   82.5000     6.9467     7.0985     7.7207   104.1283   -54.2281
   83.0000     6.9176     7.0702     7.7097   106.1829   -54.1853
   83.5000     6.8890     7.0398     7.7002   107.8507   -54.1431
   84.0000     6.8605     7.0096     7.6906   106.4680   -54.1004
   84.5000     6.8322     6.9796     7.6811   104.6830   -54.0528
   85.0000     6.8040     6.9498     7.6715   102.8696   -53.7852
   85.5000     6.7760     6.9201     7.6623   102.2279   -53.1527
   86.0000     6.7480     6.8920     7.6522   103.7085   -52.5252
   86.5000     6.7202     6.8660     7.5841   106.1961   -51.8936
   87.0000     6.6925     6.8402     7.4796   107.4613   -52.0504
   87.5000     6.6649     6.8145     7.3771   105.7071   -52.3891
   88.0000     6.6167     6.7888     7.2761   102.0984   -52.7466
   88.5000     6.5443     6.7394     7.1764    99.0510   -52.8263
   89.0000     6.4728     6.6649     7.0781   100.3254   -52.7230
   89.5000     6.4019     6.5904     6.9812   101.5419   -52.6064
   90.0000     6.3317     6.5162     6.8855   102.7429   -52.4987
   90.5000     6.2633     6.4451     6.8130   103.9427   -52.5831
   91.0000     6.2119     6.3739     6.7625   105.1447   -52.9038
   91.5000     6.1595     6.3043     6.7124   106.3562   -53.1784
   92.0000     6.1069     6.2354     6.6499   107.5236   -53.4543
   92.5000     6.0548     6.1672     6.7114   105.5062   -53.7315
   93.0000     6.0011     6.0998     6.7950   103.1484   -54.0077
   93.5000     6.0011     6.0574     6.8803   101.0307   -54.0456
   94.0000     6.0842     6.2481     6.9664   102.1851   -53.8967
   94.5000     6.2370     6.3914     7.0670   104.4416   -53.7341
   95.0000     6.3937     6.5383     7.1962   104.0637   -53.5735
   95.5000     6.5542     6.6887     7.3278   103.6881   -53.4230
   96.0000     6.6540     6.8385     7.4619   105.6151   -53.0432
   96.5000     6.6730     6.8700     7.5984   107.1581   -52.6314
   97.0000     6.6921     6.9001     7.6550   104.3258   -52.2215
   97.5000     6.7113     6.9305     7.6645   101.4922   -51.8530
   98.0000     6.7306     6.9612     7.6740   100.6630   -50.8926
   98.5000     6.7501     6.9921     7.6835   101.4810   -49.7724
   99.0000     6.7745     7.0328     7.6930    99.2652   -48.6465
   99.5000     6.7074     7.0195     7.7026    96.8989   -47.5226
  100.0000     6.6094     7.0001     7.7121    97.1258   -46.3933
  100.5000     6.5129     6.9808     7.7203    99.4353   -45.2151
  101.0000     6.4663     6.9615     7.6938   101.1234   -45.3446
  101.5000     6.5010     6.9422     7.6699   101.8111   -46.0089
  102.0000     6.5393     6.9229     7.6490   102.5352   -46.6708
  102.5000     6.5777     6.9028     7.7751   103.2387   -47.3283
  103.0000     6.7166     7.0514     7.8884   102.6348   -47.9866
  103.5000     6.8938     7.2129     8.0034    99.0194   -48.6417
  104.0000     7.0756     7.3780     8.1202    95.4658   -49.2119
  104.5000     7.2623     7.5470     8.2418    94.5570   -49.4370
  105.0000     7.4538     7.7197     8.4862    93.7782   -49.6969
  105.5000     7.6504     7.9266     8.7450    92.9871   -50.0604
  106.0000     7.8522     8.1607     9.0118    92.5899   -50.7698
  106.5000     8.0594     8.4018     9.2867    93.4951   -51.4675
  107.0000     8.2719     8.6500     9.5699    94.2526   -52.0341
  107.5000     8.4901     8.9222     9.8612    94.4083   -52.0219
  108.0000     8.7141     9.2270    10.1656    94.1278   -52.0204
  108.5000     9.0291     9.5423    10.4117    94.4477   -52.0202
  109.0000     9.3818     9.8683    10.7313    94.8217   -52.0202
  109.5000     9.7484    10.2054    11.0607    95.2635   -52.0202
  110.0000    10.1292    10.5541    11.4002    92.3378   -52.0202
  110.5000    10.5239    10.9152    11.7502    87.8617   -52.0202
  111.0000    11.0141    11.2888    12.0833    83.4022   -52.0202
  111.5000    11.0026    11.6406    12.0523    81.8142   -52.0216
  112.0000    10.7723    11.5351    12.0218    83.1049   -52.0291
  112.5000    10.4398    11.4387    11.9918    83.2972   -51.7192
  113.0000    10.1176    11.3430    11.9225    82.7197   -51.3787
  113.5000    10.0147    11.2481    11.7629    82.1664   -51.2304
  114.0000     9.9160    11.1541    11.6059    82.9780   -51.2788
  114.5000     9.8183    11.0526    11.4509    87.6782   -51.3296
  115.0000     9.7216    10.9448    11.2981    92.2787   -51.3808
  115.5000     9.5992    10.8381    11.1473    92.8227   -51.4317
  116.0000     9.4287    10.7324    11.0067    92.0778   -51.4827
  116.5000     9.2613    10.6278    11.0367    93.2629   -51.5343
  117.0000     9.0968    10.5095    11.0906    95.2830   -51.5844
  117.5000     8.9639    10.3461    11.1447    96.6536   -51.5708
  118.0000     9.0480    10.2129    11.1991    94.2361   -51.2865
  118.5000     9.2176    10.3104    11.2537    92.9417   -51.0072
  119.0000     9.4369    10.4319    11.3195    92.9238   -51.4453
  119.5000     9.6615    10.5556    11.2962    92.9462   -52.0001
  120.0000     9.8913    10.6809    11.2583    92.5527   -52.5886
  120.5000    10.1345    10.8045    11.2205    90.1697   -52.5595
  121.0000    10.3944    10.8032    11.1269    86.5310   -52.4678
  121.5000    10.6610    10.7185    11.0228    82.8967   -52.3786
