~VERSION INFORMATION
 VERS.                2.0:   CWLS LOG ASCII STANDARD - VERSION 2.0
 WRAP.                 NO:   ONE LINE PER DEPTH STEP
~WELL INFORMATION
#MNEM.UNIT      DATA TYPE    INFORMATION
#----------   ------------   ------------------------------
 STRT.F            0.0000:   START DEPTH
 STOP.F          962.0000:   STOP DEPTH
 STEP.F            0.5000:   STEP LENGTH
 NULL.          -999.2500:   NO VALUE
 COMP. FENIX & SCISSON INC:   COMPANY
 WELL.      NPR #3 #51-14:   WELL
 FLD .             TEAPOT:   FIELD
 LOC .      S14 T38N R78W:   LOCATION
 CNTY.            NATRONA:   COUNTY
 STAT.            WYOMING:   STATE
 CTRY. UNITED STATES OF AMERICA:   COUNTRY
 SRVC.              Welex:   SERVICE COMPANY
 DATE.        03-MAR-1977:   LOGDATE
 API .       490251029700:   API NUMBER
~CURVE INFORMATION
#MNEM.UNIT       API CODE    CURVE DESCRIPTION
#----------   ------------   ------------------------------
 DEPT.F                  :   
 SGRD.OHMM   07 220 05 00:   SHALLOW RESISTIVITY
 ILM .OHMM   07 120 44 00:   INDUCTION LOG MEDIUM
 ILD .OHMM   07 120 46 00:   INDUCTION LOG DEEP
 SPR .MV     07 010 01 00:   SPONTANEOUS POTENTIAL
 DPHI.DEC    45 890 12 00:   DENSITY POROSITY SANDSTONE
 RHOB.G/C3   45 350 01 00:   BULK DENSITY
 CORR.G/C3   45 356 01 00:   DENSITY CORRECTION
 CALD.IN     45 280 60 00:   CALIPER
 GRD .GAPI   45 310 01 00:   GAMMA RAY FROM DENSITY LOG
~PARAMETER INFORMATION
#MNEM.UNIT          VALUE    DESCRIPTION
#----------   ------------   ------------------------------
 PD  .                 GL:   PERMANENT DATUM
 EPD .F            5221.8:   ELEVATION PERMANENT DATUM
 LMF .                 GL:   LOG MEASURED FROM
 DMF .                 GL:   DRILLING MEASURED FROM
 EGL .F            5221.8:   GROUND LEVEL
 DATE.             3-3-77:   RUN DATE
 RUN .                  1:   RUN NUMBER
 DD  .F               967:   DEPTH DRILLER
 DL  .F               964:   DEPTH LOGGER
 BLI .F               962:   BOTTOM LOG INTERVAL
 TLI .F                42:   TOP LOG INTERVAL
 CS  .IN            8.625:   CASING SIZE
 CBD .F                42:   CASING BOTTOM DRILLER
 CBL .F                42:   CASING BOTTOM LOGGER
 BS  .IN            7.875:   BIT SIZE
 BSD .F               967:   BIT SIZE AT DEPTH
 DFT .           CHEM-GEL:   DRILLING FLUID TYPE
 DFD .                8.7:   DRILLING FLUID DENSITY
 DFV .                 33:   DRILLING FLUID VISCOSITY
 DFPH.                7.2:   DRILLING FLUID PH
 DFL .                 10:   DRILLING FLUID LOSS
 MSS .          FLOW LINE:   MUD SAMPLE SOURCE
 RMS .OHMM           .422:   RESISTIVITY MUD SAMPLE
 MST .F                56:   MUD SAMPLE TEMPERATURE
 RMF .OHMM           .372:   RESISTIVITY MUD FILTRATE SAMPLE
 MFST.F                56:   MUD FILTRATE SAMPLE TEMPERATURE
 RMC .OHMM           .484:   RESISTIVITY MUD CAKE
 MCST.F                56:   MUD CAKE SAMPLE TEMPERATURE
 MFSS.           MEASURED:   MUD FILTRATE SAMPLE SOURCE
 MCSS.           MEASURED:   MUD CAKE SAMPLE SOURCE
 RMB .OHMM           .284:   RESISTIVITY MUD AT BHT
 BHT .F                83:   BOTTOM HOLE TEMPERATURE
 TCS .HRS               2:   TIME CURCULATED STOPPED
 MRT .F                83:   MAXIMUM RECORDED TEMPERATURE
 LUN .               8611:   LOGGING UNIT NUMBER
 LUL .           GILLETTE:   LOGGING UNIT LOCATION
 ENGI.          D. LAWSON:   RECORDING ENGINEER
 WITN.         STUEBINGER:   WITNESSED BY
 CLNT.            A2DTECH:   CLIENT CODE
 ORIG.        2" 5" PRINT:   ORIGIN OF DATA
 UWI .       490251029700:   UNIQUE WELL ID
 DICO. A2D Technologies, Inc.:   DIGITIZING COMPANY
~OTHER INFORMATION
~A    DEPT    SGRD        ILM        ILD        SPR       DPHI       RHOB       CORR       CALD        GRD   
# ...
  219.0000     7.5863     5.9600     4.5449   -40.9830     0.0988     2.4859     0.0661     8.2241   120.2922
  219.5000     7.6258     6.0062     4.5497   -41.0228     0.0955     2.4906     0.0666     8.2310   120.0683
  220.0000     7.4086     5.8001     4.5543   -41.0625     0.0960     2.4883     0.0671     8.2380   116.6518
  220.5000     7.2220     5.6489     4.5600   -41.1023     0.1009     2.4847     0.0676     8.2449   114.0096
  221.0000     7.0857     5.5016     4.4728   -41.1557     0.1058     2.4740     0.0667     8.2518   113.1222
  221.5000     7.2143     5.3583     4.3699   -41.2781     0.1108     2.4632     0.0647     8.2587   113.7133
  222.0000     7.2836     5.1855     4.2693   -41.4005     0.1160     2.4543     0.0627     8.2656   114.7809
  222.5000     6.8770     5.1944     4.1711   -41.5284     0.1142     2.4596     0.0608     8.2726   115.5168
  223.0000     6.7059     5.2063     4.0752   -41.7039     0.1171     2.4571     0.0588     8.2795   115.5089
  223.5000     6.7789     5.2182     3.9817   -41.8881     0.1227     2.4488     0.0568     8.2864   115.7617
  224.0000     6.8309     5.2337     3.8898   -42.2722     0.1281     2.4393     0.0549     8.2933   116.4905
  224.5000     6.8834     5.1430     3.7268   -42.7036     0.1336     2.4249     0.0539     8.3060   117.1794
  225.0000     6.9567     5.0240     3.5446   -43.1357     0.1409     2.4106     0.0544     8.3227   120.1017
  225.5000     6.6699     4.6689     3.3713   -43.5674     0.1511     2.3962     0.0550     8.3395   124.4253
  226.0000     6.0057     4.2919     3.2065   -43.9992     0.1612     2.3820     0.0556     8.3562   128.8220
  226.5000     4.9053     3.9449     3.0498   -44.4320     0.1670     2.3754     0.0564     8.3729   130.4394
  227.0000     4.0064     3.6260     2.9005   -44.8647     0.1581     2.3881     0.0572     8.3900   128.7541
  227.5000     3.8299     3.5366     2.7584   -44.9232     0.1522     2.3982     0.0558     8.3839   126.7473
  228.0000     4.6444     3.5085     2.5808   -44.9182     0.1477     2.4046     0.0515     8.3662   124.7301
  228.5000     4.2649     3.4807     2.6330   -44.6771     0.1412     2.4115     0.0478     8.3483   122.7254
  229.0000     3.8615     3.4619     2.7169   -44.4210     0.1326     2.4279     0.0495     8.3303   121.0013
  229.5000     3.6246     3.7780     2.8018   -43.8752     0.1239     2.4438     0.0512     8.3124   121.2516
  230.0000     6.0622     4.0815     2.9346   -43.1624     0.1221     2.4494     0.0529     8.2960   122.4257
  230.5000     7.0276     4.3866     3.1413   -42.9319     0.1233     2.4442     0.0547     8.2899   123.3167
  231.0000     7.0857     4.7005     3.3629   -42.7253     0.1195     2.4472     0.0564     8.2841   121.7022
  231.5000     6.8386     5.0368     3.6002   -42.5148     0.1137     2.4576     0.0581     8.2784   119.2173
  232.0000     6.7643     5.3972     3.8542   -42.3037     0.1078     2.4681     0.0599     8.2726   114.8212
  232.5000     7.1228     5.7834     4.1261   -42.0927     0.1041     2.4785     0.0616     8.2669   110.4243
  233.0000     7.7551     6.0330     4.4172   -41.8817     0.1043     2.4790     0.0607     8.2611   109.2735
  233.5000     8.0578     6.1382     4.7289   -41.6707     0.1029     2.4785     0.0595     8.2553   109.6333
  234.0000     7.9272     6.2420     4.9180   -41.4595     0.1023     2.4778     0.0584     8.2496   110.0985
  234.5000     7.7672     6.3325     5.0591   -41.2490     0.1050     2.4770     0.0573     8.2438   108.4951
  235.0000     7.9363     6.4460     5.2044   -41.0377     0.1054     2.4763     0.0562     8.2381   107.0579
  235.5000     8.2197     6.5629     5.3534   -40.9675     0.1051     2.4755     0.0551     8.2323   108.7440
  236.0000     8.5927     6.6817     5.4488   -41.0217     0.1048     2.4742     0.0540     8.2265   110.5642
  236.5000     8.5325     6.8027     5.5121   -41.0784     0.1085     2.4704     0.0529     8.2208   112.3604
  237.0000     8.4363     6.9259     5.5760   -41.1351     0.1120     2.4667     0.0518     8.2150   114.3982
  237.5000     8.6587     7.0509     5.6409   -41.1916     0.1136     2.4629     0.0538     8.2092   116.4342
  238.0000     8.9394     7.2188     5.7062   -41.2481     0.1125     2.4621     0.0563     8.2035   118.1102
  238.5000     9.0794     7.2167     5.7895   -41.3046     0.1114     2.4651     0.0589     8.1977   114.7815
  239.0000     8.5210     7.2195     5.6510   -41.3611     0.1104     2.4633     0.0614     8.1920   111.9278
  239.5000     7.7690     7.0151     5.4701   -41.4174     0.1116     2.4596     0.0620     8.1862   111.5031
  240.0000     7.8423     6.6874     5.2950   -41.4729     0.1128     2.4584     0.0624     8.1804   111.2502
  240.5000     8.0611     6.3750     5.1255   -41.5357     0.1128     2.4651     0.0629     8.1747   111.7426
  241.0000     7.8488     6.1770     4.9528   -41.8255     0.1128     2.4715     0.0633     8.1689   113.1887
  241.5000     7.3141     6.0751     4.7282   -42.1372     0.1133     2.4756     0.0636     8.1631   114.8916
  242.0000     7.1118     5.9750     4.5019   -42.4464     0.1173     2.4634     0.0619     8.1573   116.5867
  242.5000     6.9151     5.8772     4.2865   -42.7458     0.1212     2.4512     0.0599     8.1583   118.2819
  243.0000     6.7239     5.7525     4.0814   -43.1203     0.1252     2.4391     0.0580     8.1597   119.9833
  243.5000     6.5379     5.4185     3.8860   -43.4809     0.1327     2.4270     0.0560     8.1612   121.6731
  244.0000     6.3571     5.0089     3.6999   -43.8402     0.1430     2.4148     0.0540     8.1625   122.8307
  244.5000     6.0616     4.5644     3.5230   -44.2016     0.1494     2.4028     0.0520     8.1639   121.1604
  245.0000     4.7949     4.1600     3.3989   -44.5081     0.1489     2.4017     0.0518     8.1653   118.4254
  245.5000     3.7602     4.0021     3.3989   -44.2552     0.1331     2.4224     0.0557     8.1667   115.0102
  246.0000     4.8360     4.4531     3.3989   -44.0052     0.1172     2.4458     0.0598     8.1681   112.0679
  246.5000     6.7248     4.8047     3.4805   -43.7583     0.1094     2.4657     0.0637     8.1695   111.2183
  247.0000     6.7207     5.1108     3.6129   -43.5117     0.1064     2.4720     0.0656     8.1709   110.7934
  247.5000     6.7917     5.1945     3.7503   -43.2650     0.1056     2.4764     0.0674     8.1723   110.9945
  248.0000     6.8364     5.2795     3.8929   -43.0181     0.1072     2.4684     0.0693     8.1737   112.7224
  248.5000     6.8827     5.3659     4.0410   -42.7698     0.1015     2.4785     0.0711     8.1751   115.0926
  249.0000     6.9298     5.4537     4.1948   -42.5373     0.1004     2.4838     0.0709     8.1766   117.1549
  249.5000     6.9772     5.5430     4.3550   -42.5863     0.1038     2.4759     0.0698     8.1824   115.4512
  250.0000     7.0250     5.6337     4.6011   -42.6455     0.1060     2.4738     0.0686     8.1938   115.2395
  250.5000     7.0731     5.7259     4.5537   -42.7024     0.1059     2.4725     0.0674     8.2051   115.9505
  251.0000     7.1215     5.8196     4.4618   -42.9036     0.1057     2.4718     0.0662     8.2164   115.7743
  251.5000     7.1511     5.9513     4.3718   -43.2197     0.1049     2.4760     0.0675     8.2278   114.7761
  252.0000     6.9770     5.8573     4.2351   -43.5367     0.1026     2.4844     0.0709     8.2391   113.0102
  252.5000     6.8165     5.7091     4.0921   -43.8538     0.1034     2.4924     0.0743     8.2504   110.5724
  253.0000     6.7871     5.5648     3.9539   -44.1707     0.1095     2.4825     0.0754     8.2618   108.7950
  253.5000     6.7582     5.4240     3.8012   -44.4880     0.1155     2.4702     0.0749     8.2731   107.3562
  254.0000     6.7157     5.2869     3.6191   -44.8073     0.1216     2.4577     0.0744     8.2844   107.6331
  254.5000     6.7181     4.9604     3.4457   -45.1082     0.1277     2.4409     0.0740     8.2958   107.8805
  255.0000     6.1739     4.5382     3.2805   -45.0088     0.1476     2.4049     0.0691     8.3071   108.1291
