~VERSION INFORMATION
 VERS.                2.0:   CWLS LOG ASCII STANDARD - VERSION 2.0
 WRAP.                 NO:   ONE LINE PER DEPTH STEP
~WELL INFORMATION
#MNEM.UNIT      DATA TYPE    INFORMATION
#----------   ------------   ------------------------------
 STRT.F            0.0000:   START DEPTH
 STOP.F          717.5000:   STOP DEPTH
 STEP.F            0.5000:   STEP LENGTH
 NULL.          -999.2500:   NO VALUE
 COMP. LAWRENCE/ALLISON INC:   COMPANY
 WELL. NPR 3 #27-64-SX-11-WP:   WELL
 FLD .             TEAPOT:   FIELD
 LOC .      S11 T38N R78W:   LOCATION
 CNTY.            NATRONA:   COUNTY
 STAT.            WYOMING:   STATE
 CTRY. UNITED STATES OF AMERICA:   COUNTRY
 SRVC.      Dresser Atlas:   SERVICE COMPANY
 DATE.        15-SEP-1984:   LOGDATE
 API .       490251097500:   API NUMBER
~CURVE INFORMATION
#MNEM.UNIT       API CODE    CURVE DESCRIPTION
#----------   ------------   ------------------------------
 DEPT.F                  :   
 CALD.IN     45 280 60 00:   CALIPER FROM DENSITY LOG
 CNC .DEC    42 890 03 00:   COMPENSATED NEUTRON POROSITY SANDSTONE
 CORR.G/C3   45 356 01 00:   DENSITY CORRECTION
 DEN .G/C3   45 350 01 00:   BULK DENSTIY
 PORD.DEC    45 890 12 00:   POROSITY DENSITY SANDSTONE
 GRR .GAPI   07 310 01 00:   GAMMA RAY FROM RESISTIVITY
 RFOC.OHMM   07 220 01 00:   RESISTIVITY FOCUSED LOG
 RILD.OHMM   07 120 46 00:   RESISTIVITY INDUCTION LOG DEEP
 RILM.OHMM   07 120 44 00:   RESITIVITY INDUCTION LOG MEDIUM
 SPR .MV     07 010 01 00:   SPONTANEOUS POTENTIAL FROM RES.
~PARAMETER INFORMATION
#MNEM.UNIT          VALUE    DESCRIPTION
#----------   ------------   ------------------------------
 PD  .                 GL:   PERMANENT DATUM
 EPD .F              5198:   ELEVATION PERMANENT DATUM
 LMF .                 GL:   LOG MEASURED FROM
 DMF .                 GL:   DRILLING MEASURED FROM
 EGL .F              5198:   GROUND LEVEL
 DATE.        15-SEP-1984:   RUN DATE
 RUN .                  1:   RUN NUMBER
 DD  .F               736:   DEPTH DRILLER
 DL  .F               722:   DEPTH LOGGER
 BLI .F               704:   BOTTOM LOG INTERVAL
 TLI .F                42:   TOP LOG INTERVAL
 CS  .IN            8.625:   CASING SIZE
 CBD .F                42:   CASING BOTTOM DRILLER
 CBL .F                42:   CASING BOTTOM LOGGER
 BS  .IN            7.875:   BIT SIZE
 BSD .F               736:   BIT SIZE AT DEPTH
 DFT .          KCL WATER:   DRILLING FLUID TYPE
 MSS .           FLOWLINE:   MUD SAMPLE SOURCE
 RMS .OHMM           0.22:   RESISTIVITY MUD SAMPLE
 MST .F                70:   MUD SAMPLE TEMPERATURE
 RMB .OHMM           0.17:   RESISTIVITY MUD AT BHT
 BHT .F                90:   BOTTOM HOLE TEMPERATURE
 TCS .HRS               5:   TIME CURCULATED STOPPED
 MRT .F                90:   MAXIMUM RECORDED TEMPERATURE
 LUN .               6274:   LOGGING UNIT NUMBER
 LUL .               GLTE:   LOGGING UNIT LOCATION
 ENGI.             RAUTIO:   RECORDING ENGINEER
 WITN.            JOHNSON:   WITNESSED BY
 CLNT.            A2DTECH:   CLIENT CODE
 ORIG.         2.5" PRINT:   ORIGIN OF DATA
 UWI .       490251097500:   UNIQUE WELL ID
 DICO. A2D Technologies, Inc.:   DIGITIZING COMPANY
~OTHER INFORMATION
~A    DEPT    CALD        CNC       CORR        DEN       PORD         GRR      RFOC       RILD       RILM        SPR   
# ...
  469.0000     8.1310     0.3075     0.0111     2.4555     0.1382    91.8087     8.8498     7.8120     7.6325   -10.1403
  469.5000     8.1291     0.3008     0.0169     2.4614     0.1347    89.0108     8.8437     7.8060     7.6404   -10.1631
  470.0000     8.1272     0.2872     0.0227     2.4657     0.1312    87.1570     8.8368     7.7994     7.7269    -9.8817
  470.5000     8.1253     0.2813     0.0226     2.4716     0.1252    87.4506     8.8316     7.7942     7.6137    -9.8994
  471.0000     8.1234     0.2790     0.0255     2.4789     0.1205    91.4852     8.7052     7.6824     7.6080    -9.6213
  471.5000     8.1215     0.2784     0.0152     2.4803     0.1194    94.1601     8.8187     7.6759     7.7066    -9.6398
  472.0000     8.1195     0.2804     0.0044     2.4787     0.1207    92.8600     8.9418     7.6708     7.6998    -9.6568
  472.5000     8.1176     0.2815     0.0013     2.4786     0.1187    91.7308     9.0535     7.6650     7.6939    -9.6778
  473.0000     8.1157     0.2788     0.0012     2.4821     0.1143    93.4709     9.0456     7.6586     7.6876    -9.6930
  473.5000     8.1138     0.2768     0.0041     2.4863     0.1143    95.2182     9.0401     7.6535     7.6808    -9.7101
  474.0000     8.1115     0.2845     0.0055     2.4872     0.1196    95.1834     9.0339     7.6477     7.6750    -9.7310
  474.5000     8.1096     0.2898     0.0098     2.4799     0.1209    93.3734     8.7825     7.6413     7.6687    -9.7462
  475.0000     8.1078     0.2911     0.0096     2.4774     0.1210    92.1621     8.5298     7.7418     7.6619    -9.7633
  475.5000     8.1059     0.2770     0.0095     2.4765     0.1186    92.7189     8.2548     7.7357     7.6561    -9.7842
  476.0000     8.1040     0.2622     0.0094     2.4779     0.1180    93.8676     8.0716     7.7293     7.6498    -9.7994
  476.5000     8.1022     0.2658     0.0004     2.4778     0.1186    93.9418     8.0887     7.7241     7.6431    -9.8166
  477.0000     8.1003     0.2759    -0.0057     2.4774     0.1156    94.0927     8.7923     7.7182     7.7431    -9.5385
  477.5000     8.0984     0.2845    -0.0058     2.4806     0.1133    92.5867     9.4974     7.7119     7.6309    -9.5568
  478.0000     8.0964     0.2892    -0.0059     2.4879     0.1110    89.9684     9.9060     7.7066     7.6243    -9.5740
  478.5000     8.0945     0.2908    -0.0056     2.4863     0.1132    89.5927    10.3006     7.7008     7.5147    -9.8907
  479.0000     8.0926     0.2691    -0.0020     2.4830     0.1197    91.3077    10.4344     7.4864     7.4547    -9.9059
  479.5000     8.0907     0.2552     0.0094     2.4741     0.1221    90.5671    10.4090     7.0576     7.1018    -9.9231
  480.0000     8.0888     0.2488     0.0144     2.4694     0.1221    88.2775    10.0734     6.6148     6.5729   -10.2397
  480.5000     8.0868     0.2418     0.0143     2.4682     0.1189    87.6580     8.7107     6.1654     5.9323   -10.2549
  481.0000     8.1006     0.2395     0.0114     2.4745     0.1148    88.3412     7.1869     5.9014     5.6893   -10.5680
  481.5000     8.1126     0.2425     0.0049     2.4840     0.1119    89.3698     6.2165     5.7110     5.5915   -10.5888
  482.0000     8.1402     0.2473    -0.0069     2.4879     0.1113    89.3356     6.1678     5.6659     5.5257   -10.6040
  482.5000     8.1381     0.2516    -0.0189     2.4877     0.1144    87.0169     7.5539     5.6743     5.5218    -9.9482
  483.0000     8.1362     0.2551    -0.0279     2.4855     0.1162    79.7985     8.6226     5.8951     5.6279    -9.1627
  483.5000     8.1343     0.2635    -0.0280     2.4839     0.1169    77.9955     9.4196     6.3953     6.1509    -8.2904
  484.0000     8.1325     0.2781    -0.0222     2.4779     0.1189    81.0019     9.7223     6.8771     6.4930    -7.7138
  484.5000     8.1306     0.2929     0.0074     2.4644     0.1237    86.2099     9.9381     7.4813     7.0498    -7.1449
  485.0000     8.1287     0.2974     0.0370     2.4524     0.1295    86.7738    10.0681     8.0551     7.6334    -6.8643
  485.5000     8.1268     0.2952     0.0458     2.4464     0.1339    86.6026    10.2013     8.5251     8.2169    -6.5836
  486.0000     8.1249     0.2680     0.0296     2.4466     0.1377    86.1124    10.1937     8.9176     8.8004    -6.0118
  486.5000     8.1229     0.2458     0.0111     2.4650     0.1369    86.6775    10.1863     9.2175     9.1092    -5.7341
  487.0000     8.1210     0.2405    -0.0051     2.4801     0.1200    87.2401    10.0131     9.2109     9.2274    -5.2840
  487.5000     8.1191     0.2382     0.0017     2.4943     0.1130    88.3818     9.8959     9.2026     9.0169    -4.8817
  488.0000     8.1467     0.2358     0.0089     2.5003     0.1053    88.3539     9.7553     9.1967     8.9618    -4.3080
  488.5000     8.1448     0.2365     0.0152     2.5069     0.0994    89.0661     9.5874     9.1901     8.8336    -3.9423
  489.0000     8.1260     0.2426     0.0182     2.5139     0.0941    89.4734     9.4772     9.1819     8.9492    -3.1626
  489.5000     8.1111     0.2467     0.0240     2.5222     0.0924    89.4399     9.4717     9.1760     8.9398    -3.1778
  490.0000     8.1092     0.2480     0.0239     2.5248     0.0927    89.2505     9.5969     9.2966     9.1817    -2.5148
  490.5000     8.1073     0.2505     0.0119     2.5107     0.1000    88.7785     9.8554     9.4171     9.4303    -2.0296
  491.0000     8.1055     0.2571     0.0207     2.5017     0.1044    88.1589     9.9857     9.6712     9.6821    -1.4558
  491.5000     8.1052     0.2616     0.0265     2.5046     0.1081    86.9438    10.1518    10.2793     9.9442    -0.8793
  492.0000     8.1067     0.2568     0.0353     2.5164     0.1052    86.3141    10.5338    11.0740    10.4338    -0.6063
  492.5000     8.1083     0.2551     0.0352     2.5193     0.0986    85.1029    10.9702    11.3744    11.2299     0.3545
  493.0000     8.1098     0.2593     0.0351     2.5192     0.0965    82.6174    11.8717    12.2614    11.6930     1.9651
  493.5000     8.1113     0.2617     0.0342     2.5188     0.0998    74.0127    13.6445    13.3862    12.5542     3.5757
  494.0000     8.1129     0.2339     0.0182     2.5121     0.1046    64.0711    15.2193    14.1315    13.4330     5.1864
  494.5000     8.1144     0.2214     0.0042     2.5004     0.1076    55.2121    16.6426    14.7703    14.3118     6.4081
  495.0000     8.1159     0.2160     0.0128     2.4922     0.1118    54.1665    17.1437    15.5294    15.3284     7.3718
  495.5000     8.1175     0.2145     0.0410     2.4787     0.1154    54.7308    15.3979    15.9507    15.7435     8.4411
  496.0000     8.1190     0.2207     0.0522     2.4626     0.1216    55.8859    14.2528    16.1604    15.7306     9.0177
  496.5000     8.1205     0.2282     0.0489     2.4464     0.1386    57.0325    13.5886    16.1448    15.7157     9.9827
  497.0000     8.1221     0.2405     0.0401     2.4272     0.1508    58.1832    13.3955    16.1344    15.7046    11.0506
  497.5000     8.1236     0.2491     0.0310     2.4144     0.1623    58.9300    13.5994    16.0547    15.2675    11.3314
  498.0000     8.1252     0.2525     0.0161     2.4158     0.1570    60.4804    13.3993    15.6728    15.0455    12.0020
  498.5000     8.1267     0.2514     0.0070     2.4160     0.1547    60.4525    13.3846    15.4495    14.8302    12.4793
  499.0000     8.1282     0.2508     0.0099     2.4037     0.1624    61.6081    13.1860    15.2278    14.7522    12.7574
  499.5000     8.1298     0.2491     0.0068     2.3755     0.1767    62.7497    13.1731    14.8033    14.4038    13.1336
  500.0000     8.1314     0.2414    -0.0023     2.3398     0.1963    63.3136    13.2193    14.7937    14.1978    13.7101
  500.5000     8.1333     0.2267    -0.0143     2.3212     0.2078    65.0178    13.5101    14.1786    14.0354    14.0449
  501.0000     8.1352     0.2168    -0.0174     2.3203     0.2150    63.4477    13.6818    13.9714    13.9732    14.3797
  501.5000     8.1371     0.2155    -0.0116     2.3373     0.2073    60.7203    13.8570    14.1919    13.9607    14.7298
  502.0000     8.1391     0.2371     0.0031     2.3484     0.1976    60.0669    13.2809    14.6287    14.0194    15.9507
