~VERSION INFORMATION
 VERS.                2.0:   CWLS LOG ASCII STANDARD - VERSION 2.0
 WRAP.                 NO:   ONE LINE PER DEPTH STEP
~WELL INFORMATION
#MNEM.UNIT      DATA TYPE    INFORMATION
#----------   ------------   ------------------------------
 STRT.F           20.0000:   START DEPTH
 STOP.F          677.0000:   STOP DEPTH
 STEP.F            0.5000:   STEP LENGTH
 NULL.          -999.2500:   NO VALUE
 COMP. FENIX & SCISSON INC:   COMPANY
 WELL. 11 WI NPR 3 #36-26 SX:   WELL
 FLD .             TEAPOT:   FIELD
 LOC .      S11 T38N R78W:   LOCATION
 CNTY.            NATRONA:   COUNTY
 STAT.            WYOMING:   STATE
 CTRY. UNITED STATES OF AMERICA:   COUNTRY
 SRVC.      Dresser Atlas:   SERVICE COMPANY
 DATE.        06-AUG-1980:   LOGDATE
 API .       490251084100:   API NUMBER
~CURVE INFORMATION
#MNEM.UNIT       API CODE    CURVE DESCRIPTION
#----------   ------------   ------------------------------
 DEPT.F                  :   
 SPR .MV     07 010 01 00:   SPONTANEOUS POTENTIAL
 SFL .OHMM   07 220 01 00:   SHALLOW FOCUSED LOG RESISTIVITY
 ILD .OHMM   07 120 46 00:   INDUCTION LOG DEEP
 ILM .OHMM   07 120 44 00:   INDUCTION LOG MEDIUM
 GRD .GAPI   45 310 01 00:   GAMMA RAY FROM DENSITY LOG
 RHOB.G/C3   45 350 01 00:   BULK DENSITY
 CALD.IN     45 280 60 00:   CALIPER
 CORR.G/C3   45 356 01 00:   DENSITY CORRECTION
 DPOR.DEC    45 890 12 00:   DENSITY POROSITY SANDSTONE
 NPOR.DEC    42 890 03 00:   NEUTRON POROSITY SANDSTONE
~PARAMETER INFORMATION
#MNEM.UNIT          VALUE    DESCRIPTION
#----------   ------------   ------------------------------
 PD  .                 GL:   PERMANENT DATUM
 EPD .F              5191:   ELEVATION PERMANENT DATUM
 LMF .                 KB:   LOG MEASURED FROM
 DAPD.F                 5:   FEET ABOVE PERMANENT DATUM
 DMF .                 KB:   DRILLING MEASURED FROM
 EKB .F              5196:   KELLING BUSHING
 EGL .F              5191:   GROUND LEVEL
 DATE.             8-6-80:   RUN DATE
 RUN .                  1:   RUN NUMBER
 DD  .F               680:   DEPTH DRILLER
 DL  .F               679:   DEPTH LOGGER
 BLI .F               676:   BOTTOM LOG INTERVAL
 TLI .F                20:   TOP LOG INTERVAL
 BS  .IN            7.875:   BIT SIZE
 BSD .F               680:   BIT SIZE AT DEPTH
 DFT .                KCL:   DRILLING FLUID TYPE
 DFD .                9.4:   DRILLING FLUID DENSITY
 DFV .                 45:   DRILLING FLUID VISCOSITY
 DFPH.                 12:   DRILLING FLUID PH
 MSS .           FLOWLINE:   MUD SAMPLE SOURCE
 RMS .OHMM            .11:   RESISTIVITY MUD SAMPLE
 MST .F                65:   MUD SAMPLE TEMPERATURE
 RMF .OHMM             .1:   RESISTIVITY MUD FILTRATE SAMPLE
 MFST.F                60:   MUD FILTRATE SAMPLE TEMPERATURE
 RMC .OHMM            .17:   RESISTIVITY MUD CAKE
 MCST.F                65:   MUD CAKE SAMPLE TEMPERATURE
 MFSS.               MEAS:   MUD FILTRATE SAMPLE SOURCE
 MCSS.              CHART:   MUD CAKE SAMPLE SOURCE
 TCS .HRS              .5:   TIME CURCULATED STOPPED
 MRT .F               100:   MAXIMUM RECORDED TEMPERATURE
 LUN .               6240:   LOGGING UNIT NUMBER
 LUL .               RVTN:   LOGGING UNIT LOCATION
 ENGI.            K. RALL:   RECORDING ENGINEER
 WITN.     AMAND/MCINTYRE:   WITNESSED BY
 CLNT.            A2DTECH:   CLIENT CODE
 ORIG.        2" 5" PRINT:   ORIGIN OF DATA
 UWI .       490251084100:   UNIQUE WELL ID
 DICO. A2D Technologies, Inc.:   DIGITIZING COMPANY
~OTHER INFORMATION
~A   DEPT       SPR       SFL         ILD         ILM      GRD       RHOB       CALD       CORR       DPOR       NPOR   
# ...
   53.5000   -29.8854     5.3162     6.4647     3.1058    93.2812     2.1152    10.3077     0.0453     0.3248     0.3357
   54.0000   -29.6334     5.1082     6.7154     2.9503    92.2351     2.1428    10.6998     0.0515     0.3191     0.3451
   54.5000   -29.7992     4.9819     6.9844     3.2251    86.7975     2.1261    11.0956     0.0589     0.3365     0.3561
   55.0000   -29.9575     5.1542     7.7223     3.5671    81.3099     2.0920    11.4836     0.0736     0.3530     0.3753
   55.5000   -30.1148     5.3654     8.8451     3.9604    77.4611     2.0831    11.7514     0.0881     0.3536     0.4081
   56.0000   -30.2702     5.3429    10.1217     5.0272    76.6203     2.0768    11.8147     0.0786     0.3719     0.4196
   56.5000   -30.4342     5.3162    10.8967     6.4415    77.3431     2.0235    11.8661     0.0530     0.4020     0.3701
   57.0000   -30.8245     5.3162     9.4369     7.0784    78.7451     2.0025    11.6157     0.0573     0.4405     0.3549
   57.5000   -31.2252     5.5587     8.0343     4.9881    78.8947     2.0019    11.2182     0.0549     0.4635     0.3994
   58.0000   -31.8645     5.7495     6.6858     3.5458    78.4615     2.0018    11.0410     0.0464     0.4534     0.4455
   58.5000   -32.5245     5.7752     6.8710     2.3013    79.7328     2.0078    11.1734     0.0449     0.4036     0.4678
   59.0000   -33.1832     5.0760     7.5072     2.3226    79.6132     2.0174    12.1791     0.0656     0.3888     0.4077
   59.5000   -33.8413     4.5486     7.9885     2.6847    79.0596  -999.2500    13.3330     0.0925     0.4292     0.3792
   60.0000   -34.5170     4.3621     6.5756     3.8172    77.1562  -999.2500    13.9852     0.0763     0.4813     0.3859
   60.5000   -35.6221     4.5686     4.9837     3.5308    75.6640  -999.2500    13.4931     0.0572     0.5529     0.3991
   61.0000   -37.2158     4.8998     3.7771     2.8834    75.4541  -999.2500    12.8085     0.0697     0.5373     0.4123
   61.5000   -38.8051     4.7506     2.9232     2.3547    74.0669  -999.2500    12.2015     0.0772     0.5061     0.4219
   62.0000   -40.4003     4.2255     3.0237     2.2802    72.8288  -999.2500    11.8950     0.0557     0.4751     0.4236
   62.5000   -41.9937     3.3504     3.2310     2.6039    73.8997  -999.2500    11.6805     0.0310     0.5329     0.4335
   63.0000   -43.5411     2.7376     3.4526     3.5215    76.3975  -999.2500    11.4740     0.0217     0.5953     0.4515
   63.5000   -44.8623     2.7363     3.6893     4.7880    79.9656  -999.2500    11.0662     0.0429     0.6267     0.4696
   64.0000   -46.1900     3.7304     3.9423     5.2908    83.5334  -999.2500    10.3281     0.0667     0.5926     0.4814
   64.5000   -47.5188     4.2006     4.3098     5.3077    86.5882  -999.2500     9.8469     0.0804     0.5094     0.4918
   65.0000   -48.8511     4.3420     4.7397     5.4018    86.9650     2.1189     9.3916     0.0585     0.4003     0.4987
   65.5000   -49.8700     4.8960     5.2126     5.4597    86.3294     2.1997     9.1136     0.0361     0.3168     0.4599
   66.0000   -50.7301     5.1241     5.7270     5.5182    88.2471     2.2612     8.8302     0.0215     0.2753     0.4257
   66.5000   -51.5929     5.0307     6.6974     5.5774    93.1888     2.2878     8.6253     0.0214     0.2371     0.3932
   67.0000   -52.4561     5.0463     6.6909     5.6180    98.0402     2.2838     8.4422     0.0166     0.2334     0.3797
   67.5000   -53.3187     5.0608     6.2298     5.4776   100.4029     2.2816     8.3032     0.0111     0.2357     0.3727
   68.0000   -54.1843     5.0753     5.8488     5.3737   100.7275     2.2792     8.1699     0.0056     0.2367     0.3656
   68.5000   -54.8068     5.1120     5.4650     5.2717   100.4676     2.2760     8.1193     0.0015     0.2391     0.3449
   69.0000   -55.3016     5.1887     5.4650     5.1717    99.3265     2.2805     8.0729    -0.0025     0.2399     0.3449
   69.5000   -55.7528     5.3286     5.5891     5.0772    97.7809     2.2929     8.0484     0.0022     0.2354     0.3513
   70.0000   -56.2224     5.6068     5.7496     5.3917    97.4609     2.3195     8.0273     0.0131     0.2292     0.3513
   70.5000   -56.6948     5.8995     5.9147     5.7131    98.9487     2.3512     8.0263     0.0295     0.2180     0.3312
   71.0000   -57.1671     6.2074     6.0846     6.0471   102.2172     2.3833     8.0265     0.0481     0.1935     0.3158
   71.5000   -57.6412     6.5315     6.2593     5.7294   106.2270     2.4143     8.0265     0.0549     0.1674     0.3126
   72.0000   -57.9985     6.6299     6.4494     5.5665   107.5752     2.4158     8.0265     0.0500     0.1561     0.3238
   72.5000   -58.3303     6.5985     6.5090     5.5885   104.6300     2.4095     8.0265     0.0296     0.1561     0.3289
   73.0000   -58.6626     6.5653     6.4335     5.6472   101.1328     2.3850     8.0265     0.0093     0.1665     0.3004
   73.5000   -59.0594     6.5322     6.3791     5.7223   101.7026     2.3649     8.0265    -0.0020     0.1788     0.2774
   74.0000   -59.4752     6.4994     6.3255     5.6061   104.6993     2.3755     8.0247     0.0143     0.1860     0.2778
   74.5000   -59.8911     6.4675     6.2736     5.3997   106.6236     2.3875     8.0224     0.0283     0.1758     0.2975
   75.0000   -60.3058     6.3966     6.1952     5.2193   105.7729     2.3719     8.0200     0.0126     0.1741     0.3107
   75.5000   -60.6008     6.2882     6.1199     5.3029   104.7362     2.3606     8.0176     0.0034     0.1845     0.3239
   76.0000   -60.7325     6.1810     6.0457     5.5433   105.3661     2.3797     8.0153     0.0214     0.1884     0.3370
   76.5000   -60.8653     6.1034     5.9917     5.7752   105.5309     2.3989     8.0129     0.0310     0.1749     0.3437
   77.0000   -60.9972     6.2045     5.9917     5.7752   103.5135     2.4038     8.0105     0.0332     0.1649     0.3316
   77.5000   -61.1312     6.2854     5.9917     5.6283   101.6413     2.4089     8.0081     0.0332     0.1624     0.3131
   78.0000   -61.4413     6.3318     5.9917     5.5127   103.7553     2.4189     8.0059     0.0348     0.1588     0.3048
   78.5000   -61.7744     6.1857     5.9042     5.3905   107.7158     2.4199     8.0047     0.0391     0.1533     0.3030
   79.0000   -62.0988     6.0707     5.7776     5.2711   110.9166     2.4158     8.0035     0.0367     0.1538     0.3190
   79.5000   -62.4133     6.0471     5.6537     5.1543   111.3744     2.4093     8.0024     0.0308     0.1569     0.3275
   80.0000   -62.5350     6.1077     5.5325     5.0400   110.6877     2.3938     8.0012     0.0158     0.1643     0.3334
   80.5000   -62.5151     6.1594     5.4139     4.9283   108.8760     2.3758     8.0000     0.0006     0.1736     0.3383
   81.0000   -62.4916     6.0929     5.2978     4.8185   108.7014     2.3698     7.9988     0.0018     0.1829     0.3416
   81.5000   -62.4683     5.9807     5.1839     4.7607   108.5149     2.3786     7.9976     0.0135     0.1844     0.3449
   82.0000   -62.4452     5.8706     5.1714     4.8284   107.8305     2.3907     7.9964     0.0251     0.1769     0.3464
   82.5000   -62.4221     5.7626     5.1714     4.8758   106.0478     2.4046     7.9952     0.0336     0.1682     0.3230
   83.0000   -62.3990     5.7223     5.1715     4.9235   104.2934     2.4113     7.9941     0.0404     0.1601     0.3022
   83.5000   -62.3757     5.7720     5.1714     4.9851   102.7609     2.3979     7.9929     0.0450     0.1589     0.3060
   84.0000   -62.3514     5.8459     5.1708     4.9844   102.6476     2.3800     7.9917     0.0409     0.1718     0.3104
   84.5000   -62.3922     5.9207     5.1692     4.9847   105.5383     2.3642     7.9905     0.0237     0.1816     0.3159
   85.0000   -62.4430     5.9969     5.2722     4.9847   109.4874     2.3530     7.9893     0.0080     0.1880     0.3218
   85.5000   -62.4938     6.0769     5.3710     4.9846   113.0675     2.3482     7.9881     0.0018     0.1943     0.3281
   86.0000   -62.5433     6.1671     5.4717     4.9846   114.4755     2.3559     7.9869    -0.0044     0.1957     0.3434
   86.5000   -62.5837     6.2245     5.5743     4.9846   112.8786     2.3570     7.9858    -0.0062     0.1913     0.3601
