~VERSION INFORMATION
 VERS.                2.0:   CWLS LOG ASCII STANDARD - VERSION 2.0
 WRAP.                 NO:   ONE LINE PER DEPTH STEP
~WELL INFORMATION
#MNEM.UNIT      DATA TYPE    INFORMATION
#----------   ------------   ------------------------------
 STRT.F          100.0000:   START DEPTH
 STOP.F          874.0000:   STOP DEPTH
 STEP.F            0.5000:   STEP LENGTH
 NULL.          -999.2500:   NO VALUE
 COMP. U S NAVY-INTEX OIL:   COMPANY
 WELL.     NPR #3 #45-S-2:   WELL
 FLD .             TEAPOT:   FIELD
 LOC .       S2 T38N R78W:   LOCATION
 CNTY.            NATRONA:   COUNTY
 STAT.            WYOMING:   STATE
 CTRY. UNITED STATES OF AMERICA:   COUNTRY
 SRVC.       Schlumberger:   SERVICE COMPANY
 DATE.        15-JUL-1962:   LOGDATE
 API .       490250642400:   API NUMBER
~CURVE INFORMATION
#MNEM.UNIT       API CODE    CURVE DESCRIPTION
#----------   ------------   ------------------------------
 DEPT.F                  :   
 ASN .OHMM   05 041 16 00:   AMPLIFIED SHORT NORMAL 16"
 CILD.MMHO   05 110 46 00:   CONDUCTIVITY INDUCTION LOG DEEP
 ILD .OHMM   05 120 46 00:   INDUCTION LOG DEEP
 SPR .MV     05 010 01 00:   SPONTANEOUS POTENTIAL FROM RES.
 GR  .GAPI   30 310 01 00:   GAMMA RAY
~PARAMETER INFORMATION
#MNEM.UNIT          VALUE    DESCRIPTION
#----------   ------------   ------------------------------
 LMF .                 KB:   LOG MEASURED FROM
 DMF .                 KB:   DRILLING MEASURED FROM
 EKB .F              5149:   KELLING BUSHING
 EGL .F              5144:   GROUND LEVEL
 DATE.        15-JUL-1962:   RUN DATE
 RUN .                  1:   RUN NUMBER
 DD  .F               875:   DEPTH DRILLER
 DL  .F               875:   DEPTH LOGGER
 BLI .F               874:   BOTTOM LOG INTERVAL
 TLI .F               100:   TOP LOG INTERVAL
 BS  .IN             6.75:   BIT SIZE
 BSD .F               875:   BIT SIZE AT DEPTH
 DFT .           OIL EMUL:   DRILLING FLUID TYPE
 DFD .               10.2:   DRILLING FLUID DENSITY
 DFV .                 42:   DRILLING FLUID VISCOSITY
 DFL .                4.6:   DRILLING FLUID LOSS
 RMS .OHMM            6.0:   RESISTIVITY MUD SAMPLE
 MST .F                64:   MUD SAMPLE TEMPERATURE
 RMF .OHMM            5.8:   RESISTIVITY MUD FILTRATE SAMPLE
 MFST.F                64:   MUD FILTRATE SAMPLE TEMPERATURE
 RMC .OHMM            5.2:   RESISTIVITY MUD CAKE
 MCST.F                66:   MUD CAKE SAMPLE TEMPERATURE
 TCS .HRS             0.5:   TIME CURCULATED STOPPED
 LUN .               2503:   LOGGING UNIT NUMBER
 LUL .               CSPR:   LOGGING UNIT LOCATION
 ENGI.           ELLERMAN:   RECORDING ENGINEER
 WITN.          JORGENSON:   WITNESSED BY
 CLNT.            A2DTECH:   CLIENT CODE
 ORIG.           5" PRINT:   ORIGIN OF DATA
 UWI .       490250642400:   UNIQUE WELL ID
 DICO. A2D Technologies, Inc.:   DIGITIZING COMPANY
~OTHER INFORMATION
~A   DEPT        ASN      CILD       ILD        SPR         GR   
# ...
  710.0000     8.2342   125.4545     7.9641   -37.7276   116.0846
  710.5000     8.2070   126.3281     7.9656   -37.8738   125.1189
  711.0000     8.1958   130.7243     7.9671   -38.0177   125.4427
  711.5000     8.1555   131.4706     7.9688   -38.3123   124.0617
  712.0000     8.1292   128.4216     8.0452   -38.6068   125.7169
  712.5000     8.1021   125.3763     8.1215   -39.0510   126.7696
  713.0000     8.0908   122.3310     8.1230   -39.8037   127.5769
  713.5000     8.2601   120.8008     8.2742   -40.2776   132.8493
  714.0000     8.5333   120.7858     8.4253   -40.9808   125.1739
  714.5000     8.6867   120.8938     8.3520   -40.5268   120.5889
  715.0000     8.7802   134.3909     7.7546   -39.9245   123.7497
  715.5000     8.6791   153.3153     7.0076   -39.3222   124.5016
  716.0000     8.3684   173.7549     6.4851   -38.8694   121.0359
  716.5000     7.8182   191.1641     6.0375   -38.4165   114.8602
  717.0000     7.0435   200.2400     5.7396   -37.9637   115.9126
  717.5000     6.2089   200.9863     5.6662   -37.5108   119.0737
  718.0000     6.1976   200.2100     5.6677   -37.2075   121.7831
  718.5000     6.2912   197.9223     5.7440   -36.9041   119.3720
  719.0000     6.2965   193.3618     5.8952   -36.8997   114.9668
  719.5000     6.5058   185.7711     6.0524   -37.1942   102.0313
  720.0000     7.7103   173.6349     6.3673   -37.7877    98.2429
  720.5000     8.6422   147.8623     6.9895   -38.0823    95.6472
  721.0000     9.3045   122.0897     8.2967   -37.9282    89.9967
  721.5000     9.6675   105.4080     9.2712   -37.7734    81.7121
  722.0000     9.8958    99.3324     9.8715   -37.7690    75.6865
  722.5000    10.0791   103.1053     9.9478   -37.9152    73.5770
  723.0000    10.0523   106.1206     9.7992   -38.3592    85.9245
  723.5000    10.2814   106.8636     9.5017   -38.9527    92.7001
  724.0000    10.5097   105.3330     9.5032   -39.5451    92.3974
  724.5000    10.8128   101.5302     9.5046   -40.1386    89.9863
  725.0000    11.0410    96.9697     9.8055   -40.5826    85.9185
  725.5000    11.3441    91.6209    10.4058   -41.0266    80.1942
  726.0000    11.7221    85.4540    11.3803   -40.8727    76.2770
  726.5000    12.2497    80.0753    12.0555   -40.5694    65.8840
  727.0000    13.0768    73.1814    12.7306   -40.7144    62.7198
  727.5000    14.2781    65.8303    13.4057   -42.5037    55.1882
  728.0000    15.5542    58.9972    14.0808   -44.3328    44.3434
  728.5000    17.1298    52.1640    14.9894   -46.1419    29.2092
  729.0000    18.7054    46.8459    16.8344   -48.4685    18.8815
  729.5000    20.6552    41.5279    18.9417   -50.5567     6.5262
  730.0000    22.3804    38.4826    21.3476   -53.8408     7.5901
  730.5000    23.2823    34.6797    22.8461   -57.2744     9.6974
  731.0000    23.9597    33.1496    24.1200   -59.3626     0.6594
  731.5000    25.5352    33.8959    24.5702   -58.3119    -2.0527
  732.0000    27.5599    35.3923    23.5990   -58.0085     3.0002
  732.5000    28.6914    36.8924    22.7023   -58.9010     8.7175
  733.0000    28.8397    38.3963    21.9553   -60.6903     5.4370
  733.5000    27.8421    40.6503    21.2082   -62.1806    -0.8542
  734.0000    26.3872    42.9118    20.2367   -62.3658    -4.1686
  734.5000    25.4087    45.1658    19.4896   -60.3781    -0.2548
  735.0000    25.2617    46.6659    18.6678   -58.2810     9.0811
  735.5000    24.7424    48.9236    18.0704   -56.3033    16.0073
  736.0000    23.8479    50.4238    17.3234   -54.4953    18.8673
  736.5000    23.0282    50.4088    17.1003   -52.8855    19.6192
  737.0000    22.3583    49.6362    17.3264   -53.1801    14.4968
  737.5000    22.8111    48.1061    17.7769   -53.9230     9.6761
  738.0000    23.8627    47.3132    18.3852   -54.5165     1.9939
  738.5000    24.0900    45.3939    19.0683   -54.8122    -1.4715
  739.0000    23.7943    43.9899    19.7635   -54.6572     8.4668
  739.5000    24.3977    42.6210    20.7024   -54.0549    12.3810
  740.0000    25.8236    41.2091    21.5272   -52.7052    13.2831
  740.5000    26.5758    39.6790    22.5766   -51.3555    17.2013
  741.0000    26.7292    38.1515    23.7008   -50.7542    14.4608
  741.5000    26.5832    36.6187    24.5257   -52.5425    17.1137
  742.0000    28.0091    35.0885    25.2008   -54.9297    17.0201
  742.5000    29.3601    33.5584    25.6514   -57.0179    16.2877
  743.0000    30.1891    32.0282    26.0271   -59.2856    19.2983
  743.5000    30.6400    30.4980    26.1783   -59.6997    13.4229
  744.0000    29.9970    31.2406    25.7307   -57.4520     9.9576
  744.5000    27.9818    31.9869    24.9836   -56.8497    13.5709
  745.0000    27.1340    33.4833    24.0869   -57.1454    13.7201
  745.5000    26.6137    34.9835    23.1902   -56.0935    15.9772
  746.0000    26.3171    35.9849    22.4431   -54.8933    26.3673
  746.5000    26.0223    37.9838    21.5464   -54.2910    32.5405
  747.0000    25.4272    39.4877    20.7215   -54.7350    31.6354
  747.5000    22.8860    41.7417    19.8877   -55.7769    29.3749
  748.0000    21.4675    43.9994    19.2875   -56.9683    26.9638
  748.5000    21.3955    45.5000    18.8318   -58.7576    32.6852
  749.0000    21.6246    47.7573    18.1859   -58.1553    36.5994
  749.5000    20.9547    48.5000    17.5137   -56.9551    41.7181
  750.0000    20.5093    50.0000    17.0661   -55.0070    43.8251
  750.5000    19.8947    53.7448    16.3182   -53.5093    46.5361
  751.0000    19.3928    55.9898    15.8698   -52.4601    49.6988
  751.5000    18.8717    57.4680    15.4215   -51.5603    53.1627
  752.0000    18.4255    58.9462    15.1976   -50.6606    58.3556
  752.5000    18.0542    59.6591    15.1235   -49.9103    51.7244
  753.0000    17.8318    59.6206    15.1243   -49.4589    34.9398
  753.5000    17.7605    59.5579    15.2000   -49.1564    25.3012
  754.0000    17.8383    58.2492    15.3504   -49.4524     7.5301
  754.5000    17.9910    56.4702    15.5008   -49.7485    11.5964
  755.0000    18.1443    55.6818    15.7261   -50.3435    20.3313
  755.5000    18.4466    54.7769    15.8765   -51.2374    26.5060
  756.0000    18.5992    53.3290    16.1767   -52.1314    33.5843
  756.5000    18.7518    52.5345    16.3288   -53.6233    38.5542
  757.0000    18.8295    52.5000    16.6272   -54.5172    40.2289
  757.5000    18.9073    52.4606    16.8527   -53.6167    32.5433
  758.0000    18.9102    52.4242    17.0031   -53.3149    18.8253
  758.5000    17.9329    52.3864    17.0787   -53.3120    12.9518
  759.0000    18.2431    52.3485    17.0794   -53.3091    18.0723
  759.5000    18.6951    52.3106    17.0801   -53.0072    22.7410
  760.0000    18.9225    52.2666    17.0060   -52.5559    31.3253
  760.5000    18.7009    52.2349    16.9319   -51.9551    42.4699
  761.0000    18.4785    52.1970    16.8577   -51.4967    48.1928
  761.5000    18.1828    52.1557    16.7088   -50.8901    48.1928
  762.0000    18.0359    52.8856    16.5598   -50.4509    50.9036
  762.5000    17.8082    53.5985    16.3362   -50.2985    50.2642
  763.0000    17.6599    54.3176    16.1870   -49.9967    38.3524
  763.5000    17.4459    54.2806    16.0382   -49.9938    33.7349
  764.0000    17.2249    55.0012    15.9641   -49.9909    35.5422
  764.5000    17.0033    55.7218    15.7403   -49.9880    38.4036
  765.0000    16.8565    55.6757    15.4416   -50.1346    39.7590
  765.5000    16.7838    56.4055    15.2926   -50.4540    33.1325
  766.0000    16.5629    56.5657    15.0690   -50.8761    32.5301
  766.5000    16.4161    57.8468    14.8449   -51.1722    39.9096
  767.0000    16.2693    57.8006    14.5465   -50.7201    36.7470
  767.5000    16.1225    59.2803    14.4723   -50.2205    44.6160
  768.0000    15.9016    61.5145    14.2484   -49.9669    49.0350
  768.5000    15.6800    63.7503    14.0995   -49.6651    51.5060
  769.0000    15.4583    64.1414    13.8758   -49.6622    38.7048
  769.5000    15.2367    65.9399    13.7267   -49.8088    32.5301
  770.0000    15.0898    66.6605    13.7175   -49.9553    40.6627
  770.5000    15.0928    66.6236    13.8031   -49.9517    44.7839
