~VERSION INFORMATION
 VERS.                2.0:   CWLS LOG ASCII STANDARD - VERSION 2.0
 WRAP.                 NO:   ONE LINE PER DEPTH STEP
~WELL INFORMATION
#MNEM.UNIT      DATA TYPE    INFORMATION
#----------   ------------   ------------------------------
 STRT.F           18.0000:   START DEPTH
 STOP.F          576.0000:   STOP DEPTH
 STEP.F            0.5000:   STEP LENGTH
 NULL.          -999.2500:   NO VALUE
 COMP. LAWRENCE/ALLISON INC:   COMPANY
 WELL.    41-16 SX #10-10:   WELL
 FLD .             TEAPOT:   FIELD
 LOC .      S10 T38N R78W:   LOCATION
 CNTY.            NATRONA:   COUNTY
 STAT.            WYOMING:   STATE
 CTRY. UNITED STATES OF AMERICA:   COUNTRY
 SRVC.           Gearhart:   SERVICE COMPANY
 DATE.        30-JUL-1987:   LOGDATE
 API .       490251115400:   API NUMBER
~CURVE INFORMATION
#MNEM.UNIT       API CODE    CURVE DESCRIPTION
#----------   ------------   ------------------------------
 DEPT.F                  :   
 GRR .GAPI   07 310 01 00:   GAMMA RAY
 ILD .OHMM   07 120 46 00:   INDUCTION LOG DEEP
 ILM .OHMM   07 120 44 00:   INDUCTION LOG MEDIUM
~PARAMETER INFORMATION
#MNEM.UNIT          VALUE    DESCRIPTION
#----------   ------------   ------------------------------
 PD  .                 GL:   PERMANENT DATUM
 EPD .F              5253:   ELEVATION PERMANENT DATUM
 LMF .                 KB:   LOG MEASURED FROM
 DAPD.F                 8:   FEET ABOVE PERMANENT DATUM
 DMF .                 KB:   DRILLING MEASURED FROM
 EKB .F              5261:   KELLING BUSHING
 EGL .F              5253:   GROUND LEVEL
 DATE.        30-JUL-1987:   RUN DATE
 RUN .                  1:   RUN NUMBER
 DD  .F               570:   DEPTH DRILLER
 DL  .F               584:   DEPTH LOGGER
 BLI .F               576:   BOTTOM LOG INTERVAL
 TLI .F                18:   TOP LOG INTERVAL
 CS  .IN            8.625:   CASING SIZE
 CBD .F                48:   CASING BOTTOM DRILLER
 CBL .F                48:   CASING BOTTOM LOGGER
 BS  .IN            7.875:   BIT SIZE
 BSD .F               570:   BIT SIZE AT DEPTH
 TLAB.HRS            0346:   TIME LOGGER AT BOTTOM
 MRT .F                80:   MAXIMUM RECORDED TEMPERATURE
 LUN .               7597:   LOGGING UNIT NUMBER
 LUL .           GILLETTE:   LOGGING UNIT LOCATION
 ENGI. K. HUCHFELDT, R. WEATHERMON:   RECORDING ENGINEER
 WITN.    MR. GARY STRONG:   WITNESSED BY
 CLNT.            A2DTECH:   CLIENT CODE
 ORIG.         2.5" PRINT:   ORIGIN OF DATA
 UWI .       490251115400:   UNIQUE WELL ID
 DICO. A2D Technologies, Inc.:   DIGITIZING COMPANY
~OTHER INFORMATION
~A   DEPT       GRR       ILD        ILM   
# ...
  109.0000   127.1380     9.2586     9.1367
  109.5000   131.1239     9.0818     9.1381
  110.0000   133.6153     8.9565     9.0142
  110.5000   136.4582     8.8329     9.0154
  111.0000   138.3142     8.5291     8.6512
  111.5000   138.3051     8.3571     8.2939
  112.0000   133.9940     8.0846     7.9578
  112.5000   131.4221     8.0881     7.7377
  113.0000   132.0382     8.4327     7.6280
  113.5000   135.0711     8.5528     7.3154
  114.0000   136.8956     8.9173     7.2374
  114.5000   137.5116     8.9205     7.5762
  115.0000   133.8980     9.1732     8.0119
  115.5000   129.6801     9.3039     8.3566
  116.0000   124.2539     9.3073     8.5445
  116.5000   120.0131     9.1832     8.6033
  117.0000   118.1269     9.1865     8.5469
  117.5000   117.0384     9.0639     8.5481
  118.0000   116.4460     9.0673     8.5495
  118.5000   116.6073     8.9463     8.5506
  119.0000   118.0382     8.9497     8.5518
  119.5000   119.7150     8.9530     8.5529
  120.0000   121.9335     8.9563     8.5541
  120.5000   123.6999     8.9832     8.5552
  121.0000   125.2830     9.2713     8.5564
  121.5000   123.0453     9.6756     8.5575
  122.0000   115.9419    10.0562     8.5587
  122.5000   114.1390    10.2993     8.6817
  123.0000   119.5908    10.4461     8.9313
  123.5000   122.6238    10.4499     9.3155
  124.0000   123.2398    10.2498     9.7163
  124.5000   119.0219    10.1732    10.1056
  125.0000   112.9914    10.1769    10.1070
  125.5000   108.7736    10.1807    10.1084
  126.0000   105.1600    10.1844    10.0627
  126.5000   109.7484    10.0487     9.7843
  127.0000   119.5287    10.0530     9.5700
  127.5000   125.4532     9.9183     9.3183
  128.0000   129.0473     9.5205     9.0590
  128.5000   130.7664     9.5239     9.0602
  129.0000   131.8187     9.2682     8.9374
  129.5000   130.7654     9.2716     8.9388
  130.0000   127.7745     9.4037     8.9400
  130.5000   122.8097     9.4071     8.9412
  131.0000   120.9466     9.5411     8.9424
  131.5000   119.7946     9.5446     8.9436
  132.0000   127.0595     9.5480     9.0690
  132.5000   129.4882     9.4207     9.0702
  133.0000   131.9169     9.2950     9.0715
  133.5000   129.5118     9.2985     9.0727
  134.0000   127.1066     9.3020     9.0665
  134.5000   124.0973     9.3054     8.9381
  135.0000   122.2961     9.3088     8.6908
  135.5000   124.1229     9.2838     8.5905
  136.0000   126.5821     9.1877     8.5918
  136.5000   126.4350     9.1915     8.4752
  137.0000   124.5720     9.1949     8.4765
  137.5000   122.2306     9.1527     8.4341
  138.0000   120.5544     9.0750     8.3627
  138.5000   120.5680     9.0790     8.3639
  139.0000   122.0081     8.9579     8.3650
  139.5000   124.1148     8.9612     8.3662
  140.0000   127.2105     8.8418     8.3676
  140.5000   129.9930     8.8450     8.3687
  141.0000   132.7976     8.8489     8.3698
  141.5000   132.1231     8.7309     8.3709
  142.0000   127.9052     8.7340     8.3721
  142.5000   131.5424     8.7372     8.2584
  143.0000   136.9922     8.6203     8.2597
  143.5000   139.4209     8.6238     8.2608
  144.0000   137.6200     8.6269     8.2619
  144.5000   134.0064     8.6300     8.2630
  145.0000   130.3928     8.7530     8.3789
  145.5000   127.3625     9.0010     8.3911
  146.0000   125.5307     9.1293     8.5141
  146.5000   124.9901     9.1326     8.6167
  147.0000   125.8369     9.3913     8.6454
  147.5000   128.4743     9.5252     8.7387
  148.0000   129.8610     9.5287     8.7788
  148.5000   129.8731     9.5322     8.8625
  149.0000   129.0413     9.5357     8.8637
  149.5000   127.8137     9.5147     8.8650
  150.0000   126.2840     9.4117     8.8055
  150.5000   125.0876     9.2862     8.8674
  151.0000   123.8936     9.2900     8.9413
  151.5000   123.3011     9.1662     8.9932
  152.0000   120.8960     9.0407     8.9944
  152.5000   121.5120     8.9159     8.9956
  153.0000   123.9407     8.7929     8.8737
  153.5000   125.7652     8.6869     8.8749
  154.0000   125.8288     8.6903     8.6346
  154.5000   122.7676     8.6935     8.6358
  155.0000   121.5709     8.6967     8.5187
  155.5000   127.1862     8.6999     8.4032
  156.0000   131.2628     8.7031     8.2892
  156.5000   129.1510     8.7063     8.1768
  157.0000   126.1833     8.6652     8.1780
  157.5000   125.8594     8.5456     8.1595
  158.0000   125.4784     8.2482     8.0681
  158.5000   122.6355     8.1382     8.0693
  159.0000   119.4199     8.2543     8.0705
  159.5000   117.1591     8.3196     8.0716
  160.0000   119.0332     8.6783     8.1848
  160.5000   122.1601     8.9767     8.2365
  161.0000   125.3435     9.2310     8.4732
  161.5000   127.7722     9.3626     8.7167
  162.0000   127.7840     9.6278     9.0917
  162.5000   126.5873     9.7650     9.2728
  163.0000   124.7864     9.9042     9.5333
  163.5000   122.9855     9.9077     9.5346
  164.0000   119.9761     9.9113     9.5359
  164.5000   118.1752     9.9149     9.4064
  165.0000   121.8731     9.7825     9.1519
  165.5000   123.1561     9.7862     9.1532
  166.0000   123.6486     9.5235     9.0291
  166.5000   121.4773     9.2678     8.9066
  167.0000   118.8384     9.2636     8.7823
  167.5000   121.6415     9.1475     8.6667
  168.0000   123.0937     9.1510     8.6537
  168.5000   123.1057     9.1544     8.5311
  169.0000   123.3978     9.1577     8.4103
  169.5000   124.3384     9.1611     8.2911
  170.0000   125.2971     9.2917     8.2072
  170.5000   126.1775     9.2951     8.2478
  171.0000   126.1893     9.2985     8.3687
  171.5000   125.5952     9.4311     8.6092
  172.0000   125.6086     9.5656     8.7353
  172.5000   124.4119     9.7019     8.9864
  173.0000   123.2152     9.8402     9.1721
  173.5000   122.6228    10.0509     9.5610
  174.0000   122.0303    10.2634     9.6950
  174.5000   121.4379    10.4097     9.9674
  175.0000   121.3998    10.7054    10.2475
  175.5000   120.8572    10.8580    10.3912
  176.0000   120.8701    11.0127    10.6832
  176.5000   120.8822    11.3247    10.8329
  177.0000   120.8943    11.6455    10.9848
  177.5000   119.4764    11.8115    11.2935
  178.0000   112.4794    12.1461    11.4518
  178.5000   107.3686    12.3192    11.4637
  179.0000   110.0584    12.6682    11.7753
  179.5000   116.5689    13.0271    11.9404
  180.0000   119.1564    13.0318    12.1078
  180.5000   117.9598    13.0365    12.1095
  181.0000   111.3250    13.2224    12.1599
  181.5000   111.0393    13.2272    12.2810
  182.0000   114.3697    13.2321    12.4532
  182.5000   116.1942    13.2370    12.5284
  183.0000   118.0187    13.0601    12.6296
  183.5000   118.0304    13.0653    12.6313
  184.0000   116.8258    13.0288    12.6331
  184.5000   115.5589    12.8490    12.4618
  185.0000   113.6959    12.4982    12.2931
  185.5000   111.4310    12.3817    12.1262
  186.0000   110.7069    12.3870    11.9620
  186.5000   110.2461    12.3916    11.7996
  187.0000   112.4632    12.3961    11.6397
  187.5000   113.8951    12.4820    11.4819
  188.0000   110.9769    12.8418    11.4835
  188.5000   109.0876    12.9339    11.4850
  189.0000   109.7402    13.1183    11.8094
  189.5000   112.5831    13.1240    12.1396
  190.0000   114.5641    12.9490    12.3098
  190.5000   115.1801    12.9537    12.4824
  191.0000   113.9834    12.6059    12.6575
  191.5000   111.5783    12.4378    12.4857
  192.0000   107.7543    12.4423    12.3164
  192.5000   105.2870    12.2763    12.0956
  193.0000   103.7567    12.1126    11.7018
  193.5000   107.9909    11.7874    11.3710
  194.0000   112.0967    11.6302    10.8853
  194.5000   114.5881    11.3180    10.6634
  195.0000   116.4955    11.1670    10.3684
  195.5000   117.7583    11.1711    10.1646
  196.0000   117.2689    10.8626    10.0265
  196.5000   114.1169    10.5793    10.1673
  197.0000   113.5227    10.5833    10.3099
  197.5000   114.1405    10.4420    10.4544
  198.0000   116.5692    10.3027    10.4558
  198.5000   117.1852    10.2744    10.4572
  199.0000   117.8012    10.1690    10.4587
  199.5000   117.8130    10.1732    10.3168
