~VERSION INFORMATION
 VERS.                2.0:   CWLS LOG ASCII STANDARD - VERSION 2.0
 WRAP.                 NO:   ONE LINE PER DEPTH STEP
~WELL INFORMATION
#MNEM.UNIT      DATA TYPE    INFORMATION
#----------   ------------   ------------------------------
 STRT.F           36.0000:   START DEPTH
 STOP.F          700.0000:   STOP DEPTH
 STEP.F            0.5000:   STEP LENGTH
 NULL.          -999.2500:   NO VALUE
 COMP. FENIX & SCISSON INC:   COMPANY
 WELL. NPR #3 13SX14 #13-14:   WELL
 FLD .             TEAPOT:   FIELD
 LOC .      S14 T38N R78W:   LOCATION
 CNTY.            NATRONA:   COUNTY
 STAT.            WYOMING:   STATE
 CTRY. UNITED STATES OF AMERICA:   COUNTRY
 SRVC.              Welex:   SERVICE COMPANY
 DATE.        28-FEB-1977:   LOGDATE
 API .       490251029600:   API NUMBER
~CURVE INFORMATION
#MNEM.UNIT       API CODE    CURVE DESCRIPTION
#----------   ------------   ------------------------------
 DEPT.F                  :   
 CALD.IN     45 280 60 00:   CALIPER FROM DENSITY LOG
 GRD .GAPI   45 310 01 00:   GAMMA RAY FROM DENSITY LOG
 CORR.G/C3   45 356 01 00:   DENSITY CORRECTION
 RHOB.G/C3   45 350 01 00:   BULK DENSITY
 DPHI.DEC    45 890 12 00:   DENSITY POROSITY SANDSTONE
 SPR .MV     07 010 01 00:   SPONTANEOUS POTENTIAL
 SGRD.OHMM   07 220 05 00:   SHALLOW RESISTIVITY
 ILD .OHMM   07 120 46 00:   INDUCTION LOG DEEP
 ILM .OHMM   07 120 44 00:   INDUCTION LOG MEDIUM
~PARAMETER INFORMATION
#MNEM.UNIT          VALUE    DESCRIPTION
#----------   ------------   ------------------------------
 PD  .                 GL:   PERMANENT DATUM
 EPD .F              5238:   ELEVATION PERMANENT DATUM
 LMF .                 GL:   LOG MEASURED FROM
 DMF .                 GL:   DRILLING MEASURED FROM
 EGL .F              5238:   GROUND LEVEL
 DATE.            2-28-77:   RUN DATE
 RUN .                  1:   RUN NUMBER
 DD  .F               710:   DEPTH DRILLER
 DL  .F               706:   DEPTH LOGGER
 BLI .F               704:   BOTTOM LOG INTERVAL
 TLI .F                42:   TOP LOG INTERVAL
 CS  .IN            8.625:   CASING SIZE
 CBD .F                42:   CASING BOTTOM DRILLER
 CBL .F                42:   CASING BOTTOM LOGGER
 BS  .IN            7.875:   BIT SIZE
 BSD .F               710:   BIT SIZE AT DEPTH
 DFT .           CHEM-GEL:   DRILLING FLUID TYPE
 DFD .                8.7:   DRILLING FLUID DENSITY
 DFV .                 33:   DRILLING FLUID VISCOSITY
 DFPH.                  7:   DRILLING FLUID PH
 DFL .                  8:   DRILLING FLUID LOSS
 MSS .          FLOW LINE:   MUD SAMPLE SOURCE
 RMS .OHMM           .382:   RESISTIVITY MUD SAMPLE
 MST .F                54:   MUD SAMPLE TEMPERATURE
 RMF .OHMM           .342:   RESISTIVITY MUD FILTRATE SAMPLE
 MFST.F                54:   MUD FILTRATE SAMPLE TEMPERATURE
 RMC .OHMM           .821:   RESISTIVITY MUD CAKE
 MCST.F                54:   MUD CAKE SAMPLE TEMPERATURE
 MFSS.           MEASURED:   MUD FILTRATE SAMPLE SOURCE
 MCSS.           MEASURED:   MUD CAKE SAMPLE SOURCE
 RMB .OHMM           .333:   RESISTIVITY MUD AT BHT
 BHT .F                62:   BOTTOM HOLE TEMPERATURE
 TCS .HRS               3:   TIME CURCULATED STOPPED
 MRT .F                62:   MAXIMUM RECORDED TEMPERATURE
 LUN .               8611:   LOGGING UNIT NUMBER
 LUL .           GILLETTE:   LOGGING UNIT LOCATION
 ENGI.               DOAK:   RECORDING ENGINEER
 WITN.               JAPP:   WITNESSED BY
 CLNT.            A2DTECH:   CLIENT CODE
 ORIG.       2", 5" PRINT:   ORIGIN OF DATA
 UWI .       490251029600:   UNIQUE WELL ID
 DICO. A2D Technologies, Inc.:   DIGITIZING COMPANY
~OTHER INFORMATION
~A   DEPT       CALD       GRD       CORR        RHOB     DPHI         SPR        SGRD      ILD        ILM   
# ...
  328.0000     7.9697   106.7278     0.0140     2.4913     0.0927   -41.7252    14.5862    10.7861    13.7046
  328.5000     7.9792   108.4217     0.0146     2.4956     0.0899   -42.0331    14.2760    10.5755    13.7046
  329.0000     7.9887   110.0396     0.0187     2.5031     0.0852   -41.8617    14.0891    10.3691    13.3985
  329.5000     7.9982   111.6430     0.0228     2.5106     0.0791   -41.6716    14.3336    10.1666    13.0187
  330.0000     8.0077   112.2218     0.0269     2.5180     0.0727   -41.4769    14.2178     9.9681    12.4976
  330.5000     8.0171   111.6933     0.0307     2.5245     0.0723   -41.6419    13.8731     9.9249    12.6193
  331.0000     8.0203   111.1722     0.0280     2.5194     0.0764   -41.8664    13.5368    10.1096    12.8321
  331.5000     8.0173   111.6288     0.0250     2.5123     0.0804   -42.0065    13.3526     9.7994    13.0872
  332.0000     8.0143   113.8238     0.0222     2.5051     0.0844   -41.7808    13.5788     9.7551    12.9789
  332.5000     8.0112   115.9357     0.0193     2.4979     0.0878   -41.7202    13.4418     9.7111    12.8873
  333.0000     8.0081   117.4620     0.0164     2.4908     0.0921   -42.0552    13.2663     9.6672    12.7086
  333.5000     8.0051   117.3283     0.0135     2.4836     0.0969   -42.2510    13.0872     9.6236    12.6503
  334.0000     8.0020   115.4028     0.0106     2.4788     0.0994   -42.0782    13.4626     9.5801    12.4976
  334.5000     7.9989   113.5372     0.0103     2.4786     0.0975   -41.8800    13.9596     9.5369    12.2561
  335.0000     7.9959   111.6764     0.0133     2.4853     0.0945   -41.9205    13.8087     9.4938    12.0105
  335.5000     7.9928   109.4784     0.0162     2.4941     0.0891   -42.0350    13.5438     9.4509    11.7698
  336.0000     7.9897   110.2978     0.0192     2.5028     0.0836   -41.9290    13.2840     9.4083    11.5339
  336.5000     7.9867   111.7834     0.0198     2.5087     0.0800   -41.8843    13.0291     9.3658    11.2905
  337.0000     7.9836   112.3507     0.0172     2.5044     0.0818   -41.9606    12.8481     9.3046    11.5011
  337.5000     7.9822   112.8753     0.0183     2.5105     0.0794   -42.0394    13.0442     9.3140    11.6960
  338.0000     7.9949   114.3776     0.0199     2.5092     0.0805   -41.9515    13.0872     9.3312    11.8944
  338.5000     8.0091   116.2660     0.0215     2.5106     0.0797   -41.8566    12.2998     9.3484    12.0948
  339.0000     8.0233   116.6274     0.0231     2.5152     0.0766   -41.9980    11.9345     9.3656    12.2692
  339.5000     8.0382   115.4411     0.0247     2.5199     0.0743   -42.1398    13.3031     9.3903    11.9560
  340.0000     8.0356   114.3337     0.0223     2.5133     0.0777   -42.2054    14.3511     9.3947    11.3893
  340.5000     8.0270   115.0347     0.0183     2.5027     0.0850   -42.0107    12.6494     9.2474    10.8471
  341.0000     8.0181   115.7867     0.0143     2.4919     0.0924   -41.8220    12.3350     9.1497    10.2057
  341.5000     8.0093   116.5093     0.0103     2.4807     0.0983   -41.6617    12.2692     9.0522    10.3385
  342.0000     8.0005   116.7099     0.0061     2.4806     0.0964   -41.8817    12.1526     8.9549    10.5344
  342.5000     7.9916   115.4118     0.0074     2.4848     0.0937   -42.0216    12.0593     8.8585    10.6545
  343.0000     7.9825   114.1648     0.0108     2.4892     0.0911   -41.8821    12.2608     8.7631    10.4263
  343.5000     7.9852   112.9279     0.0143     2.4919     0.0910   -42.0057    12.4869     8.6687    10.2030
  344.0000     7.9888   111.6935     0.0180     2.4890     0.0927   -42.2350    11.7165     8.5754     9.9249
  344.5000     7.9924   111.5852     0.0173     2.4866     0.0942   -42.4361    11.7723     8.4831    10.0356
  345.0000     7.9959   112.3597     0.0149     2.4876     0.0924   -42.2696    11.9180     8.3918    10.1907
  345.5000     7.9995   110.2850     0.0125     2.4942     0.0894   -42.0919    11.7818     8.3301    10.2977
  346.0000     8.0030   108.2693     0.0101     2.5008     0.0864   -42.2024    11.6090     8.4072     9.7436
  346.5000     8.0066   106.2120     0.0076     2.5010     0.0848   -42.4171    11.7182     8.4883    10.1744
  347.0000     8.0101   105.1021     0.0068     2.4995     0.0862   -42.2258    11.9345     8.6022    10.5143
  347.5000     8.0137   105.4352     0.0119     2.5084     0.0805   -41.9780    12.3943     8.7191    10.6846
  348.0000     8.0173   106.9137     0.0177     2.5183     0.0752   -41.8684    13.5947     8.8365    10.4373
  348.5000     8.0208   108.6897     0.0237     2.5283     0.0699   -41.9043    14.4711     8.9691     9.8338
  349.0000     8.0244   110.4689     0.0296     2.5344     0.0647   -41.9404    12.3540     8.9534     9.9715
  349.5000     8.0279   111.9811     0.0347     2.5284     0.0676   -41.9776    11.5994     8.8171    10.1701
  350.0000     8.0315   110.7510     0.0313     2.5218     0.0733   -42.0144    12.0466     8.6828    10.3931
  350.5000     8.0349   113.3128     0.0279     2.5150     0.0789   -42.0484    11.8841     8.4851    10.2113
  351.0000     8.0381   115.3446     0.0246     2.5119     0.0797   -42.0704    11.7411     8.4069     9.9572
  351.5000     8.0455   117.3612     0.0213     2.5097     0.0783   -42.0912    11.5997     8.3210     9.7095
  352.0000     8.0576   118.1150     0.0191     2.5075     0.0811   -42.1119    11.4779     8.2361     9.4679
  352.5000     8.0547   116.9053     0.0201     2.5056     0.0812   -42.1326    11.2529     8.0769     9.2324
  353.0000     8.0508   115.7235     0.0211     2.5083     0.0799   -42.1533    10.8794     7.8447     9.0027
  353.5000     8.0469   114.6584     0.0220     2.5110     0.0786   -42.1740    10.5495     7.6192     8.7787
  354.0000     8.0431   116.3667     0.0229     2.5132     0.0796   -42.1950     9.9633     7.4001     8.5603
  354.5000     8.0393   118.3692     0.0213     2.5069     0.0833   -42.2162     9.1889     7.1217     8.3301
  355.0000     8.0355   119.8710     0.0194     2.5006     0.0870   -42.2347     8.3891     7.1625     8.3573
  355.5000     8.0317   118.8061     0.0175     2.4944     0.0906   -42.1850     9.7057     7.2198     8.3871
  356.0000     8.0278   117.4120     0.0157     2.4883     0.0943   -41.9482    11.5024     7.2775     8.4072
  356.5000     8.0240   118.2457     0.0138     2.4834     0.0978   -41.7077    10.8204     7.3356     8.2536
  357.0000     8.0202   119.9189     0.0119     2.4804     0.0982   -41.7919    10.3931     7.3941     8.1779
  357.5000     8.0164   118.3405     0.0100     2.4758     0.1005   -41.9993    10.4659     7.4573     8.6359
  358.0000     8.0126   116.3630     0.0100     2.4697     0.1033   -42.2303    10.6049     7.4117     8.9979
  358.5000     8.0088   115.9258     0.0126     2.4677     0.1054   -41.8718    10.7836     7.3627     9.4778
  359.0000     8.0049   118.0733     0.0150     2.4686     0.1032   -41.7912    10.6925     7.3134     9.2868
  359.5000     8.0011   119.7965     0.0169     2.4734     0.1010   -42.0605    10.6003     7.2552     9.0329
  360.0000     7.9973   119.7046     0.0140     2.4780     0.0989   -42.2341    11.2923     7.5312     8.7231
  360.5000     7.9935   118.6306     0.0110     2.4826     0.0967   -41.8477    10.9744     7.9241     8.8502
  361.0000     7.9897   119.2987     0.0079     2.4873     0.0946   -41.4688    10.3931     8.0285     9.0900
  361.5000     7.9858   120.1089     0.0090     2.4920     0.0924   -41.6394    10.6390     7.9384     9.3364
  362.0000     7.9822   120.3991     0.0089     2.4963     0.0902   -41.8565    10.9785     7.8720     9.6541
  362.5000     7.9851   119.2696     0.0090     2.4916     0.0913   -42.0443    11.3288     7.8062     9.4973
  363.0000     7.9882   118.1483     0.0090     2.4884     0.0912   -41.8415    11.6903     7.7378     9.2918
  363.5000     7.9913   117.0637     0.0090     2.4924     0.0887   -41.6148    12.1536     7.8665     9.0907
  364.0000     7.9944   117.4883     0.0090     2.4971     0.0862   -41.5216    11.8919     8.0039     8.8854
