~VERSION INFORMATION
 VERS.                2.0:   CWLS LOG ASCII STANDARD - VERSION 2.0
 WRAP.                 NO:   ONE LINE PER DEPTH STEP
~WELL INFORMATION
#MNEM.UNIT      DATA TYPE    INFORMATION
#----------   ------------   ------------------------------
 STRT.F            0.0000:   START DEPTH
 STOP.F         2694.5000:   STOP DEPTH
 STEP.F            0.5000:   STEP LENGTH
 NULL.          -999.2500:   NO VALUE
 COMP. FENIX & SCISSON INC:   COMPANY
 WELL.       102 A #20-20:   WELL
 FLD .        TEAPOT DOME:   FIELD
 LOC .      S20 T39N R78W:   LOCATION
 CNTY.            NATRONA:   COUNTY
 STAT.            WYOMING:   STATE
 CTRY. UNITED STATES OF AMERICA:   COUNTRY
 SRVC.            Unknown:   SERVICE COMPANY
 DATE.        17-AUG-1965:   LOGDATE
 API .       490251022200:   API NUMBER
~CURVE INFORMATION
#MNEM.UNIT       API CODE    CURVE DESCRIPTION
#----------   ------------   ------------------------------
 DEPT.F                  :   
 CALI.IN     30 280 01 00:   CALIPER FROM GAMMA RAY LOG
 GR  .GAPI   30 310 01 00:   GAMMA RAY
~PARAMETER INFORMATION
#MNEM.UNIT          VALUE    DESCRIPTION
#----------   ------------   ------------------------------
 PD  .                 GL:   PERMANENT DATUM
 LMF .                 GL:   LOG MEASURED FROM
 DMF .                 GL:   DRILLING MEASURED FROM
 DATE.            8-17-65:   RUN DATE
 RUN .                  1:   RUN NUMBER
 DD  .F            2696.5:   DEPTH DRILLER
 DL  .F              2697:   DEPTH LOGGER
 BLI .F              2695:   BOTTOM LOG INTERVAL
 TLI .F              2000:   TOP LOG INTERVAL
 CS  .IN                7:   CASING SIZE
 CBD .F              2678:   CASING BOTTOM DRILLER
 DFT .                OIL:   DRILLING FLUID TYPE
 TCS .HRS               1:   TIME CURCULATED STOPPED
 ENGI.            JACKSON:   RECORDING ENGINEER
 WITN.          JORGENSEN:   WITNESSED BY
 CLNT.            A2DTECH:   CLIENT CODE
 ORIG.           5" PRINT:   ORIGIN OF DATA
 UWI .       490251022200:   UNIQUE WELL ID
 DICO. A2D Technologies, Inc.:   DIGITIZING COMPANY
~OTHER INFORMATION
~A    DEPT      CALI       GR   
# ...
 2065.5000     6.5271    94.6296
 2066.0000     6.5746    97.3663
 2066.5000     6.5988    95.7634
 2067.0000     6.5404    95.4020
 2067.5000     6.5150    96.1553
 2068.0000     6.5181    98.0423
 2068.5000     6.5243    98.6172
 2069.0000     6.5306    99.9776
 2069.5000     6.5344   103.0646
 2070.0000     6.5373   104.5121
 2070.5000     6.5401   103.5425
 2071.0000     6.5408   104.2018
 2071.5000     6.5338   104.6148
 2072.0000     6.5242   103.4301
 2072.5000     6.5227   103.4258
 2073.0000     6.5226   101.3509
 2073.5000     6.5226   102.0740
 2074.0000     6.5226   102.2768
 2074.5000     6.5222   102.3321
 2075.0000     6.5389   105.0936
 2075.5000     6.5373   106.0416
 2076.0000     6.5281   108.0052
 2076.5000     6.5127   109.8882
 2077.0000     6.5128   112.9732
 2077.5000     6.5128   108.1423
 2078.0000     6.5128   102.8609
 2078.5000     6.5128    99.6983
 2079.0000     6.5128   100.2696
 2079.5000     6.5128    95.2545
 2080.0000     6.5126    97.5900
 2080.5000     6.5227    98.9971
 2081.0000     6.5496    98.8332
 2081.5000     6.5309    96.7516
 2082.0000     6.5376    93.5941
 2082.5000     6.5580    95.4909
 2083.0000     6.5222    95.3151
 2083.5000     6.5170    93.6290
 2084.0000     6.5238    90.5078
 2084.5000     6.5483    88.0237
 2085.0000     6.5615    91.7180
 2085.5000     6.5742    90.4620
 2086.0000     6.5473    88.6747
 2086.5000     6.4944    93.2587
 2087.0000     6.5091    94.8221
 2087.5000     6.5112    90.8034
 2088.0000     6.5077    95.5920
 2088.5000     6.5042    97.5249
 2089.0000     6.5007    97.9540
 2089.5000     6.4972    96.3579
 2090.0000     6.4937    95.4015
 2090.5000     6.4931    94.6538
 2091.0000     6.4931    94.9581
 2091.5000     6.4931    95.1145
 2092.0000     6.4931    94.5741
 2092.5000     6.4930    98.4127
 2093.0000     6.4935    97.3540
 2093.5000     6.5076    98.4329
 2094.0000     6.5221   100.2552
 2094.5000     6.5178    99.7787
 2095.0000     6.5125   100.4632
 2095.5000     6.5073    98.9287
 2096.0000     6.5029    95.9475
 2096.5000     6.5029    89.2782
 2097.0000     6.5030    81.6449
 2097.5000     6.5030    79.0222
 2098.0000     6.5030    83.9144
 2098.5000     6.5030    82.4314
 2099.0000     6.5030    80.3026
 2099.5000     6.5030    78.6678
 2100.0000     6.5030    79.3531
 2100.5000     6.5030    80.8748
 2101.0000     6.5030    81.1583
 2101.5000     6.5030    82.4681
 2102.0000     6.5030    84.1613
 2102.5000     6.5030    83.0945
 2103.0000     6.5030    81.9901
 2103.5000     6.5029    81.4039
 2104.0000     6.5009    85.7532
 2104.5000     6.4900    87.8936
 2105.0000     6.4832    87.6244
 2105.5000     6.4833    84.7094
 2106.0000     6.4824    82.6496
 2106.5000     6.5075    81.5247
 2107.0000     6.4810    78.7149
 2107.5000     6.4355    78.2526
 2108.0000     6.4382    78.5189
 2108.5000     6.4457    78.7507
 2109.0000     6.4775    79.1472
 2109.5000     6.4831    80.3965
 2110.0000     6.4507    82.2619
 2110.5000     6.4517    86.8965
 2111.0000     6.4555    85.2216
 2111.5000     6.4437    83.9667
 2112.0000     6.4357    82.9615
 2112.5000     6.4460    81.4323
 2113.0000     6.4555    75.5212
 2113.5000     6.4602    69.2838
 2114.0000     6.4464    67.6535
 2114.5000     6.4721    69.5374
 2115.0000     6.4554    70.2850
 2115.5000     6.4422    70.3815
 2116.0000     6.4369    73.2504
 2116.5000     6.4423    78.1382
 2117.0000     6.4517    75.6726
 2117.5000     6.4419    72.5190
 2118.0000     6.4351    73.1039
 2118.5000     6.4495    74.7498
 2119.0000     6.4416    75.8960
 2119.5000     6.4346    75.1627
 2120.0000     6.4444    74.1761
 2120.5000     6.4531    77.6677
 2121.0000     6.4345    74.9814
 2121.5000     6.4343    75.4339
 2122.0000     6.4286    75.8551
 2122.5000     6.4179    76.4959
 2123.0000     6.4233    78.2289
 2123.5000     6.4290    77.3947
 2124.0000     6.4413    76.7965
 2124.5000     6.4442    81.4342
 2125.0000     6.4535    80.5802
 2125.5000     6.4455    80.2400
 2126.0000     6.4491    81.6774
 2126.5000     6.4529    81.7893
 2127.0000     6.4400    80.0881
 2127.5000     6.4254    78.0576
 2128.0000     6.4335    79.7602
 2128.5000     6.4412    82.6232
 2129.0000     6.4340    82.2764
 2129.5000     6.4246    84.4475
 2130.0000     6.4260    85.3105
 2130.5000     6.4273    88.1788
 2131.0000     6.4285    86.3401
 2131.5000     6.4298    83.8701
 2132.0000     6.4311    82.2652
 2132.5000     6.4324    85.6462
 2133.0000     6.4338    85.5694
 2133.5000     6.4302    82.6797
 2134.0000     6.4249    78.0469
 2134.5000     6.4262    79.4214
 2135.0000     6.4286    80.9598
 2135.5000     6.4309    82.3034
 2136.0000     6.4332    82.7380
 2136.5000     6.4341    81.7903
 2137.0000     6.4341    82.8719
 2137.5000     6.4341    81.8105
 2138.0000     6.4333    80.0099
 2138.5000     6.4320    77.8128
 2139.0000     6.4307    79.0794
 2139.5000     6.4295    76.8093
 2140.0000     6.4282    76.7766
 2140.5000     6.4269    78.2770
 2141.0000     6.4257    81.8620
 2141.5000     6.4239    85.8407
 2142.0000     6.4071    81.3633
 2142.5000     6.4390    79.4892
 2143.0000     6.4361    78.9532
 2143.5000     6.4269    76.6597
 2144.0000     6.4325    74.9613
 2144.5000     6.4430    77.0812
 2145.0000     6.4240    79.8529
 2145.5000     6.4047    78.0874
 2146.0000     6.4306    75.4263
 2146.5000     6.4749    75.6374
 2147.0000     6.4744    72.7023
 2147.5000     6.4226    70.4501
 2148.0000     6.4218    73.7779
 2148.5000     6.4194    77.9090
 2149.0000     6.4174    81.5753
 2149.5000     6.4154    82.9995
 2150.0000     6.4226    79.2059
 2150.5000     6.4397    78.5744
 2151.0000     6.4304    78.8877
 2151.5000     6.4101    82.9432
 2152.0000     6.4211    86.8517
 2152.5000     6.4435    88.1623
 2153.0000     6.4474    86.2033
 2153.5000     6.4505    83.4024
 2154.0000     6.4542    82.7077
 2154.5000     6.4740    83.8759
 2155.0000     6.4745    84.0314
 2155.5000     6.4406    85.1407
 2156.0000     6.4542    86.4121
 2156.5000     6.4483    89.8014
 2157.0000     6.4442    93.4572
 2157.5000     6.4542    97.1168
 2158.0000     6.4615    98.7083
 2158.5000     6.4470    98.2085
 2159.0000     6.4341    99.9260
 2159.5000     6.4340   103.3180
 2160.0000     6.4341   106.7634
 2160.5000     6.4341   107.2930
 2161.0000     6.4341   107.9303
 2161.5000     6.4340   109.0326
 2162.0000     6.4171   112.9007
 2162.5000     6.4120   110.6334
 2163.0000     6.4093   108.8177
 2163.5000     6.4067   107.1089
 2164.0000     6.4082   108.5670
 2164.5000     6.4268   110.0187
 2165.0000     6.4338   104.4902
 2165.5000     6.4161   104.4723
 2166.0000     6.3988   103.9897
 2166.5000     6.4053   102.0871
 2167.0000     6.4241   101.4898
 2167.5000     6.4580   101.3374
 2168.0000     6.4038   101.6605
 2168.5000     6.4073   106.4102
 2169.0000     6.4111   112.0816
 2169.5000     6.4162   113.8993
 2170.0000     6.4324   116.5286
 2170.5000     6.4494   115.1775
 2171.0000     6.4452   113.7546
 2171.5000     6.4333   111.6231
 2172.0000     6.4240   110.6423
 2172.5000     6.4242   113.4110
 2173.0000     6.4242   114.4209
 2173.5000     6.4242   119.4884
 2174.0000     6.4242   120.3952
 2174.5000     6.4244   115.6978
 2175.0000     6.4193   113.5113
 2175.5000     6.4132   112.0155
 2176.0000     6.4071   115.4023
 2176.5000     6.4010   118.5340
 2177.0000     6.3946   116.6738
 2177.5000     6.3833   114.7602
 2178.0000     6.3841   111.7138
 2178.5000     6.4167   114.4502
 2179.0000     6.4258   113.8086
 2179.5000     6.4283   114.6352
 2180.0000     6.4306   116.3937
 2180.5000     6.4328   111.8675
 2181.0000     6.4341   113.1447
 2181.5000     6.4378   112.7666
 2182.0000     6.4420   113.2608
 2182.5000     6.4463   114.1721
 2183.0000     6.4504   117.0481
 2183.5000     6.4521   121.5997
 2184.0000     6.4436   123.3909
 2184.5000     6.4559   118.8653
 2185.0000     6.4712   116.0854
 2185.5000     6.4603   119.6112
 2186.0000     6.4714   119.9785
 2186.5000     6.4770   115.9060
