~VERSION INFORMATION
 VERS.                2.0:   CWLS LOG ASCII STANDARD - VERSION 2.0
 WRAP.                 NO:   ONE LINE PER DEPTH STEP
~WELL INFORMATION
#MNEM.UNIT      DATA TYPE    INFORMATION
#----------   ------------   ------------------------------
 STRT.F            3.0000:   START DEPTH
 STOP.F         1011.0000:   STOP DEPTH
 STEP.F            0.5000:   STEP LENGTH
 NULL.          -999.2500:   NO VALUE
 COMP. BROWN JOHN E&C INC:   COMPANY
 WELL. NPR 3 SHX-38 #2-35:   WELL
 FLD .             TEAPOT:   FIELD
 LOC .      S35 T39N R78W:   LOCATION
 CNTY.            NATRONA:   COUNTY
 STAT.            WYOMING:   STATE
 CTRY. UNITED STATES OF AMERICA:   COUNTRY
 SRVC.     Atlas Wireline:   SERVICE COMPANY
 DATE.        15-NOV-1991:   LOGDATE
 API .       490252248100:   API NUMBER
~CURVE INFORMATION
#MNEM.UNIT       API CODE    CURVE DESCRIPTION
#----------   ------------   ------------------------------
 DEPT.F                  :   
 GRR .GAPI   07 310 01 00:   GAMMA RAY
 RILD.OHMM   07 120 46 00:   INDUCTION LOG DEEP RESISTIVITY
 RILM.OHMM   07 120 44 00:   INDUCTION LOG MEDIUM RESISTIVITY
~PARAMETER INFORMATION
#MNEM.UNIT          VALUE    DESCRIPTION
#----------   ------------   ------------------------------
 PD  .                 GL:   PERMANENT DATUM
 EPD .F              5119:   ELEVATION PERMANENT DATUM
 LMF .                 KB:   LOG MEASURED FROM
 DAPD.F                11:   FEET ABOVE PERMANENT DATUM
 DMF .                 KB:   DRILLING MEASURED FROM
 EKB .F              5120:   KELLING BUSHING
 EGL .F              5119:   GROUND LEVEL
 DATE.        15-NOV-1991:   RUN DATE
 RUN .                  1:   RUN NUMBER
 DD  .F              1015:   DEPTH DRILLER
 DL  .F              1017:   DEPTH LOGGER
 BLI .F              1015:   BOTTOM LOG INTERVAL
 CS  .IN            8.625:   CASING SIZE
 CBD .F                60:   CASING BOTTOM DRILLER
 CBL .F                60:   CASING BOTTOM LOGGER
 BS  .IN            7.875:   BIT SIZE
 BSD .F              1015:   BIT SIZE AT DEPTH
 DFT .                AIR:   DRILLING FLUID TYPE
 LUN .            HL-6272:   LOGGING UNIT NUMBER
 LUL .         CASPER, WY:   LOGGING UNIT LOCATION
 ENGI.             ZIFGER:   RECORDING ENGINEER
 WITN.         MR. STRONG:   WITNESSED BY
 CLNT.            A2DTECH:   CLIENT CODE
 ORIG.           5" PRINT:   ORIGIN OF DATA
 UWI .       490252248100:   UNIQUE WELL ID
 DICO. A2D Technologies, Inc.:   DIGITIZING COMPANY
~OTHER INFORMATION
~A    DEPT      GRR      RILD       RILM   
# ...
   94.0000   130.8042     5.1744     5.1616
   94.5000   131.4112     5.1747     5.1620
   95.0000   134.2035     5.1751     5.1624
   95.5000   136.8741     5.1755     5.1989
   96.0000   137.6752     5.2121     5.1992
   96.5000   140.2124     5.2490     5.3886
   97.0000   135.4416     5.3232     5.5796
   97.5000   128.5281     5.5127     5.7373
   98.0000   126.5554     5.7090     5.8557
   98.5000   128.3763     5.8302     5.9384
   99.0000   127.1502     5.9127     5.9804
   99.5000   126.5554     5.9545     5.9808
  100.0000   127.1624     5.9549     5.9396
  100.5000   129.8938     5.8728     5.8577
  101.0000   132.3217     5.7514     5.6969
  101.5000   131.4112     5.2918     5.3764
  102.0000   123.4881     5.0053     4.8855
  102.5000   122.9435     4.9026     4.8178
  103.0000   124.1650     4.8692     4.8178
  103.5000   125.6884     4.8705     4.8178
  104.0000   125.9979     4.9056     4.8855
  104.5000   125.3969     4.9757     4.9290
  105.0000   124.4910     5.0467     5.0238
  105.5000   123.5865     5.1546     5.0944
  106.0000   123.2890     5.2648     5.2386
  106.5000   123.2965     5.3773     5.3868
  107.0000   126.3374     5.4554     5.5393
  107.5000   126.3434     5.6130     5.6961
  108.0000   126.6529     5.8157     5.8983
  108.5000   129.0868     5.9915     6.1086
  109.0000   130.9137     6.2334     6.2841
  109.5000   131.8302     6.4113     6.3751
  110.0000   131.8362     6.4575     6.4583
  110.5000   129.4148     6.5041     6.4134
  111.0000   124.5649     6.4599     6.3688
  111.5000   123.9625     6.3276     6.3246
  112.0000   125.7909     6.1977     6.2369
  112.5000   128.5283     6.0705     6.1505
  113.0000   130.3553     5.9456     5.9812
  113.5000   130.3834     5.7031     5.7360
  114.0000   123.6905     5.3195     5.3868
  114.5000   124.3278     5.0316     4.9542
  115.0000   129.2059     4.8261     4.8178
  115.5000   129.7783     4.7601     4.8178
  116.0000   127.8664     4.7611     4.8515
  116.5000   124.9359     4.7955     4.8855
  117.0000   123.4245     4.8651     4.9211
  117.5000   125.8584     4.9709     4.9576
  118.0000   127.3819     5.1145     5.0646
  118.5000   125.8704     5.2347     5.2021
  119.0000   124.3590     5.3991     5.3868
  119.5000   127.0964     5.5988     5.6565
  120.0000   128.6198     5.8396     5.9812
  120.5000   128.6258     6.2240     6.2806
  121.0000   129.2388     6.4465     6.4583
  121.5000   130.1553     6.4885     6.5036
  122.0000   133.8031     6.4446     6.4134
  122.5000   137.4510     6.3569     6.3246
  123.0000   138.3675     6.3140     6.2806
  123.5000   137.1595     6.2713     6.2369
  124.0000   134.7376     6.2726     6.2369
  124.5000   132.3157     6.2303     6.2369
  125.0000   130.8043     6.1879     6.1935
  125.5000   128.6576     6.1895     6.2369
  126.0000   126.7861     6.2341     6.2806
  126.5000   129.7359     6.3231     6.3246
  127.0000   131.4352     6.4134     6.4134
  127.5000   130.5308     6.5049     6.5036
  128.0000   131.7522     6.5519     6.5950
  128.5000   134.4896     6.5991     6.6876
  129.0000   138.1375     6.6467     6.7345
  129.5000   140.5714     6.6947     6.7345
  130.0000   141.4879     6.7430     6.7816
  130.5000   137.8520     6.7444     6.7816
  131.0000   128.4498     6.7458     6.7816
  131.5000   127.8473     6.7473     6.7816
  132.0000   132.7107     6.7489     6.8092
  132.5000   138.4835     6.7503     6.7816
  133.0000   143.0419     6.7586     6.7816
  133.5000   143.9568     6.8005     6.7816
  134.0000   139.1085     6.8495     6.7816
  134.5000   133.3482     6.8990     6.7816
  135.0000   126.9809     6.9004     6.7816
  135.5000   124.5574     6.9018     6.7816
  136.0000   125.7789     6.9032     6.7345
  136.5000   124.8744     6.6214     6.4583
  137.0000   123.9700     6.2193     6.2369
  137.5000   123.3687     6.0493     6.1077
  138.0000   124.8924     6.0081     5.9812
  138.5000   133.3962     6.0097     5.9812
  139.0000   141.2929     6.0109     5.9396
  139.5000   143.1198     6.0121     5.9812
  140.0000   137.0763     6.0134     5.9812
  140.5000   126.4404     6.0568     6.0231
  141.0000   122.1975     6.1005     6.1077
  141.5000   122.5070     6.1446     6.1505
  142.0000   125.8514     6.1892     6.2387
  142.5000   127.6784     6.2338     6.3246
  143.0000   129.2059     6.2351     6.3760
  143.5000   128.8862     6.2801     6.5491
  144.0000   127.3606     6.3697     6.7345
  144.5000   127.4456     6.5974     6.9251
  145.0000   128.6203     6.9779     7.2717
  145.5000   128.9283     7.6961     7.9068
  146.0000   121.3486     8.1400     9.2186
  146.5000   113.1603     8.3723     9.8161
  147.0000    97.9918     8.4918     9.4795
  147.5000    80.6989     8.5530     9.0909
  148.0000    78.5789     8.4948     8.6575
  148.5000    92.2435     8.3791     8.3026
  149.0000   101.9612     8.2072     8.0740
  149.5000   111.9824     8.0387     7.8518
  150.0000   119.8791     7.7645     7.6357
  150.5000   125.1735     7.3931     7.4658
  151.0000   128.0849     7.1884     6.9241
  151.5000   125.9545     7.0384     6.7359
  152.0000   125.6530     6.9981     6.7363
  152.5000   125.0682     7.0490     6.7864
  153.0000   125.6813     7.0505     6.8798
  153.5000   126.9580     7.0347     6.8803
  154.0000   128.7608     7.0156     6.8808
  154.5000   128.7343     6.9965     6.8812
  155.0000   126.2316     6.9774     6.8817
  155.5000   124.4975     6.9583     6.8822
  156.0000   126.5189     6.9437     6.8827
  156.5000   132.6111     6.8954     6.8832
  157.0000   137.0157     6.8954     6.8291
  157.5000   136.3593     6.8466     6.7816
  158.0000   133.0270     6.7506     6.6951
  158.5000   130.6051     6.6559     6.5950
  159.0000   133.0391     6.5625     6.4584
  159.5000   136.9905     6.5158     6.3773
  160.0000   138.2105     6.4303     6.3778
  160.5000   138.8235     6.4303     6.3783
  161.0000   138.5261     6.4303     6.3787
  161.5000   138.2272     6.4754     6.4238
  162.0000   137.0208     6.5208     6.4693
  162.5000   134.2954     6.6588     6.6066
  163.0000   132.7825     6.8954     6.7468
  163.5000   131.8796     7.7105     7.2348
  164.0000   128.2437     9.3755     8.4949
  164.5000   120.0555     9.9836     9.7677
  165.0000   107.9220    10.1240     9.9055
  165.5000    94.2710     9.4412     9.2387
  166.0000    78.7990     8.0967     8.6166
  166.5000    86.6958     7.2915     8.1494
  167.0000   106.4287     7.1404     7.6007
  167.5000   125.8582     7.0414     7.1386
  168.0000   127.6852     6.5664     6.9911
  168.5000   121.6214     6.5664     6.8468
  169.0000   117.6806     6.6125     6.7523
  169.5000   118.2936     6.6588     6.6592
  170.0000   114.9628     6.6588     6.5675
  170.5000   114.3603     6.6588     6.5679
  171.0000   121.3482     6.6125     6.5226
  171.5000   121.9612     6.5664     6.5688
  172.0000   122.5742     6.6125     6.6153
  172.5000   125.3117     6.6125     6.6621
  173.0000   132.2980     6.6588     6.7092
  173.5000   131.6971     6.7174     6.7566
  174.0000   129.2752     6.7998     6.8044
  174.5000   129.5847     6.8474     6.8525
  175.0000   131.4117     6.9437     6.9010
  175.5000   134.4527     7.0414     6.9498
  176.0000   135.9762     7.1404     6.9990
  176.5000   136.5892     7.1904     7.0978
  177.0000   135.9883     7.2408     7.1480
  177.5000   130.3127     7.2408     7.1485
  178.0000   124.4188     7.2422     7.1991
  178.5000   123.5628     7.2408     7.1996
  179.0000   127.0693     7.2408     7.2001
  179.5000   131.2717     7.2408     7.2006
  180.0000   133.8996     7.2408     7.2011
  180.5000   130.7375     7.2408     7.2016
  181.0000   129.3594     7.2408     7.2021
  181.5000   130.6323     7.2915     7.2026
  182.0000   131.4962     7.2915     7.2031
  182.5000   131.8070     7.2408     7.1534
  183.0000   131.2045     7.1404     7.1540
  183.5000   131.5156     7.0907     7.1545
  184.0000   131.5216     6.9437     7.1051
  184.5000   131.2227     6.8474     7.0562
