~VERSION INFORMATION
 VERS.                2.0:   CWLS LOG ASCII STANDARD - VERSION 2.0
 WRAP.                 NO:   ONE LINE PER DEPTH STEP
~WELL INFORMATION
#MNEM.UNIT      DATA TYPE    INFORMATION
#----------   ------------   ------------------------------
 STRT.F           70.0000:   START DEPTH
 STOP.F         1072.0000:   STOP DEPTH
 STEP.F            0.5000:   STEP LENGTH
 NULL.          -999.2500:   NO VALUE
 COMP. LAWRENCE/ALLISON INC:   COMPANY
 WELL.    67-66 SX #11-11:   WELL
 FLD .             TEAPOT:   FIELD
 LOC .      S11 T38N R78W:   LOCATION
 CNTY.            NATRONA:   COUNTY
 STAT.            WYOMING:   STATE
 CTRY. UNITED STATES OF AMERICA:   COUNTRY
 SRVC.      Dresser Atlas:   SERVICE COMPANY
 DATE.        03-FEB-1986:   LOGDATE
 API .       490251105700:   API NUMBER
~CURVE INFORMATION
#MNEM.UNIT       API CODE    CURVE DESCRIPTION
#----------   ------------   ------------------------------
 DEPT.F                  :   
 RILD.OHMM   07 120 46 00:   RESISTIVITY INDUCTION LOG DEEP
 RILM.OHMM   07 120 44 00:   RESISTIVITY INDUCTION LOG MEDIUM
 GRD .GAPI   45 310 01 00:   GAMMA RAY FROM DENSITY LOG
 CALD.IN     45 280 60 00:   CALIPER FROM DENSITY LOG
 CORR.G/C3   45 356 01 00:   DENSITY CORRECTION
 PORD.DEC    45 890 12 00:   POROSITY DENSITY SANDSTONE
 DEN .G/C3   45 350 01 00:   COMPENSATED BULK DENSTIY
~PARAMETER INFORMATION
#MNEM.UNIT          VALUE    DESCRIPTION
#----------   ------------   ------------------------------
 PD  .                 GL:   PERMANENT DATUM
 EPD .F              5245:   ELEVATION PERMANENT DATUM
 LMF .                 GL:   LOG MEASURED FROM
 DMF .                 GL:   DRILLING MEASURED FROM
 EGL .F              5245:   GROUND LEVEL
 DATE.        03-FEB-1986:   RUN DATE
 RUN .                  1:   RUN NUMBER
 DD  .F              1120:   DEPTH DRILLER
 DL  .F              1074:   DEPTH LOGGER
 BLI .F              1068:   BOTTOM LOG INTERVAL
 TLI .F                86:   TOP LOG INTERVAL
 CS  .IN            8.625:   CASING SIZE
 CBD .F                86:   CASING BOTTOM DRILLER
 CBL .F                86:   CASING BOTTOM LOGGER
 BS  .IN             6.25:   BIT SIZE
 BSD .F              1120:   BIT SIZE AT DEPTH
 DFT .                AIR:   DRILLING FLUID TYPE
 TCS .HRS               2:   TIME CURCULATED STOPPED
 LUN .               6274:   LOGGING UNIT NUMBER
 LUL .           GILLETTE:   LOGGING UNIT LOCATION
 ENGI.             MILLER:   RECORDING ENGINEER
 WITN.           JENNINGS:   WITNESSED BY
 CLNT.            A2DTECH:   CLIENT CODE
 ORIG.           5" PRINT:   ORIGIN OF DATA
 UWI .       490251105700:   UNIQUE WELL ID
 DICO. A2D Technologies, Inc.:   DIGITIZING COMPANY
~OTHER INFORMATION
~A   DEPT     RILD       RILM        GRD       CALD       CORR       PORD        DEN   
# ...
  570.5000     6.2117     6.2403   144.7249     7.7205     0.0752     0.1306     2.4592
  571.0000     6.2182     6.2905   145.9510     7.7369     0.0739     0.1299     2.4631
  571.5000     6.2679     6.2975   144.4865     7.7385     0.0725     0.1305     2.4635
  572.0000     6.2744     6.3046   141.2283     7.7549     0.0695     0.1317     2.4565
  572.5000     6.2809     6.3116   138.8594     7.7863     0.0638     0.1319     2.4566
  573.0000     6.2875     6.2317   138.5908     7.7578     0.0579     0.1304     2.4575
  573.5000     6.2505     6.1532   140.1234     7.7441     0.0439     0.1319     2.4583
  574.0000     6.2139     6.1070   143.7412     7.7460     0.0418     0.1300     2.4629
  574.5000     6.0926     6.0604   147.3589     7.7027     0.0783     0.1222     2.4758
  575.0000     6.0990     6.0060   149.7808     7.6888     0.0964     0.1212     2.4767
  575.5000     6.1054     6.0128   150.7004     7.6907     0.0996     0.1242     2.4685
  576.0000     5.9846     5.9764   146.8519     7.7221     0.0967     0.1308     2.4603
  576.5000     5.9495     5.9418   145.0304     7.7236     0.0954     0.1280     2.4664
  577.0000     5.9573     6.0316   144.8122     7.7251     0.0986     0.1248     2.4741
  577.5000     5.9636     6.1308   144.8425     7.6964     0.1033     0.1203     2.4817
  578.0000     6.0531     6.4825   140.9745     7.7132     0.0960     0.1180     2.4856
  578.5000     6.1439     6.7602   140.4066     7.7297     0.0886     0.1177     2.4840
  579.0000     6.3231     6.9569   141.6449     7.7312     0.0843     0.1191     2.4796
  579.5000     6.4626     7.0617   142.8711     7.7327     0.0784     0.1215     2.4759
  580.0000     6.5144     7.0696   139.3139     7.7189     0.0711     0.1215     2.4746
  580.5000     6.5665     7.0775   130.3756     7.7207     0.0607     0.1184     2.4823
  581.0000     6.6191     7.0346   131.3028     7.7222     0.0579     0.1124     2.4914
  581.5000     6.6721     6.9940   135.5184     7.7238     0.0701     0.1108     2.4998
  582.0000     6.6791     6.9076   140.6309     7.7250     0.0884     0.1162     2.4841
  582.5000     6.6861     6.9153   144.8466     7.7114     0.0780     0.1312     2.4586
  583.0000     6.6931     6.9231   146.0651     7.7280     0.0616     0.1384     2.4429
  583.5000     6.7001     6.9308   144.6006     7.7444     0.0227     0.1411     2.4482
  584.0000     6.7523     6.9867   145.5354     7.7459     0.0153     0.1398     2.4566
  584.5000     6.8601     6.9946   145.8646     7.7474     0.0441     0.1326     2.4605
  585.0000     6.9564     7.0510   145.5884     7.7638     0.0594     0.1310     2.4613
  585.5000     7.0120     6.9619   143.2346     7.7653     0.0520     0.1325     2.4547
  586.0000     7.0193     6.8721   141.0700     7.7519     0.0326     0.1361     2.4517
  586.5000     7.0266     6.8817   140.8960     7.7384     0.0494     0.1366     2.4541
  587.0000     6.9853     6.8894   142.1385     7.7250     0.0782     0.1333     2.4610
  587.5000     6.9445     6.8952   143.3483     7.7115     0.0829     0.1293     2.4671
  588.0000     6.8562     6.8081   142.1828     7.7131     0.0740     0.1260     2.4695
  588.5000     6.8157     6.7221   139.5225     7.7146     0.0636     0.1266     2.4658
  589.0000     6.7757     6.5904   140.4496     7.7161     0.0714     0.1283     2.4651
  589.5000     6.6437     6.5083   142.2737     7.7176     0.0776     0.1289     2.4645
  590.0000     6.6030     6.4705   144.3966     7.7191     0.0777     0.1295     2.4620
  590.5000     6.5190     6.4779   143.8290     7.7206     0.0761     0.1338     2.4554
  591.0000     6.4808     6.4402   143.2614     7.7068     0.0733     0.1357     2.4534
  591.5000     6.4893     6.4477   142.3873     7.6934     0.0675     0.1360     2.4528
  592.0000     6.4513     6.4549   141.5207     7.6799     0.0601     0.1353     2.4544
  592.5000     6.4581     6.4621   140.3628     7.6968     0.0513     0.1347     2.4553
  593.0000     6.4649     6.4694   138.8983     7.7132     0.0457     0.1338     2.4584
  593.5000     6.4716     6.4320   137.7328     7.7147     0.0504     0.1313     2.4630
  594.0000     6.4784     6.4392   136.5597     7.7009     0.0566     0.1271     2.4691
  594.5000     6.4852     6.4464   138.3913     7.7028     0.0628     0.1198     2.4828
  595.0000     6.4920     6.4536   140.2093     7.7192     0.0690     0.1192     2.4791
  595.5000     6.4988     6.4609   139.9391     7.7357     0.0737     0.1230     2.4739
  596.0000     6.5057     6.4681   139.9980     7.7372     0.0724     0.1287     2.4672
  596.5000     6.4658     6.4753   141.5187     7.7387     0.0515     0.1311     2.4621
  597.0000     6.5193     6.4826   143.9164     7.7249     0.0468     0.1317     2.4614
  597.5000     6.5248     6.4898   145.7404     7.7265     0.0533     0.1313     2.4638
  598.0000     6.5315     6.4956   145.1728     7.7130     0.0625     0.1286     2.4691
  598.5000     6.5433     6.5028   140.4199     7.7145     0.1064     0.1219     2.4768
  599.0000     6.5906     6.5594   138.3499     7.7160     0.0915     0.1231     2.4746
  599.5000     6.6433     6.7022   140.4805     7.7025     0.0706     0.1270     2.4687
  600.0000     6.6964     6.8480   144.4975     7.7040     0.0550     0.1302     2.4620
  600.5000     6.7493     6.9316   147.7162     7.7206     0.0333     0.1326     2.4576
  601.0000     6.8076     7.0071   148.6461     7.7223     0.0064     0.1352     2.4547
  601.5000     6.7670     6.9665   145.6897     7.7240     0.0047     0.1390     2.4509
  602.0000     6.7777     6.8785   146.0217     7.7256     0.0355     0.1366     2.4516
  602.5000     6.6008     6.7446   146.3877     7.7273     0.0568     0.1336     2.4572
  603.0000     6.4286     6.5679   143.3973     7.7136     0.0630     0.1332     2.4558
  603.5000     6.2588     6.3958   141.9342     7.7157     0.0572     0.1368     2.4506
  604.0000     6.0974     6.2285   144.9582     7.7323     0.0514     0.1431     2.4417
  604.5000     6.0211     6.1074   147.6819     7.7186     0.0456     0.1488     2.4328
  605.0000     5.9852     5.9887   147.4160     7.7356     0.0397     0.1490     2.4286
  605.5000     5.9514     5.9524   143.8616     7.7219     0.0415     0.1439     2.4340
  606.0000     5.9608     5.9179   140.9052     7.7240     0.0447     0.1369     2.4469
  606.5000     5.9667     5.9262   140.0331     7.7406     0.0404     0.1351     2.4553
  607.0000     5.9742     5.8919   141.5692     7.7422     0.0361     0.1359     2.4538
  607.5000     5.9816     5.8174   143.3960     7.7439     0.0288     0.1412     2.4464
  608.0000     5.9891     5.7821   144.9239     7.7302     0.0124     0.1464     2.4337
  608.5000     5.9140     5.8304   145.5548     7.7323     0.0367     0.1402     2.4503
  609.0000     5.8398     5.7567   146.1858     7.7339     0.0867     0.1315     2.4640
  609.5000     5.6876     5.6432   146.2189     7.7356     0.1095     0.1279     2.4686
  610.0000     5.6948     5.6511   146.5509     7.7369     0.0901     0.1288     2.4684
  610.5000     5.7415     5.7361   145.6872     7.7386     0.0286     0.1315     2.4627
  611.0000     5.8695     5.8225   145.1223     7.7402     0.0348     0.1347     2.4587
  611.5000     5.9588     5.9924   142.4648     7.7269     0.0516     0.1389     2.4508
  612.0000     6.0916     6.1673   140.9949     7.7740     0.0707     0.1341     2.4502
  612.5000     6.2705     6.3473   142.2320     7.7750     0.0853     0.1238     2.4669
  613.0000     6.4102     6.5326   145.5536     7.7468     0.0900     0.1195     2.4813
  613.5000     6.5530     6.6309   144.3909     7.7335     0.0962     0.1225     2.4791
  614.0000     6.6528     6.7308   141.7334     7.7202     0.1024     0.1291     2.4679
  614.5000     6.7541     6.7383   143.2612     7.7368     0.1040     0.1282     2.4618
  615.0000     6.8096     6.7907   144.1911     7.7385     0.0997     0.1245     2.4681
  615.5000     6.8181     6.7514   142.1315     7.7252     0.0803     0.1227     2.4749
