~VERSION INFORMATION
 VERS.                2.0:   CWLS LOG ASCII STANDARD - VERSION 2.0
 WRAP.                 NO:   ONE LINE PER DEPTH STEP
~WELL INFORMATION
#MNEM.UNIT      DATA TYPE    INFORMATION
#----------   ------------   ------------------------------
 STRT.F           30.0000:   START DEPTH
 STOP.F          506.0000:   STOP DEPTH
 STEP.F            0.5000:   STEP LENGTH
 NULL.          -999.2500:   NO VALUE
 COMP. FENIX & SCISSON INC:   COMPANY
 WELL.    42 SX-3F1 #55-3:   WELL
 FLD .             TEAPOT:   FIELD
 LOC .       S3 T38N R78W:   LOCATION
 CNTY.            NATRONA:   COUNTY
 STAT.            WYOMING:   STATE
 CTRY. UNITED STATES OF AMERICA:   COUNTRY
 SRVC.              Welex:   SERVICE COMPANY
 DATE.        26-MAY-1980:   LOGDATE
 API .       490251082900:   API NUMBER
~CURVE INFORMATION
#MNEM.UNIT       API CODE    CURVE DESCRIPTION
#----------   ------------   ------------------------------
 DEPT.F                  :   
 GRD .GAPI   45 310 01 00:   GAMMA RAY FROM DENSITY LOG
 CALD.IN     45 280 60 00:   CALIPER
 RHOB.G/C3   45 350 01 00:   BULK DENSITY
 CORR.G/C3   45 356 01 00:   DENSITY CORRECTION
 DPHI.DEC    45 890 12 00:   DENSITY POROSITY SANDSTONE
 NPHI.DEC    42 890 03 00:   NEUTRON POROSITY SANDSTONE
 GURD.OHMM   07 220 05 00:   GUARD RESISTIVITY
 ILD .OHMM   07 120 46 00:   INDUCTION LOG DEEP
 ILM .OHMM   07 120 44 00:   INDUCTION LOG MEDIUM
 SPR .MV     07 010 01 00:   SPONTANEOUS POTENTIAL
~PARAMETER INFORMATION
#MNEM.UNIT          VALUE    DESCRIPTION
#----------   ------------   ------------------------------
 PD  .                 GL:   PERMANENT DATUM
 EPD .F              5161:   ELEVATION PERMANENT DATUM
 LMF .                 KB:   LOG MEASURED FROM
 DAPD.F                 4:   FEET ABOVE PERMANENT DATUM
 DMF .                 KB:   DRILLING MEASURED FROM
 EKB .F              5165:   KELLING BUSHING
 EGL .F              5161:   GROUND LEVEL
 DATE.            5-26-80:   RUN DATE
 RUN .                  1:   RUN NUMBER
 DD  .F               500:   DEPTH DRILLER
 DL  .F               502:   DEPTH LOGGER
 BLI .F               500:   BOTTOM LOG INTERVAL
 TLI .F                34:   TOP LOG INTERVAL
 BS  .IN            9.875:   BIT SIZE
 BSD .F               500:   BIT SIZE AT DEPTH
 DFT .          KCL WATER:   DRILLING FLUID TYPE
 DFD .                9.5:   DRILLING FLUID DENSITY
 DFV .                 45:   DRILLING FLUID VISCOSITY
 MSS .            MUD PIT:   MUD SAMPLE SOURCE
 RMS .OHMM            .39:   RESISTIVITY MUD SAMPLE
 MST .F                75:   MUD SAMPLE TEMPERATURE
 RMF .OHMM           .312:   RESISTIVITY MUD FILTRATE SAMPLE
 MFST.F                75:   MUD FILTRATE SAMPLE TEMPERATURE
 RMC .OHMM           .468:   RESISTIVITY MUD CAKE
 MCST.F                75:   MUD CAKE SAMPLE TEMPERATURE
 MFSS.           MEASURED:   MUD FILTRATE SAMPLE SOURCE
 MCSS.           MEASURED:   MUD CAKE SAMPLE SOURCE
 RMB .OHMM            .39:   RESISTIVITY MUD AT BHT
 BHT .F                75:   BOTTOM HOLE TEMPERATURE
 TCS .HRS               2:   TIME CURCULATED STOPPED
 MRT .F                75:   MAXIMUM RECORDED TEMPERATURE
 LUN .               9685:   LOGGING UNIT NUMBER
 LUL .             CASPER:   LOGGING UNIT LOCATION
 ENGI.            TOTHILL:   RECORDING ENGINEER
 WITN.            RHOADES:   WITNESSED BY
 CLNT.            A2DTECH:   CLIENT CODE
 ORIG.           5" PRINT:   ORIGIN OF DATA
 UWI .       490251082900:   UNIQUE WELL ID
 DICO. A2D Technologies, Inc.:   DIGITIZING COMPANY
~OTHER INFORMATION
~A   DEPT      GRD       CALD       RHOB       CORR         DPHI       NPHI      GURD        ILD        ILM       SPR   
# ...
  264.5000   108.1609    10.0602     2.4762     0.0262     0.1268     0.2876     7.3493     5.7114     6.8091   -35.2556
  265.0000   107.8862    10.0666     2.4762     0.0115     0.1352     0.2889     7.6964     5.9582     7.1913   -35.2234
  265.5000   107.6054    10.0738     2.4627     0.0015     0.1324     0.2894     8.1773     6.2149     7.2512   -35.1911
  266.0000   107.7806    10.0252     2.4579    -0.0058     0.1368     0.2839     8.1496     6.4803     7.4413   -35.1589
  266.5000   108.4536     9.9616     2.4546    -0.0103     0.1278     0.2819     8.1037     6.7459     7.6541   -35.1267
  267.0000   109.1206     9.9789     2.4534     0.0004     0.1187     0.2783     8.2252     6.9971     7.8731   -35.0945
  267.5000   109.7822    10.0546     2.4718     0.0129     0.1083     0.2807     8.4050     7.2602     8.0281   -35.0622
  268.0000   110.2378    10.1290     2.4801     0.0255     0.0966     0.2903     8.3460     7.4095     7.9872   -35.0300
  268.5000   110.3886    10.1202     2.5058     0.0380     0.0867     0.2918     8.2639     7.4437     7.9504   -34.9977
  269.0000   110.5454    10.1068     2.5231     0.0505     0.0817     0.2919     8.1768     7.5095     7.9138   -34.9655
  269.5000   110.7005    10.0938     2.5423     0.0628     0.0930     0.2900     8.2309     7.6046     7.8822   -34.9333
  270.0000   110.8642    10.0810     2.5456     0.0591     0.0867     0.2874     8.2895     7.7009     7.9209   -34.9012
  270.5000   111.2580    10.0762     2.5295     0.0476     0.0899     0.2828     8.3486     7.7984     7.9553   -34.8689
  271.0000   111.6503    10.0964     2.5349     0.0531     0.0870     0.2755     8.4080     7.8822     7.9898   -34.8371
  271.5000   112.0366    10.1161     2.5321     0.0490     0.0918     0.2710     8.4679     7.8667     8.0244   -34.8052
  272.0000   112.2110    10.1277     2.5374     0.0452     0.0843     0.2704     8.5155     7.8533     8.0592   -34.7733
  272.5000   111.7902    10.0988     2.5332     0.0475     0.0998     0.2692     8.5593     7.8399     8.1021   -34.7414
  273.0000   111.3770    10.0706     2.5412     0.0531     0.1109     0.2721     8.6033     7.8265     8.0499   -34.7095
  273.5000   110.9709    10.0504     2.5180     0.0392     0.1154     0.2740     8.6388     7.8131     7.9826   -34.6776
  274.0000   110.0808    10.0326     2.5018     0.0255     0.1187     0.2720     8.3620     7.7998     7.9159   -34.6457
  274.5000   108.8854     9.9839     2.4893     0.0218     0.1217     0.2690     8.1749     7.7865     7.8498   -34.6139
  275.0000   107.6846     9.9378     2.4857     0.0196     0.1066     0.2666     8.1769     7.7732     7.8102   -34.5820
  275.5000   106.4862     9.9814     2.4753     0.0187     0.1024     0.2692     8.1736     7.7599     8.0291   -34.5499
  276.0000   105.3624    10.0289     2.4928     0.0315     0.1038     0.2752     8.5976     7.7473     8.1895   -34.5174
  276.5000   104.8706    10.0762     2.5125     0.0548     0.1143     0.2791     9.0382     7.7019     8.2522   -34.4908
  277.0000   104.7097    10.1242     2.5098     0.0594     0.1273     0.2800     9.2153     7.6136     8.1755   -34.5804
  277.5000   104.8833    10.1242     2.5013     0.0592     0.1380     0.2837     9.2147     7.2823     8.1218   -34.6737
  278.0000   105.6321    10.1144     2.4673     0.0501     0.1419     0.2848     9.2125     6.9170     7.7110   -34.7666
  278.5000   106.3763    10.1043     2.4537     0.0467     0.1341     0.2863     9.0604     6.5700     7.1197   -34.8594
  279.0000   107.1431    10.0938     2.4426     0.0507     0.1303     0.2821     8.4824     6.2404     6.5789   -34.9514
  279.5000   106.4825    10.1158     2.4528     0.0716     0.1241     0.2689     6.4417     5.9274     6.2158   -35.0488
  280.0000   104.1114    10.1441     2.4620     0.0918     0.1132     0.2560     3.5811     5.7702     6.0356   -34.8730
  280.5000   101.7625    10.1704     2.4696     0.0802     0.0974     0.2507     4.1855     5.9168     6.7551   -34.5720
  281.0000    99.4299    10.1581     2.4788     0.0520     0.1063     0.2490     7.6042     6.0917     7.3815   -34.2942
  281.5000    97.8984    10.1444     2.4980     0.0291     0.1113     0.2494     9.4167     6.2719     7.6682   -34.2891
  282.0000    97.5149    10.1309     2.5201     0.0408     0.1189     0.2525     9.8614     6.4417     7.7741   -34.2901
  282.5000    97.1174    10.1174     2.4929     0.0218     0.1197     0.2568    10.2008     6.7961     8.1625   -34.2879
  283.0000    96.7231    10.1048     2.4945     0.0277     0.1191     0.2626    10.4925     7.1406     8.5685   -34.1557
  283.5000    96.3278    10.0929     2.4801     0.0150     0.1256     0.2712    10.7926     7.5696     8.9902   -33.8810
  284.0000    95.9309    10.0809     2.4897     0.0242     0.1284     0.2728    11.0719     8.1927     9.2176   -33.6082
  284.5000    95.5403    10.0689     2.4756     0.0156     0.1217     0.2727    10.8531     8.8671     9.2125   -33.3343
  285.0000    95.1654    10.0570     2.4683     0.0213     0.1277     0.2683    10.6210     9.2439     9.5568   -33.0606
  285.5000    94.6109    10.0450     2.4773     0.0337     0.1340     0.2604    10.3793     9.3051     9.5585   -32.7868
  286.0000    89.5196    10.0330     2.4682     0.0434     0.1348     0.2522    10.4071     9.3666     9.5549   -32.5131
  286.5000    84.3590    10.0210     2.4572     0.0386     0.1296     0.2442    10.4372     9.6243     9.8140   -32.2394
  287.0000    79.2223    10.0091     2.4568     0.0480     0.1303     0.2362    10.4611     9.9632    10.3189   -31.9657
  287.5000    74.1080     9.9971     2.4639     0.0670     0.1340     0.2314    11.0924    10.4942    10.8790   -31.6920
  288.0000    69.8847     9.9851     2.4670     0.0898     0.1559     0.2312    13.3618    11.4181    11.6586   -31.4183
  288.5000    68.5897     9.9731     2.4563     0.1034     0.1782     0.2302    17.1975    12.4234    12.4942   -31.1447
  289.0000    67.6048     9.9607     2.4336     0.0896     0.1989     0.2315    19.0914    13.5171    13.3896   -30.8713
  289.5000    67.6065     9.9303     2.3982     0.0670     0.2087     0.2360    21.3480    14.7071    14.4410   -30.5486
  290.0000    68.3402     9.8765     2.3490     0.0478     0.2216     0.2412    25.2483    16.0019    13.9195   -30.1888
  290.5000    69.0445     9.8231     2.3348     0.0574     0.2318     0.2435    22.9701    17.4107    13.2953   -29.8294
  291.0000    69.7522     9.7696     2.3140     0.0667     0.2207     0.2452    20.6558    18.7029    13.6245   -29.4699
  291.5000    70.2427     9.7154     2.2911     0.0346     0.2094     0.2455    22.9054    19.6928    14.2004   -29.1105
  292.0000    69.4623     9.6938     2.3120     0.0487     0.2099     0.2428    25.9620    20.7350    14.4410   -28.7511
  292.5000    68.6947     9.6836     2.3314     0.0580     0.2076     0.2423    24.8894    21.8212    14.5053   -28.3915
  293.0000    67.9326     9.6738     2.3314     0.0400     0.2131     0.2422    23.6165    22.2318    14.8175   -28.0313
  293.5000    67.1715     9.6647     2.3236     0.0505     0.2088     0.2416    22.4301    22.6459    15.1365   -27.6692
  294.0000    66.4101     9.6984     2.3262     0.0632     0.2075     0.2385    22.4301    23.0560    15.2581   -27.5438
  294.5000    65.6487     9.7826     2.3298     0.0760     0.2170     0.2386    25.1664    23.4570    14.7358   -27.4644
  295.0000    64.8726     9.8659     2.3278     0.0883     0.2321     0.2447    27.2871    23.8540    14.3232   -27.3858
  295.5000    64.6094     9.8631     2.2914     0.0602     0.2255     0.2505    29.3274    23.9177    14.1784   -27.3069
  296.0000    65.9475     9.8448     2.2984     0.0727     0.2189     0.2501    30.9117    23.9177    14.6614   -27.2297
  296.5000    67.4310     9.8261     2.3096     0.0821     0.2159     0.2483    29.3067    23.9178    14.9807   -27.1259
  297.0000    68.9281     9.8148     2.3183     0.0734     0.2179     0.2473    27.5194    23.9184    14.5402   -27.0201
  297.5000    70.4266     9.8111     2.3204     0.0661     0.2143     0.2501    26.9471    23.9153    14.4410   -26.9140
