~VERSION INFORMATION
 VERS.                2.0:   CWLS LOG ASCII STANDARD - VERSION 2.0
 WRAP.                 NO:   ONE LINE PER DEPTH STEP
~WELL INFORMATION
#MNEM.UNIT      DATA TYPE    INFORMATION
#----------   ------------   ------------------------------
 STRT.F           20.5000:   START DEPTH
 STOP.F          544.0000:   STOP DEPTH
 STEP.F            0.5000:   STEP LENGTH
 NULL.          -999.2500:   NO VALUE
 COMP. LAWRENCE/ALLISON INC:   COMPANY
 WELL.    45-65 SX #10-10:   WELL
 FLD .             TEAPOT:   FIELD
 LOC .      S10 T38N R78W:   LOCATION
 CNTY.            NATRONA:   COUNTY
 STAT.            WYOMING:   STATE
 CTRY. UNITED STATES OF AMERICA:   COUNTRY
 SRVC.            Unknown:   SERVICE COMPANY
 DATE.        01-SEP-1984:   LOGDATE
 API .       490251098400:   API NUMBER
~CURVE INFORMATION
#MNEM.UNIT       API CODE    CURVE DESCRIPTION
#----------   ------------   ------------------------------
 DEPT.F                  :   
 GRD .GAPI   45 310 01 00:   GAMMA RAY FROM DENSITY LOG
 CALD.IN     45 280 60 00:   CALIPER
 DEN .G/C3   45 350 01 00:   COMPENSATED BULK DENSTIY
 CORR.G/C3   45 356 01 00:   DENSITY CORRECTION
 CNC .DEC    42 890 03 00:   NEUTRON POROSITY SANDSTONE
 PORD.DEC    45 890 12 00:   POROSITY DENSITY SANDSTONE
 AC  .US/F   60 520 00 00:   ACOUSTIC SONIC
 SPR .MV     07 010 01 00:   SPONTANEOUS POTENTIAL
 RILD.OHMM   07 120 46 00:   INDUCTION LOG DEEP RESISTIVITY
 RILM.OHMM   07 120 44 00:   INDUCTION LOG MEDIUM RESISTIVITY
 RFOC.OHMM   07 220 04 00:   RESISTIVITY FOCUSED LOG
~PARAMETER INFORMATION
#MNEM.UNIT          VALUE    DESCRIPTION
#----------   ------------   ------------------------------
 PD  .                 GL:   PERMANENT DATUM
 EPD .F              5208:   ELEVATION PERMANENT DATUM
 LMF .                 KB:   LOG MEASURED FROM
 DAPD.F                12:   FEET ABOVE PERMANENT DATUM
 DMF .                 KB:   DRILLING MEASURED FROM
 EKB .F              5220:   KELLING BUSHING
 EGL .F              5208:   GROUND LEVEL
 DATE.        1-SEPT-1984:   RUN DATE
 RUN .                  1:   RUN NUMBER
 DD  .F               550:   DEPTH DRILLER
 DL  .F               544:   DEPTH LOGGER
 BLI .F               544:   BOTTOM LOG INTERVAL
 TLI .F                30:   TOP LOG INTERVAL
 CBL .F                44:   CASING BOTTOM LOGGER
 BS  .IN            7.875:   BIT SIZE
 BSD .F               550:   BIT SIZE AT DEPTH
 DFT .          KCL WATER:   DRILLING FLUID TYPE
 MSS .               TANK:   MUD SAMPLE SOURCE
 RMS .OHMM           .236:   RESISTIVITY MUD SAMPLE
 MST .F                75:   MUD SAMPLE TEMPERATURE
 TCS .HRS               3:   TIME CURCULATED STOPPED
 MRT .F               100:   MAXIMUM RECORDED TEMPERATURE
 LUN .               4082:   LOGGING UNIT NUMBER
 LUL .               ROOS:   LOGGING UNIT LOCATION
 ENGI.             MILLER:   RECORDING ENGINEER
 WITN.            JOHNSON:   WITNESSED BY
 CLNT.            A2DTECH:   CLIENT CODE
 ORIG.       2", 5" PRINT:   ORIGIN OF DATA
 UWI .       490251098400:   UNIQUE WELL ID
 DICO. A2D Technologies, Inc.:   DIGITIZING COMPANY
~OTHER INFORMATION
~A   DEPT      GRD       CALD        DEN       CORR          CNC     PORD         AC        SPR       RILD       RILM       RFOC   
# ...
  417.0000    94.0022     7.7396     2.4788     0.0056     0.2278     0.1218    93.9612   -61.6833    11.4687    10.2432    11.4834
  417.5000    96.0399     7.7396     2.4865     0.0455     0.2366     0.1294    94.9622   -61.6835     9.9486     8.9447    10.9636
  418.0000    96.5385     7.7396     2.4867     0.0567     0.2278     0.1367    96.2049   -61.6809     8.5935     7.8108    10.4672
  418.5000    96.2307     7.7396     2.4679     0.0624     0.2466     0.1389    97.8921   -61.8903     7.4256     6.8207     9.9826
  419.0000    96.8396     7.7396     2.4511     0.0692     0.2469     0.1371    99.9695   -62.2353     6.5570     5.9528     9.3689
  419.5000   100.2461     7.7396     2.4407     0.0968     0.2475     0.1686   104.4025   -62.5830     6.3461     5.3617     7.8365
  420.0000   106.0572     7.7396     2.4288     0.0961     0.2583     0.1904   108.8354   -62.9317     6.1365     5.0625     6.2782
  420.5000   112.2895     7.7396     2.3846     0.0501     0.2691     0.1727   111.4421   -63.2596     5.9339     5.6769     5.0609
  421.0000   117.2808     7.7396     2.3592     0.0451     0.2725     0.1872   108.6773   -63.2697     5.8627     6.3249     5.4838
  421.5000   118.7444     7.7381     2.3876     0.0409     0.2553     0.0977   102.6713   -63.2675     6.2304     6.9232     7.2679
  422.0000   117.0016     7.7363     2.4401     0.0368     0.2738     0.0930    96.9202   -63.2352     6.4865     7.5741     9.5915
  422.5000   110.3389     7.7345     2.4928     0.0244     0.2100     0.0937    92.2374   -63.0827     7.1069     8.2863    12.1296
  423.0000   103.8136     7.7327     2.5222     0.0112     0.2122     0.0962    91.1082   -62.9346     7.7518     8.8418    11.5978
  423.5000    96.2883     7.7309     2.5274     0.0205     0.2045     0.1018    91.5120   -62.7867     8.4553     9.3273    11.0567
  424.0000    89.9850     7.7291     2.5216     0.0326     0.1991     0.0985    91.9246   -62.6401     9.2226     9.8394    11.0955
  424.5000    89.3176     7.7273     2.5116     0.0447     0.2091     0.0970    92.3344   -62.5022     9.8095     9.9489    11.1563
  425.0000    90.1844     7.7255     2.5120     0.0567     0.2116     0.0998    92.9637   -62.1185     9.8412    10.0044    11.1344
  425.5000    89.8448     7.7237     2.5184     0.0688     0.2144     0.0922    93.7979   -61.7010     9.9902    10.0602    11.1021
  426.0000    89.3317     7.7218     2.5245     0.0812     0.2200     0.0941    94.6320   -61.1928    10.2926    10.1163    11.0700
  426.5000    92.0931     7.7200     2.5284     0.0691     0.2192     0.0969    95.3946   -60.6634    10.6340    10.1769    11.0547
  427.0000    95.4864     7.7197     2.5251     0.0440     0.2191     0.0998    95.4266   -60.2908    10.9872    10.4717    11.2598
  427.5000    96.6460     7.7197     2.5205     0.0192     0.2184     0.1048    94.9193   -60.2976    11.3519    10.8002    11.6585
  428.0000    97.6576     7.7197     2.5141    -0.0004     0.2170     0.1071    94.0017   -60.2951    11.7288    11.1390    12.1018
  428.5000    98.6793     7.7197     2.5075     0.0028     0.2062     0.1065    93.0841   -60.3028    12.1181    11.4884    12.5620
  429.0000    98.3298     7.7197     2.5012     0.0118     0.2103     0.1131    92.1665   -60.5938    12.5204    11.8487    13.0396
  429.5000    97.7014     7.7197     2.4914     0.0207     0.2036     0.1260    91.6837   -60.9067    12.9360    12.2204    13.5355
  430.0000    98.0606     7.7197     2.4805     0.0298     0.2109     0.1299    91.2987   -61.2190    13.3654    12.6037    14.0502
  430.5000    98.4906     7.7197     2.4697     0.0319     0.2135     0.1259    90.9251   -61.5313    13.8091    12.9990    14.5894
  431.0000    97.6922     7.7197     2.4613     0.0260     0.2107     0.1291    90.5914   -61.8427    14.2675    13.4068    14.9235
  431.5000    95.5793     7.7197     2.4676     0.0201     0.2070     0.1207    90.2577   -62.1552    14.7412    13.7663    15.3193
  432.0000    93.6316     7.7197     2.4756     0.0140     0.2023     0.1115    89.9241   -62.1604    15.0250    14.0424    15.7215
  432.5000    93.8645     7.7197     2.4836     0.0237     0.1992     0.1089    89.6004   -61.8760    15.3433    14.3239    16.1347
  433.0000    97.9875     7.7197     2.4916     0.0367     0.2005     0.1130    89.0849   -61.5853    15.6683    14.6112    16.5588
  433.5000   102.2104     7.7197     2.4997     0.0491     0.1960     0.1006    88.7128   -61.7011    16.0000    14.9042    16.7792
  434.0000   102.6773     7.7197     2.5078     0.0382     0.1996     0.1014    88.6284   -62.0354    16.3389    15.2031    16.8767
  434.5000    97.1296     7.7197     2.5115     0.0277     0.2046     0.1050    88.6875   -61.8844    16.6849    15.4355    16.9747
  435.0000    94.5566     7.7197     2.5071     0.0296     0.2031     0.1018    88.9411   -61.6561    17.0383    15.6582    17.0282
  435.5000    94.0169     7.7197     2.4964     0.0344     0.1997     0.1201    89.8515   -61.4936    17.3992    15.8840    16.8550
  436.0000    95.5193     7.7197     2.4850     0.0320     0.1948     0.1283    91.8981   -61.5513    17.7362    16.1131    16.7372
  436.5000    96.7555     7.7197     2.4737     0.0199     0.2052     0.1206   108.0949   -61.6040    17.9948    16.3455    16.6201
  437.0000    94.4248     7.7197     2.4644     0.0275     0.2043     0.1283   119.0358   -61.6563    18.2572    16.5812    16.5038
  437.5000    91.9217     7.7217     2.4706     0.0355     0.2164     0.1102   123.2382   -61.6837    18.4968    16.8204    16.3884
  438.0000    91.0298     7.7276     2.4864     0.0410     0.2026     0.0954   125.0649   -61.7685    18.4592    17.0629    16.2633
  438.5000    91.6059     7.7335     2.5020     0.0347     0.1920     0.0938   118.7772   -61.8636    18.4250    17.3090    15.8408
  439.0000    91.8439     7.7392     2.5176     0.0297     0.1996     0.0938   107.7662   -61.9588    18.3909    17.5587    15.2644
  439.5000    90.0529     7.7341     2.5233     0.0340     0.1920     0.1051    97.3926   -62.0547    18.3583    17.8291    14.7091
  440.0000    86.9294     7.7282     2.5141     0.0390     0.2072     0.1150    94.0959   -62.2068    18.3274    17.8291    14.0390
  440.5000    84.5846     7.7224     2.5029     0.0440     0.2144     0.1183   103.5864   -62.3802    17.9108    17.4797    14.1846
  441.0000    86.4381     7.7165     2.4916     0.0490     0.2092     0.1202   114.6882   -62.5542    17.4758    17.0201    14.4316
  441.5000    91.4484     7.7107     2.4804     0.0541     0.2144     0.1234   123.8735   -62.7276    17.0524    16.5718    14.2875
  442.0000    92.1244     7.7049     2.4740     0.0590     0.1996     0.1266   127.5160   -62.8726    16.6392    16.1356    14.1687
  442.5000    89.8351     7.6990     2.4686     0.0644     0.2162     0.1251   127.8621   -62.8530    16.2361    15.7108    14.2438
  443.0000    87.7626     7.6932     2.4655     0.0546     0.2201     0.1267   120.3948   -62.8364    15.8427    15.2972    14.2989
  443.5000    89.4596     7.6874     2.4719     0.0375     0.2272     0.1275   110.4362   -62.8203    15.5328    14.8351    14.3542
  444.0000    92.5616     7.6813     2.4816     0.0291     0.2176     0.1081    98.2793   -62.8041    15.0954    14.3405    14.4097
  444.5000    95.4804     7.6799     2.4913     0.0347     0.2205     0.1050    92.2977   -62.7881    14.6686    13.8620    14.4316
  445.0000    96.4522     7.6799     2.5010     0.0400     0.2228     0.1059    92.6640   -62.7720    14.2539    13.4081    14.2813
  445.5000    97.6703     7.6799     2.5106     0.0439     0.2272     0.0933    93.2201   -62.7559    13.8509    13.1294    14.0987
  446.0000    99.9824     7.6799     2.5203     0.0411     0.2228     0.0915    93.5674   -62.7398    13.5289    12.8621    13.9184
  446.5000   102.3037     7.6799     2.5268     0.0384     0.2161     0.1002    93.7962   -62.7237    13.2284    12.6001    13.7833
  447.0000   104.2955     7.6799     2.5209     0.0359     0.2141     0.1035    93.7962   -62.7076    12.9346    12.3433    13.5940
