~VERSION INFORMATION
 VERS.                2.0:   CWLS LOG ASCII STANDARD - VERSION 2.0
 WRAP.                 NO:   ONE LINE PER DEPTH STEP
~WELL INFORMATION
#MNEM.UNIT      DATA TYPE    INFORMATION
#----------   ------------   ------------------------------
 STRT.F           30.0000:   START DEPTH
 STOP.F          697.0000:   STOP DEPTH
 STEP.F            0.5000:   STEP LENGTH
 NULL.          -999.2500:   NO VALUE
 COMP. LAWRENCE/ALLISON INC:   COMPANY
 WELL.    81-66 SX #15-15:   WELL
 FLD .             TEAPOT:   FIELD
 LOC .      S15 T38N R78W:   LOCATION
 CNTY.            NATRONA:   COUNTY
 STAT.            WYOMING:   STATE
 CTRY. UNITED STATES OF AMERICA:   COUNTRY
 SRVC.           Gearhart:   SERVICE COMPANY
 DATE.        15-JUL-1987:   LOGDATE
 API .       490251117000:   API NUMBER
~CURVE INFORMATION
#MNEM.UNIT       API CODE    CURVE DESCRIPTION
#----------   ------------   ------------------------------
 DEPT.F                  :   
 GRR .GAPI   07 310 01 00:   GAMMA RAY
 ILD .OHMM   07 120 46 00:   INDUCTION LOG DEEP
 ILM .OHMM   07 120 44 00:   INDUCTION LOG MEDIUM
~PARAMETER INFORMATION
#MNEM.UNIT          VALUE    DESCRIPTION
#----------   ------------   ------------------------------
 PD  .                 GL:   PERMANENT DATUM
 EPD .F              5232:   ELEVATION PERMANENT DATUM
 LMF .                 KB:   LOG MEASURED FROM
 DAPD.F                 8:   FEET ABOVE PERMANENT DATUM
 DMF .                 KB:   DRILLING MEASURED FROM
 EKB .F              5240:   KELLING BUSHING
 EDF .F              5238:   DRILLING FLOOR
 EGL .F              5232:   GROUND LEVEL
 DATE.        28-AUG-1987:   RUN DATE
 RUN .                  1:   RUN NUMBER
 DD  .F               700:   DEPTH DRILLER
 DL  .F               706:   DEPTH LOGGER
 BLI .F               700:   BOTTOM LOG INTERVAL
 TLI .F                30:   TOP LOG INTERVAL
 CS  .IN            8.625:   CASING SIZE
 CBD .F                48:   CASING BOTTOM DRILLER
 CBL .F                48:   CASING BOTTOM LOGGER
 BS  .IN            7.875:   BIT SIZE
 BSD .F               700:   BIT SIZE AT DEPTH
 DFT .                AIR:   DRILLING FLUID TYPE
 TCS .HRS            0200:   TIME CURCULATED STOPPED
 TLAB.HRS            0449:   TIME LOGGER AT BOTTOM
 MRT .F                80:   MAXIMUM RECORDED TEMPERATURE
 LUN .               7597:   LOGGING UNIT NUMBER
 LUL .           GILLETTE:   LOGGING UNIT LOCATION
 ENGI.         WEATHERMON:   RECORDING ENGINEER
 WITN.             STRONG:   WITNESSED BY
 CLNT.            A2DTECH:   CLIENT CODE
 ORIG.       2", 5" PRINT:   ORIGIN OF DATA
 UWI .       490251117000:   UNIQUE WELL ID
 DICO. A2D Technologies, Inc.:   DIGITIZING COMPANY
~OTHER INFORMATION
~A   DEPT       GRR       ILD        ILM   
# ...
  121.0000   106.7709     8.2600     7.6722
  121.5000   107.4665     8.3250     7.8412
  122.0000   108.9820     8.4492     7.9030
  122.5000   110.2337     8.4567     7.9101
  123.0000   111.4853     8.4641     7.9171
  123.5000   113.0395     8.4717     7.9241
  124.0000   113.6757     8.3618     7.8761
  124.5000   109.7940     8.2781     7.7740
  125.0000   110.7430     8.2240     7.7269
  125.5000   112.2972     8.1700     7.6284
  126.0000   113.5572     8.1159     7.5295
  126.5000   112.6465     8.0570     7.4822
  127.0000   110.9188     7.9526     7.3356
  127.5000   110.9602     7.8496     7.2389
  128.0000   111.6067     7.7479     7.0970
  128.5000   113.1609     7.7548     7.1033
  129.0000   115.0177     7.8161     7.1096
  129.5000   115.6642     7.8791     7.1657
  130.0000   116.0081     7.9412     7.2222
  130.5000   116.0495     8.1159     7.3323
  131.0000   116.3934     8.2370     7.4630
  131.5000   116.7383     8.3599     7.6051
  132.0000   117.6968     8.5277     7.8269
  132.5000   117.7381     8.7319     7.9993
  133.0000   116.8718     8.8621     8.1755
  133.5000   115.4003     8.9320     8.4140
  134.0000   113.9288     9.0025     8.5994
  134.5000   114.5753     9.0122     8.7278
  135.0000   115.2218     9.0201     8.6745
  135.5000   115.3031     8.9655     8.6221
  136.0000   111.9762     8.8493     8.4514
  136.5000   108.3702     8.5541     8.2218
  137.0000   108.5224     8.1545     7.8878
  137.5000   113.0183     7.8278     7.5818
  138.0000   114.2700     7.7263     7.4315
  138.5000   113.4036     7.6795     7.2843
  139.0000   113.1321     7.6330     7.2385
  139.5000   112.8709     7.6948     7.1447
  140.0000   113.8303     7.7016     7.1526
  140.5000   114.7794     7.8165     7.2594
  141.0000   114.5182     7.8780     7.4193
  141.5000   112.7373     7.9956     7.5828
  142.0000   109.3131     8.1148     7.7498
  142.5000   105.8780     8.2359     7.8702
  143.0000   106.2219     8.3587     7.9833
  143.5000   108.6839     8.4266     8.1040
  144.0000   112.0535     8.5584     8.1679
  144.5000   113.9103     8.6797     8.2323
  145.0000   114.2542     8.6873     8.2972
  145.5000   114.2956     8.7558     8.3045
  146.0000   114.0333     8.7635     8.3119
  146.5000   113.4706     8.7712     8.3193
  147.0000   111.9738     8.7790     8.3267
  147.5000   110.2354     8.7255     8.3341
  148.0000   109.6612     8.7335     8.2835
  148.5000   110.3181     8.6806     8.2910
  149.0000   112.1749     8.6202     8.2406
  149.5000   115.2420     8.4590     8.1925
  150.0000   119.2168     8.2914     8.1998
  150.5000   118.3504     8.1272     8.1483
  151.0000   117.1800     8.0202     8.1573
  151.5000   116.9067     7.9716     8.2149
  152.0000   117.5834     7.9233     8.1616
  152.5000   118.2133     7.9320     8.1099
  153.0000   117.3573     7.8839     8.0026
  153.5000   116.4909     7.8910     7.8979
  154.0000   116.2194     7.8981     7.8479
  154.5000   116.2711     7.9618     7.7980
  155.0000   117.5227     7.9689     7.7488
  155.5000   119.0769     8.0128     7.6997
  156.0000   119.4209     8.0182     7.7046
  156.5000   118.2519     8.0234     7.6568
  157.0000   117.6881     8.0289     7.6607
  157.5000   118.6737     8.0346     7.6655
  158.0000   120.2018     8.0401     7.6709
  158.5000   119.6380     8.1019     7.7293
  159.0000   116.9562     8.1076     7.7877
  159.5000   115.4847     8.1143     7.8473
  160.0000   113.8286     8.1198     7.8758
  160.5000   112.6510     8.1253     7.9119
  161.0000   112.0785     8.1444     7.9197
  161.5000   112.7171     8.1927     7.9771
  162.0000   113.1054     8.2561     8.0951
  162.5000   113.6975     8.2618     8.2137
  163.0000   113.7302     8.3249     8.2762
  163.5000   113.4521     8.3890     8.3392
  164.0000   113.1822     8.3948     8.4021
  164.5000   113.2230     8.4753     8.4665
  165.0000   113.2556     8.5591     8.5906
  165.5000   113.5909     8.6236     8.6560
  166.0000   114.2287     8.7173     8.7828
  166.5000   114.5639     8.8456     8.9166
  167.0000   115.5043     8.9757     9.0423
  167.5000   116.7524     9.0446     9.1760
  168.0000   118.3217     9.1347     9.2458
  168.5000   118.9833     9.2481     9.2653
  169.0000   119.5765     9.3191     9.3218
  169.5000   119.6092     9.4105     9.3928
  170.0000   119.9444     9.4626     9.4642
  170.5000   120.2796     9.5354     9.5362
  171.0000   120.3123     9.6198     9.5421
  171.5000   119.1346     9.6838     9.6488
  172.0000   116.7467     9.7683     9.7557
  172.5000   114.6614     9.9016     9.9000
  173.0000   115.9043     9.9776    10.0451
  173.5000   117.7524    10.1244    10.1215
  174.0000   119.2980    10.2734    10.2698
  174.5000   119.6339    10.4245    10.4203
  175.0000   119.6672    10.6518    10.6469
  175.5000   119.7066    10.8840    10.8029
  176.0000   119.4367    11.0441    10.9612
  176.5000   117.6539    11.2851    11.0446
  177.0000   114.6609    11.3851    11.2065
  177.5000   115.9038    11.4607    11.2920
  178.0000   117.7519    11.5486    11.3794
  178.5000   116.8769    11.5565    11.3864
  179.0000   114.7915    11.4822    11.3934
  179.5000   112.1010    11.4123    11.4003
  180.0000   110.6203    11.3389    11.3264
  180.5000   112.4750    11.2679    11.2546
  181.0000   114.9753    11.1990    11.1057
  181.5000   117.4261    10.9753    10.9602
  182.0000   120.4419    10.8309    10.8910
  182.5000   121.6849    10.7631    10.8220
  183.0000   121.1124    10.6957    10.8289
  183.5000   119.9347    10.6288    10.8370
  184.0000   119.3541    10.6490    10.8436
  184.5000   119.0842    10.7944    11.0025
  185.0000   119.4276    10.9532    11.0862
  185.5000   120.0654    11.0372    11.1705
  186.0000   120.7032    11.1219    11.1774
  186.5000   120.1307    11.1295    11.1842
  187.0000   118.3439    11.1371    11.1132
  187.5000   115.3051    10.9906    10.9663
  188.0000   113.1740    10.7708    10.8144
  188.5000   112.3944    10.5494    10.5319
  189.0000   118.7893    10.3442    10.3925
  189.5000   122.4528    10.2082    10.3251
  190.0000   123.6957    10.0756    10.2597
  190.5000   123.4177    10.0125    10.2676
  191.0000   121.9456     9.9499    10.2739
  191.5000   121.3650     9.9559    10.2802
  192.0000   120.7925     9.9634    10.2865
  192.5000   120.8333     9.9702    10.2212
  193.0000   121.1685     9.9768    10.2276
  193.5000   122.7161     9.9838    10.2340
  194.0000   124.9138     9.9907    10.1690
  194.5000   125.8537     9.9975    10.1753
  195.0000   126.1485     9.9237    10.0406
  195.5000   127.0888     9.8042     9.8405
  196.0000   128.3318     9.4769     9.5759
  196.5000   128.9614     9.2229     9.3170
  197.0000   126.5817     9.0384     9.0049
  197.5000   124.1938     8.7962     8.7628
  198.0000   119.9904     8.5011     8.4680
  198.5000   118.8046     8.3311     8.2373
  199.0000   122.1737     8.1078     8.0748
  199.5000   125.5347     8.0569     8.0810
  200.0000   127.9879     8.0625     8.1425
  200.5000   128.0206     8.0682     8.2044
  201.0000   127.0539     8.1965     8.3829
  201.5000   125.9679     8.5432     8.5652
  202.0000   124.1933     8.7905     8.6907
  202.5000   121.5028     8.9821     8.8180
  203.0000   118.2071     9.1143     9.0098
  203.5000   115.5166     9.2484     9.1418
  204.0000   114.0364     9.3844     9.3407
  204.5000   113.1614     9.4564     9.4119
  205.0000   113.1940     9.4597     9.4189
  205.5000   112.6216     9.4622     9.4246
  206.0000   111.7465     9.3370     9.2999
  206.5000   110.2663     9.1496     9.1131
  207.0000   110.6021     9.0286     9.0540
  207.5000   111.9365     8.9715     8.9342
  208.0000   114.6084     8.9783     9.0036
  208.5000   114.9355     8.9838     9.0935
  209.0000   114.3712     8.9893     9.1005
  209.5000   114.7064     8.9948     9.1088
  210.0000   118.3699     9.1902     9.1155
  210.5000   121.7309     9.3248     9.1861
  211.0000   122.9738     9.4622     9.3219
  211.5000   120.8885     9.6000     9.4598
