~VERSION INFORMATION
 VERS.                2.0:   CWLS LOG ASCII STANDARD - VERSION 2.0
 WRAP.                 NO:   ONE LINE PER DEPTH STEP
~WELL INFORMATION
#MNEM.UNIT      DATA TYPE    INFORMATION
#----------   ------------   ------------------------------
 STRT.F          714.0000:   START DEPTH
 STOP.F         1640.0000:   STOP DEPTH
 STEP.F            0.5000:   STEP LENGTH
 NULL.          -999.2500:   NO VALUE
 COMP. BROWN JOHN E&C INC:   COMPANY
 WELL. NPR 3 STX-15 #83-15:   WELL
 FLD .             TEAPOT:   FIELD
 LOC .      S15 T38N R78W:   LOCATION
 CNTY.            NATRONA:   COUNTY
 STAT.            WYOMING:   STATE
 CTRY. UNITED STATES OF AMERICA:   COUNTRY
 SRVC.            Unknown:   SERVICE COMPANY
 DATE.        30-AUG-1991:   LOGDATE
 API .       490251111300:   API NUMBER
~CURVE INFORMATION
#MNEM.UNIT       API CODE    CURVE DESCRIPTION
#----------   ------------   ------------------------------
 DEPT.F                  :   
 TGAS.UNITS  91 830 01 00:   TOTAL GAS FROM HOTWIRE
 C1  .VF     91 831 01 00:   METHANE
 C2  .VF     91 832 01 00:   ETHANE
 C3  .VF     91 833 01 00:   PROPANE
 C4  .VF     91 834 01 00:   BUTANE
 ROP .MIN/FT 91 810 01 00:   RAT OF DRILLING PENETRATION
~PARAMETER INFORMATION
#MNEM.UNIT          VALUE    DESCRIPTION
#----------   ------------   ------------------------------
 EKB .F              5265:   KELLING BUSHING
 EGL .F              5255:   GROUND LEVEL
 DATE.            5-30-91:   RUN DATE
 DD  .F              1626:   DEPTH DRILLER
 TCS .HRS            1200:   TIME CURCULATED STOPPED
 TLAB.HRS            1815:   TIME LOGGER AT BOTTOM
 ENGI.               HUSK:   RECORDING ENGINEER
 WITN.              TOWER:   WITNESSED BY
 CLNT.            A2DTECH:   CLIENT CODE
 ORIG.           5" PRINT:   ORIGIN OF DATA
 UWI .       490251111300:   UNIQUE WELL ID
 DICO. A2D Technologies, Inc.:   DIGITIZING COMPANY
~OTHER INFORMATION
~A   DEPT     TGAS         C1         C2         C3         C4          ROP 
# ...
  766.0000     3.9604  -999.2500  -999.2500  -999.2500  -999.2500     0.5454
  766.5000     3.9289  -999.2500  -999.2500  -999.2500  -999.2500     0.5454
  767.0000     3.8974  -999.2500  -999.2500  -999.2500  -999.2500     0.5454
  767.5000     3.8659  -999.2500  -999.2500  -999.2500  -999.2500     0.5454
  768.0000     3.8344  -999.2500  -999.2500  -999.2500  -999.2500     0.5454
  768.5000     3.8029  -999.2500  -999.2500  -999.2500  -999.2500     0.5454
  769.0000     3.7713  -999.2500  -999.2500  -999.2500  -999.2500     0.5454
  769.5000     3.7398  -999.2500  -999.2500  -999.2500  -999.2500     0.5454
  770.0000     3.7083  -999.2500  -999.2500  -999.2500  -999.2500     0.5454
  770.5000     3.6768  -999.2500  -999.2500  -999.2500  -999.2500     0.5454
  771.0000     3.6453  -999.2500  -999.2500  -999.2500  -999.2500     0.5454
  771.5000     3.6138  -999.2500  -999.2500  -999.2500  -999.2500     0.5454
  772.0000     3.5823  -999.2500  -999.2500  -999.2500  -999.2500     0.5454
  772.5000     3.5508  -999.2500  -999.2500  -999.2500  -999.2500     0.5454
  773.0000     3.5192  -999.2500  -999.2500  -999.2500  -999.2500     0.5454
  773.5000     3.4877  -999.2500  -999.2500  -999.2500  -999.2500     0.5454
  774.0000     3.4562  -999.2500  -999.2500  -999.2500  -999.2500     0.5454
  774.5000     3.4247  -999.2500  -999.2500  -999.2500  -999.2500     0.5454
  775.0000     3.3932  -999.2500  -999.2500  -999.2500  -999.2500     0.5454
  775.5000     3.3617  -999.2500  -999.2500  -999.2500  -999.2500     0.5454
  776.0000     3.3302  -999.2500  -999.2500  -999.2500  -999.2500     0.5454
  776.5000     3.2987  -999.2500  -999.2500  -999.2500  -999.2500     0.5454
  777.0000     3.2672  -999.2500  -999.2500  -999.2500  -999.2500     0.5454
  777.5000     3.2356  -999.2500  -999.2500  -999.2500  -999.2500     0.5454
  778.0000     3.2041  -999.2500  -999.2500  -999.2500  -999.2500     0.5454
  778.5000     3.1726  -999.2500  -999.2500  -999.2500  -999.2500     0.5454
  779.0000     3.1411  -999.2500  -999.2500  -999.2500  -999.2500     0.5454
  779.5000     3.1096  -999.2500  -999.2500  -999.2500  -999.2500     0.5454
  780.0000     3.0781  -999.2500  -999.2500  -999.2500  -999.2500     0.5454
  780.5000     3.0466  -999.2500  -999.2500  -999.2500  -999.2500     0.5454
  781.0000     3.0151  -999.2500  -999.2500  -999.2500  -999.2500     0.5454
  781.5000     2.9836  -999.2500  -999.2500  -999.2500  -999.2500     0.5454
  782.0000     2.9520  -999.2500  -999.2500  -999.2500  -999.2500     0.5454
  782.5000     2.9205  -999.2500  -999.2500  -999.2500  -999.2500     0.5454
  783.0000     2.8890  -999.2500  -999.2500  -999.2500  -999.2500     0.5454
  783.5000     2.8575  -999.2500  -999.2500  -999.2500  -999.2500     0.5454
  784.0000     2.8260  -999.2500  -999.2500  -999.2500  -999.2500     0.5454
  784.5000     2.7945  -999.2500  -999.2500  -999.2500  -999.2500     0.5454
  785.0000     2.7630  -999.2500  -999.2500  -999.2500  -999.2500     0.5454
  785.5000     2.7315  -999.2500  -999.2500  -999.2500  -999.2500     0.5454
  786.0000     2.6999  -999.2500  -999.2500  -999.2500  -999.2500     0.5454
  786.5000     2.6684  -999.2500  -999.2500  -999.2500  -999.2500     0.5454
  787.0000     2.6369  -999.2500  -999.2500  -999.2500  -999.2500     0.5454
  787.5000     2.6054  -999.2500  -999.2500  -999.2500  -999.2500     0.5454
  788.0000     2.5739  -999.2500  -999.2500  -999.2500  -999.2500     0.5454
  788.5000     2.5424  -999.2500  -999.2500  -999.2500  -999.2500     0.5454
  789.0000     2.5109  -999.2500  -999.2500  -999.2500  -999.2500     0.5454
  789.5000     2.4794  -999.2500  -999.2500  -999.2500  -999.2500     0.5454
  790.0000     2.4478     2.8205  -999.2500  -999.2500  -999.2500     0.5454
  790.5000     2.4163     2.8205  -999.2500  -999.2500  -999.2500     0.5454
  791.0000     2.3848     2.8205  -999.2500  -999.2500  -999.2500     0.5454
  791.5000     2.3533     2.8205  -999.2500  -999.2500  -999.2500     0.5454
  792.0000     2.3218     2.8205  -999.2500  -999.2500  -999.2500     0.5454
  792.5000     2.2903     2.8205  -999.2500  -999.2500  -999.2500     0.5454
  793.0000     2.2478     2.8147  -999.2500  -999.2500  -999.2500     0.5454
  793.5000     2.1720     2.8154  -999.2500  -999.2500  -999.2500     0.5454
  794.0000     2.4241     2.8728  -999.2500  -999.2500     0.8750     0.5454
  794.5000    11.2518     6.1023  -999.2500  -999.2500     0.8750     0.5454
  795.0000    20.5848    14.2112  -999.2500     1.1844     0.8750     0.5454
  795.5000    29.9001    22.2238  -999.2500     1.5576     1.0528     0.5454
  796.0000    39.1719    28.8263  -999.2500     1.9307     1.3421     0.5454
  796.5000    49.5715    35.3877  -999.2500     2.2293     1.6335     0.5454
  797.0000    60.5226    41.9579  -999.2500     2.6024     1.9250     0.5454
  797.5000    71.5152    48.5302  -999.2500     2.9757     2.2174     0.5454
  798.0000    82.5028    55.1024  -999.2500     3.3488     2.4794     0.5454
  798.5000    93.4913    61.6746  -999.2500     3.7172     2.7083     0.5454
  799.0000   104.4809    68.2469  -999.2500     4.0828     2.9369     0.5454
  799.5000   115.4598    74.8206  -999.2500     4.4411     3.1657     0.5454
  800.0000   126.4313    81.3981  -999.2500     4.8004     3.3947     0.5454
  800.5000   135.7908    87.9610  -999.2500     5.1595     3.6244     0.5454
  801.0000   145.6006    93.6704  -999.2500     5.4855     3.8510     0.5454
  801.5000   155.3222    96.1190  -999.2500     5.5126     3.8672     0.5452
  802.0000   156.0614    95.7657  -999.2500     5.5329     3.8575     0.5447
  802.5000   155.4566    95.4613  -999.2500     5.5542     3.8476     0.5442
  803.0000   156.6134    95.1584  -999.2500     5.5758     3.8381     0.5436
  803.5000   156.8285    94.8567  -999.2500     5.5973     3.8286     0.5431
  804.0000   155.0283    94.5551  -999.2500     5.6189     3.8191     0.5426
  804.5000   151.0408    94.2534  -999.2500     5.6405     3.8097     0.5421
  805.0000   146.9237    93.9525  -999.2500     5.6620     3.8002     0.5416
  805.5000   142.8114    93.6525  -999.2500     5.6836     3.7907     0.5411
  806.0000   138.7035    93.3524  -999.2500     5.7052     3.7812     0.5405
  806.5000   134.5949    93.0524  -999.2500     5.7280     3.7718     0.5400
  807.0000   130.4838    92.7523  -999.2500     5.7036     3.7623     0.5395
  807.5000   126.3855    92.4523  -999.2500     5.6672     3.7528     0.5390
  808.0000   122.6809    92.1522  -999.2500     5.6305     3.7434     0.5385
  808.5000   118.2894    91.8521  -999.2500     5.5939     3.7339     0.5379
  809.0000   115.8101    91.5521  -999.2500     5.5573     3.7244     0.5374
  809.5000   115.3603    91.2521  -999.2500     5.5207     3.7150     0.5369
  810.0000   114.9026    90.9520  -999.2500     5.4841     3.7055     0.5364
  810.5000   114.4535    90.6519  -999.2500     5.4475     3.6960     0.5359
  811.0000   114.0018    90.3519  -999.2500     5.4109     3.6865     0.5354
  811.5000   113.5501    90.0518  -999.2500     5.3744     3.6771     0.5349
  812.0000   113.0985    89.7518  -999.2500     5.3378     3.6676     0.5343
  812.5000   112.6468    89.4517  -999.2500     5.3012     3.6581     0.5338
  813.0000   112.1951    89.1517  -999.2500     5.2646     3.6487     0.5333
  813.5000   111.7434    88.8516  -999.2500     5.2280     3.6392     0.5328
  814.0000   111.2918    88.5516  -999.2500     5.1914     3.6297     0.5323
  814.5000   110.8401    88.2496  -999.2500     5.1548     3.6200     0.5317
  815.0000   110.3884    87.9468  -999.2500     5.1183     3.6100     0.5312
  815.5000   109.9368    87.6441  -999.2500     5.0817     3.5999     0.5307
  816.0000   109.4851    87.3413  -999.2500     5.0450     3.5899     0.5302
  816.5000   109.0334    87.0385  -999.2500     5.0075     3.5799     0.5297
  817.0000   108.5817    86.7357  -999.2500     5.0000     3.5699     0.5292
  817.5000   108.1301    86.4330  -999.2500     4.9999     3.5598     0.5286
