~VERSION INFORMATION
 VERS.                2.0:   CWLS LOG ASCII STANDARD - VERSION 2.0
 WRAP.                 NO:   ONE LINE PER DEPTH STEP
~WELL INFORMATION
#MNEM.UNIT      DATA TYPE    INFORMATION
#----------   ------------   ------------------------------
 STRT.F            2.0000:   START DEPTH
 STOP.F          508.0000:   STOP DEPTH
 STEP.F            0.1000:   STEP LENGTH
 NULL.          -999.2500:   NO VALUE
 COMP. LAWRENCE/ALLISON INC:   COMPANY
 WELL.      48-41 SX #3-3:   WELL
 FLD .             TEAPOT:   FIELD
 LOC .       S3 T38N R78W:   LOCATION
 CNTY.            NATRONA:   COUNTY
 STAT.            WYOMING:   STATE
 CTRY. UNITED STATES OF AMERICA:   COUNTRY
 SRVC.           Gearhart:   SERVICE COMPANY
 DATE.        09-JUL-1988:   LOGDATE
 API .       490251123300:   API NUMBER
~CURVE INFORMATION
#MNEM.UNIT       API CODE    CURVE DESCRIPTION
#----------   ------------   ------------------------------
 DEPT.F                  :   
 GRR .GAPI   07 310 01 00:   GAMMA RAY
 RILD.OHMM   07 120 46 00:   INDUCTION LOG DEEP RESISTIVITY
 RILM.OHMM   07 120 44 00:   INDUCTION LOG MEDIUM RESISTIVITY
~PARAMETER INFORMATION
#MNEM.UNIT          VALUE    DESCRIPTION
#----------   ------------   ------------------------------
 PD  .                 GL:   PERMANENT DATUM
 EPD .F              5200:   ELEVATION PERMANENT DATUM
 LMF .                 KB:   LOG MEASURED FROM
 DAPD.F                 5:   FEET ABOVE PERMANENT DATUM
 DMF .                 KB:   DRILLING MEASURED FROM
 EKB .F              5205:   KELLING BUSHING
 EDF .F              5204:   DRILLING FLOOR
 EGL .F              5200:   GROUND LEVEL
 DATE.        09-JUL-1988:   RUN DATE
 RUN .                  1:   RUN NUMBER
 DD  .F               510:   DEPTH DRILLER
 DL  .F               516:   DEPTH LOGGER
 BLI .F               508:   BOTTOM LOG INTERVAL
 TLI .F               1.5:   TOP LOG INTERVAL
 CS  .IN            9.625:   CASING SIZE
 CBD .F                40:   CASING BOTTOM DRILLER
 CBL .F                45:   CASING BOTTOM LOGGER
 BS  .IN             8.75:   BIT SIZE
 BSD .F               510:   BIT SIZE AT DEPTH
 DFT .                AIR:   DRILLING FLUID TYPE
 TCS .HRS            1800:   TIME CURCULATED STOPPED
 TLAB.HRS            1843:   TIME LOGGER AT BOTTOM
 MRT .F                70:   MAXIMUM RECORDED TEMPERATURE
 LUN .               7597:   LOGGING UNIT NUMBER
 LUL .           GILLETTE:   LOGGING UNIT LOCATION
 ENGI.         WEATHERMON:   RECORDING ENGINEER
 WITN.              FIVAS:   WITNESSED BY
 CLNT.            A2DTECH:   CLIENT CODE
 ORIG.           5" PRINT:   ORIGIN OF DATA
 UWI .       490251123300:   UNIQUE WELL ID
 DICO. A2D Technologies, Inc.:   DIGITIZING COMPANY
~OTHER INFORMATION
~A    DEPT      GRR      RILD       RILM   
# ...
  493.4000  -999.2500    10.9691    10.9490
  493.5000  -999.2500    11.0218    10.9490
  493.6000  -999.2500    11.0211    10.9490
  493.7000  -999.2500    11.0205    10.9791
  493.8000  -999.2500    11.0199    11.0251
  493.9000  -999.2500    11.0193    11.0251
  494.0000  -999.2500    11.0187    11.0251
  494.1000  -999.2500    11.0181    11.0251
  494.2000  -999.2500    11.0173    10.9817
  494.3000  -999.2500    11.0168    10.9490
  494.4000  -999.2500    11.0162    10.9490
  494.5000  -999.2500    11.0156    10.9490
  494.6000  -999.2500    11.0055    10.9490
  494.7000  -999.2500    10.9383    10.9490
  494.8000  -999.2500    10.9377    10.9052
  494.9000  -999.2500    10.9371    10.8735
  495.0000  -999.2500    10.9063    10.8735
  495.1000  -999.2500    10.8603    10.8735
  495.2000  -999.2500    10.8598    10.8735
  495.3000  -999.2500    10.8590    10.8735
  495.4000  -999.2500    10.8585    10.8735
  495.5000  -999.2500    10.8209    10.9056
  495.6000  -999.2500    10.7824    10.9490
  495.7000  -999.2500    10.7818    10.9490
  495.8000  -999.2500    10.7811    10.9490
  495.9000  -999.2500    10.7806    10.9490
  496.0000  -999.2500    10.7800    10.9490
  496.1000  -999.2500    10.7794    10.9490
  496.2000  -999.2500    10.7787    10.9490
  496.3000  -999.2500    10.7782    10.9490
  496.4000  -999.2500    10.7775    10.9490
  496.5000  -999.2500    10.7770    10.9490
  496.6000  -999.2500    10.7764    10.9490
  496.7000  -999.2500    10.7758    10.9490
  496.8000  -999.2500    10.7651    10.9490
  496.9000  -999.2500    10.7001    10.9490
  497.0000  -999.2500    10.6996    10.9490
  497.1000  -999.2500    10.6990    10.9490
  497.2000  -999.2500    10.6984    10.9490
  497.3000  -999.2500    10.6978    10.9147
  497.4000  -999.2500    10.6973    10.8735
  497.5000  -999.2500    10.6965    10.8641
  497.6000  -999.2500    10.6454    10.7984
  497.7000  -999.2500    10.6215    10.7984
  497.8000  -999.2500    10.5973    10.7984
  497.9000  -999.2500    10.5470    10.7638
  498.0000  -999.2500    10.5464    10.7239
  498.1000  -999.2500    10.5459    10.7139
  498.2000  -999.2500    10.5453    10.6499
  498.3000  -999.2500    10.5447    10.6499
  498.4000  -999.2500    10.5270    10.6499
  498.5000  -999.2500    10.4708    10.6150
  498.6000  -999.2500    10.4700    10.5538
  498.7000  -999.2500    10.4695    10.5034
  498.8000  -999.2500    10.4689    10.5034
  498.9000  -999.2500    10.4684    10.4443
  499.0000  -999.2500    10.4678    10.3841
  499.1000  -999.2500    10.4672    10.3243
  499.2000  -999.2500    10.4667    10.2648
  499.3000  -999.2500    10.4661    10.2165
  499.4000  -999.2500    10.4655    10.2165
  499.5000  -999.2500    10.4649    10.1005
  499.6000  -999.2500    10.4644    10.0300
  499.7000  -999.2500    10.4637     9.9722
  499.8000  -999.2500    10.4632     9.9148
  499.9000  -999.2500    10.4626     9.8575
  500.0000  -999.2500    10.4620     9.8007
  500.1000  -999.2500    10.4614     9.7534
  500.2000  -999.2500    10.4608     9.7061
  500.3000  -999.2500    10.4602     9.6574
  500.4000  -999.2500    10.4158     9.6018
  500.5000  -999.2500    10.3869     9.5484
  500.6000  -999.2500    10.3863     9.4943
  500.7000  -999.2500    10.3858     9.4406
  500.8000  -999.2500    10.3851     9.4070
  500.9000  -999.2500    10.3343     9.3899
  501.0000  -999.2500    10.3123     9.2789
  501.1000  -999.2500    10.2876     9.2795
  501.2000  -999.2500    10.2399     9.2002
  501.3000  -999.2500    10.2393     9.1532
  501.4000  -999.2500    10.1826     9.1176
  501.5000  -999.2500    10.1675     9.0212
  501.6000  -999.2500    10.1367     8.9669
  501.7000  -999.2500    10.0962     8.9194
  501.8000  -999.2500    10.0908     8.8689
  501.9000  -999.2500    10.0253     8.8187
  502.0000  -999.2500     9.9759     8.7527
  502.1000  -999.2500     9.9550     8.6646
  502.2000  -999.2500     9.9308     8.6653
  502.3000  -999.2500     9.8741     8.5756
  502.4000  -999.2500     9.8163     8.5473
  502.5000  -999.2500     9.8158     8.5233
  502.6000  -999.2500     9.7317     8.4750
  502.7000  -999.2500     9.6504     8.4314
  502.8000  -999.2500     9.5952     8.4321
  502.9000  -999.2500     9.5356     8.3897
  503.0000  -999.2500     9.4133     8.3422
  503.1000  -999.2500     9.3666     8.3178
  503.2000  -999.2500     9.2791     8.3184
  503.3000  -999.2500     9.1738     8.3157
  503.4000  -999.2500     9.0802     8.2622
  503.5000  -999.2500     9.0275     8.2627
  503.6000  -999.2500     8.9269     8.2321
  503.7000  -999.2500     8.8638     8.2068
  503.8000  -999.2500     8.8132     8.1956
  503.9000  -999.2500     8.7472     8.1492
  504.0000  -999.2500     8.5971     8.0957
  504.1000  -999.2500  -999.2500     8.0573
  504.2000  -999.2500  -999.2500     8.0116
  504.3000  -999.2500  -999.2500     7.9467
  504.4000  -999.2500  -999.2500     7.8564
  504.5000  -999.2500  -999.2500     7.7679
  504.6000  -999.2500  -999.2500     7.7158
  504.7000  -999.2500  -999.2500     7.6445
  504.8000  -999.2500  -999.2500     7.5576
  504.9000  -999.2500  -999.2500     7.4717
  505.0000  -999.2500  -999.2500     7.3867
  505.1000  -999.2500  -999.2500     7.3024
  505.2000  -999.2500  -999.2500     7.2199
  505.3000  -999.2500  -999.2500     7.1379
  505.4000  -999.2500  -999.2500     7.0334
  505.5000  -999.2500  -999.2500     6.9285
  505.6000  -999.2500  -999.2500     6.8429
  505.7000  -999.2500  -999.2500     6.7229
  505.8000  -999.2500  -999.2500     6.6118
  505.9000  -999.2500  -999.2500     6.4994
  506.0000  -999.2500  -999.2500     6.3888
  506.1000  -999.2500  -999.2500     6.2800
  506.2000  -999.2500  -999.2500     6.1729
  506.3000  -999.2500  -999.2500     6.0621
  506.4000  -999.2500  -999.2500     5.9322
  506.5000  -999.2500  -999.2500     5.7493
  506.6000  -999.2500  -999.2500     5.5887
  506.7000  -999.2500  -999.2500     5.4415
  506.8000  -999.2500  -999.2500     5.2644
  506.9000  -999.2500  -999.2500     5.1360
  507.0000  -999.2500  -999.2500     5.0287
  507.1000  -999.2500  -999.2500     4.8949
  507.2000  -999.2500  -999.2500     4.7566
  507.3000  -999.2500  -999.2500     4.6300
  507.4000  -999.2500  -999.2500     4.5276
  507.5000  -999.2500  -999.2500     4.4427
  507.6000  -999.2500  -999.2500     4.3301
  507.7000  -999.2500  -999.2500     4.2245
  507.8000  -999.2500  -999.2500     4.1402
  507.9000  -999.2500  -999.2500     4.0631
  508.0000  -999.2500  -999.2500     3.8430
