~VERSION INFORMATION
 VERS.                2.0:   CWLS LOG ASCII STANDARD - VERSION 2.0
 WRAP.                 NO:   ONE LINE PER DEPTH STEP
~WELL INFORMATION
#MNEM.UNIT      DATA TYPE    INFORMATION
#----------   ------------   ------------------------------
 STRT.F           34.0000:   START DEPTH
 STOP.F          604.0000:   STOP DEPTH
 STEP.F            0.5000:   STEP LENGTH
 NULL.          -999.2500:   NO VALUE
 COMP. FENIX & SCISSON INC:   COMPANY
 WELL.       NPR #17 SX-2:   WELL
 FLD .             TEAPOT:   FIELD
 LOC .       S2 T38N R78W:   LOCATION
 CNTY.            NATRONA:   COUNTY
 STAT.            WYOMING:   STATE
 CTRY. UNITED STATES OF AMERICA:   COUNTRY
 SRVC.       Schlumberger:   SERVICE COMPANY
 DATE.        18-MAR-1977:   LOGDATE
 API .       490251032700:   API NUMBER
~CURVE INFORMATION
#MNEM.UNIT       API CODE    CURVE DESCRIPTION
#----------   ------------   ------------------------------
 DEPT.F                  :   
 SPR .MV     07 010 01 00:   SPONTANEOUS POTENTIAL
 ILD .OHMM   07 120 46 00:   INDUCTION LOG DEEP
 ILM .OHMM   07 120 44 00:   INDUCTION LOG MEDIUM
 LL8 .OHMM   07 220 08 00:   LATEROLOG-8 RES.
 CALD.IN     45 280 60 00:   CALIPER FROM DENSITY LOG
 GRD .GAPI   45 310 01 00:   GAMMA RAY FROM DENSITY LOG
 CORR.G/C3   45 356 01 00:   DENSITY CORRECTION
 DPHI.DEC    45 890 12 00:   DENSITY POROSITY SANDSTONE
 RHOB.G/C3   45 350 01 00:   BULK DENSITY
~PARAMETER INFORMATION
#MNEM.UNIT          VALUE    DESCRIPTION
#----------   ------------   ------------------------------
 PD  .                 GL:   PERMANENT DATUM
 EPD .F              5122:   ELEVATION PERMANENT DATUM
 LMF .                 KB:   LOG MEASURED FROM
 DAPD.F                 4:   FEET ABOVE PERMANENT DATUM
 DMF .                 KB:   DRILLING MEASURED FROM
 EKB .F              5126:   KELLING BUSHING
 EGL .F              5122:   GROUND LEVEL
 DATE.        18-MAR-1977:   RUN DATE
 RUN .                  1:   RUN NUMBER
 DD  .F               600:   DEPTH DRILLER
 DL  .F               605:   DEPTH LOGGER
 BLI .F               604:   BOTTOM LOG INTERVAL
 TLI .F                44:   TOP LOG INTERVAL
 CS  .IN            8.625:   CASING SIZE
 CBD .F                40:   CASING BOTTOM DRILLER
 CBL .F                44:   CASING BOTTOM LOGGER
 BS  .IN            7.875:   BIT SIZE
 BSD .F               600:   BIT SIZE AT DEPTH
 DFT .            KCL MUD:   DRILLING FLUID TYPE
 DFD .                8.9:   DRILLING FLUID DENSITY
 DFV .                 39:   DRILLING FLUID VISCOSITY
 DFPH.                8.5:   DRILLING FLUID PH
 DFL .                6.1:   DRILLING FLUID LOSS
 MSS .                PIT:   MUD SAMPLE SOURCE
 RMS .OHMM           0.26:   RESISTIVITY MUD SAMPLE
 MST .F                52:   MUD SAMPLE TEMPERATURE
 RMF .OHMM           0.24:   RESISTIVITY MUD FILTRATE SAMPLE
 MFST.F                52:   MUD FILTRATE SAMPLE TEMPERATURE
 MFSS.               MEAS:   MUD FILTRATE SAMPLE SOURCE
 TCS .HRS            0230:   TIME CURCULATED STOPPED
 LUN .               7711:   LOGGING UNIT NUMBER
 LUL .               CSPR:   LOGGING UNIT LOCATION
 ENGI.             SAYLER:   RECORDING ENGINEER
 WITN.         STUEBINGER:   WITNESSED BY
 CLNT.            A2DTECH:   CLIENT CODE
 ORIG.           5" PRINT:   ORIGIN OF DATA
 UWI .       490251032700:   UNIQUE WELL ID
 DICO. A2D Technologies, Inc.:   DIGITIZING COMPANY
~OTHER INFORMATION
~A   DEPT      SPR        ILD        ILM        LL8       CALD        GRD       CORR       DPHI       RHOB   
# ...
  435.5000   -32.3862    44.9361    48.5079    42.8429     7.9645    77.8645     0.0349     0.2127     2.3004
  436.0000   -32.2253    44.3259    45.5841    44.0603     7.9064    77.7309     0.0260     0.2103     2.3026
  436.5000   -32.0643    43.4215    42.5401    41.9840     7.7742    78.0455     0.0215     0.2135     2.3020
  437.0000   -31.9034    43.4305    40.2547    38.9109     7.7307    80.1342     0.0224     0.2266     2.2789
  437.5000   -31.8915    43.1369    38.3576    33.9220     7.7917    82.2228     0.0292     0.2294     2.2767
  438.0000   -32.0316    43.1481    37.3195    31.1829     7.8523    82.9782     0.0209     0.2156     2.2999
  438.5000   -32.4667    43.1571    37.0708    31.4086     7.9427    83.2891     0.0187     0.2018     2.3202
  439.0000   -33.0509    43.1661    36.8270    31.1603     8.0183    82.2587     0.0225     0.1898     2.3382
  439.5000   -33.6322    41.4140    36.3347    30.5257     8.0344    79.1052     0.0292     0.1874     2.3412
  440.0000   -33.7723    39.4582    34.8636    31.0038     8.0206    77.2588     0.0323     0.1895     2.3405
  440.5000   -34.0584    38.3858    33.6853    33.9385     8.0071    77.5733     0.0361     0.1829     2.3556
  441.0000   -34.1955    37.6007    32.0978    42.3836     8.0087    79.6620     0.0406     0.1724     2.3668
  441.5000   -34.4787    37.0901    31.0129    43.2867     8.0397    81.4544     0.0211     0.1610     2.3834
  442.0000   -34.7649    35.5865    29.1436    37.4302     8.0707    83.0986     0.0129     0.1499     2.4073
  442.5000   -34.9050    33.9059    27.1975    25.5670     8.1017    84.7428     0.0175     0.1406     2.4179
  443.0000   -35.0421    31.2028    25.3813    23.2076     8.1624    85.2000     0.0175     0.1463     2.4030
  443.5000   -35.1762    27.7358    24.5234    23.7021     8.1637    85.0659     0.0130     0.1534     2.3993
  444.0000   -35.3163    26.6101    24.0239    23.7087     8.1056    84.7842     0.0100     0.1441     2.4159
  444.5000   -35.3014    25.5300    23.5387    23.7153     8.0179    86.8765     0.0086     0.1303     2.4303
  445.0000   -35.2895    23.6583    23.0613    22.9133     8.0504    88.3726     0.0131     0.1223     2.4436
  445.5000   -35.2776    23.0141    23.0693    21.2362     8.0971    88.3872     0.0192     0.1243     2.4321
  446.0000   -35.2657    23.5044    23.2382    20.5180     8.1261    88.1018     0.0147     0.1362     2.3743
  446.5000   -35.2538    24.3395    23.9012    20.2396     8.1274    88.1200     0.0080     0.1745     2.3587
  447.0000   -35.2419    24.8568    23.9095    20.1053     8.1135    87.6902     0.0050     0.1798     2.3536
  447.5000   -35.2300    25.3851    23.9178    20.6780     8.1000    86.6678     0.0073     0.1795     2.3574
  448.0000   -35.2180    25.9246    23.4326    21.1186     8.1017    86.0898     0.0134     0.1741     2.3679
  448.5000   -35.2061    25.9300    22.9574    20.8335     8.0878    85.6599     0.0134     0.1728     2.3620
  449.0000   -35.1942    25.9354    22.4917    20.6938     8.0746    85.0819     0.0134     0.1838     2.3494
  449.5000   -35.0333    25.9408    22.1892    20.7009     8.0608    84.9393     0.0150     0.1826     2.3517
  450.0000   -35.1168    25.9833    22.1642    20.7145     8.0621    86.7407     0.0195     0.1807     2.3570
  450.5000   -35.7623    25.9589    21.9798    20.8257     8.0519    88.3847     0.0287     0.1712     2.3667
  451.0000   -35.3108    25.4415    21.9103    20.4380     8.0348    88.5428     0.0431     0.1733     2.3645
  451.5000   -34.8592    24.5873    22.0763    20.3030     8.0211    88.2597     0.0537     0.1736     2.3653
  452.0000   -35.3030    23.4343    22.2409    20.3135     7.9633    88.2763     0.0658     0.1715     2.3684
  452.5000   -34.7013    22.9608    22.2516    20.4633     7.8414    89.3265     0.0711     0.1682     2.3729
  453.0000   -34.6968    22.9767    21.6523    20.4717     7.7577    90.0805     0.0701     0.1723     2.3617
  453.5000   -34.8425    23.3107    20.7785    20.4802     7.7592    90.2419     0.0602     0.1765     2.3610
  454.0000   -35.1350    23.8143    20.7886    20.3470     7.7604    90.9959     0.0472     0.1762     2.3581
  454.5000   -35.5776    23.9935    20.7986    20.2147     7.7616    91.6017     0.0411     0.1818     2.3544
  455.0000   -35.7233    23.8407    20.8086    20.0741     7.7479    91.3185     0.0389     0.1818     2.3522
  455.5000   -35.7178    23.5217    20.8187    19.8148     7.7339    90.1467     0.0360     0.1842     2.3478
  456.0000   -35.7133    22.8935    20.8287    19.5499     7.6906    88.5186     0.0308     0.1896     2.3403
  456.5000   -35.7088    22.4341    20.5513    19.4228     7.7366    87.3583     0.0383     0.1782     2.3532
  457.0000   -35.7044    22.2882    20.1372    19.5680     7.8713    88.4474     0.0376     0.1758     2.3643
  457.5000   -35.6999    21.9961    20.1469    19.5761     7.9763    90.2346     0.0257     0.1781     2.3583
  458.0000   -35.6955    22.0082    20.2971    19.4468     8.0517    91.4638     0.0145     0.1805     2.3539
  458.5000   -35.6910    22.0204    20.5910    19.1888     8.0677    92.1526     0.0085     0.1841     2.3510
  459.0000   -35.6866    21.7288    20.7445    18.5424     8.0689    91.1315     0.0063     0.1796     2.3607
  459.5000   -35.8322    21.4381    20.8992    18.2945     8.0701    89.0707     0.0109     0.1727     2.3708
  460.0000   -36.1247    21.1543    20.6208    18.3020     8.0713    89.3802     0.0117     0.1670     2.3766
  460.5000   -36.2704    21.0219    20.3461    18.1830     8.0724    91.1712     0.0140     0.1643     2.3803
  461.0000   -36.5629    20.8881    20.2151    18.0648     8.0736    90.7400     0.0126     0.1628     2.3811
  461.5000   -36.8576    20.9001    20.2249    18.1980     8.0748    90.0125     0.0074     0.1694     2.3715
  462.0000   -36.8521    20.9117    20.2348    17.9547     8.0760    89.7261     0.0082     0.1705     2.3678
  462.5000   -36.8476    20.9232    20.2446    17.4689     8.0772    89.7427     0.0105     0.1696     2.3798
  463.0000   -36.8432    21.0806    20.3956    17.4779     8.0783    90.4966     0.0151     0.1646     2.3828
  463.5000   -36.6897    21.2391    20.4259    17.6068     8.0647    90.6580     0.0151     0.1624     2.3814
  464.0000   -36.5362    21.3988    20.7023    17.9844     8.0659    89.3379     0.0160     0.1633     2.3777
  464.5000   -36.2337    21.5598    20.8566    18.3700     8.0522    87.2771     0.0123     0.1746     2.3635
  465.0000   -36.0802    21.5718    21.1586    18.6343     8.0385    85.6607     0.0146     0.1818     2.3539
  465.5000   -36.0757    21.5838    21.4649    18.6539     8.0398    85.3743     0.0191     0.1844     2.3494
  466.0000   -36.0713    21.5955    21.4753    18.5208     8.0437    85.9835     0.0169     0.1832     2.3502
  466.5000   -36.0668    21.4429    21.4857    18.0214     8.0720    87.4782     0.0117     0.1772     2.3585
  467.0000   -36.2125    21.1557    20.7623    17.7805     8.0881    88.9729     0.0095     0.1688     2.3690
  467.5000   -36.2069    20.8723    19.7865    17.6649     8.0892    90.9120     0.0081     0.1661     2.3742
  468.0000   -36.2025    20.4743    18.3399    17.4287     8.0904    91.9623     0.0104     0.1622     2.3840
  468.5000   -36.1980    19.9274    18.2195    17.1786     8.0916    90.7904     0.0120     0.1550     2.3960
  469.0000   -36.1936    19.1251    18.2305    16.9659     8.0928    90.2110     0.0143     0.1500     2.4072
  469.5000   -36.1891    18.8693    18.1127    16.8555     8.0788    89.9279     0.0129     0.1467     2.4013
  470.0000   -36.1847    18.6194    18.1218    16.6319     8.0803    89.3486     0.0069     0.1547     2.3916
  470.5000   -36.4783    18.2458    17.8804    16.5221     8.0815    89.9544     0.0077     0.1544     2.4021
  471.0000   -36.7720    17.6356    17.5201    16.3012     8.0975    90.8565     0.0070     0.1502     2.4029
  471.5000   -37.0656    17.1622    17.2868    16.3096     8.0987    90.7216     0.0071     0.1537     2.4015
