~VERSION INFORMATION
 VERS.                2.0:   CWLS LOG ASCII STANDARD - VERSION 2.0
 WRAP.                 NO:   ONE LINE PER DEPTH STEP
~WELL INFORMATION
#MNEM.UNIT      DATA TYPE    INFORMATION
#----------   ------------   ------------------------------
 STRT.F           44.0000:   START DEPTH
 STOP.F          461.0000:   STOP DEPTH
 STEP.F            0.5000:   STEP LENGTH
 NULL.          -999.2500:   NO VALUE
 COMP. BROWN JOHN E&C INC:   COMPANY
 WELL. NPR 3 SX-10 #55-41-10:   WELL
 FLD .             TEAPOT:   FIELD
 LOC .      S10 T38N R78W:   LOCATION
 CNTY.            NATRONA:   COUNTY
 STAT.            WYOMING:   STATE
 CTRY. UNITED STATES OF AMERICA:   COUNTRY
 SRVC.       Schlumberger:   SERVICE COMPANY
 DATE.        28-SEP-1990:   LOGDATE
 API .       490251131900:   API NUMBER
~CURVE INFORMATION
#MNEM.UNIT       API CODE    CURVE DESCRIPTION
#----------   ------------   ------------------------------
 DEPT.F                  :   
 GRR .GAPI   07 310 01 00:   GAMMA RAY
 ILD .OHMM   07 120 46 00:   INDUCTION LOG DEEP
 ILM .OHMM   07 120 44 00:   INDUCTION LOG MEDIUM
~PARAMETER INFORMATION
#MNEM.UNIT          VALUE    DESCRIPTION
#----------   ------------   ------------------------------
 PD  .                 GL:   PERMANENT DATUM
 EPD .F              5187:   ELEVATION PERMANENT DATUM
 LMF .                 KB:   LOG MEASURED FROM
 DAPD.F              10.0:   FEET ABOVE PERMANENT DATUM
 DMF .                 KB:   DRILLING MEASURED FROM
 EKB .F              5197:   KELLING BUSHING
 EDF .F              5196:   DRILLING FLOOR
 EGL .F              5187:   GROUND LEVEL
 DATE.        28-SEP-1990:   RUN DATE
 RUN .                  1:   RUN NUMBER
 DD  .F               470:   DEPTH DRILLER
 DL  .F               467:   DEPTH LOGGER
 BLI .F               461:   BOTTOM LOG INTERVAL
 TLI .F                48:   TOP LOG INTERVAL
 CS  .IN            8.625:   CASING SIZE
 CBD .F                48:   CASING BOTTOM DRILLER
 CBL .F                49:   CASING BOTTOM LOGGER
 BS  .IN            7.875:   BIT SIZE
 BSD .F               470:   BIT SIZE AT DEPTH
 DFT .                AIR:   DRILLING FLUID TYPE
 TLAB.HRS            1715:   TIME LOGGER AT BOTTOM
 LUN .               6882:   LOGGING UNIT NUMBER
 LUL .               CODY:   LOGGING UNIT LOCATION
 ENGI.        MIKE FISHER:   RECORDING ENGINEER
 WITN.       GARRY STRONG:   WITNESSED BY
 CLNT.            A2DTECH:   CLIENT CODE
 ORIG.           5" PRINT:   ORIGIN OF DATA
 UWI .       490251131900:   UNIQUE WELL ID
 DICO. A2D Technologies, Inc.:   DIGITIZING COMPANY
~OTHER INFORMATION
~A   DEPT      GRR        ILD        ILM   
   44.0000   101.9534  -999.2500  -999.2500
   44.5000   104.6813  -999.2500  -999.2500
   45.0000   119.9889  -999.2500  -999.2500
   45.5000   127.3091  -999.2500  -999.2500
   46.0000   128.6593  -999.2500  -999.2500
   46.5000   128.3254  -999.2500  -999.2500
   47.0000   127.3885  -999.2500  -999.2500
   47.5000   125.5385  -999.2500  -999.2500
   48.0000   126.4281  -999.2500  -999.2500
   48.5000   130.3619  -999.2500  -999.2500
   49.0000   131.2516  1958.4141    13.1402
   49.5000   126.6559  1565.1866    18.3878
   50.0000   122.7660   555.1061    14.7916
   50.5000   120.8341     7.9621     7.9961
   51.0000   122.3346     7.8514    13.7075
   51.5000   124.1434     8.2559    43.9118
   52.0000   125.0390     9.9625   932.9332
   52.5000   125.3301    11.7862   525.5813
   53.0000   125.3080    11.8690   322.4945
   53.5000   125.8991    10.8360    10.6583
   54.0000   126.5022     9.4196     9.7321
   54.5000   127.3858     9.3432     9.3980
   55.0000   126.1461     9.5525     9.6655
   55.5000   123.9975     9.7620     9.9474
   56.0000   120.9357    10.1741    10.2955
   56.5000   121.2268    10.4631    10.5146
   57.0000   121.8179    10.7604    10.7385
   57.5000   122.4048    10.9889    10.9671
   58.0000   122.6914    11.2222    11.2005
   58.5000   122.0604    11.3805    11.5193
   59.0000   118.9986    11.5416    11.6825
   59.5000   116.8500    11.6333    11.7653
   60.0000   117.1367    11.7862    11.9322
   60.5000   117.7323    11.7862    12.0168
   61.0000   117.7102    11.7862    12.0176
   61.5000   116.1704    11.7862    12.0184
   62.0000   113.0716    11.7862    12.0192
   62.5000   113.3909    11.7862    11.9362
   63.0000   115.1997    11.7862    11.7711
   63.5000   117.3129    11.7039    11.6083
   64.0000   118.5129    11.6222    11.4477
   64.5000   119.4128    11.4605    11.1326
   65.0000   119.0863    11.3805    10.9784
   65.5000   117.8509    11.3805    10.8265
   66.0000   118.4902    11.2222    10.7519
   66.5000   120.5509    11.0661    10.7527
   67.0000   121.4464    10.9823    10.7534
   67.5000   121.1243    10.8360    10.8298
   68.0000   120.4978    10.8360    10.9832
   68.5000   117.4360    10.8360    11.0611
   69.0000   112.5477    10.8360    11.1396
   69.5000   108.5296    10.8360    11.1403
   70.0000   107.6373    10.8360    11.0634
   70.5000   108.7780    10.8360    10.9870
   71.0000   110.4210    10.8360    10.8350
   71.5000   112.1489    10.8360    10.7602
   72.0000   113.6533    10.6853    10.6115
   72.5000   116.0709    10.5367    10.3917
   73.0000   118.1841    10.3901    10.2478
   73.5000   119.3841    10.1030    10.1062
   74.0000   119.3664     9.8930    10.0364
   74.5000   119.3375     9.7554     9.9671
   75.0000   117.7067     9.7554     9.9678
   75.5000   114.7427     9.8239    10.0384
   76.0000   112.8985     9.8239     9.9691
   76.5000   113.4897     9.7554     9.8314
   77.0000   117.1249     9.7554     9.7633
   77.5000   119.8470     9.6873     9.6959
   78.0000   119.5249     9.5525     9.6967
   78.5000   117.9380     9.4858     9.6973
   79.0000   115.8321     9.5525     9.6982
   79.5000   116.1188     9.4858     9.6310
   80.0000   116.4100     9.4858     9.5645
   80.5000   116.6967     9.4196     9.4322
   81.0000   116.6746     9.3539     9.3019
   81.5000   115.7437     9.4196     9.3025
   82.0000   114.2039     9.4858     9.3031
   82.5000   113.5774     9.5603     9.3038
   83.0000   115.6862     9.6873     9.3045
   83.5000   117.1905     9.7554     9.3705
   84.0000   117.7861     9.7554     9.4370
   84.5000   117.4596     9.5525     9.4376
   85.0000   116.5286     9.3539     9.4383
   85.5000   116.4800     9.0955     9.1783
   86.0000   118.3358     8.7808     9.0497
   86.5000   120.8800     8.4709     8.9164
   87.0000   124.0638     8.1312     8.6805
   87.5000   125.2638     7.9066     8.3825
   88.0000   124.3329     7.7422     8.2089
   88.5000   121.2710     7.6345     7.9272
   89.0000   119.1224     7.6345     7.7628
   89.5000   118.4959     7.6345     7.6556
   90.0000   118.4779     7.6917     7.7099
   90.5000   119.3738     7.8514     7.7647
   91.0000   119.6605     7.9621     7.9300
   91.5000   119.0296     8.0745     7.9862
   92.0000   118.4075     8.1312     8.0428
   92.5000   119.6030     8.1884     8.0999
   93.0000   120.1941     8.1884     8.1004
   93.5000   120.1765     8.3039     8.1010
   94.0000   120.4632     8.3101     8.1015
   94.5000   120.1367     8.4210     8.1591
   95.0000   119.8146     8.4802     8.2170
   95.5000   118.8836     8.4802     8.2753
   96.0000   118.2571     8.5998     8.3925
   96.5000   118.8482     8.7211     8.4520
   97.0000   119.4399     8.7824     8.6319
   97.5000   120.6443     8.8442     8.6941
   98.0000   123.1458     8.9063     8.8782
   98.5000   126.9922     8.9689     8.9413
   99.0000   130.0187     8.9689     8.9419
   99.5000   130.9187     8.9689     9.0053
  100.0000   130.3671     9.0320     9.0690
  100.5000   128.3279     9.0326     8.9987
  101.0000   125.8651     8.9702     8.9403
  101.5000   126.4512     8.8461     8.8148
  102.0000   127.6469     8.8468     8.8136
  102.5000   126.3977     8.7855     8.8124
  103.0000   124.2398     8.7862     8.8112
  103.5000   122.0819     8.7868     8.8100
  104.0000   121.7532     8.7874     8.8088
  104.5000   120.2051     8.7880     8.8076
  105.0000   118.9618     8.8504     8.8064
  105.5000   118.8902     8.9132     8.8052
  106.0000   120.7436     8.9088     8.8040
  106.5000   123.1911     8.8522     8.8025
  107.0000   125.6220     8.7912     8.7399
  107.5000   128.2883     8.6693     8.6777
  108.0000   128.8803     8.4898     8.6160
  108.5000   127.3262     8.4904     8.4951
  109.0000   124.8634     8.4910     8.4347
  109.5000   122.0957     8.4915     8.3748
  110.0000   122.3769     8.4921     8.3152
  110.5000   123.2677     8.4927     8.3141
  111.0000   123.5489     8.4340     8.2550
  111.5000   122.5366     8.3716     8.1963
  112.0000   120.1417     8.2598     8.1949
  112.5000   119.8131     8.1456     8.1366
  113.0000   120.0942     7.9767     8.0787
  113.5000   120.0705     7.7569     7.9098
  114.0000   119.7418     7.4382     7.7444
  114.5000   120.3278     7.0333     7.4249
  115.0000   122.4382     6.8394     7.1686
  115.5000   124.5486     6.6977     6.8249
  116.0000   126.0974     6.6982     6.7764
  116.5000   125.7147     6.7457     6.7755
  117.0000   123.8617     6.8414     6.7745
  117.5000   124.1428     6.8972     6.8212
  118.0000   125.0396     7.0368     6.8682
  118.5000   125.3207     7.1868     7.1115
  119.0000   124.0715     7.3915     7.3638
  119.5000   122.5234     7.6554     7.5718
  120.0000   121.8898     7.8185     7.6778
  120.5000   122.7927     7.8740     7.7847
  121.0000   124.6301     7.9299     7.8383
  121.5000   126.6907     7.9304     7.8922
  122.0000   126.0572     7.9310     7.8912
  122.5000   125.1188     7.9315     7.8898
  123.0000   124.1804     7.9244     7.8887
  123.5000   123.8518     7.8772     7.8326
  124.0000   124.1388     7.8228     7.7770
  124.5000   126.2433     7.7145     7.6678
  125.0000   128.3537     7.6077     7.6133
  125.5000   127.3821     7.5025     7.5592
  126.0000   126.1661     7.3987     7.4531
  126.5000   127.9716     7.2453     7.1958
  127.0000   129.7771     7.0456     6.9942
  127.5000   130.0641     6.7562     6.7957
  128.0000   127.9003     6.2961     6.3858
  128.5000   124.8278     5.9459     5.7890
  129.0000   123.2796     5.6722     5.2848
  129.5000   122.3412     5.6329     5.1745
  130.0000   122.0122     5.6334     5.3578
  130.5000   122.9553     5.6734     5.5868
  131.0000   123.1846     5.7538     5.9492
  131.5000   120.1061     5.9177     6.2910
  132.0000   117.9482     6.2591     6.6060
  132.5000   117.6255     6.6669     6.8435
  133.0000   120.0348     7.1011     7.0988
  133.5000   123.3647     7.5141     7.5951
  134.0000   125.1703     7.8338     7.7552
  134.5000   124.8414     7.9450     7.8088
