~VERSION INFORMATION
 VERS.                2.0:   CWLS LOG ASCII STANDARD - VERSION 2.0
 WRAP.                 NO:   ONE LINE PER DEPTH STEP
~WELL INFORMATION
#MNEM.UNIT      DATA TYPE    INFORMATION
#----------   ------------   ------------------------------
 STRT.F          600.0000:   START DEPTH
 STOP.F         2218.0000:   STOP DEPTH
 STEP.F            0.5000:   STEP LENGTH
 NULL.          -999.2500:   NO VALUE
 COMP. US DEPTMNT OF ENRGY:   COMPANY
 WELL.   37 STX 10 #37-10:   WELL
 FLD .             TEAPOT:   FIELD
 LOC .      S10 T38N R78W:   LOCATION
 CNTY.            NATRONA:   COUNTY
 STAT.            WYOMING:   STATE
 CTRY. UNITED STATES OF AMERICA:   COUNTRY
 SRVC.            Unknown:   SERVICE COMPANY
 DATE.        15-MAY-1991:   LOGDATE
 API .       490251094200:   API NUMBER
~CURVE INFORMATION
#MNEM.UNIT       API CODE    CURVE DESCRIPTION
#----------   ------------   ------------------------------
 DEPT.F                  :   
 TGAS.UNITS  91 830 01 00:   TOTAL GAS FROM HOTWIRE
 ROP .MIN/FT 91 810 01 00:   RATE OF DRILLING PENETRATION
~PARAMETER INFORMATION
#MNEM.UNIT          VALUE    DESCRIPTION
#----------   ------------   ------------------------------
 EKB .F              5231:   KELLING BUSHING
 EGL .F              5221:   GROUND LEVEL
 DATE.            5-15-91:   RUN DATE
 DD  .F              2218:   DEPTH DRILLER
 BLI .F              2218:   BOTTOM LOG INTERVAL
 TLI .F               960:   TOP LOG INTERVAL
 ENGI.              TOWER:   RECORDING ENGINEER
 WITN.               HUSK:   WITNESSED BY
 CLNT.            A2DTECH:   CLIENT CODE
 ORIG.           5" PRINT:   ORIGIN OF DATA
 UWI .       490251094200:   UNIQUE WELL ID
 DICO. A2D Technologies, Inc.:   DIGITIZING COMPANY
~OTHER INFORMATION
~A   DEPT     TGAS          ROP 
# ...
 1572.0000    38.2937     0.7335
 1572.5000    38.2665     0.7253
 1573.0000    38.2393     0.7253
 1573.5000    38.2121     0.7253
 1574.0000    38.1848     0.7253
 1574.5000    38.1576     0.7253
 1575.0000    38.1304     0.7157
 1575.5000    38.1032     0.6981
 1576.0000    38.0760     0.6923
 1576.5000    38.0488     0.6981
 1577.0000    38.0216     0.7218
 1577.5000    37.9944     0.7624
 1578.0000    37.9672     0.8146
 1578.5000    37.9400     0.8712
 1579.0000    37.9128     0.9354
 1579.5000    37.8856     1.0350
 1580.0000    37.8562     1.0824
 1580.5000    37.8563     1.0360
 1581.0000    37.8565     0.9884
 1581.5000    37.8566     0.9552
 1582.0000    37.8568     0.9219
 1582.5000    37.8570     0.9107
 1583.0000    37.8571     0.8994
 1583.5000    37.8573     0.8772
 1584.0000    37.8574     0.8767
 1584.5000    37.8576     0.8651
 1585.0000    37.8577     0.8544
 1585.5000    37.8579     0.8664
 1586.0000    37.8581     0.8775
 1586.5000    37.8582     0.8866
 1587.0000    37.8584     0.7927
 1587.5000    37.8585     0.7184
 1588.0000    37.8587     0.6769
 1588.5000    37.8589     0.6836
 1589.0000    37.8590     0.6984
 1589.5000    37.8592     0.6981
 1590.0000    37.8593     0.6841
 1590.5000    37.8595     0.6398
 1591.0000    37.8596     0.5881
 1591.5000    37.8598     0.5481
 1592.0000    37.8600     0.5258
 1592.5000    37.8601     0.5206
 1593.0000    37.8603     0.5203
 1593.5000    37.8604     0.5201
 1594.0000    37.8739     0.5423
 1594.5000    37.9612     0.5840
 1595.0000    38.0485     0.6538
 1595.5000    38.1358     0.7072
 1596.0000    38.2230     0.7165
 1596.5000    38.3103     0.6832
 1597.0000    38.3976     0.6610
 1597.5000    38.4849     0.6497
 1598.0000    38.5721     0.6494
 1598.5000    38.6594     0.6492
 1599.0000    38.7467     0.6489
 1599.5000    38.8340     0.6503
 1600.0000    38.9212     0.6859
 1600.5000    38.9208     0.7424
 1601.0000    38.8925     0.8006
 1601.5000    38.8641     0.8704
 1602.0000    38.8358     0.9449
 1602.5000    38.8074     0.9876
 1603.0000    37.5545     0.9874
 1603.5000    35.8548     0.9836
 1604.0000    34.1550     0.9720
 1604.5000    32.4552     0.9603
 1605.0000    31.1219     0.9487
 1605.5000    31.2026     0.9519
 1606.0000    31.2833     1.0009
 1606.5000    31.3640     1.0801
 1607.0000    31.4447     1.1593
 1607.5000    31.5254     1.2321
 1608.0000    31.6060     1.2864
 1608.5000    31.6867     1.3316
 1609.0000    31.7674     1.3692
 1609.5000    31.8481     1.3715
 1610.0000    31.9288     1.3022
 1610.5000    32.0095     1.1767
 1611.0000    32.0902     1.0049
 1611.5000    32.1708     0.9057
 1612.0000    32.2515     0.7956
 1612.5000    32.3322     0.6854
 1613.0000    32.4129     0.6082
 1613.5000    32.4936     0.5420
 1614.0000    32.5743     0.5088
 1614.5000    32.6550     0.5547
 1615.0000    32.7357     0.5971
 1615.5000    32.8163     0.6096
 1616.0000    32.8970     0.6286
 1616.5000    32.9777     0.5584
 1617.0000    33.0584     0.4876
 1617.5000    33.1391     0.4454
 1618.0000    33.2198     0.5016
 1618.5000    33.3005     0.5577
 1619.0000    33.3811     0.6139
 1619.5000    33.4618     0.6615
 1620.0000    33.5359     0.6722
 1620.5000    33.4777     0.6396
 1621.0000    33.4240     0.5890
 1621.5000    33.3702     0.5487
 1622.0000    33.3164     0.5530
 1622.5000    33.2627     0.5662
 1623.0000    33.2089     0.5857
 1623.5000    33.1552     0.5811
 1624.0000    33.1014     0.5483
 1624.5000    33.0477     0.5156
 1625.0000    32.9939     0.4808
 1625.5000    32.9402     0.4434
 1626.0000    32.8864     0.4443
 1626.5000    32.8327     0.4941
 1627.0000    32.7789     0.5587
 1627.5000    32.7252     0.6174
 1628.0000    32.6714     0.6736
 1628.5000    32.6176     0.6878
 1629.0000    32.5639     0.6743
 1629.5000    32.5101     0.6588
 1630.0000    32.4564     0.6593
 1630.5000    32.4026     0.6632
 1631.0000    32.3489     0.6714
 1631.5000    32.2951     0.6684
 1632.0000    32.2414     0.6322
 1632.5000    32.1876     0.5553
 1633.0000    32.1339     0.5120
 1633.5000    32.0801     0.4943
 1634.0000    32.0264     0.4879
 1634.5000    31.9726     0.4927
 1635.0000    31.9189     0.5043
 1635.5000    31.8651     0.5115
 1636.0000    31.8114     0.4938
 1636.5000    31.7576     0.4217
 1637.0000    31.7038     0.3401
 1637.5000    31.6501     0.3405
 1638.0000    31.5963     0.3916
 1638.5000    31.5426     0.4159
 1639.0000    31.4888     0.4270
 1639.5000    31.4351     0.4605
 1640.0000    31.3769     0.5110
 1640.5000    31.3516     0.5430
 1641.0000    31.3240     0.5515
 1641.5000    31.2964     0.5596
 1642.0000    31.2688     0.5593
 1642.5000    31.2412     0.5591
 1643.0000    31.2137     0.5588
 1643.5000    31.1861     0.5585
 1644.0000    31.1585     0.5612
 1644.5000    31.1309     0.5724
 1645.0000    31.1033     0.5875
 1645.5000    31.0757     0.6101
 1646.0000    31.0481     0.6376
 1646.5000    31.0206     0.6718
 1647.0000    30.9930     0.7234
 1647.5000    30.9654     0.8108
 1648.0000    30.9378     0.8595
 1648.5000    30.9102     0.8054
 1649.0000    30.8826     0.7211
 1649.5000    30.8550     0.6816
 1650.0000    30.8275     0.6977
 1650.5000    30.7999     0.7195
 1651.0000    30.7723     0.7522
 1651.5000    30.7447     0.7739
 1652.0000    30.7171     0.8066
 1652.5000    30.6895     0.8284
 1653.0000    30.6619     0.8390
 1653.5000    30.6344     0.8409
 1654.0000    30.6068     0.8667
 1654.5000    30.5792     0.9102
 1655.0000    30.5516     0.9469
 1655.5000    30.5240     0.9895
 1656.0000    30.4964     1.0132
 1656.5000    30.4688     1.0050
 1657.0000    30.4413     0.9640
 1657.5000    30.4137     0.9294
 1658.0000    30.3861     0.9568
 1658.5000    30.3585     1.0083
 1659.0000    30.3309     1.0590
 1659.5000    30.3033     1.1046
 1660.0000    30.2757     1.1209
 1660.5000    30.2696     1.0738
 1661.0000    30.2701     1.0047
 1661.5000    30.2707     0.9332
 1662.0000    30.2712     0.8670
 1662.5000    30.2717     0.8118
 1663.0000    30.2723     0.7676
 1663.5000    30.2728     0.7673
 1664.0000    30.2734     0.7560
 1664.5000    30.2739     0.7564
 1665.0000    30.2744     0.7665
 1665.5000    30.2750     0.7109
 1666.0000    30.2755     0.6345
 1666.5000    30.2761     0.5821
 1667.0000    30.2766     0.5535
 1667.5000    30.2771     0.5382
 1668.0000    30.2777     0.5231
 1668.5000    30.2782     0.5273
 1669.0000    30.2788     0.5335
 1669.5000    30.2793     0.5387
 1670.0000    30.2798     0.5440
 1670.5000    30.2804     0.5501
 1671.0000    30.2809     0.5682
 1671.5000    30.2815     0.5983
 1672.0000    30.2820     0.6009
 1672.5000    30.2825     0.5557
 1673.0000    30.2831     0.4873
 1673.5000    30.2836     0.4541
 1674.0000    30.2841     0.4318
 1674.5000    30.2847     0.4206
 1675.0000    30.2852     0.4313
 1675.5000    30.2858     0.4423
 1676.0000    30.2863     0.4542
 1676.5000    30.2868     0.4769
 1677.0000    30.2874     0.5012
 1677.5000    30.2879     0.5332
 1678.0000    30.2885     0.5532
 1678.5000    30.2890     0.5613
 1679.0000    30.2895     0.5574
 1679.5000    30.2901     0.5415
 1680.0000    30.2907     0.5196
 1680.5000    30.3900     0.4996
 1681.0000    30.4982     0.4796
 1681.5000    30.6064     0.4599
 1682.0000    30.7145     0.4593
 1682.5000    30.8227     0.4588
 1683.0000    30.9309     0.4595
 1683.5000    31.0391     0.4703
 1684.0000    31.1472     0.4811
 1684.5000    31.2554     0.4896
 1685.0000    31.3636     0.4918
 1685.5000    31.4718     0.4995
 1686.0000    31.5799     0.4989
 1686.5000    31.6881     0.4945
 1687.0000    31.7963     0.4700
 1687.5000    31.9045     0.4331
 1688.0000    32.0126     0.4198
 1688.5000    32.1208     0.4192
 1689.0000    32.2290     0.4187
 1689.5000    32.3372     0.4181
 1690.0000    32.4453     0.4240
 1690.5000    32.5535     0.4416
 1691.0000    32.6617     0.4495
 1691.5000    32.7698     0.4564
 1692.0000    32.8780     0.4593
 1692.5000    32.9862     0.4670
 1693.0000    33.0944     0.4692
